time_us,pos_x,pos_y,pos_z,vel_x,vel_y,vel_z,roll,pitch,yaw,bias_ax,bias_ay,bias_az,bias_gx,bias_gy,bias_gz,nis,innov_x,innov_y,innov_z,cov_pos_x,cov_pos_y,cov_pos_z,cov_yaw,des_speed,des_heading,des_climb,pid_speed,pid_yaw,pid_alt,speed_meas,yaw_meas,climb_meas,fwd_accel,yaw_rate,vert_accel,drift_m,nav_mode,mission_state
0,0.000002,0.149996,-0.000001,0.000259,24.999382,-0.000367,-0.000000,-0.000014,1.570803,0.000000,0.000000,0.000000,0.000000,0.000000,0.000000,0.006250,-0.000003,-0.249996,0.000004,2.400038,2.400038,3.600017,1.000518,0.000000,0.000000,0.000000,0.000000,0.000000,0.000000,0.000000,0.000000,0.000000,0.000000,0.000000,0.000000,0.149996,1,0
10000,0.000005,0.399299,0.023769,0.000486,24.999100,-0.000841,0.000004,-0.000025,1.570810,0.000000,-0.000000,-0.000000,0.000000,0.000000,0.000000,0.000420,-0.000006,-0.002409,0.063410,1.714420,1.714420,2.250079,1.001073,0.000000,0.000000,0.000000,0.000000,0.000000,0.000000,0.000000,0.000000,0.000000,0.000000,0.000000,0.000000,0.001721,3,0
20000,0.000009,0.650780,0.026621,0.000661,24.998766,-0.001208,0.000006,-0.000033,1.570808,-0.000000,-0.000000,-0.000000,0.000000,-0.000000,-0.000000,0.000019,-0.000011,0.006718,0.010501,1.333616,1.333616,1.636554,1.001655,0.000000,0.000000,0.000000,0.000000,0.000000,0.000000,0.000000,0.000000,0.000000,0.000000,0.000000,0.000000,0.005225,3,0
30000,0.000014,0.877937,0.030571,0.000844,24.997873,-0.001569,0.000006,-0.000054,1.570810,0.000002,-0.000000,-0.000001,0.000000,0.000000,0.000000,0.002192,-0.000017,-0.125485,0.018503,1.091392,1.091392,1.286065,1.002257,0.000000,0.000000,0.000000,0.000000,0.000000,0.000000,0.000000,0.000000,0.000000,0.000000,0.000000,0.000000,0.102660,3,0
40000,0.000020,1.131771,0.032977,0.000969,24.997602,-0.002031,0.000009,-0.000071,1.570807,0.000001,-0.000000,-0.000001,0.000000,0.000000,0.000000,0.000115,-0.000024,0.025065,0.013746,0.923811,0.923811,1.059385,1.002869,0.000000,0.000000,0.000000,0.000000,0.000000,0.000000,0.000000,0.000000,0.000000,0.000000,0.000000,0.000000,0.021206,3,0
50000,0.000027,1.380396,0.035085,0.001138,24.997252,-0.002326,0.000016,-0.000083,1.570815,0.000002,-0.000000,-0.000001,0.000000,0.000000,0.000000,0.000043,-0.000031,-0.010099,0.014198,0.801036,0.801036,0.900822,1.003484,0.000000,0.000000,0.000000,0.000000,0.000000,0.000000,0.000000,0.000000,0.000000,0.000000,0.000000,0.000000,0.008751,3,0
60000,0.000035,1.639703,0.035638,0.001225,24.997316,-0.002759,0.000027,-0.000095,1.570813,-0.000003,-0.000000,-0.000002,0.000000,-0.000000,-0.000000,0.000926,-0.000039,0.079222,0.004447,0.707270,0.707270,0.783741,1.004094,0.000000,0.000000,0.000000,0.000000,0.000000,0.000000,0.000000,0.000000,0.000000,0.000000,0.000000,0.000000,0.069884,3,0
70000,0.000044,1.889548,0.039895,0.001472,24.996933,-0.002884,0.000028,-0.000112,1.570808,-0.000003,-0.000000,-0.000005,0.000000,-0.000000,-0.000000,0.000203,-0.000050,-0.001175,0.037085,0.633370,0.633370,0.693801,1.004688,0.000000,0.000000,0.000000,0.000000,0.000000,0.000000,0.000000,0.000000,0.000000,0.000000,0.000000,0.000000,0.001052,3,0
80000,0.000055,2.138322,0.036892,0.001643,24.996468,-0.003684,0.000031,-0.000124,1.570812,-0.000002,-0.000000,-0.000002,0.000000,-0.000000,-0.000000,0.000146,-0.000061,-0.012470,-0.028607,0.573673,0.573673,0.622594,1.005260,0.000000,0.000000,0.000000,0.000000,0.000000,0.000000,0.000000,0.000000,0.000000,0.000000,0.000000,0.000000,0.011278,3,0
90000,0.000067,2.391512,0.033899,0.001864,24.996408,-0.004481,0.000034,-0.000146,1.570817,-0.000006,-0.000000,0.000002,0.000000,-0.000000,-0.000000,0.000356,-0.000074,0.036945,-0.031333,0.524488,0.524488,0.564865,1.005801,0.000000,0.000000,0.000000,0.000000,0.000000,0.000000,0.000000,0.000000,0.000000,0.000000,0.000000,0.000000,0.033715,3,0
100000,0.000081,2.641668,0.034790,0.002054,24.996065,-0.004643,0.000040,-0.000158,1.570820,-0.000007,-0.000000,0.000000,0.000000,-0.000000,-0.000000,0.000019,-0.000088,0.002423,0.010882,0.483303,0.483303,0.517162,1.006301,0.000000,0.000000,0.000000,0.000000,0.000000,0.000000,0.000000,0.000000,0.000000,0.000000,0.000000,0.000000,0.002229,3,0
110000,0.000095,2.899851,0.035090,0.002222,24.996798,-0.004911,0.000046,-0.000170,1.570825,-0.000027,-0.000000,-0.000000,0.000000,-0.000000,-0.000000,0.001872,-0.000103,0.110092,0.004390,0.448353,0.448353,0.477121,1.006754,0.000000,0.000000,0.000000,0.000000,0.000000,0.000000,0.000000,0.000000,0.000000,0.000000,0.000000,0.000000,0.101865,3,0
120000,0.000111,3.146420,0.036434,0.002382,24.995890,-0.005180,0.000043,-0.000200,1.570830,-0.000016,-0.000000,-0.000004,0.000000,-0.000000,-0.000000,0.000423,-0.000119,-0.048705,0.018930,0.418358,0.418358,0.443071,1.007150,0.000000,0.000000,0.000000,0.000000,0.000000,0.000000,0.000000,0.000000,0.000000,0.000000,0.000000,0.000000,0.045309,3,0
130000,0.000128,3.393965,0.038049,0.002625,24.995028,-0.005328,0.000054,-0.000210,1.570836,-0.000007,-0.000000,-0.000010,0.000000,-0.000000,-0.000000,0.000303,-0.000137,-0.036837,0.024243,0.392369,0.392369,0.413797,1.007481,0.000000,0.000000,0.000000,0.000000,0.000000,0.000000,0.000000,0.000000,0.000000,0.000000,0.000000,0.000000,0.034428,3,0
140000,0.000146,3.648437,0.034826,0.002740,24.995596,-0.006187,0.000059,-0.000224,1.570828,-0.000029,-0.000000,0.000004,0.000000,-0.000000,-0.000000,0.001217,-0.000155,0.073446,-0.048938,0.369666,0.369666,0.388393,1.007739,0.000000,0.000000,0.000000,0.000000,0.000000,0.000000,0.000000,0.000000,0.000000,0.000000,0.000000,0.000000,0.068921,3,0
150000,0.000166,3.900583,0.036134,0.003003,24.995823,-0.006274,0.000056,-0.000227,1.570817,-0.000041,-0.000000,-0.000004,0.000000,-0.000001,-0.000000,0.000302,-0.000176,0.037636,0.022521,0.349695,0.349695,0.366172,1.007915,0.000000,0.000000,0.000000,0.000000,0.000000,0.000000,0.000000,0.000000,0.000000,0.000000,0.000000,0.000000,0.035443,3,0
160000,0.000186,4.152967,0.038618,0.003092,24.996063,-0.006280,0.000069,-0.000229,1.570811,-0.000058,-0.000000,-0.000020,0.000000,-0.000001,-0.000000,0.000610,-0.000197,0.043914,0.044183,0.332020,0.332020,0.346600,1.008002,0.000000,0.000000,0.000000,0.000000,0.000000,0.000000,0.000000,0.000000,0.000000,0.000000,0.000000,0.000000,0.041484,3,0
170000,0.000207,4.405558,0.038313,0.003247,24.996445,-0.006904,0.000080,-0.000231,1.570800,-0.000079,-0.000000,-0.000018,0.000000,-0.000002,-0.000000,0.000397,-0.000218,0.049953,-0.004306,0.316297,0.316297,0.329260,1.007991,0.000000,0.000000,0.000000,0.000000,0.000000,0.000000,0.000000,0.000000,0.000000,0.000000,0.000000,0.000000,0.047320,3,0
180000,0.000230,4.659329,0.036122,0.003510,24.997288,-0.007876,0.000081,-0.000244,1.570797,-0.000115,-0.000001,0.000001,0.000000,-0.000002,-0.000000,0.001165,-0.000242,0.075664,-0.040512,0.302246,0.302246,0.313817,1.007875,0.000000,0.000000,0.000000,0.000000,0.000000,0.000000,0.000000,0.000000,0.000000,0.000000,0.000000,0.000000,0.071853,3,0
190000,0.000254,4.917014,0.035237,0.003747,24.999704,-0.008468,0.000082,-0.000237,1.570793,-0.000200,-0.000001,0.000009,0.000000,-0.000005,-0.000000,0.004093,-0.000267,0.159825,-0.016054,0.289640,0.289640,0.300003,1.007645,0.000000,0.000000,0.000000,0.000000,0.000000,0.000000,0.000000,0.000000,0.000000,0.000000,0.000000,0.000000,0.152110,3,0
200000,0.000280,5.169845,0.037511,0.003933,25.000517,-0.008160,0.000081,-0.000234,1.570792,-0.000236,-0.000001,-0.000019,0.000000,-0.000006,-0.000000,0.000980,-0.000294,0.061146,0.049323,0.278294,0.278294,0.287598,1.007295,0.000000,0.000000,0.000000,0.000000,0.000000,0.000000,0.000000,0.000000,0.000000,0.000000,0.000000,0.000000,0.058311,3,0
210000,0.000306,5.422827,0.038460,0.004059,25.001423,-0.008294,0.000094,-0.000248,1.570792,-0.000278,-0.000001,-0.000033,0.000000,-0.000007,-0.000000,0.000789,-0.000321,0.066735,0.022473,0.268053,0.268053,0.276421,1.006816,0.000000,0.000000,0.000000,0.000000,0.000000,0.000000,0.000000,0.000000,0.000000,0.000000,0.000000,0.000000,0.063754,3,0
220000,0.000333,5.677664,0.037153,0.004144,25.003193,-0.009339,0.000096,-0.000245,1.570793,-0.000356,-0.000001,-0.000015,0.000000,-0.000009,-0.000000,0.002118,-0.000348,0.111928,-0.027444,0.258786,0.258786,0.266321,1.006202,0.000000,0.000000,0.000000,0.000000,0.000000,0.000000,0.000000,0.000000,0.000000,0.000000,0.000000,0.000000,0.107101,3,0
230000,0.000361,5.930025,0.038000,0.004356,25.004047,-0.009505,0.000095,-0.000257,1.570794,-0.000399,-0.000002,-0.000031,0.000000,-0.000011,-0.000000,0.000576,-0.000377,0.055860,0.022081,0.250384,0.250384,0.257172,1.005446,0.000000,0.000000,0.000000,0.000000,0.000000,0.000000,0.000000,0.000000,0.000000,0.000000,0.000000,0.000000,0.053530,3,0
240000,0.000389,6.181763,0.038159,0.004467,25.004641,-0.009639,0.000101,-0.000259,1.570787,-0.000434,-0.000002,-0.000036,0.000000,-0.000012,-0.000000,0.000289,-0.000406,0.042039,0.006192,0.242754,0.242754,0.248866,1.004541,0.000000,0.000000,0.000000,0.000000,0.000000,0.000000,0.000000,0.000000,0.000000,0.000000,0.000000,0.000000,0.040340,3,0
250000,0.000418,6.438407,0.037365,0.004614,25.007965,-0.010414,0.000100,-0.000220,1.570793,-0.000583,-0.000002,-0.000021,0.000000,-0.000017,-0.000000,0.004566,-0.000435,0.167995,-0.017244,0.235816,0.235816,0.241314,1.003481,0.000000,0.000000,0.000000,0.000000,0.000000,0.000000,0.000000,0.000000,0.000000,0.000000,0.000000,0.000000,0.161393,3,0
260000,0.000448,6.692695,0.036722,0.004735,25.010130,-0.010996,0.000105,-0.000210,1.570791,-0.000689,-0.000003,-0.000008,0.000000,-0.000021,-0.000000,0.001974,-0.000466,0.110106,-0.013739,0.229502,0.229502,0.234436,1.002258,0.000000,0.000000,0.000000,0.000000,0.000000,0.000000,0.000000,0.000000,0.000000,0.000000,0.000000,0.000000,0.105896,3,0
270000,0.000478,6.947793,0.036070,0.004895,25.013039,-0.011722,0.000116,-0.000181,1.570792,-0.000827,-0.000003,0.000006,0.000000,-0.000026,-0.000000,0.002918,-0.000497,0.134102,-0.014142,0.223752,0.223752,0.228165,1.000869,0.000000,0.000000,0.000000,0.000000,0.000000,0.000000,0.000000,0.000000,0.000000,0.000000,0.000000,0.000000,0.129102,3,0
280000,0.000510,7.203648,0.034905,0.005095,25.016602,-0.012780,0.000127,-0.000142,1.570787,-0.001001,-0.000004,0.000037,0.000000,-0.000033,-0.000000,0.004100,-0.000530,0.157279,-0.028163,0.218513,0.218513,0.222443,0.999307,0.000000,0.000000,0.000000,0.000000,0.000000,0.000000,0.000000,0.000000,0.000000,0.000000,0.000000,0.000000,0.151552,3,0
290000,0.000543,7.458087,0.036558,0.005284,25.019394,-0.011855,0.000124,-0.000112,1.570782,-0.001143,-0.000004,-0.000020,0.000000,-0.000039,-0.000000,0.002707,-0.000563,0.120057,0.049275,0.213741,0.213741,0.217219,0.997567,0.000000,0.000000,0.000000,0.000000,0.000000,0.000000,0.000000,0.000000,0.000000,0.000000,0.000000,0.000000,0.115782,3,0
300000,0.000578,7.711218,0.035441,0.005545,25.021265,-0.012927,0.000136,-0.000091,1.570778,-0.001248,-0.000005,0.000015,0.000000,-0.000044,-0.000000,0.001269,-0.000599,0.084258,-0.028110,0.209395,0.209395,0.212446,0.995645,0.000000,0.000000,0.000000,0.000000,0.000000,0.000000,0.000000,0.000000,0.000000,0.000000,0.000000,0.000000,0.081319,3,0
310000,0.000614,7.966536,0.035136,0.005803,25.025145,-0.013415,0.000131,-0.000051,1.570786,-0.001448,-0.000006,0.000021,0.000000,-0.000052,-0.000000,0.003586,-0.000636,0.149169,-0.004958,0.205440,0.205439,0.208087,0.993536,0.000000,0.000000,0.000000,0.000000,0.000000,0.000000,0.000000,0.000000,0.000000,0.000000,0.000000,0.000000,0.144063,3,0
320000,0.000652,8.219230,0.036646,0.005975,25.026827,-0.012484,0.000124,-0.000040,1.570795,-0.001551,-0.000007,-0.000047,0.000000,-0.000057,-0.000000,0.001230,-0.000674,0.072724,0.048454,0.201843,0.201843,0.204105,0.991237,0.000000,0.000000,0.000000,0.000000,0.000000,0.000000,0.000000,0.000000,0.000000,0.000000,0.000000,0.000000,0.070281,3,0
330000,0.000690,8.472091,0.036967,0.006160,25.028778,-0.012405,0.000134,-0.000014,1.570802,-0.001668,-0.000008,-0.000067,0.000000,-0.000063,-0.000000,0.001021,-0.000713,0.078439,0.013403,0.198577,0.198577,0.200469,0.988743,0.000000,0.000000,0.000000,0.000000,0.000000,0.000000,0.000000,0.000000,0.000000,0.000000,0.000000,0.000000,0.075846,3,0
340000,0.000728,8.725761,0.036436,0.006256,25.031570,-0.013315,0.000132,0.000021,1.570804,-0.001832,-0.000009,-0.000047,0.000000,-0.000071,-0.000000,0.001763,-0.000753,0.103864,-0.012200,0.195616,0.195616,0.197151,0.986053,0.000000,0.000000,0.000000,0.000000,0.000000,0.000000,0.000000,0.000000,0.000000,0.000000,0.000000,0.000000,0.100480,3,0
350000,0.000766,8.978927,0.035223,0.006330,25.033997,-0.014632,0.000132,0.000044,1.570811,-0.001980,-0.000011,0.000008,0.000000,-0.000078,-0.000000,0.001448,-0.000792,0.088712,-0.033275,0.192938,0.192937,0.194125,0.983163,0.000000,0.000000,0.000000,0.000000,0.000000,0.000000,0.000000,0.000000,0.000000,0.000000,0.000000,0.000000,0.085863,3,0
360000,0.000805,9.235403,0.035030,0.006455,25.039852,-0.014997,0.000129,0.000137,1.570807,-0.002320,-0.000012,0.000010,0.000001,-0.000096,-0.000000,0.006033,-0.000831,0.193343,-0.001345,0.190520,0.190520,0.191370,0.980073,0.000000,0.000000,0.000000,0.000000,0.000000,0.000000,0.000000,0.000000,0.000000,0.000000,0.000000,0.000000,0.187205,3,0
370000,0.000843,9.491928,0.035137,0.006528,25.045992,-0.015083,0.000125,0.000244,1.570807,-0.002680,-0.000014,-0.000005,0.000001,-0.000115,-0.000000,0.006164,-0.000870,0.195232,0.008263,0.188346,0.188346,0.188863,0.976779,0.000000,0.000000,0.000000,0.000000,0.000000,0.000000,0.000000,0.000000,0.000000,0.000000,0.000000,0.000000,0.189106,3,0
380000,0.000882,9.747890,0.033687,0.006762,25.051607,-0.016973,0.000135,0.000348,1.570801,-0.003022,-0.000015,0.000075,0.000001,-0.000134,-0.000000,0.005350,-0.000911,0.177195,-0.041603,0.186396,0.186396,0.186586,0.973282,0.000000,0.000000,0.000000,0.000000,0.000000,0.000000,0.000000,0.000000,0.000000,0.000000,0.000000,0.000000,0.171692,3,0
390000,0.000922,10.002707,0.033632,0.006823,25.056099,-0.017290,0.000133,0.000420,1.570795,-0.003305,-0.000017,0.000067,0.000001,-0.000150,-0.000000,0.003162,-0.000951,0.139845,0.003857,0.184656,0.184656,0.184522,0.969580,0.000000,0.000000,0.000000,0.000000,0.000000,0.000000,0.000000,0.000000,0.000000,0.000000,0.000000,0.000000,0.135544,3,0
400000,0.000963,10.258246,0.033280,0.007073,25.061457,-0.018024,0.000136,0.000521,1.570790,-0.003651,-0.000019,0.000080,0.000001,-0.000170,-0.000000,0.004314,-0.000993,0.163289,-0.005685,0.183111,0.183110,0.182655,0.965675,0.000000,0.000000,0.000000,0.000000,0.000000,0.000000,0.000000,0.000000,0.000000,0.000000,0.000000,0.000000,0.158309,3,0
410000,0.001004,10.513891,0.032870,0.007229,25.067240,-0.018876,0.000148,0.000627,1.570786,-0.004018,-0.000022,0.000096,0.000001,-0.000191,-0.000000,0.004469,-0.001035,0.166119,-0.007427,0.181746,0.181746,0.180971,0.961566,0.000000,0.000000,0.000000,0.000000,0.000000,0.000000,0.000000,0.000000,0.000000,0.000000,0.000000,0.000000,0.161090,3,0
420000,0.001045,10.769044,0.032905,0.007334,25.072495,-0.018968,0.000150,0.000731,1.570790,-0.004361,-0.000024,0.000079,0.000001,-0.000212,-0.000000,0.003597,-0.001078,0.148964,0.007576,0.180551,0.180551,0.179456,0.957255,0.000000,0.000000,0.000000,0.000000,0.000000,0.000000,0.000000,0.000000,0.000000,0.000000,0.000000,0.000000,0.144485,3,0
430000,0.001086,11.022535,0.034292,0.007418,25.075619,-0.017683,0.000152,0.000781,1.570786,-0.004583,-0.000027,-0.000049,0.000001,-0.000226,-0.000000,0.001844,-0.001120,0.092548,0.053293,0.179513,0.179513,0.178097,0.952743,0.000000,0.000000,0.000000,0.000000,0.000000,0.000000,0.000000,0.000000,0.000000,0.000000,0.000000,0.000000,0.089785,3,0
440000,0.001128,11.277373,0.034399,0.007592,25.080523,-0.017759,0.000156,0.000889,1.570791,-0.004925,-0.000030,-0.000073,0.000002,-0.000248,-0.000000,0.003060,-0.001163,0.137209,0.009750,0.178622,0.178622,0.176883,0.948032,0.000000,0.000000,0.000000,0.000000,0.000000,0.000000,0.000000,0.000000,0.000000,0.000000,0.000000,0.000000,0.133129,3,0
450000,0.001170,11.531760,0.033477,0.007701,25.085096,-0.019206,0.000151,0.000976,1.570794,-0.005239,-0.000033,-0.000008,0.000002,-0.000269,-0.000000,0.002466,-0.001205,0.120868,-0.025195,0.177867,0.177867,0.175803,0.943126,0.000000,0.000000,0.000000,0.000000,0.000000,0.000000,0.000000,0.000000,0.000000,0.000000,0.000000,0.000000,0.117291,3,0
460000,0.001211,11.786299,0.033312,0.007756,25.089870,-0.019657,0.000149,0.001082,1.570789,-0.005574,-0.000036,-0.000011,0.000002,-0.000291,-0.000001,0.002522,-0.001248,0.124861,0.001092,0.177239,0.177239,0.174847,0.938027,0.000000,0.000000,0.000000,0.000000,0.000000,0.000000,0.000000,0.000000,0.000000,0.000000,0.000000,0.000000,0.121178,3,0
470000,0.001252,12.043915,0.032521,0.007826,25.098909,-0.020928,0.000145,0.001278,1.570784,-0.006209,-0.000040,0.000046,0.000002,-0.000335,-0.000001,0.008483,-0.001290,0.228095,-0.020333,0.176729,0.176728,0.174006,0.932738,0.000000,0.000000,0.000000,0.000000,0.000000,0.000000,0.000000,0.000000,0.000000,0.000000,0.000000,0.000000,0.221380,3,0
480000,0.001292,12.301625,0.033012,0.007888,25.108015,-0.020574,0.000139,0.001488,1.570779,-0.006868,-0.000044,-0.000024,0.000003,-0.000382,-0.000001,0.008566,-0.001331,0.228816,0.024397,0.176328,0.176328,0.173271,0.927265,0.000000,0.000000,0.000000,0.000000,0.000000,0.000000,0.000000,0.000000,0.000000,0.000000,0.000000,0.000000,0.222095,3,0
490000,0.001332,12.560018,0.032947,0.007945,25.118164,-0.020649,0.000145,0.001732,1.570777,-0.007610,-0.000048,-0.000039,0.000003,-0.000435,-0.000001,0.010060,-0.001372,0.249320,0.004982,0.176030,0.176029,0.172634,0.921611,0.000000,0.000000,0.000000,0.000000,0.000000,0.000000,0.000000,0.000000,0.000000,0.000000,0.000000,0.000000,0.242009,3,0
500000,0.001371,12.817921,0.032618,0.008016,25.127827,-0.021360,0.000154,0.001966,1.570770,-0.008316,-0.000052,-0.000026,0.000003,-0.000488,-0.000001,0.008515,-0.001413,0.229370,-0.004105,0.175825,0.175825,0.172087,0.915782,0.000000,0.000000,0.000000,0.000000,0.000000,0.000000,0.000000,0.000000,0.000000,0.000000,0.000000,0.000000,0.222653,3,0
510000,0.001410,13.074763,0.033878,0.008082,25.135887,-0.019909,0.000160,0.002163,1.570774,-0.008919,-0.000057,-0.000191,0.000004,-0.000533,-0.000001,0.006276,-0.001453,0.190040,0.051687,0.175708,0.175708,0.171622,0.909783,0.000000,0.000000,0.000000,0.000000,0.000000,0.000000,0.000000,0.000000,0.000000,0.000000,0.000000,0.000000,0.184479,3,0
520000,0.001448,13.330564,0.032838,0.008126,25.142363,-0.021454,0.000156,0.002331,1.570768,-0.009415,-0.000062,-0.000095,0.000004,-0.000571,-0.000001,0.003867,-0.001492,0.151785,-0.029338,0.175672,0.175672,0.171234,0.903619,0.000000,0.000000,0.000000,0.000000,0.000000,0.000000,0.000000,0.000000,0.000000,0.000000,0.000000,0.000000,0.147348,3,0
530000,0.001486,13.589419,0.033265,0.008201,25.153572,-0.021134,0.000158,0.002623,1.570775,-0.010269,-0.000067,-0.000172,0.000004,-0.000639,-0.000001,0.010500,-0.001531,0.253737,0.022688,0.175710,0.175710,0.170914,0.897297,0.000000,0.000000,0.000000,0.000000,0.000000,0.000000,0.000000,0.000000,0.000000,0.000000,0.000000,0.000000,0.246311,3,0
540000,0.001524,13.846626,0.034017,0.008352,25.162231,-0.020072,0.000169,0.002857,1.570775,-0.010939,-0.000072,-0.000290,0.000005,-0.000693,-0.000001,0.006248,-0.001570,0.193560,0.033951,0.175816,0.175816,0.170658,0.890823,0.000000,0.000000,0.000000,0.000000,0.000000,0.000000,0.000000,0.000000,0.000000,0.000000,0.000000,0.000000,0.187894,3,0
550000,0.001562,14.103960,0.034003,0.008470,25.171131,-0.020268,0.000170,0.003091,1.570766,-0.011632,-0.000078,-0.000314,0.000005,-0.000750,-0.000001,0.006140,-0.001610,0.194691,0.006720,0.175985,0.175985,0.170460,0.884203,0.000000,0.000000,0.000000,0.000000,0.000000,0.000000,0.000000,0.000000,0.000000,0.000000,0.000000,0.000000,0.188987,3,0
560000,0.001600,14.360252,0.033915,0.008510,25.178417,-0.020563,0.000170,0.003279,1.570758,-0.012201,-0.000084,-0.000330,0.000006,-0.000798,-0.000001,0.003937,-0.001648,0.155936,0.004187,0.176211,0.176211,0.170314,0.877446,0.000000,0.000000,0.000000,0.000000,0.000000,0.000000,0.000000,0.000000,0.000000,0.000000,0.000000,0.000000,0.151365,3,0
570000,0.001637,14.619609,0.033455,0.008598,25.190491,-0.021373,0.000174,0.003613,1.570768,-0.013166,-0.000090,-0.000296,0.000006,-0.000880,-0.000002,0.010730,-0.001687,0.257392,-0.008839,0.176490,0.176489,0.170214,0.870558,0.000000,0.000000,0.000000,0.000000,0.000000,0.000000,0.000000,0.000000,0.000000,0.000000,0.000000,0.000000,0.249826,3,0
580000,0.001675,14.877899,0.033275,0.008799,25.200886,-0.021899,0.000173,0.003898,1.570773,-0.013998,-0.000097,-0.000301,0.000007,-0.000953,-0.000002,0.007588,-0.001726,0.216581,0.001335,0.176815,0.176815,0.170157,0.863546,0.000000,0.000000,0.000000,0.000000,0.000000,0.000000,0.000000,0.000000,0.000000,0.000000,0.000000,0.000000,0.210205,3,0
590000,0.001713,15.136894,0.033840,0.008969,25.212385,-0.021091,0.000182,0.004224,1.570782,-0.014928,-0.000104,-0.000412,0.000007,-0.001036,-0.000002,0.009171,-0.001766,0.236492,0.027758,0.177184,0.177183,0.170138,0.856419,0.000000,0.000000,0.000000,0.000000,0.000000,0.000000,0.000000,0.000000,0.000000,0.000000,0.000000,0.000000,0.229515,3,0
600000,0.001752,15.394823,0.034642,0.009095,25.222031,-0.020141,0.000192,0.004504,1.570781,-0.015718,-0.000111,-0.000559,0.000008,-0.001107,-0.000002,0.006425,-0.001805,0.196050,0.035843,0.177590,0.177590,0.170152,0.849184,0.000000,0.000000,0.000000,0.000000,0.000000,0.000000,0.000000,0.000000,0.000000,0.000000,0.000000,0.000000,0.190255,3,0
610000,0.001790,15.653465,0.034806,0.009246,25.232826,-0.019916,0.000190,0.004813,1.570774,-0.016608,-0.000119,-0.000614,0.000009,-0.001190,-0.000002,0.007596,-0.001845,0.216329,0.012970,0.178031,0.178031,0.170195,0.841848,0.000000,0.000000,0.000000,0.000000,0.000000,0.000000,0.000000,0.000000,0.000000,0.000000,0.000000,0.000000,0.209917,3,0
620000,0.001829,15.913998,0.033933,0.009420,25.246738,-0.021369,0.000197,0.005237,1.570771,-0.017768,-0.000127,-0.000513,0.000010,-0.001299,-0.000002,0.012377,-0.001885,0.275641,-0.023599,0.178502,0.178502,0.170264,0.834421,0.000000,0.000000,0.000000,0.000000,0.000000,0.000000,0.000000,0.000000,0.000000,0.000000,0.000000,0.000000,0.267447,3,0
630000,0.001869,16.171066,0.034070,0.009590,25.254726,-0.021190,0.000203,0.005483,1.570778,-0.018430,-0.000135,-0.000567,0.000010,-0.001363,-0.000002,0.003866,-0.001926,0.154121,0.012443,0.179000,0.178999,0.170355,0.826910,0.000000,0.000000,0.000000,0.000000,0.000000,0.000000,0.000000,0.000000,0.000000,0.000000,0.000000,0.000000,0.149534,3,0
640000,0.001907,16.431835,0.034980,0.009611,25.268797,-0.020142,0.000202,0.005933,1.570780,-0.019634,-0.000143,-0.000745,0.000011,-0.001481,-0.000003,0.012453,-0.001966,0.274673,0.039652,0.179520,0.179520,0.170465,0.819323,0.000000,0.000000,0.000000,0.000000,0.000000,0.000000,0.000000,0.000000,0.000000,0.000000,0.000000,0.000000,0.266462,3,0
650000,0.001946,16.687922,0.035084,0.009788,25.274879,-0.020046,0.000201,0.006118,1.570785,-0.020139,-0.000152,-0.000795,0.000012,-0.001531,-0.000003,0.002090,-0.002006,0.113157,0.010865,0.180061,0.180060,0.170591,0.811668,0.000000,0.000000,0.000000,0.000000,0.000000,0.000000,0.000000,0.000000,0.000000,0.000000,0.000000,0.000000,0.109779,3,0
660000,0.001984,16.944750,0.034129,0.009874,25.282286,-0.021662,0.000199,0.006354,1.570781,-0.020756,-0.000162,-0.000672,0.000013,-0.001594,-0.000003,0.003073,-0.002045,0.135313,-0.026394,0.180618,0.180617,0.170729,0.803954,0.000000,0.000000,0.000000,0.000000,0.000000,0.000000,0.000000,0.000000,0.000000,0.000000,0.000000,0.000000,0.131254,3,0
670000,0.002023,17.205912,0.032811,0.010059,25.297005,-0.023760,0.000205,0.006836,1.570774,-0.022035,-0.000171,-0.000488,0.000014,-0.001726,-0.000003,0.012553,-0.002086,0.275990,-0.038535,0.181189,0.181188,0.170877,0.796189,0.000000,0.000000,0.000000,0.000000,0.000000,0.000000,0.000000,0.000000,0.000000,0.000000,0.000000,0.000000,0.267664,3,0
680000,0.002061,17.467161,0.031326,0.010191,25.311577,-0.026189,0.000211,0.007330,1.570766,-0.023324,-0.000181,-0.000276,0.000015,-0.001862,-0.000003,0.012363,-0.002126,0.273106,-0.043629,0.181771,0.181770,0.171032,0.788380,0.000000,0.000000,0.000000,0.000000,0.000000,0.000000,0.000000,0.000000,0.000000,0.000000,0.000000,0.000000,0.264840,3,0
690000,0.002099,17.727888,0.031705,0.010195,25.325104,-0.025568,0.000209,0.007789,1.570760,-0.024525,-0.000192,-0.000388,0.000016,-0.001991,-0.000003,0.010204,-0.002165,0.250259,0.022546,0.182361,0.182360,0.171193,0.780536,0.000000,0.000000,0.000000,0.000000,0.000000,0.000000,0.000000,0.000000,0.000000,0.000000,0.000000,0.000000,0.242662,3,0
700000,0.002135,17.988703,0.030720,0.010186,25.338692,-0.027187,0.000215,0.008249,1.570757,-0.025734,-0.000203,-0.000261,0.000017,-0.002123,-0.000004,0.010029,-0.002202,0.247820,-0.025382,0.182958,0.182957,0.171357,0.772664,0.000000,0.000000,0.000000,0.000000,0.000000,0.000000,0.000000,0.000000,0.000000,0.000000,0.000000,0.000000,0.240272,3,0
710000,0.002171,18.248386,0.030135,0.010361,25.350334,-0.027979,0.000224,0.008639,1.570759,-0.026752,-0.000214,-0.000205,0.000019,-0.002236,-0.000004,0.006846,-0.002239,0.205538,-0.010899,0.183558,0.183558,0.171521,0.764772,0.000000,0.000000,0.000000,0.000000,0.000000,0.000000,0.000000,0.000000,0.000000,0.000000,0.000000,0.000000,0.199261,3,0
720000,0.002206,18.508774,0.028701,0.010358,25.363037,-0.030138,0.000227,0.009086,1.570753,-0.027880,-0.000225,0.000005,0.000020,-0.002363,-0.000004,0.008372,-0.002276,0.224041,-0.040225,0.184161,0.184160,0.171685,0.756867,0.000000,0.000000,0.000000,0.000000,0.000000,0.000000,0.000000,0.000000,0.000000,0.000000,0.000000,0.000000,0.217176,3,0
730000,0.002240,18.766186,0.027413,0.010352,25.370329,-0.031861,0.000218,0.009345,1.570750,-0.028505,-0.000237,0.000188,0.000021,-0.002435,-0.000004,0.002618,-0.002311,0.122559,-0.034365,0.184763,0.184762,0.171846,0.748957,0.000000,0.000000,0.000000,0.000000,0.000000,0.000000,0.000000,0.000000,0.000000,0.000000,0.000000,0.000000,0.118805,3,0
740000,0.002273,19.023712,0.027381,0.010449,25.377724,-0.032051,0.000215,0.009610,1.570743,-0.029144,-0.000249,0.000132,0.000023,-0.002510,-0.000004,0.002481,-0.002346,0.123499,0.010194,0.185364,0.185363,0.172003,0.741049,0.000000,0.000000,0.000000,0.000000,0.000000,0.000000,0.000000,0.000000,0.000000,0.000000,0.000000,0.000000,0.119706,3,0
750000,0.002305,19.280735,0.028043,0.010456,25.384302,-0.031027,0.000214,0.009829,1.570733,-0.029692,-0.000262,-0.000057,0.000024,-0.002575,-0.000004,0.001954,-0.002379,0.104446,0.034359,0.185961,0.185961,0.172154,0.733150,0.000000,0.000000,0.000000,0.000000,0.000000,0.000000,0.000000,0.000000,0.000000,0.000000,0.000000,0.000000,0.101236,3,0
760000,0.002336,19.541584,0.026602,0.010434,25.397364,-0.033102,0.000208,0.010310,1.570731,-0.030888,-0.000274,0.000162,0.000026,-0.002720,-0.000005,0.008430,-0.002411,0.225056,-0.039279,0.186554,0.186553,0.172299,0.725267,0.000000,0.000000,0.000000,0.000000,0.000000,0.000000,0.000000,0.000000,0.000000,0.000000,0.000000,0.000000,0.218070,3,0
770000,0.002366,19.800026,0.026437,0.010514,25.406025,-0.033225,0.000199,0.010626,1.570729,-0.031658,-0.000287,0.000128,0.000027,-0.002814,-0.000005,0.003308,-0.002442,0.142986,0.005875,0.187140,0.187140,0.172435,0.717405,0.000000,0.000000,0.000000,0.000000,0.000000,0.000000,0.000000,0.000000,0.000000,0.000000,0.000000,0.000000,0.138547,3,0
780000,0.002396,20.061676,0.026121,0.010609,25.420242,-0.033691,0.000204,0.011175,1.570724,-0.032977,-0.000301,0.000123,0.000029,-0.002980,-0.000005,0.009478,-0.002474,0.242277,0.000706,0.187720,0.187719,0.172562,0.709573,0.000000,0.000000,0.000000,0.000000,0.000000,0.000000,0.000000,0.000000,0.000000,0.000000,0.000000,0.000000,0.234710,3,0
790000,0.002425,20.320892,0.025938,0.010629,25.430143,-0.033924,0.000196,0.011553,1.570721,-0.033855,-0.000315,0.000090,0.000031,-0.003091,-0.000005,0.004107,-0.002504,0.159395,0.005479,0.188291,0.188290,0.172680,0.701774,0.000000,0.000000,0.000000,0.000000,0.000000,0.000000,0.000000,0.000000,0.000000,0.000000,0.000000,0.000000,0.154411,3,0
800000,0.002453,20.580194,0.025847,0.010621,25.440004,-0.034147,0.000187,0.011938,1.570721,-0.034738,-0.000329,0.000037,0.000033,-0.003205,-0.000005,0.004069,-0.002533,0.158504,0.008821,0.188852,0.188852,0.172786,0.694016,0.000000,0.000000,0.000000,0.000000,0.000000,0.000000,0.000000,0.000000,0.000000,0.000000,0.000000,0.000000,0.153534,3,0
810000,0.002480,20.842089,0.025446,0.010590,25.454374,-0.034721,0.000181,0.012511,1.570729,-0.036073,-0.000343,0.000047,0.000034,-0.003381,-0.000006,0.009071,-0.002560,0.237045,-0.001944,0.189404,0.189403,0.172881,0.686303,0.000000,0.000000,0.000000,0.000000,0.000000,0.000000,0.000000,0.000000,0.000000,0.000000,0.000000,0.000000,0.229576,3,0
820000,0.002505,21.101519,0.026708,0.010614,25.464190,-0.032843,0.000169,0.012889,1.570728,-0.036948,-0.000358,-0.000295,0.000036,-0.003498,-0.000006,0.004331,-0.002587,0.153915,0.055968,0.189945,0.189944,0.172964,0.678641,0.000000,0.000000,0.000000,0.000000,0.000000,0.000000,0.000000,0.000000,0.000000,0.000000,0.000000,0.000000,0.149063,3,0
830000,0.002529,21.361656,0.026705,0.010595,25.475113,-0.032914,0.000163,0.013328,1.570730,-0.037940,-0.000373,-0.000367,0.000038,-0.003633,-0.000006,0.004835,-0.002612,0.172693,0.011447,0.190474,0.190473,0.173034,0.671035,0.000000,0.000000,0.000000,0.000000,0.000000,0.000000,0.000000,0.000000,0.000000,0.000000,0.000000,0.000000,0.167231,3,0
840000,0.002553,21.621227,0.027668,0.010673,25.484848,-0.031411,0.000165,0.013722,1.570739,-0.038815,-0.000388,-0.000648,0.000041,-0.003753,-0.000006,0.004007,-0.002638,0.150993,0.044942,0.190991,0.190990,0.173091,0.663489,0.000000,0.000000,0.000000,0.000000,0.000000,0.000000,0.000000,0.000000,0.000000,0.000000,0.000000,0.000000,0.146209,3,0
850000,0.002578,21.882137,0.027120,0.010772,25.496796,-0.032252,0.000164,0.014227,1.570743,-0.039923,-0.000404,-0.000599,0.000043,-0.003909,-0.000007,0.005806,-0.002663,0.189508,-0.007975,0.191496,0.191495,0.173135,0.656009,0.000000,0.000000,0.000000,0.000000,0.000000,0.000000,0.000000,0.000000,0.000000,0.000000,0.000000,0.000000,0.183478,3,0
860000,0.002602,22.140554,0.025991,0.010825,25.504234,-0.034034,0.000164,0.014531,1.570737,-0.040557,-0.000420,-0.000423,0.000045,-0.003999,-0.000007,0.001986,-0.002688,0.107388,-0.027739,0.191988,0.191987,0.173165,0.648598,0.000000,0.000000,0.000000,0.000000,0.000000,0.000000,0.000000,0.000000,0.000000,0.000000,0.000000,0.000000,0.103985,3,0
870000,0.002624,22.400330,0.026097,0.010804,25.513973,-0.033774,0.000170,0.014938,1.570747,-0.041432,-0.000436,-0.000525,0.000047,-0.004126,-0.000007,0.003530,-0.002711,0.147079,0.015572,0.192467,0.192466,0.173181,0.641260,0.000000,0.000000,0.000000,0.000000,0.000000,0.000000,0.000000,0.000000,0.000000,0.000000,0.000000,0.000000,0.142385,3,0
880000,0.002647,22.662085,0.024999,0.010936,25.527056,-0.035329,0.000173,0.015501,1.570754,-0.042663,-0.000452,-0.000356,0.000050,-0.004307,-0.000007,0.006909,-0.002735,0.205271,-0.026201,0.192932,0.192931,0.173182,0.634000,0.000000,0.000000,0.000000,0.000000,0.000000,0.000000,0.000000,0.000000,0.000000,0.000000,0.000000,0.000000,0.198687,3,0
890000,0.002670,22.921951,0.024765,0.010995,25.536629,-0.035512,0.000159,0.015905,1.570764,-0.043521,-0.000469,-0.000385,0.000052,-0.004435,-0.000008,0.003264,-0.002759,0.142172,0.004257,0.193384,0.193384,0.173170,0.626819,0.000000,0.000000,0.000000,0.000000,0.000000,0.000000,0.000000,0.000000,0.000000,0.000000,0.000000,0.000000,0.137616,3,0
900000,0.002691,23.179951,0.025528,0.010985,25.542862,-0.034227,0.000150,0.016155,1.570762,-0.044014,-0.000486,-0.000646,0.000055,-0.004510,-0.000008,0.001304,-0.002781,0.080997,0.038872,0.193823,0.193822,0.173143,0.619722,0.000000,0.000000,0.000000,0.000000,0.000000,0.000000,0.000000,0.000000,0.000000,0.000000,0.000000,0.000000,0.078427,3,0
910000,0.002713,23.438673,0.025393,0.011107,25.550259,-0.034382,0.000146,0.016463,1.570769,-0.044633,-0.000503,-0.000697,0.000058,-0.004605,-0.000008,0.001663,-0.002804,0.101240,0.007331,0.194249,0.194248,0.173103,0.612711,0.000000,0.000000,0.000000,0.000000,0.000000,0.000000,0.000000,0.000000,0.000000,0.000000,0.000000,0.000000,0.098001,3,0
920000,0.002734,23.700045,0.025237,0.011130,25.562311,-0.034416,0.000144,0.017001,1.570761,-0.045745,-0.000521,-0.000745,0.000060,-0.004779,-0.000008,0.005256,-0.002826,0.180386,0.006619,0.194661,0.194660,0.173048,0.605789,0.000000,0.000000,0.000000,0.000000,0.000000,0.000000,0.000000,0.000000,0.000000,0.000000,0.000000,0.000000,0.174555,3,0
930000,0.002755,23.960802,0.026197,0.011201,25.573093,-0.033076,0.000145,0.017486,1.570761,-0.046721,-0.000538,-0.001061,0.000063,-0.004934,-0.000008,0.004332,-0.002848,0.157440,0.045414,0.195060,0.195059,0.172979,0.598959,0.000000,0.000000,0.000000,0.000000,0.000000,0.000000,0.000000,0.000000,0.000000,0.000000,0.000000,0.000000,0.152348,3,0
940000,0.002775,24.221600,0.026772,0.011231,25.583820,-0.032169,0.000143,0.017967,1.570772,-0.047687,-0.000556,-0.001283,0.000066,-0.005090,-0.000009,0.004037,-0.002869,0.155003,0.031575,0.195445,0.195444,0.172896,0.592223,0.000000,0.000000,0.000000,0.000000,0.000000,0.000000,0.000000,0.000000,0.000000,0.000000,0.000000,0.000000,0.149980,3,0
950000,0.002795,24.484381,0.027550,0.011291,25.597927,-0.030905,0.000136,0.018636,1.570766,-0.049017,-0.000574,-0.001556,0.000069,-0.005308,-0.000009,0.007495,-0.002890,0.212156,0.038274,0.195818,0.195817,0.172799,0.585582,0.000000,0.000000,0.000000,0.000000,0.000000,0.000000,0.000000,0.000000,0.000000,0.000000,0.000000,0.000000,0.205252,3,0
960000,0.002814,24.743269,0.027626,0.011232,25.604948,-0.030732,0.000130,0.018942,1.570765,-0.049574,-0.000593,-0.001654,0.000072,-0.005401,-0.000009,0.001290,-0.002909,0.088387,0.013537,0.196178,0.196177,0.172689,0.579039,0.000000,0.000000,0.000000,0.000000,0.000000,0.000000,0.000000,0.000000,0.000000,0.000000,0.000000,0.000000,0.085543,3,0
970000,0.002832,25.005472,0.028792,0.011290,25.617817,-0.028950,0.000116,0.019549,1.570762,-0.050759,-0.000611,-0.002025,0.000075,-0.005601,-0.000010,0.006080,-0.002929,0.187248,0.051351,0.196526,0.196525,0.172565,0.572595,0.000000,0.000000,0.000000,0.000000,0.000000,0.000000,0.000000,0.000000,0.000000,0.000000,0.000000,0.000000,0.181138,3,0
980000,0.002850,25.267687,0.029132,0.011244,25.630510,-0.028355,0.000119,0.020152,1.570760,-0.051926,-0.000630,-0.002188,0.000079,-0.005801,-0.000010,0.005499,-0.002947,0.183342,0.022033,0.196862,0.196860,0.172429,0.566252,0.000000,0.000000,0.000000,0.000000,0.000000,0.000000,0.000000,0.000000,0.000000,0.000000,0.000000,0.000000,0.177349,3,0
990000,0.002866,25.527296,0.029053,0.011192,25.638407,-0.028676,0.000111,0.020515,1.570767,-0.052564,-0.000649,-0.002244,0.000082,-0.005913,-0.000010,0.001619,-0.002963,0.099911,0.007327,0.197185,0.197184,0.172280,0.560010,0.000000,0.000000,0.000000,0.000000,0.000000,0.000000,0.000000,0.000000,0.000000,0.000000,0.000000,0.000000,0.096671,3,0
1000000,0.002881,25.787603,0.029763,0.011153,25.647541,-0.027530,0.000099,0.020927,1.570765,-0.053324,-0.000668,-0.002503,0.000086,-0.006047,-0.000010,0.002463,-0.002979,0.118525,0.034871,0.197498,0.197496,0.172119,0.553871,0.000000,0.000000,0.000000,0.000000,0.000000,0.000000,0.000000,0.000000,0.000000,0.000000,0.000000,0.000000,0.114660,3,0
1010000,0.002896,26.045979,0.028491,0.011154,25.653130,-0.029363,0.000088,0.021152,1.570761,-0.053692,-0.000687,-0.002247,0.000089,-0.006113,-0.000011,0.000717,-0.002994,0.056915,-0.034613,0.197799,0.197798,0.171945,0.547836,0.000000,0.000000,0.000000,0.000000,0.000000,0.000000,0.000000,0.000000,0.000000,0.000000,0.000000,0.000000,0.055115,3,0
1020000,0.002910,26.308348,0.029081,0.011166,25.665545,-0.028532,0.000076,0.021763,1.570768,-0.054830,-0.000707,-0.002484,0.000093,-0.006320,-0.000011,0.005160,-0.003009,0.176184,0.031060,0.198090,0.198088,0.171760,0.541904,0.000000,0.000000,0.000000,0.000000,0.000000,0.000000,0.000000,0.000000,0.000000,0.000000,0.000000,0.000000,0.170393,3,0
1030000,0.002923,26.568747,0.027967,0.011149,25.674435,-0.030192,0.000077,0.022180,1.570763,-0.055560,-0.000726,-0.002269,0.000096,-0.006456,-0.000011,0.002174,-0.003023,0.112476,-0.028766,0.198371,0.198369,0.171563,0.536078,0.000000,0.000000,0.000000,0.000000,0.000000,0.000000,0.000000,0.000000,0.000000,0.000000,0.000000,0.000000,0.108796,3,0
1040000,0.002936,26.832460,0.027844,0.011139,25.688978,-0.030464,0.000064,0.022936,1.570764,-0.056925,-0.000746,-0.002324,0.000100,-0.006712,-0.000012,0.007102,-0.003036,0.209812,0.006500,0.198641,0.198639,0.171356,0.530356,0.000000,0.000000,0.000000,0.000000,0.000000,0.000000,0.000000,0.000000,0.000000,0.000000,0.000000,0.000000,0.202887,3,0
1050000,0.002947,27.096149,0.027035,0.011055,25.703390,-0.031794,0.000050,0.023685,1.570775,-0.058259,-0.000766,-0.002197,0.000104,-0.006966,-0.000012,0.006781,-0.003048,0.204378,-0.017365,0.198902,0.198900,0.171138,0.524740,0.000000,0.000000,0.000000,0.000000,0.000000,0.000000,0.000000,0.000000,0.000000,0.000000,0.000000,0.000000,0.197625,3,0
1060000,0.002958,27.358492,0.027510,0.011062,25.715176,-0.031117,0.000048,0.024279,1.570771,-0.059300,-0.000786,-0.002418,0.000107,-0.007167,-0.000012,0.004213,-0.003059,0.159210,0.028030,0.199155,0.199152,0.170910,0.519229,0.000000,0.000000,0.000000,0.000000,0.000000,0.000000,0.000000,0.000000,0.000000,0.000000,0.000000,0.000000,0.153955,3,0
1070000,0.002969,27.619507,0.027817,0.011142,25.724609,-0.030852,0.000045,0.024741,1.570772,-0.060056,-0.000806,-0.002593,0.000111,-0.007316,-0.000013,0.002226,-0.003071,0.115416,0.022010,0.199398,0.199396,0.170672,0.513824,0.000000,0.000000,0.000000,0.000000,0.000000,0.000000,0.000000,0.000000,0.000000,0.000000,0.000000,0.000000,0.111619,3,0
1080000,0.002979,27.881853,0.027470,0.011076,25.736174,-0.031443,0.000038,0.025333,1.570763,-0.061057,-0.000826,-0.002589,0.000116,-0.007515,-0.000013,0.003748,-0.003081,0.152491,-0.001122,0.199634,0.199631,0.170425,0.508523,0.000000,0.000000,0.000000,0.000000,0.000000,0.000000,0.000000,0.000000,0.000000,0.000000,0.000000,0.000000,0.147447,3,0
1090000,0.002988,28.140215,0.026452,0.011027,25.740547,-0.032920,0.000020,0.025500,1.570770,-0.061250,-0.000847,-0.002395,0.000120,-0.007554,-0.000013,0.000237,-0.003091,0.029182,-0.024572,0.199862,0.199859,0.170169,0.503328,0.000000,0.000000,0.000000,0.000000,0.000000,0.000000,0.000000,0.000000,0.000000,0.000000,0.000000,0.000000,0.028367,3,0
1100000,0.002996,28.403261,0.027272,0.010947,25.753229,-0.031793,0.000007,0.026156,1.570769,-0.062358,-0.000867,-0.002727,0.000124,-0.007782,-0.000013,0.004838,-0.003099,0.168354,0.040825,0.200083,0.200080,0.169904,0.498237,0.000000,0.000000,0.000000,0.000000,0.000000,0.000000,0.000000,0.000000,0.000000,0.000000,0.000000,0.000000,0.162768,3,0
1110000,0.003002,28.663628,0.027792,0.010852,25.760923,-0.031003,-0.000002,0.026521,1.570762,-0.062913,-0.000888,-0.002969,0.000128,-0.007897,-0.000014,0.001285,-0.003106,0.084091,0.029811,0.200297,0.200294,0.169631,0.493249,0.000000,0.000000,0.000000,0.000000,0.000000,0.000000,0.000000,0.000000,0.000000,0.000000,0.000000,0.000000,0.081341,3,0
1120000,0.003007,28.924007,0.027383,0.010744,25.768541,-0.031723,-0.000004,0.026886,1.570758,-0.063455,-0.000908,-0.002946,0.000133,-0.008012,-0.000014,0.001088,-0.003111,0.082073,-0.003226,0.200505,0.200501,0.169350,0.488365,0.000000,0.000000,0.000000,0.000000,0.000000,0.000000,0.000000,0.000000,0.000000,0.000000,0.000000,0.000000,0.079387,3,0
1130000,0.003013,29.187723,0.026022,0.010796,25.781965,-0.033568,-0.000017,0.027615,1.570767,-0.064643,-0.000929,-0.002654,0.000137,-0.008267,-0.000014,0.005407,-0.003117,0.179440,-0.036752,0.200707,0.200703,0.169062,0.483584,0.000000,0.000000,0.000000,0.000000,0.000000,0.000000,0.000000,0.000000,0.000000,0.000000,0.000000,0.000000,0.173463,3,0
1140000,0.003018,29.446741,0.024964,0.010751,25.787054,-0.035094,-0.000020,0.027806,1.570771,-0.064875,-0.000950,-0.002446,0.000141,-0.008317,-0.000014,0.000302,-0.003123,0.034861,-0.025453,0.200903,0.200900,0.168767,0.478905,0.000000,0.000000,0.000000,0.000000,0.000000,0.000000,0.000000,0.000000,0.000000,0.000000,0.000000,0.000000,0.033828,3,0
1150000,0.003023,29.707121,0.023699,0.010790,25.794422,-0.036705,-0.000037,0.028150,1.570781,-0.065366,-0.000971,-0.002183,0.000146,-0.008426,-0.000015,0.001052,-0.003128,0.073977,-0.032337,0.201095,0.201091,0.168466,0.474327,0.000000,0.000000,0.000000,0.000000,0.000000,0.000000,0.000000,0.000000,0.000000,0.000000,0.000000,0.000000,0.071561,3,0
1160000,0.003028,29.967508,0.024643,0.010849,25.801731,-0.035499,-0.000056,0.028499,1.570784,-0.065841,-0.000991,-0.002577,0.000151,-0.008532,-0.000015,0.001194,-0.003134,0.071947,0.047043,0.201282,0.201278,0.168158,0.469849,0.000000,0.000000,0.000000,0.000000,0.000000,0.000000,0.000000,0.000000,0.000000,0.000000,0.000000,0.000000,0.069600,3,0
1170000,0.003034,30.229908,0.023265,0.010879,25.812551,-0.037157,-0.000059,0.029068,1.570779,-0.066701,-0.001012,-0.002279,0.000155,-0.008727,-0.000015,0.002919,-0.003139,0.129547,-0.036342,0.201465,0.201461,0.167845,0.465470,0.000000,0.000000,0.000000,0.000000,0.000000,0.000000,0.000000,0.000000,0.000000,0.000000,0.000000,0.000000,0.125233,3,0
1180000,0.003038,30.488272,0.024502,0.010834,25.816139,-0.035645,-0.000067,0.029170,1.570779,-0.066739,-0.001033,-0.002766,0.000160,-0.008736,-0.000015,0.000550,-0.003144,0.006191,0.057846,0.201644,0.201640,0.167526,0.461190,0.000000,0.000000,0.000000,0.000000,0.000000,0.000000,0.000000,0.000000,0.000000,0.000000,0.000000,0.000000,0.006712,3,0
1190000,0.003042,30.751354,0.023973,0.010796,25.827852,-0.036334,-0.000080,0.029828,1.570788,-0.067702,-0.001054,-0.002724,0.000165,-0.008961,-0.000016,0.003411,-0.003148,0.145372,-0.005849,0.201820,0.201816,0.167202,0.457006,0.000000,0.000000,0.000000,0.000000,0.000000,0.000000,0.000000,0.000000,0.000000,0.000000,0.000000,0.000000,0.140515,3,0
1200000,0.003045,31.011721,0.023618,0.010749,25.834652,-0.036758,-0.000094,0.030151,1.570784,-0.068107,-0.001075,-0.002731,0.000170,-0.009057,-0.000016,0.000603,-0.003151,0.061081,0.000515,0.201994,0.201988,0.166874,0.452918,0.000000,0.000000,0.000000,0.000000,0.000000,0.000000,0.000000,0.000000,0.000000,0.000000,0.000000,0.000000,0.059103,3,0
1210000,0.003048,31.274767,0.024439,0.010803,25.846123,-0.035762,-0.000105,0.030778,1.570787,-0.069022,-0.001095,-0.003109,0.000175,-0.009277,-0.000016,0.003397,-0.003155,0.138588,0.043208,0.202164,0.202159,0.166541,0.448925,0.000000,0.000000,0.000000,0.000000,0.000000,0.000000,0.000000,0.000000,0.000000,0.000000,0.000000,0.000000,0.133955,3,0
1220000,0.003052,31.537106,0.023195,0.010842,25.856186,-0.037514,-0.000119,0.031330,1.570780,-0.069776,-0.001116,-0.002843,0.000180,-0.009462,-0.000017,0.002255,-0.003158,0.113976,-0.031605,0.202332,0.202327,0.166205,0.445025,0.000000,0.000000,0.000000,0.000000,0.000000,0.000000,0.000000,0.000000,0.000000,0.000000,0.000000,0.000000,0.110173,3,0
1230000,0.003057,31.795389,0.022153,0.010905,25.859106,-0.038914,-0.000127,0.031373,1.570784,-0.069716,-0.001137,-0.002634,0.000185,-0.009447,-0.000016,0.000108,-0.003163,-0.009314,-0.023929,0.202499,0.202493,0.165865,0.441219,0.000000,0.000000,0.000000,0.000000,0.000000,0.000000,0.000000,0.000000,0.000000,0.000000,0.000000,0.000000,0.009506,3,0
1240000,0.003059,32.058403,0.022705,0.010800,25.870287,-0.038139,-0.000137,0.032003,1.570781,-0.070571,-0.001158,-0.002944,0.000191,-0.009662,-0.000017,0.002914,-0.003167,0.129951,0.034488,0.202663,0.202657,0.165521,0.437503,0.000000,0.000000,0.000000,0.000000,0.000000,0.000000,0.000000,0.000000,0.000000,0.000000,0.000000,0.000000,0.125602,3,0
1250000,0.003062,32.318687,0.022059,0.010792,25.876587,-0.039023,-0.000145,0.032277,1.570781,-0.070873,-0.001179,-0.002864,0.000196,-0.009739,-0.000017,0.000353,-0.003169,0.045734,-0.009342,0.202827,0.202820,0.165175,0.433877,0.000000,0.000000,0.000000,0.000000,0.000000,0.000000,0.000000,0.000000,0.000000,0.000000,0.000000,0.000000,0.044295,3,0
1260000,0.003065,32.581661,0.022077,0.010835,25.887426,-0.039062,-0.000151,0.032891,1.570787,-0.071683,-0.001200,-0.003007,0.000201,-0.009948,-0.000017,0.002489,-0.003172,0.123329,0.015283,0.202990,0.202982,0.164827,0.430339,0.000000,0.000000,0.000000,0.000000,0.000000,0.000000,0.000000,0.000000,0.000000,0.000000,0.000000,0.000000,0.119195,3,0
1270000,0.003066,32.845261,0.022867,0.010746,25.899401,-0.037902,-0.000154,0.033565,1.570797,-0.072589,-0.001221,-0.003403,0.000207,-0.010186,-0.000018,0.003399,-0.003174,0.138550,0.043449,0.203152,0.203144,0.164476,0.426888,0.000000,0.000000,0.000000,0.000000,0.000000,0.000000,0.000000,0.000000,0.000000,0.000000,0.000000,0.000000,0.133897,3,0
1280000,0.003066,33.108131,0.023459,0.010636,25.909872,-0.036987,-0.000176,0.034148,1.570790,-0.073330,-0.001241,-0.003732,0.000213,-0.010383,-0.000018,0.002280,-0.003174,0.113380,0.035876,0.203313,0.203305,0.164123,0.423523,0.000000,0.000000,0.000000,0.000000,0.000000,0.000000,0.000000,0.000000,0.000000,0.000000,0.000000,0.000000,0.109582,3,0
1290000,0.003067,33.366913,0.022721,0.010586,25.913067,-0.038090,-0.000196,0.034193,1.570792,-0.073262,-0.001262,-0.003612,0.000218,-0.010365,-0.000018,0.000048,-0.003174,-0.010448,-0.013277,0.203475,0.203466,0.163768,0.420243,0.000000,0.000000,0.000000,0.000000,0.000000,0.000000,0.000000,0.000000,0.000000,0.000000,0.000000,0.000000,0.010549,3,0
1300000,0.003065,33.625038,0.022911,0.010467,25.915049,-0.037734,-0.000207,0.034144,1.570794,-0.073061,-0.001283,-0.003799,0.000224,-0.010309,-0.000018,0.000225,-0.003173,-0.030716,0.021000,0.203637,0.203627,0.163412,0.417045,0.000000,0.000000,0.000000,0.000000,0.000000,0.000000,0.000000,0.000000,0.000000,0.000000,0.000000,0.000000,0.029829,3,0
1310000,0.003064,33.884541,0.022958,0.010514,25.919306,-0.037778,-0.000214,0.034268,1.570793,-0.073121,-0.001303,-0.003944,0.000230,-0.010326,-0.000018,0.000057,-0.003172,0.009327,0.015878,0.203799,0.203789,0.163055,0.413927,0.000000,0.000000,0.000000,0.000000,0.000000,0.000000,0.000000,0.000000,0.000000,0.000000,0.000000,0.000000,0.009517,3,0
1320000,0.003062,34.146748,0.024278,0.010405,25.928329,-0.036216,-0.000230,0.034756,1.570803,-0.073685,-0.001324,-0.004528,0.000236,-0.010484,-0.000018,0.001885,-0.003170,0.087723,0.063048,0.203961,0.203951,0.162697,0.410890,0.000000,0.000000,0.000000,0.000000,0.000000,0.000000,0.000000,0.000000,0.000000,0.000000,0.000000,0.000000,0.084803,3,0
1330000,0.003059,34.406891,0.024061,0.010290,25.933565,-0.036671,-0.000247,0.034962,1.570792,-0.073842,-0.001344,-0.004582,0.000241,-0.010529,-0.000018,0.000101,-0.003167,0.024216,0.005657,0.204124,0.204114,0.162339,0.407931,0.000000,0.000000,0.000000,0.000000,0.000000,0.000000,0.000000,0.000000,0.000000,0.000000,0.000000,0.000000,0.023591,3,0
1340000,0.003055,34.666351,0.024066,0.010162,25.937565,-0.036674,-0.000255,0.035070,1.570794,-0.073857,-0.001364,-0.004711,0.000247,-0.010533,-0.000019,0.000034,-0.003162,0.002567,0.013936,0.204289,0.204277,0.161980,0.405049,0.000000,0.000000,0.000000,0.000000,0.000000,0.000000,0.000000,0.000000,0.000000,0.000000,0.000000,0.000000,0.003934,3,0
1350000,0.003050,34.924458,0.025218,0.010175,25.938963,-0.035387,-0.000272,0.034979,1.570801,-0.073608,-0.001384,-0.005233,0.000254,-0.010459,-0.000018,0.000755,-0.003158,-0.038269,0.056526,0.204454,0.204442,0.161622,0.402242,0.000000,0.000000,0.000000,0.000000,0.000000,0.000000,0.000000,0.000000,0.000000,0.000000,0.000000,0.000000,0.037086,3,0
1360000,0.003047,35.188019,0.024171,0.010196,25.950218,-0.036868,-0.000292,0.035632,1.570793,-0.074384,-0.001405,-0.005009,0.000260,-0.010691,-0.000019,0.002464,-0.003154,0.121067,-0.025201,0.204620,0.204607,0.161263,0.399510,0.000000,0.000000,0.000000,0.000000,0.000000,0.000000,0.000000,0.000000,0.000000,0.000000,0.000000,0.000000,0.116975,3,0
1370000,0.003043,35.447441,0.024340,0.010204,25.953819,-0.036840,-0.000312,0.035703,1.570794,-0.074361,-0.001425,-0.005198,0.000266,-0.010684,-0.000019,0.000070,-0.003151,-0.003452,0.020247,0.204788,0.204774,0.160905,0.396850,0.000000,0.000000,0.000000,0.000000,0.000000,0.000000,0.000000,0.000000,0.000000,0.000000,0.000000,0.000000,0.004514,3,0
1380000,0.003037,35.708218,0.025647,0.010115,25.959929,-0.035379,-0.000335,0.035951,1.570789,-0.074581,-0.001444,-0.005796,0.000272,-0.010751,-0.000019,0.000845,-0.003146,0.035275,0.062961,0.204957,0.204943,0.160547,0.394262,0.000000,0.000000,0.000000,0.000000,0.000000,0.000000,0.000000,0.000000,0.000000,0.000000,0.000000,0.000000,0.034212,3,0
1390000,0.003031,35.967621,0.025925,0.009960,25.963444,-0.035042,-0.000343,0.036010,1.570779,-0.074536,-0.001464,-0.006022,0.000278,-0.010736,-0.000019,0.000101,-0.003139,-0.006897,0.023826,0.205128,0.205113,0.160191,0.391743,0.000000,0.000000,0.000000,0.000000,0.000000,0.000000,0.000000,0.000000,0.000000,0.000000,0.000000,0.000000,0.007318,3,0
1400000,0.003025,36.227703,0.025686,0.009846,25.968040,-0.035413,-0.000357,0.036166,1.570785,-0.074611,-0.001484,-0.006065,0.000285,-0.010760,-0.000019,0.000028,-0.003132,0.011971,0.004431,0.205300,0.205285,0.159835,0.389291,0.000000,0.000000,0.000000,0.000000,0.000000,0.000000,0.000000,0.000000,0.000000,0.000000,0.000000,0.000000,0.011951,3,0
1410000,0.003018,36.490498,0.025514,0.009835,25.977570,-0.035691,-0.000376,0.036692,1.570790,-0.075172,-0.001503,-0.006145,0.000291,-0.010940,-0.000019,0.001308,-0.003125,0.089783,0.007358,0.205474,0.205458,0.159481,0.386907,0.000000,0.000000,0.000000,0.000000,0.000000,0.000000,0.000000,0.000000,0.000000,0.000000,0.000000,0.000000,0.086761,3,0
1420000,0.003010,36.753239,0.024730,0.009665,25.986752,-0.036531,-0.000392,0.037211,1.570782,-0.075705,-0.001523,-0.006003,0.000297,-0.011114,-0.000020,0.001213,-0.003116,0.085320,-0.015646,0.205650,0.205633,0.159128,0.384588,0.000000,0.000000,0.000000,0.000000,0.000000,0.000000,0.000000,0.000000,0.000000,0.000000,0.000000,0.000000,0.082449,3,0
1430000,0.003001,37.013878,0.024077,0.009564,25.992147,-0.037547,-0.000402,0.037413,1.570778,-0.075837,-0.001542,-0.005903,0.000303,-0.011158,-0.000020,0.000093,-0.003107,0.021275,-0.010569,0.205828,0.205811,0.158777,0.382333,0.000000,0.000000,0.000000,0.000000,0.000000,0.000000,0.000000,0.000000,0.000000,0.000000,0.000000,0.000000,0.020760,3,0
1440000,0.002991,37.272449,0.022914,0.009429,25.993732,-0.038856,-0.000409,0.037310,1.570777,-0.075589,-0.001561,-0.005608,0.000310,-0.011075,-0.000020,0.000412,-0.003097,-0.040634,-0.029851,0.206008,0.205990,0.158427,0.380141,0.000000,0.000000,0.000000,0.000000,0.000000,0.000000,0.000000,0.000000,0.000000,0.000000,0.000000,0.000000,0.039356,3,0
1450000,0.002981,37.531025,0.023422,0.009422,25.995302,-0.038007,-0.000417,0.037203,1.570776,-0.075336,-0.001580,-0.005935,0.000316,-0.010988,-0.000019,0.000456,-0.003087,-0.040791,0.033944,0.206190,0.206171,0.158079,0.378010,0.000000,0.000000,0.000000,0.000000,0.000000,0.000000,0.000000,0.000000,0.000000,0.000000,0.000000,0.000000,0.039499,3,0
1460000,0.002971,37.791664,0.022893,0.009423,26.000584,-0.038532,-0.000438,0.037384,1.570773,-0.075451,-0.001599,-0.005884,0.000323,-0.011028,-0.000020,0.000062,-0.003077,0.018681,-0.005445,0.206374,0.206354,0.157734,0.375938,0.000000,0.000000,0.000000,0.000000,0.000000,0.000000,0.000000,0.000000,0.000000,0.000000,0.000000,0.000000,0.018279,3,0
1470000,0.002961,38.054329,0.022633,0.009413,26.009462,-0.039031,-0.000454,0.037875,1.570770,-0.075911,-0.001617,-0.005946,0.000329,-0.011189,-0.000020,0.000937,-0.003067,0.076050,0.005376,0.206560,0.206539,0.157390,0.373925,0.000000,0.000000,0.000000,0.000000,0.000000,0.000000,0.000000,0.000000,0.000000,0.000000,0.000000,0.000000,0.073493,3,0
1480000,0.002952,38.312828,0.021692,0.009405,26.010641,-0.040214,-0.000461,0.037724,1.570759,-0.075626,-0.001636,-0.005732,0.000336,-0.011088,-0.000020,0.000437,-0.003057,-0.047550,-0.021064,0.206749,0.206726,0.157049,0.371969,0.000000,0.000000,0.000000,0.000000,0.000000,0.000000,0.000000,0.000000,0.000000,0.000000,0.000000,0.000000,0.046009,3,0
1490000,0.002943,38.576130,0.021354,0.009420,26.020515,-0.040632,-0.000476,0.038305,1.570757,-0.076174,-0.001654,-0.005774,0.000342,-0.011286,-0.000020,0.001351,-0.003048,0.091518,0.003102,0.206938,0.206915,0.156711,0.370068,0.000000,0.000000,0.000000,0.000000,0.000000,0.000000,0.000000,0.000000,0.000000,0.000000,0.000000,0.000000,0.088413,3,0
1500000,0.002933,38.837299,0.022019,0.009392,26.026279,-0.039700,-0.000499,0.038533,1.570765,-0.076331,-0.001672,-0.006192,0.000349,-0.011342,-0.000020,0.000396,-0.003039,0.026905,0.041397,0.207130,0.207106,0.156375,0.368221,0.000000,0.000000,0.000000,0.000000,0.000000,0.000000,0.000000,0.000000,0.000000,0.000000,0.000000,0.000000,0.026147,3,0
1510000,0.002923,39.095684,0.022242,0.009303,26.026901,-0.039382,-0.000523,0.038325,1.570764,-0.076002,-0.001690,-0.006423,0.000356,-0.011220,-0.000020,0.000587,-0.003028,-0.055412,0.023701,0.207324,0.207299,0.156042,0.366426,0.000000,0.000000,0.000000,0.000000,0.000000,0.000000,0.000000,0.000000,0.000000,0.000000,0.000000,0.000000,0.053573,3,0
1520000,0.002913,39.355453,0.021824,0.009254,26.030151,-0.040026,-0.000542,0.038334,1.570760,-0.075911,-0.001707,-0.006413,0.000363,-0.011185,-0.000020,0.000041,-0.003018,-0.015621,-0.000775,0.207520,0.207494,0.155712,0.364684,0.000000,0.000000,0.000000,0.000000,0.000000,0.000000,0.000000,0.000000,0.000000,0.000000,0.000000,0.000000,0.015358,3,0
1530000,0.002902,39.616589,0.021241,0.009091,26.035795,-0.040701,-0.000559,0.038561,1.570761,-0.076044,-0.001725,-0.006347,0.000369,-0.011236,-0.000020,0.000092,-0.003006,0.022758,-0.006754,0.207717,0.207690,0.155385,0.362992,0.000000,0.000000,0.000000,0.000000,0.000000,0.000000,0.000000,0.000000,0.000000,0.000000,0.000000,0.000000,0.022160,3,0
1540000,0.002891,39.874233,0.021274,0.009074,26.034996,-0.040519,-0.000585,0.038216,1.570750,-0.075583,-0.001742,-0.006506,0.000376,-0.011057,-0.000020,0.001061,-0.002995,-0.079395,0.016698,0.207916,0.207889,0.155061,0.361348,0.000000,0.000000,0.000000,0.000000,0.000000,0.000000,0.000000,0.000000,0.000000,0.000000,0.000000,0.000000,0.076696,3,0
1550000,0.002880,40.136726,0.020603,0.009071,26.043018,-0.041462,-0.000594,0.038649,1.570742,-0.075931,-0.001759,-0.006416,0.000383,-0.011194,-0.000020,0.000606,-0.002984,0.060543,-0.009701,0.208117,0.208088,0.154740,0.359752,0.000000,0.000000,0.000000,0.000000,0.000000,0.000000,0.000000,0.000000,0.000000,0.000000,0.000000,0.000000,0.058512,3,0
1560000,0.002868,40.397774,0.020701,0.008943,26.048180,-0.041240,-0.000612,0.038835,1.570747,-0.076025,-0.001776,-0.006626,0.000390,-0.011231,-0.000020,0.000112,-0.002971,0.016640,0.020183,0.208319,0.208289,0.154422,0.358202,0.000000,0.000000,0.000000,0.000000,0.000000,0.000000,0.000000,0.000000,0.000000,0.000000,0.000000,0.000000,0.016318,3,0
1570000,0.002854,40.655323,0.021287,0.008795,26.047049,-0.040559,-0.000623,0.038448,1.570753,-0.075540,-0.001793,-0.007010,0.000397,-0.011033,-0.000020,0.001416,-0.002958,-0.085430,0.038519,0.208523,0.208492,0.154108,0.356698,0.000000,0.000000,0.000000,0.000000,0.000000,0.000000,0.000000,0.000000,0.000000,0.000000,0.000000,0.000000,0.082504,3,0
1580000,0.002841,40.913586,0.020905,0.008731,26.047102,-0.040733,-0.000637,0.038190,1.570743,-0.075178,-0.001809,-0.007005,0.000403,-0.010884,-0.000020,0.000674,-0.002944,-0.064663,0.000552,0.208728,0.208696,0.153797,0.355238,0.000000,0.000000,0.000000,0.000000,0.000000,0.000000,0.000000,0.000000,0.000000,0.000000,0.000000,0.000000,0.062477,3,0
1590000,0.002826,41.173920,0.022158,0.008537,26.050877,-0.039132,-0.000659,0.038243,1.570746,-0.075146,-0.001825,-0.007681,0.000410,-0.010868,-0.000020,0.000692,-0.002929,-0.004864,0.065022,0.208934,0.208901,0.153489,0.353819,0.000000,0.000000,0.000000,0.000000,0.000000,0.000000,0.000000,0.000000,0.000000,0.000000,0.000000,0.000000,0.005471,3,0
1600000,0.002809,41.433544,0.021579,0.008345,26.053331,-0.039788,-0.000672,0.038193,1.570747,-0.075000,-0.001841,-0.007599,0.000417,-0.010806,-0.000019,0.000125,-0.002911,-0.026688,-0.007365,0.209142,0.209108,0.153185,0.352442,0.000000,0.000000,0.000000,0.000000,0.000000,0.000000,0.000000,0.000000,0.000000,0.000000,0.000000,0.000000,0.025913,3,0
1610000,0.002792,41.693840,0.020780,0.008164,26.057060,-0.040626,-0.000697,0.038232,1.570746,-0.074957,-0.001857,-0.007434,0.000424,-0.010788,-0.000019,0.000052,-0.002893,-0.008030,-0.015668,0.209351,0.209315,0.152885,0.351106,0.000000,0.000000,0.000000,0.000000,0.000000,0.000000,0.000000,0.000000,0.000000,0.000000,0.000000,0.000000,0.008239,3,0
1620000,0.002773,41.956177,0.021584,0.008023,26.064262,-0.039621,-0.000708,0.038595,1.570738,-0.075222,-0.001872,-0.007949,0.000431,-0.010903,-0.000020,0.000775,-0.002874,0.049698,0.048144,0.209560,0.209524,0.152588,0.349807,0.000000,0.000000,0.000000,0.000000,0.000000,0.000000,0.000000,0.000000,0.000000,0.000000,0.000000,0.000000,0.048054,3,0
1630000,0.002754,42.217762,0.021488,0.007876,26.070127,-0.039653,-0.000716,0.038836,1.570744,-0.075360,-0.001887,-0.008083,0.000438,-0.010964,-0.000020,0.000133,-0.002854,0.025833,0.012164,0.209770,0.209733,0.152296,0.348548,0.000000,0.000000,0.000000,0.000000,0.000000,0.000000,0.000000,0.000000,0.000000,0.000000,0.000000,0.000000,0.025084,3,0
1640000,0.002735,42.479298,0.020857,0.007876,26.075855,-0.040563,-0.000737,0.039057,1.570741,-0.075480,-0.001902,-0.007993,0.000445,-0.011019,-0.000020,0.000096,-0.002834,0.022617,-0.008799,0.209981,0.209942,0.152006,0.347326,0.000000,0.000000,0.000000,0.000000,0.000000,0.000000,0.000000,0.000000,0.000000,0.000000,0.000000,0.000000,0.021995,3,0
1650000,0.002716,42.738682,0.021457,0.007853,26.077391,-0.039906,-0.000751,0.038915,1.570731,-0.075267,-0.001917,-0.008408,0.000452,-0.010919,-0.000020,0.000516,-0.002816,-0.040184,0.039641,0.210192,0.210152,0.151721,0.346139,0.000000,0.000000,0.000000,0.000000,0.000000,0.000000,0.000000,0.000000,0.000000,0.000000,0.000000,0.000000,0.038864,3,0
1660000,0.002698,42.998749,0.021195,0.007780,26.080231,-0.040041,-0.000772,0.038888,1.570732,-0.075156,-0.001931,-0.008462,0.000458,-0.010867,-0.000020,0.000079,-0.002796,-0.021278,0.005381,0.210404,0.210363,0.151440,0.344987,0.000000,0.000000,0.000000,0.000000,0.000000,0.000000,0.000000,0.000000,0.000000,0.000000,0.000000,0.000000,0.020707,3,0
1670000,0.002679,43.258099,0.020007,0.007671,26.081730,-0.041378,-0.000787,0.038734,1.570731,-0.074938,-0.001946,-0.008116,0.000465,-0.010765,-0.000020,0.000457,-0.002776,-0.042831,-0.031462,0.210615,0.210573,0.151162,0.343869,0.000000,0.000000,0.000000,0.000000,0.000000,0.000000,0.000000,0.000000,0.000000,0.000000,0.000000,0.000000,0.041423,3,0
1680000,0.002659,43.518814,0.019923,0.007509,26.085583,-0.041546,-0.000799,0.038789,1.570724,-0.074917,-0.001960,-0.008258,0.000472,-0.010754,-0.000020,0.000033,-0.002756,-0.004013,0.013313,0.210827,0.210784,0.150888,0.342782,0.000000,0.000000,0.000000,0.000000,0.000000,0.000000,0.000000,0.000000,0.000000,0.000000,0.000000,0.000000,0.004694,3,0
1690000,0.002639,43.778088,0.019809,0.007434,26.086864,-0.041586,-0.000825,0.038604,1.570723,-0.074684,-0.001973,-0.008376,0.000479,-0.010640,-0.000019,0.000365,-0.002735,-0.046097,0.011729,0.211039,0.210994,0.150619,0.341728,0.000000,0.000000,0.000000,0.000000,0.000000,0.000000,0.000000,0.000000,0.000000,0.000000,0.000000,0.000000,0.044550,3,0
1700000,0.002617,44.035938,0.020296,0.007239,26.085369,-0.040683,-0.000851,0.038171,1.570722,-0.074251,-0.001986,-0.008742,0.000486,-0.010422,-0.000019,0.001413,-0.002713,-0.086712,0.035330,0.211250,0.211204,0.150353,0.340703,0.000000,0.000000,0.000000,0.000000,0.000000,0.000000,0.000000,0.000000,0.000000,0.000000,0.000000,0.000000,0.083693,3,0
1710000,0.002595,44.293106,0.019161,0.007068,26.082657,-0.041719,-0.000868,0.037637,1.570715,-0.073731,-0.002000,-0.008393,0.000492,-0.010161,-0.000019,0.001955,-0.002690,-0.106003,-0.030018,0.211461,0.211414,0.150091,0.339708,0.000000,0.000000,0.000000,0.000000,0.000000,0.000000,0.000000,0.000000,0.000000,0.000000,0.000000,0.000000,0.102309,3,0
