time_us,pos_x,pos_y,pos_z,vel_x,vel_y,vel_z,roll,pitch,yaw,bias_ax,bias_ay,bias_az,bias_gx,bias_gy,bias_gz,nis,innov_x,innov_y,innov_z,cov_pos_x,cov_pos_y,cov_pos_z,cov_yaw,des_speed,des_heading,des_climb,pid_speed,pid_yaw,pid_alt,speed_meas,yaw_meas,climb_meas,fwd_accel,yaw_rate,vert_accel,drift_m,nav_mode,mission_state
0,0.000002,0.149991,-0.000004,0.000394,24.998512,-0.000933,0.000000,0.000012,1.570777,0.000000,0.000000,0.000000,0.000000,0.000000,0.000000,0.006249,-0.000004,-0.249988,0.000009,2.400038,2.400038,3.600017,1.000518,0.000000,0.000000,0.000000,0.000000,0.000000,0.000000,0.000000,0.000000,0.000000,0.000000,0.000000,0.000000,0.149991,1,0
10000,0.000008,0.365201,-0.000230,0.000835,24.997040,-0.001557,0.000017,0.000019,1.570765,0.000000,-0.000000,0.000000,0.000000,0.000000,0.000000,0.001762,-0.000011,-0.121659,-0.000561,1.714420,1.714420,2.250079,1.001073,0.000000,0.000000,0.000000,0.000000,0.000000,0.000000,0.000000,0.000000,0.000000,0.000000,0.000000,0.000000,0.086896,3,0
20000,0.000016,0.575635,-0.020681,0.001332,24.995346,-0.002613,0.000019,0.000012,1.570740,0.000002,-0.000000,0.000001,-0.000000,0.000000,0.000000,0.004779,-0.000021,-0.177824,-0.074890,1.333616,1.333616,1.636554,1.001655,0.000000,0.000000,0.000000,0.000000,0.000000,0.000000,0.000000,0.000000,0.000000,0.000000,0.000000,0.000000,0.138299,3,0
30000,0.000028,0.798348,-0.026826,0.001808,24.993608,-0.003308,0.000026,0.000015,1.570731,0.000005,-0.000000,0.000001,-0.000000,0.000000,0.000000,0.003162,-0.000034,-0.149693,-0.028517,1.091392,1.091392,1.286065,1.002257,0.000000,0.000000,0.000000,0.000000,0.000000,0.000000,0.000000,0.000000,0.000000,0.000000,0.000000,0.000000,0.122464,3,0
40000,0.000043,1.033785,-0.025318,0.002233,24.991867,-0.003953,0.000030,0.000015,1.570704,0.000007,-0.000000,0.000001,0.000000,0.000000,0.000000,0.001259,-0.000050,-0.094082,0.008766,0.923811,0.923811,1.059385,1.002869,0.000000,0.000000,0.000000,0.000000,0.000000,0.000000,0.000000,0.000000,0.000000,0.000000,0.000000,0.000000,0.079597,3,0
50000,0.000059,1.271549,-0.025324,0.002582,24.990238,-0.004887,0.000030,0.000015,1.570690,0.000011,-0.000000,0.000001,0.000000,0.000000,0.000000,0.001195,-0.000069,-0.090957,0.000289,0.801036,0.801036,0.900822,1.003485,0.000000,0.000000,0.000000,0.000000,0.000000,0.000000,0.000000,0.000000,0.000000,0.000000,0.000000,0.000000,0.078814,3,0
60000,0.000078,1.510811,-0.028361,0.002925,24.988396,-0.005610,0.000033,0.000021,1.570667,0.000017,-0.000000,0.000002,0.000000,0.000000,0.000000,0.001271,-0.000089,-0.090156,-0.022837,0.707270,0.707270,0.783741,1.004094,0.000000,0.000000,0.000000,0.000000,0.000000,0.000000,0.000000,0.000000,0.000000,0.000000,0.000000,0.000000,0.079529,3,0
70000,0.000101,1.761584,-0.030025,0.003464,24.987221,-0.006645,0.000037,0.000022,1.570655,0.000016,-0.000000,0.000003,0.000000,0.000000,0.000000,0.000039,-0.000113,0.008541,-0.013821,0.633370,0.633370,0.693801,1.004689,0.000000,0.000000,0.000000,0.000000,0.000000,0.000000,0.000000,0.000000,0.000000,0.000000,0.000000,0.000000,0.007640,3,0
80000,0.000126,2.005391,-0.029205,0.003857,24.985554,-0.007516,0.000039,0.000018,1.570629,0.000022,-0.000000,0.000002,0.000000,0.000000,0.000000,0.000615,-0.000140,-0.063311,0.008629,0.573673,0.573673,0.622594,1.005261,0.000000,0.000000,0.000000,0.000000,0.000000,0.000000,0.000000,0.000000,0.000000,0.000000,0.000000,0.000000,0.057258,3,0
90000,0.000154,2.250979,-0.029070,0.004204,24.983862,-0.008179,0.000052,0.000019,1.570602,0.000029,-0.000000,0.000002,0.000000,0.000000,0.000000,0.000361,-0.000168,-0.048675,0.002314,0.524488,0.524488,0.564865,1.005802,0.000000,0.000000,0.000000,0.000000,0.000000,0.000000,0.000000,0.000000,0.000000,0.000000,0.000000,0.000000,0.044420,3,0
100000,0.000184,2.499521,-0.030090,0.004661,24.982424,-0.009158,0.000057,0.000014,1.570579,0.000031,-0.000000,0.000004,0.000000,0.000000,0.000000,0.000057,-0.000200,-0.015941,-0.010786,0.483303,0.483303,0.517162,1.006303,0.000000,0.000000,0.000000,0.000000,0.000000,0.000000,0.000000,0.000000,0.000000,0.000000,0.000000,0.000000,0.014658,3,0
110000,0.000218,2.751852,-0.029489,0.005154,24.981508,-0.010047,0.000062,0.000022,1.570564,0.000025,-0.000000,0.000002,0.000000,0.000000,0.000000,0.000187,-0.000236,0.033715,0.008826,0.448353,0.448353,0.477121,1.006756,0.000000,0.000000,0.000000,0.000000,0.000000,0.000000,0.000000,0.000000,0.000000,0.000000,0.000000,0.000000,0.031197,3,0
120000,0.000255,3.004431,-0.031361,0.005620,24.980682,-0.011232,0.000067,0.000024,1.570552,0.000016,-0.000000,0.000007,0.000000,0.000000,0.000000,0.000334,-0.000274,0.039820,-0.023851,0.418358,0.418358,0.443071,1.007152,0.000000,0.000000,0.000000,0.000000,0.000000,0.000000,0.000000,0.000000,0.000000,0.000000,0.000000,0.000000,0.037044,3,0
130000,0.000295,3.258512,-0.035008,0.006104,24.980192,-0.012453,0.000082,0.000036,1.570525,-0.000001,-0.000000,0.000020,0.000000,-0.000000,-0.000000,0.001076,-0.000316,0.065554,-0.051166,0.392369,0.392369,0.413797,1.007483,0.000000,0.000000,0.000000,0.000000,0.000000,0.000000,0.000000,0.000000,0.000000,0.000000,0.000000,0.000000,0.061268,3,0
140000,0.000339,3.515059,-0.034368,0.006603,24.980473,-0.013191,0.000091,0.000057,1.570516,-0.000033,-0.000000,0.000016,0.000000,-0.000001,-0.000000,0.001903,-0.000362,0.109661,0.011946,0.369666,0.369666,0.388393,1.007741,0.000000,0.000000,0.000000,0.000000,0.000000,0.000000,0.000000,0.000000,0.000000,0.000000,0.000000,0.000000,0.102905,3,0
150000,0.000387,3.771353,-0.031713,0.007138,24.980885,-0.013342,0.000102,0.000068,1.570491,-0.000071,-0.000001,0.000001,0.000000,-0.000002,-0.000000,0.002281,-0.000411,0.111537,0.045790,0.349694,0.349694,0.366172,1.007918,0.000000,0.000000,0.000000,0.000000,0.000000,0.000000,0.000000,0.000000,0.000000,0.000000,0.000000,0.000000,0.105037,3,0
160000,0.000438,4.025239,-0.033816,0.007646,24.980747,-0.014420,0.000109,0.000086,1.570480,-0.000099,-0.000001,0.000014,0.000000,-0.000002,-0.000000,0.001041,-0.000463,0.073907,-0.033989,0.332020,0.332020,0.346600,1.008005,0.000000,0.000000,0.000000,0.000000,0.000000,0.000000,0.000000,0.000000,0.000000,0.000000,0.000000,0.000000,0.069819,3,0
170000,0.000492,4.279171,-0.031400,0.008179,24.980848,-0.014460,0.000125,0.000090,1.570465,-0.000132,-0.000001,-0.000006,0.000000,-0.000003,-0.000000,0.001317,-0.000520,0.078447,0.046790,0.316296,0.316296,0.329260,1.007995,0.000000,0.000000,0.000000,0.000000,0.000000,0.000000,0.000000,0.000000,0.000000,0.000000,0.000000,0.000000,0.074313,3,0
180000,0.000549,4.529139,-0.034167,0.008614,24.979595,-0.016177,0.000129,0.000093,1.570455,-0.000134,-0.000001,0.000018,0.000000,-0.000003,-0.000000,0.000396,-0.000578,0.003427,-0.049967,0.302245,0.302245,0.313817,1.007879,0.000000,0.000000,0.000000,0.000000,0.000000,0.000000,0.000000,0.000000,0.000000,0.000000,0.000000,0.000000,0.003300,3,0
190000,0.000609,4.785254,-0.035051,0.009093,24.980572,-0.017197,0.000135,0.000126,1.570447,-0.000203,-0.000002,0.000025,0.000000,-0.000005,-0.000000,0.002762,-0.000640,0.131170,-0.014285,0.289640,0.289639,0.300003,1.007650,0.000000,0.000000,0.000000,0.000000,0.000000,0.000000,0.000000,0.000000,0.000000,0.000000,0.000000,0.000000,0.124840,3,0
200000,0.000673,5.035706,-0.036116,0.009587,24.979614,-0.018421,0.000144,0.000130,1.570437,-0.000211,-0.000002,0.000036,0.000000,-0.000005,-0.000000,0.000086,-0.000705,0.014197,-0.018451,0.278293,0.278293,0.287598,1.007300,0.000000,0.000000,0.000000,0.000000,0.000000,0.000000,0.000000,0.000000,0.000000,0.000000,0.000000,0.000000,0.013556,3,0
210000,0.000739,5.290034,-0.034948,0.010116,24.980379,-0.018830,0.000155,0.000148,1.570421,-0.000276,-0.000002,0.000017,0.000000,-0.000007,-0.000000,0.001786,-0.000774,0.101696,0.029563,0.268052,0.268051,0.276421,1.006822,0.000000,0.000000,0.000000,0.000000,0.000000,0.000000,0.000000,0.000000,0.000000,0.000000,0.000000,0.000000,0.097155,3,0
220000,0.000809,5.542673,-0.035931,0.010574,24.980436,-0.020046,0.000164,0.000173,1.570411,-0.000323,-0.000003,0.000029,0.000000,-0.000008,-0.000000,0.000745,-0.000845,0.066029,-0.017708,0.258784,0.258784,0.266321,1.006208,0.000000,0.000000,0.000000,0.000000,0.000000,0.000000,0.000000,0.000000,0.000000,0.000000,0.000000,0.000000,0.063187,3,0
230000,0.000881,5.796292,-0.037995,0.011006,24.981176,-0.021853,0.000177,0.000198,1.570397,-0.000392,-0.000004,0.000062,0.000000,-0.000011,-0.000000,0.001641,-0.000919,0.091694,-0.043249,0.250382,0.250382,0.257172,1.005453,0.000000,0.000000,0.000000,0.000000,0.000000,0.000000,0.000000,0.000000,0.000000,0.000000,0.000000,0.000000,0.087872,3,0
240000,0.000956,6.051604,-0.038271,0.011508,24.982880,-0.022509,0.000189,0.000241,1.570388,-0.000505,-0.000005,0.000063,0.000000,-0.000014,-0.000000,0.002969,-0.000996,0.136252,-0.001249,0.242752,0.242752,0.248866,1.004548,0.000000,0.000000,0.000000,0.000000,0.000000,0.000000,0.000000,0.000000,0.000000,0.000000,0.000000,0.000000,0.130743,3,0
250000,0.001034,6.303772,-0.040342,0.012039,24.982998,-0.024192,0.000194,0.000252,1.570370,-0.000558,-0.000006,0.000103,0.000000,-0.000016,-0.000000,0.000907,-0.001076,0.059833,-0.045698,0.235814,0.235814,0.241314,1.003488,0.000000,0.000000,0.000000,0.000000,0.000000,0.000000,0.000000,0.000000,0.000000,0.000000,0.000000,0.000000,0.057491,3,0
260000,0.001115,6.556118,-0.040298,0.012501,24.983389,-0.024669,0.000195,0.000269,1.570344,-0.000622,-0.000007,0.000096,0.000000,-0.000019,-0.000000,0.000709,-0.001159,0.066089,0.007459,0.229499,0.229499,0.234436,1.002267,0.000000,0.000000,0.000000,0.000000,0.000000,0.000000,0.000000,0.000000,0.000000,0.000000,0.000000,0.000000,0.063571,3,0
270000,0.001198,6.810855,-0.040289,0.012947,24.985359,-0.025341,0.000207,0.000317,1.570333,-0.000758,-0.000008,0.000089,0.000000,-0.000024,-0.000000,0.002795,-0.001245,0.131802,0.006937,0.223748,0.223748,0.228165,1.000878,0.000000,0.000000,0.000000,0.000000,0.000000,0.000000,0.000000,0.000000,0.000000,0.000000,0.000000,0.000000,0.126893,3,0
280000,0.001283,7.065631,-0.040836,0.013301,24.987663,-0.026462,0.000218,0.000369,1.570321,-0.000907,-0.000010,0.000097,0.000000,-0.000030,-0.000000,0.002957,-0.001332,0.135470,-0.007660,0.218509,0.218509,0.222443,0.999317,0.000000,0.000000,0.000000,0.000000,0.000000,0.000000,0.000000,0.000000,0.000000,0.000000,0.000000,0.000000,0.130543,3,0
290000,0.001371,7.321159,-0.039116,0.013797,24.990639,-0.026049,0.000233,0.000426,1.570308,-0.001095,-0.000011,0.000033,0.000000,-0.000037,-0.000000,0.004550,-0.001422,0.158977,0.055074,0.213737,0.213737,0.217219,0.997578,0.000000,0.000000,0.000000,0.000000,0.000000,0.000000,0.000000,0.000000,0.000000,0.000000,0.000000,0.000000,0.153320,3,0
300000,0.001461,7.573926,-0.038524,0.014271,24.991590,-0.026072,0.000242,0.000458,1.570297,-0.001198,-0.000013,0.000003,0.000000,-0.000042,-0.000000,0.001185,-0.001514,0.082330,0.024266,0.209390,0.209390,0.212447,0.995656,0.000000,0.000000,0.000000,0.000000,0.000000,0.000000,0.000000,0.000000,0.000000,0.000000,0.000000,0.000000,0.079470,3,0
310000,0.001553,7.827523,-0.040184,0.014624,24.993334,-0.027777,0.000252,0.000506,1.570272,-0.001342,-0.000015,0.000056,0.000001,-0.000048,-0.000000,0.002133,-0.001608,0.107857,-0.040186,0.205434,0.205434,0.208087,0.993548,0.000000,0.000000,0.000000,0.000000,0.000000,0.000000,0.000000,0.000000,0.000000,0.000000,0.000000,0.000000,0.104176,3,0
320000,0.001646,8.082573,-0.041137,0.015034,24.996578,-0.029171,0.000253,0.000587,1.570247,-0.001558,-0.000018,0.000083,0.000001,-0.000058,-0.000000,0.003804,-0.001704,0.152427,-0.019579,0.201837,0.201836,0.204105,0.991249,0.000000,0.000000,0.000000,0.000000,0.000000,0.000000,0.000000,0.000000,0.000000,0.000000,0.000000,0.000000,0.147308,3,0
330000,0.001743,8.337025,-0.040563,0.015529,24.999407,-0.029316,0.000269,0.000653,1.570233,-0.001761,-0.000021,0.000045,0.000001,-0.000068,-0.000000,0.003087,-0.001802,0.135892,0.026147,0.198570,0.198570,0.200469,0.988756,0.000000,0.000000,0.000000,0.000000,0.000000,0.000000,0.000000,0.000000,0.000000,0.000000,0.000000,0.000000,0.131406,3,0
340000,0.001841,8.590919,-0.040974,0.015964,25.001959,-0.030002,0.000267,0.000718,1.570222,-0.001951,-0.000024,0.000050,0.000001,-0.000077,-0.000000,0.002323,-0.001903,0.119957,-0.003400,0.195608,0.195608,0.197151,0.986067,0.000000,0.000000,0.000000,0.000000,0.000000,0.000000,0.000000,0.000000,0.000000,0.000000,0.000000,0.000000,0.116061,3,0
350000,0.001941,8.847486,-0.041851,0.016436,25.007215,-0.031139,0.000275,0.000837,1.570216,-0.002291,-0.000027,0.000079,0.000001,-0.000094,-0.000000,0.006763,-0.002006,0.203979,-0.017663,0.192929,0.192928,0.194126,0.983178,0.000000,0.000000,0.000000,0.000000,0.000000,0.000000,0.000000,0.000000,0.000000,0.000000,0.000000,0.000000,0.197430,3,0
360000,0.002042,9.101558,-0.042191,0.016751,25.010201,-0.032016,0.000276,0.000904,1.570200,-0.002513,-0.000031,0.000080,0.000001,-0.000105,-0.000000,0.002574,-0.002109,0.126269,-0.000631,0.190511,0.190510,0.191370,0.980088,0.000000,0.000000,0.000000,0.000000,0.000000,0.000000,0.000000,0.000000,0.000000,0.000000,0.000000,0.000000,0.122277,3,0
370000,0.002144,9.357620,-0.040883,0.017075,25.015322,-0.031353,0.000274,0.001015,1.570186,-0.002864,-0.000035,-0.000015,0.000002,-0.000124,-0.000001,0.006279,-0.002214,0.190230,0.051978,0.188335,0.188334,0.188863,0.976795,0.000000,0.000000,0.000000,0.000000,0.000000,0.000000,0.000000,0.000000,0.000000,0.000000,0.000000,0.000000,0.184272,3,0
380000,0.002248,9.611891,-0.042428,0.017501,25.018608,-0.033192,0.000282,0.001105,1.570163,-0.003121,-0.000040,0.000061,0.000002,-0.000138,-0.000001,0.003104,-0.002320,0.132907,-0.039389,0.186384,0.186384,0.186586,0.973298,0.000000,0.000000,0.000000,0.000000,0.000000,0.000000,0.000000,0.000000,0.000000,0.000000,0.000000,0.000000,0.128798,3,0
390000,0.002354,9.866894,-0.043303,0.017956,25.022800,-0.034569,0.000298,0.001208,1.570140,-0.003438,-0.000045,0.000096,0.000002,-0.000156,-0.000001,0.004027,-0.002429,0.156908,-0.017434,0.184643,0.184642,0.184523,0.969598,0.000000,0.000000,0.000000,0.000000,0.000000,0.000000,0.000000,0.000000,0.000000,0.000000,0.000000,0.000000,0.152098,3,0
400000,0.002461,10.123216,-0.041991,0.018352,25.028746,-0.033658,0.000313,0.001351,1.570131,-0.003862,-0.000050,-0.000020,0.000002,-0.000180,-0.000001,0.006951,-0.002538,0.200047,0.054709,0.183097,0.183096,0.182656,0.965693,0.000000,0.000000,0.000000,0.000000,0.000000,0.000000,0.000000,0.000000,0.000000,0.000000,0.000000,0.000000,0.193958,3,0
410000,0.002569,10.379010,-0.042674,0.018737,25.034122,-0.034695,0.000325,0.001495,1.570115,-0.004264,-0.000056,0.000005,0.000003,-0.000204,-0.000001,0.005388,-0.002649,0.182214,-0.011289,0.181731,0.181730,0.180971,0.961585,0.000000,0.000000,0.000000,0.000000,0.000000,0.000000,0.000000,0.000000,0.000000,0.000000,0.000000,0.000000,0.176714,3,0
420000,0.002678,10.636697,-0.041545,0.019108,25.042089,-0.033673,0.000327,0.001682,1.570102,-0.004828,-0.000063,-0.000109,0.000003,-0.000238,-0.000001,0.010056,-0.002761,0.244425,0.049536,0.180535,0.180534,0.179456,0.957274,0.000000,0.000000,0.000000,0.000000,0.000000,0.000000,0.000000,0.000000,0.000000,0.000000,0.000000,0.000000,0.237085,3,0
430000,0.002789,10.890277,-0.042875,0.019565,25.045031,-0.035526,0.000328,0.001772,1.570088,-0.005082,-0.000069,-0.000029,0.000004,-0.000254,-0.000001,0.001994,-0.002874,0.105933,-0.033239,0.179495,0.179494,0.178097,0.952763,0.000000,0.000000,0.000000,0.000000,0.000000,0.000000,0.000000,0.000000,0.000000,0.000000,0.000000,0.000000,0.102802,3,0
440000,0.002899,11.145788,-0.043470,0.019822,25.050465,-0.036700,0.000343,0.001920,1.570075,-0.005507,-0.000077,-0.000010,0.000004,-0.000281,-0.000001,0.004706,-0.002988,0.170387,-0.007841,0.178603,0.178601,0.176883,0.948053,0.000000,0.000000,0.000000,0.000000,0.000000,0.000000,0.000000,0.000000,0.000000,0.000000,0.000000,0.000000,0.165341,3,0
450000,0.003010,11.399652,-0.044061,0.020178,25.053949,-0.037791,0.000340,0.002019,1.570068,-0.005801,-0.000085,0.000009,0.000005,-0.000301,-0.000001,0.002098,-0.003102,0.113608,-0.007411,0.177846,0.177845,0.175803,0.943148,0.000000,0.000000,0.000000,0.000000,0.000000,0.000000,0.000000,0.000000,0.000000,0.000000,0.000000,0.000000,0.110282,3,0
460000,0.003122,11.653670,-0.044160,0.020524,25.057554,-0.038057,0.000340,0.002129,1.570048,-0.006118,-0.000094,-0.000017,0.000005,-0.000322,-0.000002,0.002275,-0.003217,0.118137,0.009777,0.177216,0.177215,0.174848,0.938049,0.000000,0.000000,0.000000,0.000000,0.000000,0.000000,0.000000,0.000000,0.000000,0.000000,0.000000,0.000000,0.114690,3,0
470000,0.003233,11.909016,-0.044227,0.020835,25.063179,-0.038395,0.000348,0.002296,1.570024,-0.006570,-0.000103,-0.000048,0.000006,-0.000353,-0.000002,0.004281,-0.003331,0.162266,0.011033,0.176704,0.176703,0.174007,0.932762,0.000000,0.000000,0.000000,0.000000,0.000000,0.000000,0.000000,0.000000,0.000000,0.000000,0.000000,0.000000,0.157520,3,0
480000,0.003345,12.163327,-0.043075,0.021212,25.067371,-0.037214,0.000344,0.002416,1.570018,-0.006932,-0.000113,-0.000202,0.000007,-0.000379,-0.000002,0.003013,-0.003447,0.125532,0.053412,0.176302,0.176301,0.173272,0.927289,0.000000,0.000000,0.000000,0.000000,0.000000,0.000000,0.000000,0.000000,0.000000,0.000000,0.000000,0.000000,0.121889,3,0
490000,0.003458,12.420126,-0.042756,0.021571,25.075127,-0.036910,0.000345,0.002639,1.570013,-0.007554,-0.000124,-0.000274,0.000007,-0.000424,-0.000002,0.007171,-0.003562,0.209120,0.024168,0.176002,0.176000,0.172635,0.921636,0.000000,0.000000,0.000000,0.000000,0.000000,0.000000,0.000000,0.000000,0.000000,0.000000,0.000000,0.000000,0.203015,3,0
500000,0.003570,12.675876,-0.042284,0.021871,25.081371,-0.036635,0.000359,0.002832,1.569998,-0.008080,-0.000136,-0.000366,0.000008,-0.000462,-0.000002,0.004870,-0.003678,0.170912,0.029572,0.175796,0.175794,0.172087,0.915808,0.000000,0.000000,0.000000,0.000000,0.000000,0.000000,0.000000,0.000000,0.000000,0.000000,0.000000,0.000000,0.165942,3,0
510000,0.003683,12.932343,-0.043606,0.022244,25.088720,-0.038704,0.000367,0.003051,1.569986,-0.008693,-0.000148,-0.000260,0.000009,-0.000508,-0.000002,0.006233,-0.003794,0.193406,-0.033203,0.175677,0.175675,0.171623,0.909809,0.000000,0.000000,0.000000,0.000000,0.000000,0.000000,0.000000,0.000000,0.000000,0.000000,0.000000,0.000000,0.187779,3,0
520000,0.003796,13.190685,-0.042712,0.022547,25.099072,-0.037655,0.000373,0.003349,1.569976,-0.009527,-0.000161,-0.000409,0.000010,-0.000573,-0.000003,0.010845,-0.003911,0.254926,0.045066,0.175639,0.175636,0.171234,0.903646,0.000000,0.000000,0.000000,0.000000,0.000000,0.000000,0.000000,0.000000,0.000000,0.000000,0.000000,0.000000,0.247492,3,0
530000,0.003909,13.445639,-0.043314,0.022878,25.104179,-0.038533,0.000372,0.003509,1.569969,-0.009983,-0.000175,-0.000382,0.000011,-0.000608,-0.000003,0.002989,-0.004027,0.135633,-0.007752,0.175675,0.175672,0.170915,0.897324,0.000000,0.000000,0.000000,0.000000,0.000000,0.000000,0.000000,0.000000,0.000000,0.000000,0.000000,0.000000,0.131719,3,0
540000,0.004021,13.702495,-0.043586,0.023132,25.112356,-0.039061,0.000375,0.003752,1.569956,-0.010671,-0.000189,-0.000397,0.000012,-0.000664,-0.000003,0.006392,-0.004142,0.198689,0.004138,0.175779,0.175777,0.170659,0.890851,0.000000,0.000000,0.000000,0.000000,0.000000,0.000000,0.000000,0.000000,0.000000,0.000000,0.000000,0.000000,0.192910,3,0
550000,0.004131,13.961813,-0.044115,0.023343,25.124350,-0.039957,0.000374,0.004117,1.569953,-0.011667,-0.000205,-0.000380,0.000014,-0.000745,-0.000003,0.012662,-0.004256,0.279693,-0.004713,0.175946,0.175943,0.170461,0.884232,0.000000,0.000000,0.000000,0.000000,0.000000,0.000000,0.000000,0.000000,0.000000,0.000000,0.000000,0.000000,0.271522,3,0
560000,0.004241,14.216562,-0.045468,0.023539,25.129168,-0.042019,0.000371,0.004273,1.569944,-0.012104,-0.000221,-0.000257,0.000015,-0.000782,-0.000004,0.002500,-0.004369,0.119648,-0.033399,0.176170,0.176167,0.170314,0.877475,0.000000,0.000000,0.000000,0.000000,0.000000,0.000000,0.000000,0.000000,0.000000,0.000000,0.000000,0.000000,0.116213,3,0
570000,0.004349,14.472057,-0.044382,0.023848,25.135109,-0.040656,0.000370,0.004471,1.569934,-0.012640,-0.000238,-0.000460,0.000017,-0.000827,-0.000004,0.003779,-0.004481,0.143156,0.053304,0.176446,0.176443,0.170215,0.870588,0.000000,0.000000,0.000000,0.000000,0.000000,0.000000,0.000000,0.000000,0.000000,0.000000,0.000000,0.000000,0.139014,3,0
580000,0.004456,14.731218,-0.044476,0.024039,25.146912,-0.041066,0.000367,0.004850,1.569913,-0.013659,-0.000256,-0.000504,0.000018,-0.000916,-0.000004,0.011409,-0.004592,0.265301,0.011226,0.176770,0.176767,0.170158,0.863576,0.000000,0.000000,0.000000,0.000000,0.000000,0.000000,0.000000,0.000000,0.000000,0.000000,0.000000,0.000000,0.257523,3,0
590000,0.004562,14.989316,-0.044879,0.024192,25.157024,-0.041757,0.000373,0.005170,1.569898,-0.014543,-0.000275,-0.000506,0.000020,-0.000995,-0.000005,0.008169,-0.004701,0.224689,0.000412,0.177136,0.177133,0.170139,0.856449,0.000000,0.000000,0.000000,0.000000,0.000000,0.000000,0.000000,0.000000,0.000000,0.000000,0.000000,0.000000,0.218103,3,0
600000,0.004667,15.246359,-0.046130,0.024528,25.165354,-0.043678,0.000370,0.005453,1.569893,-0.015289,-0.000295,-0.000386,0.000021,-0.001062,-0.000005,0.005687,-0.004809,0.185158,-0.029248,0.177540,0.177537,0.170153,0.849214,0.000000,0.000000,0.000000,0.000000,0.000000,0.000000,0.000000,0.000000,0.000000,0.000000,0.000000,0.000000,0.179740,3,0
610000,0.004771,15.502359,-0.045294,0.024742,25.171963,-0.042531,0.000369,0.005691,1.569872,-0.015893,-0.000315,-0.000575,0.000023,-0.001118,-0.000005,0.003813,-0.004917,0.146700,0.045037,0.177979,0.177975,0.170196,0.841879,0.000000,0.000000,0.000000,0.000000,0.000000,0.000000,0.000000,0.000000,0.000000,0.000000,0.000000,0.000000,0.142427,3,0
620000,0.004874,15.762053,-0.046410,0.025015,25.184515,-0.044139,0.000374,0.006124,1.569862,-0.017022,-0.000337,-0.000471,0.000025,-0.001224,-0.000006,0.011743,-0.005024,0.268332,-0.024254,0.178448,0.178444,0.170266,0.834452,0.000000,0.000000,0.000000,0.000000,0.000000,0.000000,0.000000,0.000000,0.000000,0.000000,0.000000,0.000000,0.260398,3,0
630000,0.004976,16.021856,-0.046735,0.025209,25.197317,-0.044536,0.000373,0.006569,1.569850,-0.018169,-0.000359,-0.000490,0.000028,-0.001334,-0.000006,0.011529,-0.005129,0.266937,0.004156,0.178943,0.178939,0.170357,0.826941,0.000000,0.000000,0.000000,0.000000,0.000000,0.000000,0.000000,0.000000,0.000000,0.000000,0.000000,0.000000,0.259024,3,0
640000,0.005076,16.277603,-0.045512,0.025401,25.203213,-0.042666,0.000374,0.006798,1.569834,-0.018722,-0.000382,-0.000755,0.000030,-0.001388,-0.000006,0.003143,-0.005233,0.126282,0.058836,0.179461,0.179457,0.170467,0.819355,0.000000,0.000000,0.000000,0.000000,0.000000,0.000000,0.000000,0.000000,0.000000,0.000000,0.000000,0.000000,0.122608,3,0
650000,0.005174,16.535883,-0.044984,0.025595,25.213278,-0.042151,0.000366,0.007167,1.569823,-0.019654,-0.000407,-0.000910,0.000032,-0.001481,-0.000007,0.007212,-0.005335,0.208416,0.033793,0.179999,0.179995,0.170592,0.811700,0.000000,0.000000,0.000000,0.000000,0.000000,0.000000,0.000000,0.000000,0.000000,0.000000,0.000000,0.000000,0.202230,3,0
660000,0.005272,16.794882,-0.046478,0.025845,25.224508,-0.044601,0.000357,0.007582,1.569816,-0.020694,-0.000432,-0.000735,0.000035,-0.001586,-0.000007,0.008661,-0.005436,0.228340,-0.037545,0.180554,0.180550,0.170730,0.803986,0.000000,0.000000,0.000000,0.000000,0.000000,0.000000,0.000000,0.000000,0.000000,0.000000,0.000000,0.000000,0.221533,3,0
670000,0.005368,17.053997,-0.046930,0.026035,25.235958,-0.045400,0.000350,0.007999,1.569809,-0.021750,-0.000458,-0.000735,0.000038,-0.001695,-0.000008,0.008382,-0.005536,0.227654,-0.000095,0.181123,0.181118,0.170878,0.796221,0.000000,0.000000,0.000000,0.000000,0.000000,0.000000,0.000000,0.000000,0.000000,0.000000,0.000000,0.000000,0.220847,3,0
680000,0.005462,17.313824,-0.047614,0.026125,25.248360,-0.046336,0.000348,0.008464,1.569797,-0.022914,-0.000485,-0.000696,0.000040,-0.001817,-0.000008,0.009854,-0.005633,0.246731,-0.008029,0.181702,0.181698,0.171034,0.788412,0.000000,0.000000,0.000000,0.000000,0.000000,0.000000,0.000000,0.000000,0.000000,0.000000,0.000000,0.000000,0.239322,3,0
690000,0.005554,17.571943,-0.048007,0.026301,25.257845,-0.047080,0.000346,0.008832,1.569782,-0.023805,-0.000513,-0.000710,0.000043,-0.001912,-0.000009,0.005571,-0.005728,0.185568,0.002656,0.182290,0.182286,0.171195,0.780567,0.000000,0.000000,0.000000,0.000000,0.000000,0.000000,0.000000,0.000000,0.000000,0.000000,0.000000,0.000000,0.180015,3,0
700000,0.005644,17.830790,-0.047756,0.026401,25.268429,-0.046876,0.000345,0.009240,1.569769,-0.024808,-0.000542,-0.000839,0.000047,-0.002022,-0.000009,0.006944,-0.005821,0.205658,0.025412,0.182884,0.182880,0.171359,0.772695,0.000000,0.000000,0.000000,0.000000,0.000000,0.000000,0.000000,0.000000,0.000000,0.000000,0.000000,0.000000,0.199468,3,0
710000,0.005730,18.090963,-0.046643,0.026463,25.281162,-0.045329,0.000350,0.009729,1.569767,-0.026021,-0.000572,-0.001125,0.000050,-0.002156,-0.000010,0.010193,-0.005911,0.244888,0.055460,0.183483,0.183478,0.171523,0.764803,0.000000,0.000000,0.000000,0.000000,0.000000,0.000000,0.000000,0.000000,0.000000,0.000000,0.000000,0.000000,0.237467,3,0
720000,0.005815,18.350620,-0.046845,0.026535,25.293043,-0.045883,0.000344,0.010191,1.569758,-0.027144,-0.000603,-0.001173,0.000053,-0.002283,-0.000010,0.008062,-0.005999,0.223133,0.008916,0.184082,0.184077,0.171687,0.756898,0.000000,0.000000,0.000000,0.000000,0.000000,0.000000,0.000000,0.000000,0.000000,0.000000,0.000000,0.000000,0.216366,3,0
730000,0.005898,18.607931,-0.046110,0.026723,25.300667,-0.044699,0.000329,0.010512,1.569740,-0.027870,-0.000634,-0.001396,0.000057,-0.002366,-0.000011,0.003558,-0.006085,0.142267,0.041770,0.184682,0.184677,0.171848,0.748987,0.000000,0.000000,0.000000,0.000000,0.000000,0.000000,0.000000,0.000000,0.000000,0.000000,0.000000,0.000000,0.138014,3,0
740000,0.005979,18.865364,-0.046888,0.026812,25.308466,-0.045785,0.000315,0.010825,1.569733,-0.028612,-0.000666,-0.001334,0.000061,-0.002453,-0.000011,0.003344,-0.006169,0.143305,-0.011425,0.185281,0.185275,0.172005,0.741079,0.000000,0.000000,0.000000,0.000000,0.000000,0.000000,0.000000,0.000000,0.000000,0.000000,0.000000,0.000000,0.139008,3,0
750000,0.006057,19.122917,-0.047784,0.026850,25.316313,-0.047001,0.000307,0.011154,1.569728,-0.029369,-0.000700,-0.001251,0.000065,-0.002543,-0.000011,0.003403,-0.006250,0.144220,-0.015208,0.185876,0.185870,0.172156,0.733179,0.000000,0.000000,0.000000,0.000000,0.000000,0.000000,0.000000,0.000000,0.000000,0.000000,0.000000,0.000000,0.139885,3,0
760000,0.006134,19.382442,-0.047225,0.027016,25.327534,-0.046214,0.000295,0.011611,1.569720,-0.030456,-0.000734,-0.001453,0.000069,-0.002674,-0.000012,0.006979,-0.006331,0.204651,0.035906,0.186466,0.186460,0.172301,0.725295,0.000000,0.000000,0.000000,0.000000,0.000000,0.000000,0.000000,0.000000,0.000000,0.000000,0.000000,0.000000,0.198385,3,0
770000,0.006208,19.642061,-0.047096,0.027109,25.338839,-0.046225,0.000296,0.012090,1.569705,-0.031551,-0.000769,-0.001572,0.000073,-0.002808,-0.000013,0.006759,-0.006408,0.203440,0.020711,0.187050,0.187044,0.172437,0.717433,0.000000,0.000000,0.000000,0.000000,0.000000,0.000000,0.000000,0.000000,0.000000,0.000000,0.000000,0.000000,0.197196,3,0
780000,0.006280,19.901775,-0.045811,0.027152,25.350252,-0.044469,0.000283,0.012577,1.569690,-0.032652,-0.000805,-0.001923,0.000078,-0.002946,-0.000013,0.007203,-0.006483,0.202131,0.060882,0.187627,0.187621,0.172564,0.709599,0.000000,0.000000,0.000000,0.000000,0.000000,0.000000,0.000000,0.000000,0.000000,0.000000,0.000000,0.000000,0.195909,3,0
790000,0.006350,20.159706,-0.046528,0.027196,25.358252,-0.045526,0.000277,0.012935,1.569687,-0.033430,-0.000841,-0.001869,0.000083,-0.003045,-0.000014,0.003235,-0.006556,0.141092,-0.009364,0.188195,0.188189,0.172682,0.701800,0.000000,0.000000,0.000000,0.000000,0.000000,0.000000,0.000000,0.000000,0.000000,0.000000,0.000000,0.000000,0.136815,3,0
800000,0.006419,20.420244,-0.046925,0.027344,25.370716,-0.046321,0.000262,0.013482,1.569677,-0.034661,-0.000879,-0.001883,0.000087,-0.003203,-0.000014,0.007894,-0.006627,0.221024,0.002108,0.188754,0.188748,0.172788,0.694040,0.000000,0.000000,0.000000,0.000000,0.000000,0.000000,0.000000,0.000000,0.000000,0.000000,0.000000,0.000000,0.214167,3,0
810000,0.006486,20.681486,-0.046097,0.027493,25.384409,-0.044993,0.000259,0.014082,1.569663,-0.036005,-0.000917,-0.002153,0.000093,-0.003380,-0.000015,0.009526,-0.006697,0.238663,0.044785,0.189304,0.189297,0.172883,0.686327,0.000000,0.000000,0.000000,0.000000,0.000000,0.000000,0.000000,0.000000,0.000000,0.000000,0.000000,0.000000,0.231223,3,0
820000,0.006551,20.940907,-0.046126,0.027570,25.394722,-0.045250,0.000253,0.014548,1.569659,-0.037007,-0.000956,-0.002244,0.000098,-0.003513,-0.000016,0.005046,-0.006765,0.176075,0.014755,0.189842,0.189836,0.172966,0.678663,0.000000,0.000000,0.000000,0.000000,0.000000,0.000000,0.000000,0.000000,0.000000,0.000000,0.000000,0.000000,0.170629,3,0
830000,0.006614,21.202303,-0.045763,0.027657,25.408272,-0.044706,0.000234,0.015157,1.569647,-0.038354,-0.000996,-0.002421,0.000103,-0.003696,-0.000016,0.009020,-0.006831,0.234613,0.028297,0.190369,0.190362,0.173036,0.671056,0.000000,0.000000,0.000000,0.000000,0.000000,0.000000,0.000000,0.000000,0.000000,0.000000,0.000000,0.000000,0.227265,3,0
840000,0.006676,21.462492,-0.046267,0.027688,25.419556,-0.045348,0.000226,0.015667,1.569628,-0.039466,-0.001037,-0.002410,0.000109,-0.003849,-0.000017,0.005941,-0.006895,0.191748,-0.001990,0.190883,0.190877,0.173093,0.663510,0.000000,0.000000,0.000000,0.000000,0.000000,0.000000,0.000000,0.000000,0.000000,0.000000,0.000000,0.000000,0.185768,3,0
850000,0.006736,21.722118,-0.045615,0.027818,25.429859,-0.044593,0.000209,0.016146,1.569612,-0.040461,-0.001078,-0.002654,0.000115,-0.003988,-0.000018,0.004910,-0.006958,0.169992,0.038450,0.191386,0.191379,0.173137,0.656028,0.000000,0.000000,0.000000,0.000000,0.000000,0.000000,0.000000,0.000000,0.000000,0.000000,0.000000,0.000000,0.164708,3,0
860000,0.006793,21.984364,-0.045115,0.027823,25.444569,-0.044068,0.000205,0.016819,1.569605,-0.041925,-0.001121,-0.002866,0.000121,-0.004196,-0.000019,0.010122,-0.007018,0.248203,0.032839,0.191876,0.191869,0.173167,0.648615,0.000000,0.000000,0.000000,0.000000,0.000000,0.000000,0.000000,0.000000,0.000000,0.000000,0.000000,0.000000,0.240361,3,0
870000,0.006849,22.242825,-0.044156,0.027914,25.452484,-0.042952,0.000187,0.017199,1.569591,-0.042668,-0.001163,-0.003182,0.000127,-0.004304,-0.000019,0.002911,-0.007076,0.124964,0.048696,0.192352,0.192346,0.173183,0.641276,0.000000,0.000000,0.000000,0.000000,0.000000,0.000000,0.000000,0.000000,0.000000,0.000000,0.000000,0.000000,0.121150,3,0
880000,0.006904,22.502647,-0.045107,0.028048,25.462645,-0.044455,0.000181,0.017677,1.569581,-0.043656,-0.001207,-0.003066,0.000133,-0.004448,-0.000020,0.004431,-0.007133,0.164606,-0.018000,0.192816,0.192809,0.173185,0.634013,0.000000,0.000000,0.000000,0.000000,0.000000,0.000000,0.000000,0.000000,0.000000,0.000000,0.000000,0.000000,0.159467,3,0
890000,0.006958,22.763817,-0.045442,0.028148,25.474997,-0.044853,0.000167,0.018272,1.569562,-0.044881,-0.001251,-0.003093,0.000140,-0.004631,-0.000020,0.006649,-0.007190,0.202866,0.003770,0.193266,0.193259,0.173172,0.626831,0.000000,0.000000,0.000000,0.000000,0.000000,0.000000,0.000000,0.000000,0.000000,0.000000,0.000000,0.000000,0.196454,3,0
900000,0.007011,23.023108,-0.045094,0.028263,25.483940,-0.044428,0.000161,0.018700,1.569545,-0.045735,-0.001295,-0.003280,0.000147,-0.004760,-0.000021,0.003310,-0.007245,0.140362,0.027714,0.193702,0.193695,0.173146,0.619732,0.000000,0.000000,0.000000,0.000000,0.000000,0.000000,0.000000,0.000000,0.000000,0.000000,0.000000,0.000000,0.136011,3,0
910000,0.007062,23.283112,-0.046065,0.028296,25.494097,-0.045848,0.000157,0.019184,1.569525,-0.046712,-0.001341,-0.003159,0.000154,-0.004910,-0.000022,0.004154,-0.007298,0.159285,-0.018184,0.194125,0.194118,0.173105,0.612719,0.000000,0.000000,0.000000,0.000000,0.000000,0.000000,0.000000,0.000000,0.000000,0.000000,0.000000,0.000000,0.154293,3,0
920000,0.007110,23.543175,-0.045347,0.028251,25.504223,-0.044917,0.000148,0.019672,1.569513,-0.047683,-0.001387,-0.003440,0.000161,-0.005062,-0.000022,0.004285,-0.007349,0.157604,0.040887,0.194535,0.194528,0.173050,0.605796,0.000000,0.000000,0.000000,0.000000,0.000000,0.000000,0.000000,0.000000,0.000000,0.000000,0.000000,0.000000,0.152658,3,0
930000,0.007157,23.803938,-0.046743,0.028259,25.515450,-0.047182,0.000142,0.020235,1.569493,-0.048774,-0.001433,-0.003217,0.000168,-0.005235,-0.000023,0.005162,-0.007397,0.175745,-0.032697,0.194932,0.194925,0.172981,0.598963,0.000000,0.000000,0.000000,0.000000,0.000000,0.000000,0.000000,0.000000,0.000000,0.000000,0.000000,0.000000,0.170187,3,0
940000,0.007201,24.063454,-0.046131,0.028261,25.524303,-0.046549,0.000116,0.020688,1.569481,-0.049607,-0.001480,-0.003482,0.000176,-0.005369,-0.000023,0.003115,-0.007444,0.133535,0.037778,0.195315,0.195308,0.172898,0.592225,0.000000,0.000000,0.000000,0.000000,0.000000,0.000000,0.000000,0.000000,0.000000,0.000000,0.000000,0.000000,0.129387,3,0
950000,0.007244,24.323673,-0.047298,0.028271,25.534279,-0.048416,0.000093,0.021186,1.569466,-0.050563,-0.001528,-0.003314,0.000184,-0.005525,-0.000024,0.003841,-0.007488,0.152239,-0.024215,0.195686,0.195679,0.172801,0.585582,0.000000,0.000000,0.000000,0.000000,0.000000,0.000000,0.000000,0.000000,0.000000,0.000000,0.000000,0.000000,0.147452,3,0
960000,0.007286,24.583941,-0.048529,0.028279,25.544287,-0.050136,0.000077,0.021697,1.569450,-0.051512,-0.001576,-0.003132,0.000191,-0.005682,-0.000025,0.003762,-0.007531,0.150343,-0.025892,0.196043,0.196036,0.172691,0.579037,0.000000,0.000000,0.000000,0.000000,0.000000,0.000000,0.000000,0.000000,0.000000,0.000000,0.000000,0.000000,0.145614,3,0
970000,0.007326,24.843603,-0.048991,0.028371,25.553141,-0.050997,0.000052,0.022146,1.569440,-0.052327,-0.001625,-0.003145,0.000200,-0.005819,-0.000025,0.002673,-0.007574,0.128523,0.001554,0.196389,0.196382,0.172567,0.572591,0.000000,0.000000,0.000000,0.000000,0.000000,0.000000,0.000000,0.000000,0.000000,0.000000,0.000000,0.000000,0.124533,3,0
980000,0.007363,25.102671,-0.047946,0.028268,25.560856,-0.049351,0.000027,0.022547,1.569426,-0.053009,-0.001674,-0.003539,0.000208,-0.005936,-0.000026,0.002342,-0.007613,0.107317,0.054218,0.196722,0.196715,0.172431,0.566245,0.000000,0.000000,0.000000,0.000000,0.000000,0.000000,0.000000,0.000000,0.000000,0.000000,0.000000,0.000000,0.104057,3,0
990000,0.007399,25.365059,-0.048448,0.028352,25.574219,-0.050235,0.000006,0.023260,1.569414,-0.054326,-0.001724,-0.003542,0.000217,-0.006165,-0.000027,0.006849,-0.007651,0.205992,-0.000204,0.197043,0.197036,0.172282,0.560000,0.000000,0.000000,0.000000,0.000000,0.000000,0.000000,0.000000,0.000000,0.000000,0.000000,0.000000,0.000000,0.199364,3,0
1000000,0.007434,25.626152,-0.047843,0.028371,25.585165,-0.049431,-0.000008,0.023846,1.569407,-0.055366,-0.001774,-0.003830,0.000226,-0.006349,-0.000028,0.004489,-0.007688,0.162138,0.038687,0.197354,0.197346,0.172120,0.553859,0.000000,0.000000,0.000000,0.000000,0.000000,0.000000,0.000000,0.000000,0.000000,0.000000,0.000000,0.000000,0.156979,3,0
1010000,0.007468,25.887270,-0.047785,0.028369,25.595991,-0.049333,-0.000026,0.024415,1.569404,-0.056393,-0.001824,-0.003976,0.000235,-0.006533,-0.000028,0.004164,-0.007722,0.159363,0.019359,0.197653,0.197645,0.171947,0.547821,0.000000,0.000000,0.000000,0.000000,0.000000,0.000000,0.000000,0.000000,0.000000,0.000000,0.000000,0.000000,0.154293,3,0
1020000,0.007499,26.149725,-0.047980,0.028263,25.609140,-0.049594,-0.000054,0.025121,1.569393,-0.057663,-0.001875,-0.004059,0.000244,-0.006764,-0.000029,0.006239,-0.007755,0.196318,0.010453,0.197941,0.197934,0.171761,0.541887,0.000000,0.000000,0.000000,0.000000,0.000000,0.000000,0.000000,0.000000,0.000000,0.000000,0.000000,0.000000,0.189988,3,0
1030000,0.007528,26.410870,-0.046958,0.028291,25.619808,-0.048171,-0.000076,0.025701,1.569386,-0.058651,-0.001926,-0.004464,0.000254,-0.006946,-0.000030,0.004211,-0.007786,0.152399,0.053194,0.198219,0.198212,0.171565,0.536057,0.000000,0.000000,0.000000,0.000000,0.000000,0.000000,0.000000,0.000000,0.000000,0.000000,0.000000,0.000000,0.147556,3,0
1040000,0.007555,26.672695,-0.045974,0.028228,25.631563,-0.046841,-0.000091,0.026331,1.569382,-0.059752,-0.001978,-0.004859,0.000264,-0.007153,-0.000031,0.005065,-0.007815,0.169449,0.051399,0.198488,0.198480,0.171357,0.530333,0.000000,0.000000,0.000000,0.000000,0.000000,0.000000,0.000000,0.000000,0.000000,0.000000,0.000000,0.000000,0.164015,3,0
1050000,0.007583,26.931892,-0.047092,0.028284,25.638618,-0.048301,-0.000105,0.026695,1.569373,-0.060317,-0.002030,-0.004687,0.000273,-0.007260,-0.000031,0.001297,-0.007843,0.086414,-0.022673,0.198747,0.198740,0.171139,0.524714,0.000000,0.000000,0.000000,0.000000,0.000000,0.000000,0.000000,0.000000,0.000000,0.000000,0.000000,0.000000,0.083897,3,0
1060000,0.007609,27.190477,-0.046634,0.028245,25.644405,-0.047570,-0.000119,0.026988,1.569359,-0.060746,-0.002081,-0.004945,0.000284,-0.007343,-0.000032,0.000884,-0.007870,0.065697,0.033161,0.198997,0.198990,0.170911,0.519200,0.000000,0.000000,0.000000,0.000000,0.000000,0.000000,0.000000,0.000000,0.000000,0.000000,0.000000,0.000000,0.063971,3,0
1070000,0.007633,27.451756,-0.046709,0.028191,25.654852,-0.047619,-0.000132,0.027567,1.569352,-0.061697,-0.002134,-0.005060,0.000294,-0.007529,-0.000032,0.003430,-0.007895,0.144995,0.014185,0.199239,0.199231,0.170673,0.513792,0.000000,0.000000,0.000000,0.000000,0.000000,0.000000,0.000000,0.000000,0.000000,0.000000,0.000000,0.000000,0.140388,3,0
1080000,0.007656,27.710402,-0.048223,0.028142,25.660522,-0.049757,-0.000162,0.027872,1.569330,-0.062110,-0.002186,-0.004776,0.000304,-0.007611,-0.000033,0.000854,-0.007919,0.062521,-0.036354,0.199472,0.199465,0.170426,0.508488,0.000000,0.000000,0.000000,0.000000,0.000000,0.000000,0.000000,0.000000,0.000000,0.000000,0.000000,0.000000,0.060927,3,0
1090000,0.007677,27.969761,-0.048761,0.027990,25.667372,-0.050525,-0.000176,0.028249,1.569318,-0.062651,-0.002239,-0.004768,0.000315,-0.007720,-0.000033,0.001097,-0.007941,0.082123,-0.001224,0.199699,0.199692,0.170169,0.503289,0.000000,0.000000,0.000000,0.000000,0.000000,0.000000,0.000000,0.000000,0.000000,0.000000,0.000000,0.000000,0.079760,3,0
1100000,0.007695,28.229158,-0.048216,0.028016,25.674257,-0.049929,-0.000203,0.028615,1.569312,-0.063184,-0.002292,-0.005068,0.000326,-0.007829,-0.000034,0.001296,-0.007962,0.081121,0.037296,0.199918,0.199911,0.169905,0.498195,0.000000,0.000000,0.000000,0.000000,0.000000,0.000000,0.000000,0.000000,0.000000,0.000000,0.000000,0.000000,0.078795,3,0
1110000,0.007712,28.489920,-0.047344,0.027921,25.683449,-0.049019,-0.000223,0.029124,1.569290,-0.063973,-0.002345,-0.005463,0.000337,-0.007993,-0.000034,0.002709,-0.007979,0.119839,0.048743,0.200130,0.200123,0.169631,0.493204,0.000000,0.000000,0.000000,0.000000,0.000000,0.000000,0.000000,0.000000,0.000000,0.000000,0.000000,0.000000,0.116097,3,0
1120000,0.007727,28.750698,-0.046661,0.027797,25.692551,-0.048115,-0.000251,0.029639,1.569278,-0.064748,-0.002398,-0.005804,0.000348,-0.008157,-0.000035,0.002513,-0.007995,0.117409,0.041722,0.200336,0.200329,0.169351,0.488317,0.000000,0.000000,0.000000,0.000000,0.000000,0.000000,0.000000,0.000000,0.000000,0.000000,0.000000,0.000000,0.113750,3,0
1130000,0.007740,29.014147,-0.046173,0.027716,25.706306,-0.047683,-0.000283,0.030450,1.569273,-0.066034,-0.002452,-0.006092,0.000360,-0.008432,-0.000036,0.006297,-0.008009,0.194481,0.034577,0.200537,0.200529,0.169063,0.483532,0.000000,0.000000,0.000000,0.000000,0.000000,0.000000,0.000000,0.000000,0.000000,0.000000,0.000000,0.000000,0.188140,3,0
1140000,0.007753,29.276236,-0.046633,0.027638,25.717426,-0.048403,-0.000303,0.031105,1.569266,-0.067025,-0.002506,-0.006104,0.000372,-0.008647,-0.000037,0.003614,-0.008021,0.149563,0.000775,0.200731,0.200724,0.168767,0.478850,0.000000,0.000000,0.000000,0.000000,0.000000,0.000000,0.000000,0.000000,0.000000,0.000000,0.000000,0.000000,0.144768,3,0
1150000,0.007764,29.539648,-0.045613,0.027609,25.730810,-0.047025,-0.000328,0.031909,1.569256,-0.068252,-0.002560,-0.006554,0.000384,-0.008918,-0.000038,0.006023,-0.008034,0.185545,0.053666,0.200921,0.200914,0.168466,0.474268,0.000000,0.000000,0.000000,0.000000,0.000000,0.000000,0.000000,0.000000,0.000000,0.000000,0.000000,0.000000,0.179499,3,0
1160000,0.007775,29.801029,-0.046785,0.027581,25.740492,-0.048660,-0.000356,0.032458,1.569234,-0.069055,-0.002615,-0.006352,0.000396,-0.009096,-0.000039,0.002461,-0.008044,0.120787,-0.024850,0.201107,0.201100,0.168158,0.469787,0.000000,0.000000,0.000000,0.000000,0.000000,0.000000,0.000000,0.000000,0.000000,0.000000,0.000000,0.000000,0.116998,3,0
1170000,0.007782,30.059744,-0.045697,0.027383,25.745342,-0.047229,-0.000386,0.032692,1.569222,-0.069305,-0.002668,-0.006826,0.000408,-0.009154,-0.000039,0.000763,-0.008054,0.038219,0.056496,0.201289,0.201281,0.167845,0.465404,0.000000,0.000000,0.000000,0.000000,0.000000,0.000000,0.000000,0.000000,0.000000,0.000000,0.000000,0.000000,0.037747,3,0
1180000,0.007789,30.319832,-0.045814,0.027321,25.752666,-0.047658,-0.000424,0.033088,1.569208,-0.069819,-0.002722,-0.006938,0.000421,-0.009272,-0.000039,0.001009,-0.008060,0.077639,0.013006,0.201466,0.201459,0.167526,0.461120,0.000000,0.000000,0.000000,0.000000,0.000000,0.000000,0.000000,0.000000,0.000000,0.000000,0.000000,0.000000,0.075435,3,0
1190000,0.007793,30.581940,-0.045173,0.027152,25.763302,-0.047096,-0.000452,0.033712,1.569204,-0.070716,-0.002776,-0.007286,0.000434,-0.009481,-0.000040,0.003233,-0.008066,0.135542,0.040358,0.201641,0.201633,0.167202,0.456933,0.000000,0.000000,0.000000,0.000000,0.000000,0.000000,0.000000,0.000000,0.000000,0.000000,0.000000,0.000000,0.131219,3,0
1200000,0.007797,30.846037,-0.045123,0.027013,25.777351,-0.047131,-0.000491,0.034570,1.569186,-0.071983,-0.002830,-0.007456,0.000447,-0.009781,-0.000042,0.005968,-0.008068,0.191389,0.018924,0.201812,0.201805,0.166873,0.452841,0.000000,0.000000,0.000000,0.000000,0.000000,0.000000,0.000000,0.000000,0.000000,0.000000,0.000000,0.000000,0.185116,3,0
1210000,0.007798,31.108747,-0.045333,0.026842,25.788799,-0.047745,-0.000518,0.035255,1.569177,-0.072949,-0.002885,-0.007546,0.000460,-0.010013,-0.000043,0.003450,-0.008070,0.145819,0.009730,0.201981,0.201974,0.166540,0.448845,0.000000,0.000000,0.000000,0.000000,0.000000,0.000000,0.000000,0.000000,0.000000,0.000000,0.000000,0.000000,0.141125,3,0
1220000,0.007798,31.372768,-0.046471,0.026664,25.802414,-0.049496,-0.000547,0.036096,1.569161,-0.074150,-0.002939,-0.007351,0.000473,-0.010305,-0.000044,0.005387,-0.008069,0.181175,-0.023587,0.202148,0.202140,0.166204,0.444941,0.000000,0.000000,0.000000,0.000000,0.000000,0.000000,0.000000,0.000000,0.000000,0.000000,0.000000,0.000000,0.175245,3,0
1230000,0.007796,31.633385,-0.045624,0.026610,25.809889,-0.048411,-0.000586,0.036513,1.569143,-0.074649,-0.002993,-0.007779,0.000486,-0.010429,-0.000044,0.001328,-0.008069,0.076050,0.048794,0.202313,0.202305,0.165863,0.441131,0.000000,0.000000,0.000000,0.000000,0.000000,0.000000,0.000000,0.000000,0.000000,0.000000,0.000000,0.000000,0.073899,3,0
1240000,0.007794,31.894674,-0.046596,0.026533,25.818474,-0.049966,-0.000613,0.037007,1.569124,-0.075269,-0.003047,-0.007632,0.000500,-0.010584,-0.000045,0.001472,-0.008066,0.093664,-0.017369,0.202477,0.202469,0.165520,0.437411,0.000000,0.000000,0.000000,0.000000,0.000000,0.000000,0.000000,0.000000,0.000000,0.000000,0.000000,0.000000,0.090839,3,0
1250000,0.007790,32.153267,-0.045506,0.026466,25.822197,-0.048498,-0.000648,0.037154,1.569108,-0.075338,-0.003100,-0.008142,0.000514,-0.010602,-0.000045,0.000575,-0.008064,0.011196,0.057959,0.202639,0.202631,0.165174,0.433781,0.000000,0.000000,0.000000,0.000000,0.000000,0.000000,0.000000,0.000000,0.000000,0.000000,0.000000,0.000000,0.013331,3,0
1260000,0.007785,32.415249,-0.045818,0.026330,25.831886,-0.049181,-0.000683,0.037743,1.569092,-0.076064,-0.003153,-0.008206,0.000527,-0.010789,-0.000046,0.001980,-0.008058,0.110386,0.006620,0.202800,0.202792,0.164825,0.430240,0.000000,0.000000,0.000000,0.000000,0.000000,0.000000,0.000000,0.000000,0.000000,0.000000,0.000000,0.000000,0.106939,3,0
1270000,0.007780,32.675865,-0.046736,0.026197,25.839048,-0.050426,-0.000706,0.038149,1.569076,-0.076505,-0.003207,-0.008074,0.000541,-0.010905,-0.000046,0.000771,-0.008052,0.066975,-0.015295,0.202961,0.202952,0.164473,0.426785,0.000000,0.000000,0.000000,0.000000,0.000000,0.000000,0.000000,0.000000,0.000000,0.000000,0.000000,0.000000,0.065175,3,0
1280000,0.007774,32.939842,-0.047406,0.026132,25.852198,-0.051614,-0.000736,0.038976,1.569067,-0.077582,-0.003261,-0.008033,0.000555,-0.011190,-0.000047,0.004352,-0.008046,0.164108,-0.005662,0.203121,0.203112,0.164120,0.423416,0.000000,0.000000,0.000000,0.000000,0.000000,0.000000,0.000000,0.000000,0.000000,0.000000,0.000000,0.000000,0.158745,3,0
1290000,0.007767,33.198380,-0.048143,0.026000,25.855469,-0.052472,-0.000776,0.039082,1.569044,-0.077579,-0.003313,-0.007962,0.000569,-0.011189,-0.000047,0.000021,-0.008039,-0.000607,-0.007875,0.203281,0.203272,0.163765,0.420131,0.000000,0.000000,0.000000,0.000000,0.000000,0.000000,0.000000,0.000000,0.000000,0.000000,0.000000,0.000000,0.007789,3,0
1300000,0.007758,33.458290,-0.049238,0.025786,25.861191,-0.053908,-0.000813,0.039367,1.569024,-0.077835,-0.003366,-0.007778,0.000584,-0.011259,-0.000047,0.000325,-0.008029,0.039005,-0.020671,0.203441,0.203432,0.163409,0.416929,0.000000,0.000000,0.000000,0.000000,0.000000,0.000000,0.000000,0.000000,0.000000,0.000000,0.000000,0.000000,0.038472,3,0
1310000,0.007746,33.717529,-0.048096,0.025701,25.865635,-0.052395,-0.000845,0.039566,1.569011,-0.077944,-0.003418,-0.008344,0.000599,-0.011290,-0.000048,0.000685,-0.008020,0.017586,0.062091,0.203602,0.203593,0.163052,0.413809,0.000000,0.000000,0.000000,0.000000,0.000000,0.000000,0.000000,0.000000,0.000000,0.000000,0.000000,0.000000,0.018673,3,0
1320000,0.007735,33.979488,-0.049099,0.025614,25.874842,-0.053820,-0.000889,0.040118,1.569001,-0.078571,-0.003471,-0.008192,0.000613,-0.011466,-0.000048,0.001550,-0.008007,0.096245,-0.017322,0.203764,0.203754,0.162694,0.410768,0.000000,0.000000,0.000000,0.000000,0.000000,0.000000,0.000000,0.000000,0.000000,0.000000,0.000000,0.000000,0.093297,3,0
1330000,0.007722,34.241421,-0.048158,0.025518,25.883989,-0.052821,-0.000922,0.040656,1.568986,-0.079165,-0.003523,-0.008704,0.000628,-0.011636,-0.000049,0.001883,-0.007995,0.092613,0.055055,0.203926,0.203916,0.162335,0.407806,0.000000,0.000000,0.000000,0.000000,0.000000,0.000000,0.000000,0.000000,0.000000,0.000000,0.000000,0.000000,0.089799,3,0
1340000,0.007709,34.505348,-0.048373,0.025442,25.896418,-0.053232,-0.000957,0.041451,1.568973,-0.080123,-0.003575,-0.008826,0.000644,-0.011913,-0.000050,0.003592,-0.007981,0.148659,0.012044,0.204089,0.204079,0.161976,0.404921,0.000000,0.000000,0.000000,0.000000,0.000000,0.000000,0.000000,0.000000,0.000000,0.000000,0.000000,0.000000,0.143811,3,0
1350000,0.007697,34.763802,-0.049373,0.025313,25.899029,-0.054648,-0.000999,0.041504,1.568957,-0.080022,-0.003626,-0.008666,0.000658,-0.011883,-0.000050,0.000099,-0.007967,-0.016003,-0.017097,0.204253,0.204243,0.161617,0.402111,0.000000,0.000000,0.000000,0.000000,0.000000,0.000000,0.000000,0.000000,0.000000,0.000000,0.000000,0.000000,0.017267,3,0
1360000,0.007681,35.026344,-0.050246,0.025044,25.908852,-0.055857,-0.001034,0.042101,1.568937,-0.080684,-0.003678,-0.008564,0.000674,-0.012080,-0.000051,0.001748,-0.007952,0.103218,-0.011747,0.204419,0.204408,0.161259,0.399375,0.000000,0.000000,0.000000,0.000000,0.000000,0.000000,0.000000,0.000000,0.000000,0.000000,0.000000,0.000000,0.099996,3,0
1370000,0.007665,35.289524,-0.051537,0.024859,25.919756,-0.057754,-0.001073,0.042785,1.568927,-0.081445,-0.003730,-0.008322,0.000689,-0.012310,-0.000052,0.002402,-0.007935,0.118881,-0.026818,0.204586,0.204575,0.160900,0.396713,0.000000,0.000000,0.000000,0.000000,0.000000,0.000000,0.000000,0.000000,0.000000,0.000000,0.000000,0.000000,0.115082,3,0
1380000,0.007644,35.550613,-0.050620,0.024635,25.926872,-0.056500,-0.001109,0.043166,1.568902,-0.081785,-0.003780,-0.008857,0.000705,-0.012414,-0.000052,0.000998,-0.007916,0.054379,0.056166,0.204754,0.204743,0.160542,0.394121,0.000000,0.000000,0.000000,0.000000,0.000000,0.000000,0.000000,0.000000,0.000000,0.000000,0.000000,0.000000,0.053078,3,0
1390000,0.007624,35.811008,-0.051621,0.024414,25.932579,-0.057813,-0.001146,0.043452,1.568892,-0.081988,-0.003830,-0.008707,0.000720,-0.012477,-0.000052,0.000214,-0.007893,0.031765,-0.015996,0.204924,0.204913,0.160186,0.391599,0.000000,0.000000,0.000000,0.000000,0.000000,0.000000,0.000000,0.000000,0.000000,0.000000,0.000000,0.000000,0.031611,3,0
1400000,0.007600,36.072746,-0.051466,0.024126,25.940681,-0.057505,-0.001186,0.043924,1.568879,-0.082423,-0.003880,-0.008979,0.000736,-0.012614,-0.000053,0.000913,-0.007870,0.069496,0.027820,0.205096,0.205084,0.159830,0.389146,0.000000,0.000000,0.000000,0.000000,0.000000,0.000000,0.000000,0.000000,0.000000,0.000000,0.000000,0.000000,0.067552,3,0
1410000,0.007576,36.335812,-0.052134,0.023865,25.951139,-0.058344,-0.001223,0.044574,1.568857,-0.083088,-0.003930,-0.008959,0.000752,-0.012827,-0.000054,0.001815,-0.007844,0.105862,-0.003047,0.205270,0.205258,0.159475,0.386760,0.000000,0.000000,0.000000,0.000000,0.000000,0.000000,0.000000,0.000000,0.000000,0.000000,0.000000,0.000000,0.102522,3,0
1420000,0.007549,36.595421,-0.052075,0.023699,25.955206,-0.058316,-0.001254,0.044712,1.568835,-0.083096,-0.003979,-0.009195,0.000768,-0.012830,-0.000054,0.000108,-0.007817,0.001720,0.024509,0.205446,0.205433,0.159122,0.384439,0.000000,0.000000,0.000000,0.000000,0.000000,0.000000,0.000000,0.000000,0.000000,0.000000,0.000000,0.000000,0.007730,3,0
1430000,0.007520,36.853664,-0.051055,0.023571,25.956846,-0.057075,-0.001288,0.044644,1.568810,-0.082846,-0.004026,-0.009780,0.000785,-0.012748,-0.000053,0.000857,-0.007789,-0.039261,0.060793,0.205624,0.205610,0.158770,0.382183,0.000000,0.000000,0.000000,0.000000,0.000000,0.000000,0.000000,0.000000,0.000000,0.000000,0.000000,0.000000,0.038649,3,0
1440000,0.007492,37.115337,-0.050541,0.023423,25.964487,-0.056453,-0.001325,0.045085,1.568791,-0.083214,-0.004074,-0.010189,0.000801,-0.012871,-0.000054,0.000874,-0.007759,0.060299,0.041451,0.205803,0.205789,0.158420,0.379988,0.000000,0.000000,0.000000,0.000000,0.000000,0.000000,0.000000,0.000000,0.000000,0.000000,0.000000,0.000000,0.058715,3,0
1450000,0.007464,37.375614,-0.050849,0.023320,25.969500,-0.056728,-0.001363,0.045308,1.568765,-0.083318,-0.004121,-0.010289,0.000817,-0.012907,-0.000054,0.000074,-0.007730,0.017220,0.010017,0.205985,0.205970,0.158072,0.377855,0.000000,0.000000,0.000000,0.000000,0.000000,0.000000,0.000000,0.000000,0.000000,0.000000,0.000000,0.000000,0.018227,3,0
1460000,0.007435,37.639290,-0.051178,0.023146,25.980560,-0.057405,-0.001409,0.046027,1.568762,-0.084019,-0.004169,-0.010396,0.000834,-0.013148,-0.000055,0.002143,-0.007700,0.114712,0.009696,0.206169,0.206154,0.157727,0.375782,0.000000,0.000000,0.000000,0.000000,0.000000,0.000000,0.000000,0.000000,0.000000,0.000000,0.000000,0.000000,0.111020,3,0
1470000,0.007405,37.898792,-0.050347,0.023021,25.984062,-0.056434,-0.001443,0.046105,1.568750,-0.083952,-0.004215,-0.010926,0.000850,-0.013125,-0.000055,0.000495,-0.007670,-0.009922,0.053811,0.206354,0.206339,0.157383,0.373767,0.000000,0.000000,0.000000,0.000000,0.000000,0.000000,0.000000,0.000000,0.000000,0.000000,0.000000,0.000000,0.012107,3,0
1480000,0.007372,38.159657,-0.049494,0.022773,25.989912,-0.055509,-0.001491,0.046375,1.568737,-0.084120,-0.004260,-0.011469,0.000867,-0.013185,-0.000055,0.000625,-0.007637,0.028725,0.054520,0.206542,0.206526,0.157042,0.371809,0.000000,0.000000,0.000000,0.000000,0.000000,0.000000,0.000000,0.000000,0.000000,0.000000,0.000000,0.000000,0.028703,3,0
1490000,0.007339,38.419128,-0.048744,0.022569,25.993240,-0.054611,-0.001539,0.046434,1.568725,-0.084033,-0.004305,-0.011967,0.000884,-0.013154,-0.000055,0.000448,-0.007603,-0.013531,0.050183,0.206732,0.206715,0.156703,0.369907,0.000000,0.000000,0.000000,0.000000,0.000000,0.000000,0.000000,0.000000,0.000000,0.000000,0.000000,0.000000,0.014982,3,0
1500000,0.007305,38.677223,-0.048476,0.022378,25.993944,-0.054456,-0.001585,0.046275,1.568696,-0.083705,-0.004349,-0.012275,0.000901,-0.013034,-0.000054,0.000645,-0.007567,-0.054367,0.031391,0.206924,0.206906,0.156367,0.368059,0.000000,0.000000,0.000000,0.000000,0.000000,0.000000,0.000000,0.000000,0.000000,0.000000,0.000000,0.000000,0.052996,3,0
1510000,0.007272,38.940140,-0.048757,0.022254,26.003403,-0.054942,-0.001625,0.046851,1.568685,-0.084208,-0.004394,-0.012393,0.000918,-0.013221,-0.000055,0.001193,-0.007533,0.085110,0.010710,0.207117,0.207099,0.156034,0.366264,0.000000,0.000000,0.000000,0.000000,0.000000,0.000000,0.000000,0.000000,0.000000,0.000000,0.000000,0.000000,0.082494,3,0
1520000,0.007237,39.199562,-0.047941,0.022079,26.006483,-0.054110,-0.001672,0.046873,1.568673,-0.084090,-0.004437,-0.012924,0.000935,-0.013177,-0.000054,0.000520,-0.007498,-0.018875,0.052852,0.207313,0.207294,0.155703,0.364522,0.000000,0.000000,0.000000,0.000000,0.000000,0.000000,0.000000,0.000000,0.000000,0.000000,0.000000,0.000000,0.019604,3,0
1530000,0.007199,39.462414,-0.047050,0.021794,26.015701,-0.053369,-0.001707,0.047430,1.568661,-0.084548,-0.004480,-0.013501,0.000952,-0.013352,-0.000055,0.001534,-0.007459,0.079494,0.055967,0.207510,0.207490,0.155376,0.362829,0.000000,0.000000,0.000000,0.000000,0.000000,0.000000,0.000000,0.000000,0.000000,0.000000,0.000000,0.000000,0.077089,3,0
1540000,0.007163,39.725208,-0.047474,0.021588,26.024603,-0.053936,-0.001747,0.047972,1.568653,-0.084983,-0.004524,-0.013560,0.000969,-0.013520,-0.000056,0.000917,-0.007420,0.074978,0.004773,0.207709,0.207689,0.155051,0.361185,0.000000,0.000000,0.000000,0.000000,0.000000,0.000000,0.000000,0.000000,0.000000,0.000000,0.000000,0.000000,0.072737,3,0
1550000,0.007126,39.983810,-0.048723,0.021370,26.025822,-0.055448,-0.001785,0.047847,1.568637,-0.084705,-0.004566,-0.013272,0.000985,-0.013411,-0.000055,0.000514,-0.007381,-0.048756,-0.027446,0.207909,0.207888,0.154730,0.359589,0.000000,0.000000,0.000000,0.000000,0.000000,0.000000,0.000000,0.000000,0.000000,0.000000,0.000000,0.000000,0.047606,3,0
1560000,0.007086,40.242409,-0.048407,0.021139,26.026964,-0.055067,-0.001836,0.047717,1.568608,-0.084421,-0.004607,-0.013614,0.001002,-0.013298,-0.000055,0.000580,-0.007342,-0.048943,0.033889,0.208111,0.208090,0.154412,0.358040,0.000000,0.000000,0.000000,0.000000,0.000000,0.000000,0.000000,0.000000,0.000000,0.000000,0.000000,0.000000,0.047770,3,0
1570000,0.007046,40.505154,-0.049008,0.020854,26.035603,-0.055869,-0.001874,0.048235,1.568592,-0.084819,-0.004649,-0.013609,0.001019,-0.013459,-0.000055,0.000801,-0.007300,0.070148,-0.001399,0.208315,0.208293,0.154097,0.356535,0.000000,0.000000,0.000000,0.000000,0.000000,0.000000,0.000000,0.000000,0.000000,0.000000,0.000000,0.000000,0.068080,3,0
1580000,0.007003,40.762997,-0.048732,0.020570,26.035307,-0.055475,-0.001918,0.047961,1.568573,-0.084403,-0.004689,-0.013935,0.001036,-0.013288,-0.000054,0.001046,-0.007257,-0.073410,0.032457,0.208520,0.208497,0.153786,0.355075,0.000000,0.000000,0.000000,0.000000,0.000000,0.000000,0.000000,0.000000,0.000000,0.000000,0.000000,0.000000,0.071199,3,0
1590000,0.006958,41.020851,-0.047953,0.020317,26.035017,-0.054726,-0.001965,0.047684,1.568545,-0.083990,-0.004727,-0.014466,0.001053,-0.013116,-0.000054,0.001303,-0.007211,-0.072823,0.052152,0.208727,0.208702,0.153478,0.353658,0.000000,0.000000,0.000000,0.000000,0.000000,0.000000,0.000000,0.000000,0.000000,0.000000,0.000000,0.000000,0.070626,3,0
1600000,0.006914,41.282879,-0.048309,0.020145,26.042192,-0.055428,-0.002019,0.048072,1.568522,-0.084249,-0.004767,-0.014558,0.001070,-0.013226,-0.000054,0.000375,-0.007164,0.047024,0.008080,0.208934,0.208909,0.153174,0.352282,0.000000,0.000000,0.000000,0.000000,0.000000,0.000000,0.000000,0.000000,0.000000,0.000000,0.000000,0.000000,0.045911,3,0
1610000,0.006871,41.543468,-0.049001,0.019987,26.046778,-0.056194,-0.002052,0.048218,1.568505,-0.084269,-0.004806,-0.014504,0.001087,-0.013234,-0.000054,0.000015,-0.007119,0.003593,-0.005168,0.209143,0.209117,0.152874,0.350947,0.000000,0.000000,0.000000,0.000000,0.000000,0.000000,0.000000,0.000000,0.000000,0.000000,0.000000,0.000000,0.007696,3,0
1620000,0.006826,41.801254,-0.049366,0.019798,26.046175,-0.056671,-0.002102,0.047911,1.568483,-0.083845,-0.004844,-0.014571,0.001103,-0.013049,-0.000053,0.000999,-0.007073,-0.078136,0.007580,0.209352,0.209325,0.152577,0.349651,0.000000,0.000000,0.000000,0.000000,0.000000,0.000000,0.000000,0.000000,0.000000,0.000000,0.000000,0.000000,0.075717,3,0
1630000,0.006778,42.061127,-0.048418,0.019531,26.049326,-0.055473,-0.002141,0.047942,1.568461,-0.083741,-0.004880,-0.015201,0.001121,-0.013003,-0.000053,0.000641,-0.007026,-0.017853,0.059837,0.209562,0.209534,0.152284,0.348393,0.000000,0.000000,0.000000,0.000000,0.000000,0.000000,0.000000,0.000000,0.000000,0.000000,0.000000,0.000000,0.018506,3,0
1640000,0.006733,42.319599,-0.049292,0.019319,26.049891,-0.056346,-0.002181,0.047739,1.568443,-0.083428,-0.004917,-0.015056,0.001137,-0.012862,-0.000052,0.000596,-0.006976,-0.059086,-0.012767,0.209773,0.209744,0.151994,0.347172,0.000000,0.000000,0.000000,0.000000,0.000000,0.000000,0.000000,0.000000,0.000000,0.000000,0.000000,0.000000,0.057418,3,0
1650000,0.006686,42.578075,-0.050554,0.018998,26.050287,-0.057721,-0.002233,0.047534,1.568424,-0.083120,-0.004954,-0.014750,0.001153,-0.012721,-0.000051,0.000695,-0.006927,-0.059135,-0.027758,0.209985,0.209955,0.151709,0.345986,0.000000,0.000000,0.000000,0.000000,0.000000,0.000000,0.000000,0.000000,0.000000,0.000000,0.000000,0.000000,0.057462,3,0
1660000,0.006636,42.840027,-0.050309,0.018793,26.057215,-0.057439,-0.002281,0.047890,1.568412,-0.083326,-0.004989,-0.015110,0.001170,-0.012817,-0.000052,0.000445,-0.006878,0.040199,0.033077,0.210197,0.210166,0.151427,0.344835,0.000000,0.000000,0.000000,0.000000,0.000000,0.000000,0.000000,0.000000,0.000000,0.000000,0.000000,0.000000,0.039359,3,0
1670000,0.006586,43.098442,-0.050721,0.018505,26.057472,-0.057881,-0.002322,0.047655,1.568388,-0.083001,-0.005024,-0.015167,0.001187,-0.012663,-0.000051,0.000648,-0.006825,-0.062790,0.006305,0.210409,0.210377,0.151150,0.343718,0.000000,0.000000,0.000000,0.000000,0.000000,0.000000,0.000000,0.000000,0.000000,0.000000,0.000000,0.000000,0.060946,3,0
1680000,0.006534,43.356155,-0.051289,0.018161,26.056292,-0.058529,-0.002366,0.047304,1.568360,-0.082579,-0.005057,-0.015154,0.001204,-0.012461,-0.000050,0.001106,-0.006772,-0.082661,0.000140,0.210621,0.210588,0.150876,0.342633,0.000000,0.000000,0.000000,0.000000,0.000000,0.000000,0.000000,0.000000,0.000000,0.000000,0.000000,0.000000,0.080025,3,0
1690000,0.006481,43.615974,-0.051506,0.017934,26.059120,-0.058640,-0.002407,0.047306,1.568339,-0.082465,-0.005091,-0.015309,0.001220,-0.012405,-0.000050,0.000123,-0.006718,-0.022297,0.014748,0.210833,0.210799,0.150606,0.341580,0.000000,0.000000,0.000000,0.000000,0.000000,0.000000,0.000000,0.000000,0.000000,0.000000,0.000000,0.000000,0.022466,3,0
1700000,0.006426,43.874371,-0.051251,0.017602,26.059284,-0.058154,-0.002446,0.047060,1.568311,-0.082143,-0.005123,-0.015659,0.001237,-0.012246,-0.000049,0.000835,-0.006662,-0.063480,0.033318,0.211045,0.211010,0.150340,0.340557,0.000000,0.000000,0.000000,0.000000,0.000000,0.000000,0.000000,0.000000,0.000000,0.000000,0.000000,0.000000,0.061577,3,0
1710000,0.006370,44.137665,-0.050847,0.017410,26.068476,-0.057925,-0.002482,0.047638,1.568305,-0.082512,-0.005155,-0.016112,0.001254,-0.012432,-0.000050,0.001193,-0.006604,0.075703,0.040305,0.211257,0.211221,0.150078,0.339564,0.000000,0.000000,0.000000,0.000000,0.000000,0.000000,0.000000,0.000000,0.000000,0.000000,0.000000,0.000000,0.073321,3,0
