time_us,pos_x,pos_y,pos_z,vel_x,vel_y,vel_z,roll,pitch,yaw,bias_ax,bias_ay,bias_az,bias_gx,bias_gy,bias_gz,nis,innov_x,innov_y,innov_z,cov_pos_x,cov_pos_y,cov_pos_z,cov_yaw,des_speed,des_heading,des_climb,pid_speed,pid_yaw,pid_alt,speed_meas,yaw_meas,climb_meas,fwd_accel,yaw_rate,vert_accel,drift_m,nav_mode,mission_state
0,0.000000,0.149994,-0.000001,0.000039,24.999069,-0.000352,-0.000019,-0.000007,1.570791,0.000000,0.000000,0.000000,0.000000,0.000000,0.000000,0.006250,-0.000000,-0.249993,0.000004,2.400038,2.400038,3.600017,1.000518,0.000000,0.000000,0.000000,0.000000,0.000000,0.000000,0.000000,0.000000,0.000000,0.000000,0.000000,0.000000,0.149994,1,0
10000,0.000001,0.348172,-0.033221,0.000145,24.998165,-0.001029,-0.000036,-0.000004,1.570790,0.000001,-0.000000,0.000000,0.000000,0.000000,0.000000,0.004730,-0.000002,-0.181311,-0.088557,1.714420,1.714420,2.250079,1.001073,0.000000,0.000000,0.000000,0.000000,0.000000,0.000000,0.000000,0.000000,0.000000,0.000000,0.000000,0.000000,0.129504,3,0
20000,0.000003,0.588914,-0.028245,0.000226,24.997347,-0.001335,-0.000045,0.000005,1.570788,0.000001,-0.000000,0.000000,0.000000,0.000000,0.000000,0.000264,-0.000003,-0.041537,0.018292,1.333616,1.333616,1.636554,1.001655,0.000000,0.000000,0.000000,0.000000,0.000000,0.000000,0.000000,0.000000,0.000000,0.000000,0.000000,0.000000,0.032305,3,0
30000,0.000005,0.812849,-0.035714,0.000403,24.996220,-0.001859,-0.000068,0.000012,1.570797,0.000003,-0.000000,0.000001,-0.000000,0.000000,0.000000,0.002951,-0.000007,-0.143120,-0.034766,1.091392,1.091392,1.286065,1.002257,0.000000,0.000000,0.000000,0.000000,0.000000,0.000000,0.000000,0.000000,0.000000,0.000000,0.000000,0.000000,0.117087,3,0
40000,0.000010,1.046081,-0.043015,0.000603,24.995064,-0.002536,-0.000078,0.000013,1.570799,0.000007,-0.000000,0.000002,-0.000000,0.000000,0.000000,0.001897,-0.000012,-0.108616,-0.041215,0.923811,0.923811,1.059385,1.002869,0.000000,0.000000,0.000000,0.000000,0.000000,0.000000,0.000000,0.000000,0.000000,0.000000,0.000000,0.000000,0.091893,3,0
50000,0.000014,1.282234,-0.038458,0.000687,24.993786,-0.002938,-0.000088,0.000015,1.570793,0.000011,-0.000000,0.000001,0.000000,0.000000,0.000000,0.001673,-0.000017,-0.103289,0.030560,0.801036,0.801036,0.900822,1.003484,0.000000,0.000000,0.000000,0.000000,0.000000,0.000000,0.000000,0.000000,0.000000,0.000000,0.000000,0.000000,0.089499,3,0
60000,0.000019,1.524960,-0.042268,0.000742,24.992712,-0.003529,-0.000099,0.000005,1.570798,0.000015,-0.000000,0.000002,0.000000,0.000000,0.000000,0.000670,-0.000022,-0.061126,-0.028914,0.707270,0.707270,0.783741,1.004094,0.000000,0.000000,0.000000,0.000000,0.000000,0.000000,0.000000,0.000000,0.000000,0.000000,0.000000,0.000000,0.053920,3,0
70000,0.000024,1.778480,-0.041662,0.000793,24.992258,-0.003880,-0.000111,0.000006,1.570788,0.000012,-0.000000,0.000002,0.000000,0.000000,0.000000,0.000178,-0.000027,0.034101,0.005582,0.633370,0.633370,0.693801,1.004688,0.000000,0.000000,0.000000,0.000000,0.000000,0.000000,0.000000,0.000000,0.000000,0.000000,0.000000,0.000000,0.030501,3,0
80000,0.000031,2.022623,-0.036509,0.001007,24.991219,-0.004222,-0.000133,-0.000005,1.570791,0.000018,-0.000000,-0.000003,0.000000,0.000000,0.000000,0.000925,-0.000034,-0.060384,0.050105,0.573673,0.573673,0.622594,1.005260,0.000000,0.000000,0.000000,0.000000,0.000000,0.000000,0.000000,0.000000,0.000000,0.000000,0.000000,0.000000,0.054611,3,0
90000,0.000039,2.278926,-0.032832,0.001172,24.991182,-0.004413,-0.000153,-0.000004,1.570786,0.000009,-0.000000,-0.000008,0.000000,0.000000,0.000000,0.001051,-0.000043,0.073183,0.039561,0.524488,0.524488,0.564865,1.005801,0.000000,0.000000,0.000000,0.000000,0.000000,0.000000,0.000000,0.000000,0.000000,0.000000,0.000000,0.000000,0.066786,3,0
100000,0.000048,2.525290,-0.036990,0.001281,24.990108,-0.005373,-0.000172,-0.000006,1.570788,0.000016,-0.000000,-0.000001,0.000000,0.000000,0.000000,0.000642,-0.000052,-0.043967,-0.047667,0.483303,0.483303,0.517162,1.006301,0.000000,0.000000,0.000000,0.000000,0.000000,0.000000,0.000000,0.000000,0.000000,0.000000,0.000000,0.000000,0.040425,3,0
110000,0.000058,2.777256,-0.034904,0.001461,24.989662,-0.005816,-0.000180,0.000004,1.570790,0.000010,-0.000000,-0.000006,0.000000,0.000000,0.000000,0.000230,-0.000062,0.027744,0.026995,0.448353,0.448353,0.477121,1.006754,0.000000,0.000000,0.000000,0.000000,0.000000,0.000000,0.000000,0.000000,0.000000,0.000000,0.000000,0.000000,0.025671,3,0
120000,0.000069,3.032304,-0.034300,0.001603,24.989876,-0.006358,-0.000187,0.000013,1.570785,-0.000006,-0.000000,-0.000008,0.000000,-0.000000,-0.000000,0.000861,-0.000074,0.073964,0.009047,0.418358,0.418358,0.443071,1.007150,0.000000,0.000000,0.000000,0.000000,0.000000,0.000000,0.000000,0.000000,0.000000,0.000000,0.000000,0.000000,0.068807,3,0
130000,0.000079,3.283354,-0.037845,0.001621,24.989435,-0.007356,-0.000195,0.000006,1.570792,-0.000010,-0.000000,0.000005,0.000000,-0.000000,-0.000000,0.000443,-0.000085,0.017704,-0.050414,0.392369,0.392369,0.413797,1.007481,0.000000,0.000000,0.000000,0.000000,0.000000,0.000000,0.000000,0.000000,0.000000,0.000000,0.000000,0.000000,0.016546,3,0
140000,0.000091,3.537237,-0.039034,0.001779,24.989607,-0.008159,-0.000220,0.000013,1.570782,-0.000029,-0.000000,0.000010,0.000000,-0.000001,-0.000000,0.000703,-0.000097,0.064842,-0.017131,0.369666,0.369666,0.388393,1.007739,0.000000,0.000000,0.000000,0.000000,0.000000,0.000000,0.000000,0.000000,0.000000,0.000000,0.000000,0.000000,0.060847,3,0
150000,0.000103,3.793488,-0.037525,0.001793,24.990564,-0.008169,-0.000232,0.000034,1.570787,-0.000066,-0.000000,0.000001,0.000000,-0.000001,-0.000000,0.001976,-0.000109,0.109140,0.026113,0.349695,0.349695,0.366172,1.007915,0.000000,0.000000,0.000000,0.000000,0.000000,0.000000,0.000000,0.000000,0.000000,0.000000,0.000000,0.000000,0.102779,3,0
160000,0.000115,4.044047,-0.037382,0.001931,24.990149,-0.008572,-0.000242,0.000045,1.570780,-0.000071,-0.000000,-0.000000,0.000000,-0.000002,-0.000000,0.000025,-0.000122,0.011911,0.003961,0.332020,0.332020,0.346600,1.008002,0.000000,0.000000,0.000000,0.000000,0.000000,0.000000,0.000000,0.000000,0.000000,0.000000,0.000000,0.000000,0.011253,3,0
170000,0.000128,4.299177,-0.036181,0.001974,24.991119,-0.008608,-0.000257,0.000061,1.570781,-0.000113,-0.000000,-0.000010,0.000000,-0.000003,-0.000000,0.001644,-0.000135,0.099298,0.023516,0.316297,0.316297,0.329260,1.007991,0.000000,0.000000,0.000000,0.000000,0.000000,0.000000,0.000000,0.000000,0.000000,0.000000,0.000000,0.000000,0.094063,3,0
180000,0.000141,4.552247,-0.035994,0.002077,24.991499,-0.009006,-0.000270,0.000069,1.570776,-0.000143,-0.000000,-0.000013,0.000000,-0.000003,-0.000000,0.000629,-0.000149,0.062827,0.005328,0.302245,0.302245,0.313817,1.007875,0.000000,0.000000,0.000000,0.000000,0.000000,0.000000,0.000000,0.000000,0.000000,0.000000,0.000000,0.000000,0.059663,3,0
190000,0.000155,4.806405,-0.038407,0.002172,24.992294,-0.010260,-0.000279,0.000089,1.570768,-0.000190,-0.000000,0.000011,0.000000,-0.000004,-0.000000,0.001570,-0.000163,0.088059,-0.046355,0.289640,0.289640,0.300003,1.007646,0.000000,0.000000,0.000000,0.000000,0.000000,0.000000,0.000000,0.000000,0.000000,0.000000,0.000000,0.000000,0.083809,3,0
200000,0.000170,5.063369,-0.039707,0.002287,24.994358,-0.011116,-0.000303,0.000120,1.570768,-0.000278,-0.000001,0.000026,0.000000,-0.000007,-0.000000,0.003768,-0.000178,0.151955,-0.024903,0.278294,0.278294,0.287598,1.007296,0.000000,0.000000,0.000000,0.000000,0.000000,0.000000,0.000000,0.000000,0.000000,0.000000,0.000000,0.000000,0.144907,3,0
210000,0.000186,5.315719,-0.040436,0.002445,24.994730,-0.012028,-0.000324,0.000123,1.570766,-0.000313,-0.000001,0.000034,0.000000,-0.000008,-0.000000,0.000492,-0.000194,0.054001,-0.013272,0.268052,0.268052,0.276421,1.006817,0.000000,0.000000,0.000000,0.000000,0.000000,0.000000,0.000000,0.000000,0.000000,0.000000,0.000000,0.000000,0.051589,3,0
220000,0.000201,5.571680,-0.038436,0.002492,24.996859,-0.011744,-0.000336,0.000144,1.570758,-0.000410,-0.000001,0.000001,0.000000,-0.000011,-0.000000,0.003473,-0.000210,0.139589,0.047907,0.258785,0.258785,0.266321,1.006204,0.000000,0.000000,0.000000,0.000000,0.000000,0.000000,0.000000,0.000000,0.000000,0.000000,0.000000,0.000000,0.133569,3,0
230000,0.000218,5.823422,-0.038897,0.002615,24.997154,-0.012546,-0.000349,0.000152,1.570756,-0.000443,-0.000001,0.000007,0.000000,-0.000012,-0.000000,0.000300,-0.000228,0.042637,-0.007846,0.250384,0.250384,0.257172,1.005448,0.000000,0.000000,0.000000,0.000000,0.000000,0.000000,0.000000,0.000000,0.000000,0.000000,0.000000,0.000000,0.040859,3,0
240000,0.000234,6.076992,-0.040835,0.002613,24.998484,-0.013993,-0.000373,0.000171,1.570749,-0.000516,-0.000001,0.000042,0.000000,-0.000014,-0.000000,0.001572,-0.000244,0.089077,-0.043568,0.242754,0.242754,0.248866,1.004543,0.000000,0.000000,0.000000,0.000000,0.000000,0.000000,0.000000,0.000000,0.000000,0.000000,0.000000,0.000000,0.085473,3,0
250000,0.000252,6.329099,-0.039828,0.002754,24.999056,-0.013869,-0.000392,0.000188,1.570741,-0.000565,-0.000001,0.000017,0.000000,-0.000016,-0.000000,0.000601,-0.000262,0.054162,0.028632,0.235816,0.235816,0.241314,1.003482,0.000000,0.000000,0.000000,0.000000,0.000000,0.000000,0.000000,0.000000,0.000000,0.000000,0.000000,0.000000,0.052034,3,0
260000,0.000270,6.582917,-0.041600,0.002871,25.000811,-0.015152,-0.000405,0.000225,1.570737,-0.000661,-0.000002,0.000057,0.000000,-0.000020,-0.000000,0.001889,-0.000280,0.100233,-0.041712,0.229502,0.229501,0.234436,1.002261,0.000000,0.000000,0.000000,0.000000,0.000000,0.000000,0.000000,0.000000,0.000000,0.000000,0.000000,0.000000,0.096399,3,0
270000,0.000288,6.836088,-0.041398,0.002968,25.002323,-0.015413,-0.000425,0.000249,1.570731,-0.000748,-0.000002,0.000047,0.000000,-0.000023,-0.000000,0.001172,-0.000300,0.084943,0.009431,0.223751,0.223751,0.228165,1.000871,0.000000,0.000000,0.000000,0.000000,0.000000,0.000000,0.000000,0.000000,0.000000,0.000000,0.000000,0.000000,0.081776,3,0
280000,0.000307,7.090112,-0.043089,0.003034,25.004374,-0.016971,-0.000437,0.000295,1.570727,-0.000870,-0.000002,0.000092,0.000000,-0.000028,-0.000000,0.002219,-0.000319,0.110064,-0.041311,0.218513,0.218512,0.222443,0.999310,0.000000,0.000000,0.000000,0.000000,0.000000,0.000000,0.000000,0.000000,0.000000,0.000000,0.000000,0.000000,0.106056,3,0
290000,0.000326,7.341395,-0.044926,0.003110,25.004742,-0.018819,-0.000456,0.000303,1.570720,-0.000911,-0.000003,0.000146,0.000000,-0.000030,-0.000000,0.000534,-0.000338,0.034927,-0.045838,0.213740,0.213740,0.217219,0.997570,0.000000,0.000000,0.000000,0.000000,0.000000,0.000000,0.000000,0.000000,0.000000,0.000000,0.000000,0.000000,0.033684,3,0
300000,0.000345,7.597761,-0.044334,0.003116,25.009048,-0.018956,-0.000467,0.000372,1.570717,-0.001139,-0.000003,0.000118,0.000000,-0.000039,-0.000000,0.005362,-0.000358,0.181219,0.022223,0.209394,0.209394,0.212446,0.995648,0.000000,0.000000,0.000000,0.000000,0.000000,0.000000,0.000000,0.000000,0.000000,0.000000,0.000000,0.000000,0.174895,3,0
310000,0.000365,7.852759,-0.044607,0.003240,25.012445,-0.019657,-0.000489,0.000424,1.570715,-0.001330,-0.000004,0.000121,0.000000,-0.000048,-0.000000,0.003314,-0.000378,0.143478,-0.002240,0.205438,0.205438,0.208087,0.993539,0.000000,0.000000,0.000000,0.000000,0.000000,0.000000,0.000000,0.000000,0.000000,0.000000,0.000000,0.000000,0.138566,3,0
320000,0.000385,8.105813,-0.045063,0.003337,25.014412,-0.020498,-0.000503,0.000470,1.570708,-0.001454,-0.000004,0.000131,0.000000,-0.000053,-0.000000,0.001235,-0.000398,0.087234,-0.007418,0.201842,0.201842,0.204105,0.991240,0.000000,0.000000,0.000000,0.000000,0.000000,0.000000,0.000000,0.000000,0.000000,0.000000,0.000000,0.000000,0.084301,3,0
330000,0.000406,8.360989,-0.045140,0.003465,25.018185,-0.020741,-0.000511,0.000546,1.570710,-0.001682,-0.000005,0.000126,0.000000,-0.000064,-0.000000,0.003737,-0.000420,0.152225,0.003930,0.198576,0.198575,0.200469,0.988746,0.000000,0.000000,0.000000,0.000000,0.000000,0.000000,0.000000,0.000000,0.000000,0.000000,0.000000,0.000000,0.147188,3,0
340000,0.000428,8.613640,-0.044433,0.003622,25.019970,-0.020358,-0.000522,0.000581,1.570707,-0.001802,-0.000006,0.000082,0.000000,-0.000070,-0.000000,0.001055,-0.000442,0.075921,0.027920,0.195615,0.195614,0.197151,0.986056,0.000000,0.000000,0.000000,0.000000,0.000000,0.000000,0.000000,0.000000,0.000000,0.000000,0.000000,0.000000,0.073448,3,0
350000,0.000449,8.867738,-0.045309,0.003622,25.023058,-0.021511,-0.000545,0.000656,1.570699,-0.002004,-0.000006,0.000116,0.000000,-0.000080,-0.000000,0.002447,-0.000464,0.121438,-0.020601,0.192936,0.192935,0.194125,0.983167,0.000000,0.000000,0.000000,0.000000,0.000000,0.000000,0.000000,0.000000,0.000000,0.000000,0.000000,0.000000,0.117534,3,0
360000,0.000470,9.123218,-0.044417,0.003588,25.027784,-0.020824,-0.000554,0.000749,1.570700,-0.002295,-0.000007,0.000055,0.000000,-0.000095,-0.000000,0.004615,-0.000485,0.165491,0.034805,0.190518,0.190518,0.191370,0.980076,0.000000,0.000000,0.000000,0.000000,0.000000,0.000000,0.000000,0.000000,0.000000,0.000000,0.000000,0.000000,0.160237,3,0
370000,0.000490,9.378776,-0.045465,0.003584,25.032690,-0.022052,-0.000577,0.000851,1.570694,-0.002605,-0.000008,0.000104,0.000000,-0.000112,-0.000000,0.004691,-0.000506,0.168390,-0.026550,0.188343,0.188343,0.188863,0.976783,0.000000,0.000000,0.000000,0.000000,0.000000,0.000000,0.000000,0.000000,0.000000,0.000000,0.000000,0.000000,0.163105,3,0
380000,0.000510,9.632562,-0.046620,0.003660,25.035778,-0.023612,-0.000589,0.000921,1.570684,-0.002821,-0.000009,0.000161,0.000000,-0.000123,-0.000000,0.002154,-0.000527,0.111573,-0.029834,0.186393,0.186393,0.186586,0.973285,0.000000,0.000000,0.000000,0.000000,0.000000,0.000000,0.000000,0.000000,0.000000,0.000000,0.000000,0.000000,0.108109,3,0
390000,0.000531,9.888937,-0.045203,0.003716,25.042000,-0.022368,-0.000611,0.001047,1.570687,-0.003217,-0.000010,0.000053,0.000000,-0.000146,-0.000000,0.006655,-0.000548,0.195696,0.053877,0.184653,0.184653,0.184522,0.969584,0.000000,0.000000,0.000000,0.000000,0.000000,0.000000,0.000000,0.000000,0.000000,0.000000,0.000000,0.000000,0.189674,3,0
400000,0.000551,10.145990,-0.046297,0.003735,25.049047,-0.023973,-0.000638,0.001199,1.570689,-0.003678,-0.000012,0.000112,0.000001,-0.000172,-0.000000,0.007778,-0.000568,0.217565,-0.028365,0.183107,0.183107,0.182656,0.965679,0.000000,0.000000,0.000000,0.000000,0.000000,0.000000,0.000000,0.000000,0.000000,0.000000,0.000000,0.000000,0.210926,3,0
410000,0.000570,10.400698,-0.045075,0.003693,25.053585,-0.022757,-0.000649,0.001299,1.570688,-0.003986,-0.000013,0.000005,0.000001,-0.000191,-0.000000,0.003520,-0.000588,0.139349,0.048578,0.181743,0.181742,0.180971,0.961570,0.000000,0.000000,0.000000,0.000000,0.000000,0.000000,0.000000,0.000000,0.000000,0.000000,0.000000,0.000000,0.135129,3,0
420000,0.000590,10.656131,-0.044280,0.003738,25.059061,-0.021972,-0.000664,0.001422,1.570681,-0.004361,-0.000014,-0.000074,0.000001,-0.000214,-0.000000,0.004480,-0.000608,0.162902,0.034299,0.180547,0.180547,0.179456,0.957259,0.000000,0.000000,0.000000,0.000000,0.000000,0.000000,0.000000,0.000000,0.000000,0.000000,0.000000,0.000000,0.158001,3,0
430000,0.000609,10.911083,-0.045500,0.003767,25.064016,-0.023566,-0.000674,0.001533,1.570675,-0.004711,-0.000016,0.000007,0.000001,-0.000236,-0.000000,0.003627,-0.000627,0.145961,-0.033568,0.179509,0.179509,0.178097,0.952747,0.000000,0.000000,0.000000,0.000000,0.000000,0.000000,0.000000,0.000000,0.000000,0.000000,0.000000,0.000000,0.141595,3,0
440000,0.000628,11.164982,-0.044330,0.003829,25.067671,-0.022317,-0.000697,0.001631,1.570683,-0.004985,-0.000017,-0.000112,0.000001,-0.000253,-0.000000,0.002313,-0.000647,0.109627,0.047818,0.178617,0.178617,0.176883,0.948037,0.000000,0.000000,0.000000,0.000000,0.000000,0.000000,0.000000,0.000000,0.000000,0.000000,0.000000,0.000000,0.106365,3,0
450000,0.000647,11.423162,-0.043539,0.003869,25.077030,-0.021568,-0.000708,0.001863,1.570687,-0.005641,-0.000019,-0.000203,0.000001,-0.000296,-0.000000,0.010569,-0.000667,0.253270,0.034738,0.177862,0.177861,0.175803,0.943130,0.000000,0.000000,0.000000,0.000000,0.000000,0.000000,0.000000,0.000000,0.000000,0.000000,0.000000,0.000000,0.245763,3,0
460000,0.000666,11.680240,-0.044002,0.003843,25.085007,-0.022519,-0.000718,0.002063,1.570696,-0.006215,-0.000021,-0.000180,0.000001,-0.000335,-0.000000,0.007395,-0.000686,0.213663,-0.008289,0.177233,0.177233,0.174847,0.938031,0.000000,0.000000,0.000000,0.000000,0.000000,0.000000,0.000000,0.000000,0.000000,0.000000,0.000000,0.000000,0.207353,3,0
470000,0.000683,11.935074,-0.045478,0.003811,25.090012,-0.024554,-0.000735,0.002199,1.570696,-0.006592,-0.000023,-0.000061,0.000001,-0.000361,-0.000000,0.003265,-0.000704,0.135417,-0.042972,0.176723,0.176722,0.174006,0.932743,0.000000,0.000000,0.000000,0.000000,0.000000,0.000000,0.000000,0.000000,0.000000,0.000000,0.000000,0.000000,0.131430,3,0
480000,0.000701,12.191222,-0.046229,0.003863,25.096920,-0.025870,-0.000748,0.002378,1.570694,-0.007106,-0.000025,-0.000011,0.000001,-0.000397,-0.000000,0.005215,-0.000722,0.178716,-0.017290,0.176322,0.176322,0.173271,0.927270,0.000000,0.000000,0.000000,0.000000,0.000000,0.000000,0.000000,0.000000,0.000000,0.000000,0.000000,0.000000,0.173465,3,0
490000,0.000719,12.446913,-0.047760,0.003914,25.103287,-0.028033,-0.000767,0.002535,1.570704,-0.007586,-0.000027,0.000121,0.000002,-0.000432,-0.000000,0.004510,-0.000740,0.161045,-0.044076,0.176023,0.176022,0.172634,0.921616,0.000000,0.000000,0.000000,0.000000,0.000000,0.000000,0.000000,0.000000,0.000000,0.000000,0.000000,0.000000,0.156322,3,0
500000,0.000736,12.702740,-0.048457,0.003948,25.109877,-0.029085,-0.000791,0.002709,1.570697,-0.008089,-0.000030,0.000165,0.000002,-0.000469,-0.000001,0.004370,-0.000758,0.163716,-0.014348,0.175818,0.175818,0.172087,0.915787,0.000000,0.000000,0.000000,0.000000,0.000000,0.000000,0.000000,0.000000,0.000000,0.000000,0.000000,0.000000,0.158921,3,0
510000,0.000754,12.956958,-0.048849,0.004054,25.114162,-0.029661,-0.000811,0.002838,1.570688,-0.008428,-0.000032,0.000176,0.000002,-0.000494,-0.000001,0.001841,-0.000777,0.106613,-0.003419,0.175701,0.175700,0.171622,0.909788,0.000000,0.000000,0.000000,0.000000,0.000000,0.000000,0.000000,0.000000,0.000000,0.000000,0.000000,0.000000,0.103494,3,0
520000,0.000773,13.215415,-0.049840,0.004164,25.124807,-0.031064,-0.000831,0.003135,1.570697,-0.009245,-0.000035,0.000256,0.000002,-0.000557,-0.000001,0.010201,-0.000796,0.249928,-0.024207,0.175664,0.175663,0.171234,0.903624,0.000000,0.000000,0.000000,0.000000,0.000000,0.000000,0.000000,0.000000,0.000000,0.000000,0.000000,0.000000,0.242612,3,0
530000,0.000792,13.471065,-0.050178,0.004263,25.131235,-0.031528,-0.000843,0.003306,1.570696,-0.009751,-0.000038,0.000258,0.000002,-0.000597,-0.000001,0.003660,-0.000816,0.150397,-0.000809,0.175702,0.175701,0.170915,0.897302,0.000000,0.000000,0.000000,0.000000,0.000000,0.000000,0.000000,0.000000,0.000000,0.000000,0.000000,0.000000,0.145995,3,0
540000,0.000810,13.729773,-0.050486,0.004236,25.142212,-0.032066,-0.000865,0.003624,1.570698,-0.010625,-0.000041,0.000257,0.000003,-0.000668,-0.000001,0.010315,-0.000835,0.252503,0.000394,0.175808,0.175807,0.170659,0.890828,0.000000,0.000000,0.000000,0.000000,0.000000,0.000000,0.000000,0.000000,0.000000,0.000000,0.000000,0.000000,0.245106,3,0
550000,0.000828,13.985088,-0.049197,0.004240,25.147964,-0.030489,-0.000873,0.003803,1.570689,-0.011098,-0.000043,0.000052,0.000003,-0.000706,-0.000001,0.003378,-0.000853,0.132839,0.056841,0.175976,0.175975,0.170460,0.884209,0.000000,0.000000,0.000000,0.000000,0.000000,0.000000,0.000000,0.000000,0.000000,0.000000,0.000000,0.000000,0.128945,3,0
560000,0.000846,14.244059,-0.049353,0.004316,25.159485,-0.030918,-0.000886,0.004139,1.570698,-0.012030,-0.000047,0.000032,0.000003,-0.000785,-0.000001,0.010538,-0.000872,0.255164,0.005431,0.176202,0.176201,0.170314,0.877451,0.000000,0.000000,0.000000,0.000000,0.000000,0.000000,0.000000,0.000000,0.000000,0.000000,0.000000,0.000000,0.247673,3,0
570000,0.000864,14.500214,-0.049088,0.004389,25.166513,-0.030683,-0.000907,0.004346,1.570697,-0.012611,-0.000050,-0.000046,0.000003,-0.000834,-0.000001,0.003960,-0.000890,0.155109,0.020431,0.176480,0.176479,0.170215,0.870563,0.000000,0.000000,0.000000,0.000000,0.000000,0.000000,0.000000,0.000000,0.000000,0.000000,0.000000,0.000000,0.150550,3,0
580000,0.000882,14.755341,-0.049849,0.004418,25.171892,-0.031736,-0.000919,0.004523,1.570706,-0.013063,-0.000054,0.000016,0.000004,-0.000874,-0.000001,0.002276,-0.000909,0.117553,-0.015905,0.176805,0.176804,0.170157,0.863552,0.000000,0.000000,0.000000,0.000000,0.000000,0.000000,0.000000,0.000000,0.000000,0.000000,0.000000,0.000000,0.114092,3,0
590000,0.000899,15.012388,-0.048792,0.004377,25.180496,-0.030387,-0.000928,0.004792,1.570710,-0.013773,-0.000057,-0.000179,0.000004,-0.000937,-0.000001,0.005649,-0.000926,0.180432,0.048634,0.177173,0.177171,0.170138,0.856424,0.000000,0.000000,0.000000,0.000000,0.000000,0.000000,0.000000,0.000000,0.000000,0.000000,0.000000,0.000000,0.175106,3,0
600000,0.000916,15.267805,-0.049133,0.004439,25.186218,-0.031128,-0.000949,0.004981,1.570717,-0.014264,-0.000061,-0.000175,0.000004,-0.000982,-0.000001,0.002411,-0.000944,0.122089,-0.001073,0.177579,0.177577,0.170152,0.849189,0.000000,0.000000,0.000000,0.000000,0.000000,0.000000,0.000000,0.000000,0.000000,0.000000,0.000000,0.000000,0.118479,3,0
610000,0.000932,15.524556,-0.050486,0.004464,25.194155,-0.033343,-0.000976,0.005245,1.570709,-0.014943,-0.000065,-0.000022,0.000005,-0.001044,-0.000001,0.004608,-0.000961,0.164799,-0.036522,0.178019,0.178018,0.170196,0.841854,0.000000,0.000000,0.000000,0.000000,0.000000,0.000000,0.000000,0.000000,0.000000,0.000000,0.000000,0.000000,0.159912,3,0
620000,0.000949,15.784405,-0.050889,0.004478,25.207224,-0.033868,-0.000996,0.005674,1.570701,-0.016061,-0.000069,-0.000012,0.000005,-0.001150,-0.000001,0.011425,-0.000978,0.265788,-0.002380,0.178489,0.178488,0.170265,0.834426,0.000000,0.000000,0.000000,0.000000,0.000000,0.000000,0.000000,0.000000,0.000000,0.000000,0.000000,0.000000,0.257883,3,0
630000,0.000964,16.044954,-0.050225,0.004487,25.221382,-0.033061,-0.001010,0.006137,1.570703,-0.017281,-0.000074,-0.000168,0.000006,-0.001267,-0.000001,0.013256,-0.000994,0.284111,0.035468,0.178986,0.178985,0.170356,0.826915,0.000000,0.000000,0.000000,0.000000,0.000000,0.000000,0.000000,0.000000,0.000000,0.000000,0.000000,0.000000,0.275636,3,0
640000,0.000980,16.302628,-0.050179,0.004536,25.230612,-0.033063,-0.001022,0.006454,1.570695,-0.018081,-0.000078,-0.000229,0.000006,-0.001345,-0.000001,0.005411,-0.001010,0.182453,0.013387,0.179506,0.179505,0.170465,0.819328,0.000000,0.000000,0.000000,0.000000,0.000000,0.000000,0.000000,0.000000,0.000000,0.000000,0.000000,0.000000,0.176997,3,0
650000,0.000994,16.559237,-0.051031,0.004459,25.238020,-0.034181,-0.001046,0.006702,1.570688,-0.018722,-0.000083,-0.000145,0.000006,-0.001409,-0.000002,0.003376,-0.001025,0.143354,-0.018263,0.180046,0.180044,0.170591,0.811673,0.000000,0.000000,0.000000,0.000000,0.000000,0.000000,0.000000,0.000000,0.000000,0.000000,0.000000,0.000000,0.139057,3,0
660000,0.001008,16.819576,-0.050458,0.004484,25.251713,-0.033410,-0.001064,0.007159,1.570684,-0.019925,-0.000087,-0.000297,0.000007,-0.001531,-0.000002,0.011467,-0.001040,0.264370,0.032298,0.180602,0.180601,0.170729,0.803959,0.000000,0.000000,0.000000,0.000000,0.000000,0.000000,0.000000,0.000000,0.000000,0.000000,0.000000,0.000000,0.256414,3,0
670000,0.001021,17.078815,-0.051672,0.004366,25.263380,-0.035168,-0.001076,0.007554,1.570685,-0.020958,-0.000092,-0.000151,0.000007,-0.001638,-0.000002,0.008160,-0.001053,0.222561,-0.030829,0.181172,0.181171,0.170877,0.796194,0.000000,0.000000,0.000000,0.000000,0.000000,0.000000,0.000000,0.000000,0.000000,0.000000,0.000000,0.000000,0.215844,3,0
680000,0.001033,17.339369,-0.051676,0.004425,25.277182,-0.034986,-0.001093,0.008038,1.570684,-0.022191,-0.000097,-0.000211,0.000008,-0.001768,-0.000002,0.011067,-0.001066,0.261389,0.012238,0.181754,0.181752,0.171033,0.788385,0.000000,0.000000,0.000000,0.000000,0.000000,0.000000,0.000000,0.000000,0.000000,0.000000,0.000000,0.000000,0.253473,3,0
690000,0.001046,17.595789,-0.053098,0.004469,25.283766,-0.036999,-0.001117,0.008268,1.570678,-0.022767,-0.000103,-0.000025,0.000009,-0.001830,-0.000002,0.002553,-0.001079,0.119970,-0.037461,0.182344,0.182342,0.171194,0.780540,0.000000,0.000000,0.000000,0.000000,0.000000,0.000000,0.000000,0.000000,0.000000,0.000000,0.000000,0.000000,0.116330,3,0
700000,0.001058,17.854166,-0.054325,0.004428,25.293665,-0.038689,-0.001130,0.008618,1.570679,-0.023653,-0.000108,0.000125,0.000009,-0.001926,-0.000002,0.005471,-0.001091,0.181547,-0.029961,0.182940,0.182938,0.171357,0.772668,0.000000,0.000000,0.000000,0.000000,0.000000,0.000000,0.000000,0.000000,0.000000,0.000000,0.000000,0.000000,0.176015,3,0
710000,0.001068,18.113268,-0.055153,0.004390,25.304630,-0.039842,-0.001146,0.009031,1.570677,-0.024651,-0.000114,0.000203,0.000010,-0.002037,-0.000002,0.006590,-0.001102,0.201374,-0.015299,0.183539,0.183538,0.171522,0.764776,0.000000,0.000000,0.000000,0.000000,0.000000,0.000000,0.000000,0.000000,0.000000,0.000000,0.000000,0.000000,0.195216,3,0
720000,0.001079,18.370033,-0.055210,0.004417,25.311495,-0.040037,-0.001156,0.009299,1.570680,-0.025260,-0.000119,0.000139,0.000010,-0.002106,-0.000002,0.002392,-0.001113,0.121075,0.012114,0.184141,0.184140,0.171685,0.756871,0.000000,0.000000,0.000000,0.000000,0.000000,0.000000,0.000000,0.000000,0.000000,0.000000,0.000000,0.000000,0.117364,3,0
730000,0.001089,18.631826,-0.055794,0.004432,25.327005,-0.040773,-0.001174,0.009883,1.570680,-0.026697,-0.000125,0.000172,0.000011,-0.002271,-0.000002,0.012825,-0.001124,0.281696,-0.006356,0.184743,0.184741,0.171846,0.748961,0.000000,0.000000,0.000000,0.000000,0.000000,0.000000,0.000000,0.000000,0.000000,0.000000,0.000000,0.000000,0.273026,3,0
740000,0.001098,18.893080,-0.056075,0.004316,25.341421,-0.041191,-0.001202,0.010432,1.570689,-0.028034,-0.000131,0.000146,0.000012,-0.002427,-0.000003,0.010779,-0.001133,0.258295,0.004552,0.185343,0.185341,0.172003,0.741052,0.000000,0.000000,0.000000,0.000000,0.000000,0.000000,0.000000,0.000000,0.000000,0.000000,0.000000,0.000000,0.250319,3,0
750000,0.001106,19.151949,-0.055430,0.004228,25.351543,-0.040102,-0.001227,0.010824,1.570691,-0.028957,-0.000137,-0.000058,0.000012,-0.002537,-0.000003,0.005213,-0.001141,0.175808,0.036939,0.185940,0.185938,0.172155,0.733153,0.000000,0.000000,0.000000,0.000000,0.000000,0.000000,0.000000,0.000000,0.000000,0.000000,0.000000,0.000000,0.170362,3,0
760000,0.001111,19.412157,-0.054639,0.004093,25.363894,-0.038740,-0.001255,0.011314,1.570700,-0.030099,-0.000143,-0.000291,0.000013,-0.002675,-0.000003,0.007746,-0.001147,0.215019,0.041558,0.186532,0.186530,0.172299,0.725269,0.000000,0.000000,0.000000,0.000000,0.000000,0.000000,0.000000,0.000000,0.000000,0.000000,0.000000,0.000000,0.208337,3,0
770000,0.001116,19.673069,-0.054969,0.003993,25.377251,-0.039001,-0.001264,0.011859,1.570710,-0.031353,-0.000149,-0.000304,0.000014,-0.002829,-0.000003,0.008766,-0.001152,0.232994,0.002030,0.187118,0.187116,0.172435,0.717408,0.000000,0.000000,0.000000,0.000000,0.000000,0.000000,0.000000,0.000000,0.000000,0.000000,0.000000,0.000000,0.225730,3,0
780000,0.001119,19.930326,-0.054342,0.003896,25.384237,-0.038102,-0.001280,0.012128,1.570706,-0.031958,-0.000156,-0.000510,0.000015,-0.002905,-0.000003,0.002197,-0.001156,0.111095,0.035544,0.187697,0.187695,0.172563,0.709574,0.000000,0.000000,0.000000,0.000000,0.000000,0.000000,0.000000,0.000000,0.000000,0.000000,0.000000,0.000000,0.107626,3,0
790000,0.001121,20.191441,-0.055739,0.003751,25.397806,-0.040148,-0.001302,0.012687,1.570703,-0.033233,-0.000162,-0.000306,0.000016,-0.003067,-0.000003,0.008851,-0.001157,0.231470,-0.035217,0.188267,0.188265,0.172680,0.701775,0.000000,0.000000,0.000000,0.000000,0.000000,0.000000,0.000000,0.000000,0.000000,0.000000,0.000000,0.000000,0.224210,3,0
800000,0.001123,20.450747,-0.055711,0.003724,25.407982,-0.039968,-0.001315,0.013114,1.570701,-0.034175,-0.000169,-0.000396,0.000016,-0.003189,-0.000003,0.004648,-0.001159,0.169008,0.015015,0.188828,0.188826,0.172786,0.694016,0.000000,0.000000,0.000000,0.000000,0.000000,0.000000,0.000000,0.000000,0.000000,0.000000,0.000000,0.000000,0.163693,3,0
810000,0.001122,20.710768,-0.054514,0.003585,25.419378,-0.038035,-0.001328,0.013585,1.570707,-0.035232,-0.000175,-0.000730,0.000017,-0.003328,-0.000004,0.006198,-0.001159,0.187906,0.055500,0.189379,0.189377,0.172881,0.686303,0.000000,0.000000,0.000000,0.000000,0.000000,0.000000,0.000000,0.000000,0.000000,0.000000,0.000000,0.000000,0.181978,3,0
820000,0.001122,20.968349,-0.054130,0.003601,25.426331,-0.037399,-0.001345,0.013881,1.570706,-0.035839,-0.000182,-0.000893,0.000018,-0.003409,-0.000004,0.001952,-0.001159,0.106680,0.026618,0.189919,0.189917,0.172964,0.678640,0.000000,0.000000,0.000000,0.000000,0.000000,0.000000,0.000000,0.000000,0.000000,0.000000,0.000000,0.000000,0.103308,3,0
830000,0.001121,21.229820,-0.054343,0.003519,25.440058,-0.037804,-0.001359,0.014464,1.570704,-0.037141,-0.000188,-0.000931,0.000019,-0.003585,-0.000004,0.008301,-0.001158,0.226727,0.005732,0.190448,0.190446,0.173034,0.671034,0.000000,0.000000,0.000000,0.000000,0.000000,0.000000,0.000000,0.000000,0.000000,0.000000,0.000000,0.000000,0.219533,3,0
840000,0.001119,21.488184,-0.053100,0.003374,25.448147,-0.036106,-0.001381,0.014808,1.570695,-0.037860,-0.000195,-0.001284,0.000020,-0.003685,-0.000004,0.003002,-0.001156,0.124149,0.056392,0.190964,0.190962,0.173092,0.663488,0.000000,0.000000,0.000000,0.000000,0.000000,0.000000,0.000000,0.000000,0.000000,0.000000,0.000000,0.000000,0.120203,3,0
850000,0.001116,21.746004,-0.054111,0.003315,25.455122,-0.037577,-0.001395,0.015099,1.570687,-0.038470,-0.000202,-0.001143,0.000021,-0.003770,-0.000004,0.001835,-0.001153,0.104250,-0.022401,0.191469,0.191466,0.173135,0.656007,0.000000,0.000000,0.000000,0.000000,0.000000,0.000000,0.000000,0.000000,0.000000,0.000000,0.000000,0.000000,0.100930,3,0
860000,0.001113,22.009007,-0.054549,0.003311,25.471106,-0.038139,-0.001415,0.015821,1.570695,-0.040027,-0.000209,-0.001133,0.000022,-0.003992,-0.000004,0.011230,-0.001150,0.263819,-0.002108,0.191960,0.191958,0.173165,0.648595,0.000000,0.000000,0.000000,0.000000,0.000000,0.000000,0.000000,0.000000,0.000000,0.000000,0.000000,0.000000,0.255381,3,0
870000,0.001109,22.270765,-0.054895,0.003189,25.484789,-0.038651,-0.001432,0.016436,1.570692,-0.041332,-0.000215,-0.001144,0.000023,-0.004180,-0.000004,0.007760,-0.001145,0.219322,0.001349,0.192438,0.192436,0.173181,0.641257,0.000000,0.000000,0.000000,0.000000,0.000000,0.000000,0.000000,0.000000,0.000000,0.000000,0.000000,0.000000,0.212291,3,0
880000,0.001104,22.533207,-0.054501,0.003182,25.499527,-0.038237,-0.001444,0.017114,1.570702,-0.042745,-0.000222,-0.001325,0.000024,-0.004388,-0.000005,0.009084,-0.001141,0.235733,0.027207,0.192903,0.192901,0.173183,0.633995,0.000000,0.000000,0.000000,0.000000,0.000000,0.000000,0.000000,0.000000,0.000000,0.000000,0.000000,0.000000,0.228156,3,0
890000,0.001099,22.795038,-0.055325,0.003093,25.512972,-0.039298,-0.001455,0.017733,1.570700,-0.044024,-0.000229,-0.001227,0.000025,-0.004579,-0.000005,0.007266,-0.001136,0.211689,-0.015236,0.193355,0.193353,0.173170,0.626814,0.000000,0.000000,0.000000,0.000000,0.000000,0.000000,0.000000,0.000000,0.000000,0.000000,0.000000,0.000000,0.204871,3,0
900000,0.001093,23.056908,-0.056677,0.002962,25.526377,-0.041221,-0.001468,0.018350,1.570695,-0.045291,-0.000236,-0.001008,0.000026,-0.004771,-0.000005,0.007166,-0.001130,0.208147,-0.033132,0.193793,0.193791,0.173144,0.619716,0.000000,0.000000,0.000000,0.000000,0.000000,0.000000,0.000000,0.000000,0.000000,0.000000,0.000000,0.000000,0.201427,3,0
910000,0.001087,23.317522,-0.058016,0.002945,25.537329,-0.043132,-0.001489,0.018857,1.570696,-0.046301,-0.000244,-0.000794,0.000027,-0.004926,-0.000005,0.004547,-0.001123,0.164812,-0.031992,0.194218,0.194216,0.173103,0.612705,0.000000,0.000000,0.000000,0.000000,0.000000,0.000000,0.000000,0.000000,0.000000,0.000000,0.000000,0.000000,0.159481,3,0
920000,0.001080,23.577539,-0.057946,0.002853,25.547207,-0.042780,-0.001512,0.019304,1.570704,-0.047180,-0.000250,-0.000915,0.000028,-0.005064,-0.000005,0.003330,-0.001116,0.142635,0.017477,0.194630,0.194627,0.173048,0.605782,0.000000,0.000000,0.000000,0.000000,0.000000,0.000000,0.000000,0.000000,0.000000,0.000000,0.000000,0.000000,0.138012,3,0
930000,0.001072,23.835672,-0.058243,0.002720,25.553577,-0.043158,-0.001522,0.019596,1.570709,-0.047684,-0.000257,-0.000949,0.000029,-0.005144,-0.000005,0.001070,-0.001108,0.081308,0.004698,0.195028,0.195025,0.172979,0.598952,0.000000,0.000000,0.000000,0.000000,0.000000,0.000000,0.000000,0.000000,0.000000,0.000000,0.000000,0.000000,0.078672,3,0
940000,0.001062,24.097118,-0.057422,0.002532,25.565586,-0.041971,-0.001545,0.020179,1.570714,-0.048812,-0.000264,-0.001256,0.000030,-0.005326,-0.000006,0.005587,-0.001098,0.180931,0.043623,0.195413,0.195410,0.172896,0.592214,0.000000,0.000000,0.000000,0.000000,0.000000,0.000000,0.000000,0.000000,0.000000,0.000000,0.000000,0.000000,0.175041,3,0
950000,0.001052,24.357296,-0.057651,0.002506,25.575365,-0.042311,-0.001560,0.020643,1.570723,-0.049677,-0.000271,-0.001306,0.000032,-0.005468,-0.000006,0.003079,-0.001088,0.138031,0.006783,0.195785,0.195783,0.172799,0.585573,0.000000,0.000000,0.000000,0.000000,0.000000,0.000000,0.000000,0.000000,0.000000,0.000000,0.000000,0.000000,0.133532,3,0
960000,0.001041,24.618822,-0.056737,0.002342,25.587408,-0.040799,-0.001584,0.021222,1.570718,-0.050786,-0.000277,-0.001640,0.000033,-0.005652,-0.000006,0.005341,-0.001076,0.175940,0.046547,0.196145,0.196142,0.172689,0.579029,0.000000,0.000000,0.000000,0.000000,0.000000,0.000000,0.000000,0.000000,0.000000,0.000000,0.000000,0.000000,0.170190,3,0
970000,0.001030,24.879719,-0.056798,0.002288,25.598066,-0.040766,-0.001610,0.021739,1.570708,-0.051754,-0.000284,-0.001731,0.000034,-0.005816,-0.000006,0.003790,-0.001064,0.152842,0.012196,0.196492,0.196489,0.172566,0.572584,0.000000,0.000000,0.000000,0.000000,0.000000,0.000000,0.000000,0.000000,0.000000,0.000000,0.000000,0.000000,0.147840,3,0
980000,0.001017,25.139997,-0.055435,0.002150,25.607483,-0.038954,-0.001629,0.022208,1.570718,-0.052582,-0.000291,-0.002181,0.000035,-0.005958,-0.000006,0.003359,-0.001052,0.130383,0.061813,0.196827,0.196824,0.172429,0.566240,0.000000,0.000000,0.000000,0.000000,0.000000,0.000000,0.000000,0.000000,0.000000,0.000000,0.000000,0.000000,0.126108,3,0
990000,0.001004,25.398354,-0.055135,0.002032,25.613579,-0.038628,-0.001650,0.022478,1.570714,-0.053021,-0.000297,-0.002359,0.000036,-0.006035,-0.000006,0.000858,-0.001038,0.068798,0.024247,0.197150,0.197147,0.172280,0.559997,0.000000,0.000000,0.000000,0.000000,0.000000,0.000000,0.000000,0.000000,0.000000,0.000000,0.000000,0.000000,0.066545,3,0
1000000,0.000989,25.660698,-0.056106,0.001849,25.626453,-0.040076,-0.001662,0.023141,1.570720,-0.054229,-0.000304,-0.002215,0.000037,-0.006248,-0.000006,0.005768,-0.001023,0.188082,-0.020221,0.197461,0.197458,0.172119,0.553858,0.000000,0.000000,0.000000,0.000000,0.000000,0.000000,0.000000,0.000000,0.000000,0.000000,0.000000,0.000000,0.181895,3,0
1010000,0.000974,25.923706,-0.055352,0.001753,25.640471,-0.038950,-0.001682,0.023856,1.570718,-0.055542,-0.000310,-0.002520,0.000039,-0.006484,-0.000007,0.006967,-0.001007,0.203913,0.040438,0.197762,0.197759,0.171945,0.547821,0.000000,0.000000,0.000000,0.000000,0.000000,0.000000,0.000000,0.000000,0.000000,0.000000,0.000000,0.000000,0.197194,3,0
1020000,0.000958,26.183428,-0.054431,0.001620,25.648470,-0.037637,-0.001703,0.024238,1.570709,-0.056186,-0.000316,-0.002867,0.000040,-0.006601,-0.000007,0.001947,-0.000991,0.099792,0.045974,0.198052,0.198049,0.171760,0.541889,0.000000,0.000000,0.000000,0.000000,0.000000,0.000000,0.000000,0.000000,0.000000,0.000000,0.000000,0.000000,0.096503,3,0
1030000,0.000941,26.442532,-0.055399,0.001466,25.655355,-0.038933,-0.001726,0.024562,1.570708,-0.056696,-0.000323,-0.002714,0.000041,-0.006695,-0.000007,0.001062,-0.000973,0.078539,-0.020533,0.198331,0.198328,0.171563,0.536062,0.000000,0.000000,0.000000,0.000000,0.000000,0.000000,0.000000,0.000000,0.000000,0.000000,0.000000,0.000000,0.075949,3,0
1040000,0.000925,26.701683,-0.054908,0.001459,25.662262,-0.038412,-0.001748,0.024893,1.570704,-0.057201,-0.000329,-0.002952,0.000042,-0.006790,-0.000007,0.001131,-0.000956,0.077791,0.031051,0.198601,0.198598,0.171356,0.530340,0.000000,0.000000,0.000000,0.000000,0.000000,0.000000,0.000000,0.000000,0.000000,0.000000,0.000000,0.000000,0.075222,3,0
1050000,0.000908,26.960222,-0.054106,0.001373,25.667953,-0.037110,-0.001776,0.025160,1.570696,-0.057573,-0.000335,-0.003274,0.000043,-0.006861,-0.000007,0.000808,-0.000939,0.057116,0.041718,0.198862,0.198858,0.171138,0.524723,0.000000,0.000000,0.000000,0.000000,0.000000,0.000000,0.000000,0.000000,0.000000,0.000000,0.000000,0.000000,0.055231,3,0
1060000,0.000890,27.221453,-0.053308,0.001287,25.678205,-0.035873,-0.001799,0.025705,1.570689,-0.058464,-0.000341,-0.003597,0.000045,-0.007033,-0.000007,0.003275,-0.000921,0.136465,0.041155,0.199113,0.199110,0.170910,0.519211,0.000000,0.000000,0.000000,0.000000,0.000000,0.000000,0.000000,0.000000,0.000000,0.000000,0.000000,0.000000,0.131940,3,0
1070000,0.000874,27.484016,-0.054247,0.001282,25.690687,-0.037367,-0.001811,0.026371,1.570697,-0.059601,-0.000347,-0.003445,0.000046,-0.007256,-0.000007,0.004906,-0.000904,0.173315,-0.020141,0.199356,0.199353,0.170672,0.513804,0.000000,0.000000,0.000000,0.000000,0.000000,0.000000,0.000000,0.000000,0.000000,0.000000,0.000000,0.000000,0.167559,3,0
1080000,0.000856,27.744587,-0.054231,0.001171,25.699520,-0.037342,-0.001829,0.026823,1.570707,-0.060320,-0.000353,-0.003558,0.000047,-0.007399,-0.000007,0.001960,-0.000886,0.109413,0.013911,0.199591,0.199587,0.170424,0.508503,0.000000,0.000000,0.000000,0.000000,0.000000,0.000000,0.000000,0.000000,0.000000,0.000000,0.000000,0.000000,0.105777,3,0
1090000,0.000838,28.005177,-0.053217,0.001026,25.708443,-0.036143,-0.001852,0.027285,1.570700,-0.061023,-0.000358,-0.003951,0.000048,-0.007541,-0.000007,0.002243,-0.000867,0.107180,0.049183,0.199818,0.199815,0.170168,0.503306,0.000000,0.000000,0.000000,0.000000,0.000000,0.000000,0.000000,0.000000,0.000000,0.000000,0.000000,0.000000,0.103614,3,0
1100000,0.000819,28.265121,-0.052038,0.000865,25.716078,-0.034569,-0.001873,0.027657,1.570695,-0.061582,-0.000363,-0.004389,0.000049,-0.007656,-0.000008,0.001648,-0.000847,0.085047,0.054608,0.200039,0.200035,0.169903,0.498214,0.000000,0.000000,0.000000,0.000000,0.000000,0.000000,0.000000,0.000000,0.000000,0.000000,0.000000,0.000000,0.082217,3,0
1110000,0.000800,28.526423,-0.050853,0.000807,25.726027,-0.033120,-0.001903,0.028172,1.570693,-0.062393,-0.000368,-0.004831,0.000050,-0.007825,-0.000008,0.002925,-0.000828,0.123209,0.054387,0.200252,0.200248,0.169630,0.493226,0.000000,0.000000,0.000000,0.000000,0.000000,0.000000,0.000000,0.000000,0.000000,0.000000,0.000000,0.000000,0.119099,3,0
1120000,0.000779,28.789055,-0.050144,0.000605,25.738111,-0.032339,-0.001922,0.028848,1.570686,-0.063449,-0.000374,-0.005137,0.000052,-0.008048,-0.000008,0.004347,-0.000806,0.159992,0.037099,0.200459,0.200455,0.169350,0.488342,0.000000,0.000000,0.000000,0.000000,0.000000,0.000000,0.000000,0.000000,0.000000,0.000000,0.000000,0.000000,0.154650,3,0
1130000,0.000758,29.049009,-0.049142,0.000415,25.745361,-0.031269,-0.001943,0.029216,1.570688,-0.063951,-0.000379,-0.005525,0.000053,-0.008155,-0.000008,0.001297,-0.000784,0.076149,0.047317,0.200661,0.200656,0.169062,0.483559,0.000000,0.000000,0.000000,0.000000,0.000000,0.000000,0.000000,0.000000,0.000000,0.000000,0.000000,0.000000,0.073607,3,0
1140000,0.000735,29.310318,-0.050371,0.000264,25.754889,-0.033128,-0.001953,0.029723,1.570682,-0.064709,-0.000384,-0.005265,0.000054,-0.008320,-0.000008,0.002274,-0.000761,0.114304,-0.032290,0.200856,0.200852,0.168767,0.478879,0.000000,0.000000,0.000000,0.000000,0.000000,0.000000,0.000000,0.000000,0.000000,0.000000,0.000000,0.000000,0.110480,3,0
1150000,0.000712,29.571627,-0.051595,0.000066,25.764355,-0.035043,-0.001971,0.030240,1.570687,-0.065448,-0.000389,-0.005011,0.000055,-0.008483,-0.000008,0.002157,-0.000736,0.111326,-0.031468,0.201047,0.201043,0.168465,0.474300,0.000000,0.000000,0.000000,0.000000,0.000000,0.000000,0.000000,0.000000,0.000000,0.000000,0.000000,0.000000,0.107598,3,0
1160000,0.000688,29.832268,-0.052144,-0.000042,25.772503,-0.035665,-0.001989,0.030663,1.570696,-0.066035,-0.000394,-0.004957,0.000056,-0.008614,-0.000008,0.001269,-0.000712,0.088469,-0.006915,0.201234,0.201229,0.168157,0.469821,0.000000,0.000000,0.000000,0.000000,0.000000,0.000000,0.000000,0.000000,0.000000,0.000000,0.000000,0.000000,0.085503,3,0
1170000,0.000663,30.092915,-0.051712,-0.000245,25.780565,-0.035274,-0.002018,0.031076,1.570694,-0.066604,-0.000398,-0.005199,0.000057,-0.008744,-0.000008,0.001327,-0.000686,0.086172,0.028473,0.201416,0.201411,0.167844,0.465441,0.000000,0.000000,0.000000,0.000000,0.000000,0.000000,0.000000,0.000000,0.000000,0.000000,0.000000,0.000000,0.083283,3,0
1180000,0.000637,30.352234,-0.051084,-0.000418,25.786255,-0.034545,-0.002029,0.031328,1.570694,-0.066895,-0.000402,-0.005499,0.000058,-0.008811,-0.000008,0.000516,-0.000659,0.044111,0.035355,0.201595,0.201589,0.167525,0.461160,0.000000,0.000000,0.000000,0.000000,0.000000,0.000000,0.000000,0.000000,0.000000,0.000000,0.000000,0.000000,0.042634,3,0
1190000,0.000610,30.612247,-0.051551,-0.000600,25.793079,-0.035362,-0.002050,0.031670,1.570687,-0.067313,-0.000407,-0.005468,0.000059,-0.008908,-0.000009,0.000643,-0.000631,0.063042,-0.004067,0.201770,0.201764,0.167201,0.456975,0.000000,0.000000,0.000000,0.000000,0.000000,0.000000,0.000000,0.000000,0.000000,0.000000,0.000000,0.000000,0.060924,3,0
1200000,0.000583,30.870937,-0.052188,-0.000701,25.797470,-0.036163,-0.002069,0.031852,1.570684,-0.067457,-0.000411,-0.005384,0.000060,-0.008942,-0.000009,0.000092,-0.000603,0.021627,-0.010008,0.201942,0.201936,0.166873,0.452887,0.000000,0.000000,0.000000,0.000000,0.000000,0.000000,0.000000,0.000000,0.000000,0.000000,0.000000,0.000000,0.020907,3,0
1210000,0.000556,31.133678,-0.052853,-0.000840,25.808849,-0.037205,-0.002088,0.032510,1.570686,-0.068388,-0.000415,-0.005301,0.000061,-0.009166,-0.000009,0.003201,-0.000575,0.140591,-0.010571,0.202112,0.202106,0.166540,0.448892,0.000000,0.000000,0.000000,0.000000,0.000000,0.000000,0.000000,0.000000,0.000000,0.000000,0.000000,0.000000,0.135856,3,0
1220000,0.000527,31.397058,-0.051616,-0.001005,25.821373,-0.035620,-0.002104,0.033232,1.570688,-0.069416,-0.000418,-0.005814,0.000062,-0.009417,-0.000009,0.004474,-0.000546,0.156040,0.058417,0.202280,0.202273,0.166204,0.444992,0.000000,0.000000,0.000000,0.000000,0.000000,0.000000,0.000000,0.000000,0.000000,0.000000,0.000000,0.000000,0.150783,3,0
1230000,0.000499,31.657045,-0.051573,-0.001130,25.827765,-0.035485,-0.002119,0.033544,1.570687,-0.069756,-0.000421,-0.005944,0.000063,-0.009501,-0.000009,0.000463,-0.000516,0.051565,0.014624,0.202445,0.202439,0.165864,0.441184,0.000000,0.000000,0.000000,0.000000,0.000000,0.000000,0.000000,0.000000,0.000000,0.000000,0.000000,0.000000,0.049828,3,0
1240000,0.000471,31.919725,-0.050824,-0.001187,25.838804,-0.034647,-0.002146,0.034191,1.570681,-0.070607,-0.000424,-0.006305,0.000063,-0.009715,-0.000009,0.002963,-0.000487,0.129456,0.040389,0.202610,0.202603,0.165520,0.437468,0.000000,0.000000,0.000000,0.000000,0.000000,0.000000,0.000000,0.000000,0.000000,0.000000,0.000000,0.000000,0.125087,3,0
1250000,0.000443,32.181702,-0.051281,-0.001284,25.848415,-0.035400,-0.002173,0.034733,1.570685,-0.071300,-0.000427,-0.006279,0.000064,-0.009892,-0.000009,0.001785,-0.000458,0.105213,-0.003668,0.202773,0.202765,0.165174,0.433840,0.000000,0.000000,0.000000,0.000000,0.000000,0.000000,0.000000,0.000000,0.000000,0.000000,0.000000,0.000000,0.101659,3,0
1260000,0.000414,32.441635,-0.050244,-0.001430,25.854445,-0.034318,-0.002183,0.035012,1.570680,-0.071573,-0.000430,-0.006733,0.000065,-0.009962,-0.000009,0.000704,-0.000429,0.041931,0.050933,0.202935,0.202927,0.164825,0.430302,0.000000,0.000000,0.000000,0.000000,0.000000,0.000000,0.000000,0.000000,0.000000,0.000000,0.000000,0.000000,0.040518,3,0
1270000,0.000386,32.702251,-0.049946,-0.001462,25.861509,-0.033924,-0.002205,0.035374,1.570675,-0.071967,-0.000432,-0.006947,0.000066,-0.010065,-0.000009,0.000675,-0.000400,0.060238,0.023629,0.203096,0.203088,0.164474,0.426850,0.000000,0.000000,0.000000,0.000000,0.000000,0.000000,0.000000,0.000000,0.000000,0.000000,0.000000,0.000000,0.058202,3,0
1280000,0.000358,32.965561,-0.050562,-0.001558,25.873247,-0.034997,-0.002232,0.036081,1.570682,-0.072868,-0.000435,-0.006870,0.000066,-0.010305,-0.000009,0.003059,-0.000371,0.137493,-0.009616,0.203258,0.203249,0.164121,0.423483,0.000000,0.000000,0.000000,0.000000,0.000000,0.000000,0.000000,0.000000,0.000000,0.000000,0.000000,0.000000,0.132836,3,0
1290000,0.000331,33.229496,-0.050424,-0.001606,25.886049,-0.035000,-0.002257,0.036851,1.570672,-0.073862,-0.000437,-0.007046,0.000067,-0.010573,-0.000010,0.003793,-0.000342,0.152370,0.018345,0.203419,0.203410,0.163767,0.420202,0.000000,0.000000,0.000000,0.000000,0.000000,0.000000,0.000000,0.000000,0.000000,0.000000,0.000000,0.000000,0.147206,3,0
1300000,0.000304,33.490677,-0.050841,-0.001686,25.893875,-0.035618,-0.002275,0.037253,1.570663,-0.074301,-0.000439,-0.007032,0.000067,-0.010693,-0.000010,0.000728,-0.000314,0.067215,-0.002145,0.203580,0.203570,0.163411,0.417003,0.000000,0.000000,0.000000,0.000000,0.000000,0.000000,0.000000,0.000000,0.000000,0.000000,0.000000,0.000000,0.064934,3,0
1310000,0.000276,33.751163,-0.050973,-0.001839,25.900248,-0.035905,-0.002299,0.037564,1.570661,-0.074589,-0.000441,-0.007113,0.000068,-0.010774,-0.000010,0.000331,-0.000285,0.044502,0.008546,0.203741,0.203731,0.163053,0.413885,0.000000,0.000000,0.000000,0.000000,0.000000,0.000000,0.000000,0.000000,0.000000,0.000000,0.000000,0.000000,0.042993,3,0
1320000,0.000248,34.011646,-0.051532,-0.001928,25.906595,-0.036566,-0.002311,0.037866,1.570666,-0.074865,-0.000442,-0.007051,0.000068,-0.010851,-0.000010,0.000297,-0.000256,0.042381,-0.007138,0.203903,0.203893,0.162696,0.410847,0.000000,0.000000,0.000000,0.000000,0.000000,0.000000,0.000000,0.000000,0.000000,0.000000,0.000000,0.000000,0.040940,3,0
1330000,0.000220,34.273468,-0.050834,-0.002030,25.915154,-0.035720,-0.002325,0.038338,1.570670,-0.075379,-0.000443,-0.007423,0.000069,-0.010998,-0.000010,0.001286,-0.000228,0.080021,0.039652,0.204066,0.204055,0.162337,0.407888,0.000000,0.000000,0.000000,0.000000,0.000000,0.000000,0.000000,0.000000,0.000000,0.000000,0.000000,0.000000,0.077301,3,0
1340000,0.000192,34.535263,-0.051236,-0.002168,25.923681,-0.036183,-0.002348,0.038812,1.570672,-0.075872,-0.000445,-0.007417,0.000069,-0.011141,-0.000010,0.000943,-0.000198,0.076534,-0.001327,0.204230,0.204219,0.161978,0.405006,0.000000,0.000000,0.000000,0.000000,0.000000,0.000000,0.000000,0.000000,0.000000,0.000000,0.000000,0.000000,0.073929,3,0
1350000,0.000162,34.797703,-0.052085,-0.002387,25.933119,-0.037545,-0.002376,0.039354,1.570661,-0.076470,-0.000446,-0.007261,0.000069,-0.011317,-0.000010,0.001441,-0.000168,0.092960,-0.017612,0.204395,0.204383,0.161620,0.402198,0.000000,0.000000,0.000000,0.000000,0.000000,0.000000,0.000000,0.000000,0.000000,0.000000,0.000000,0.000000,0.089794,3,0
1360000,0.000132,35.056709,-0.051241,-0.002564,25.936352,-0.036717,-0.002401,0.039415,1.570665,-0.076400,-0.000446,-0.007686,0.000070,-0.011296,-0.000010,0.000355,-0.000137,-0.010544,0.045605,0.204562,0.204549,0.161261,0.399466,0.000000,0.000000,0.000000,0.000000,0.000000,0.000000,0.000000,0.000000,0.000000,0.000000,0.000000,0.000000,0.010182,3,0
1370000,0.000101,35.319122,-0.051394,-0.002713,25.945631,-0.037104,-0.002418,0.039937,1.570668,-0.076961,-0.000447,-0.007774,0.000070,-0.011466,-0.000010,0.001265,-0.000105,0.088238,0.008469,0.204729,0.204716,0.160903,0.396805,0.000000,0.000000,0.000000,0.000000,0.000000,0.000000,0.000000,0.000000,0.000000,0.000000,0.000000,0.000000,0.085228,3,0
1380000,0.000070,35.578098,-0.050752,-0.002827,25.948805,-0.036478,-0.002428,0.039970,1.570660,-0.076862,-0.000447,-0.008132,0.000070,-0.011435,-0.000010,0.000272,-0.000073,-0.015240,0.038039,0.204898,0.204885,0.160545,0.394217,0.000000,0.000000,0.000000,0.000000,0.000000,0.000000,0.000000,0.000000,0.000000,0.000000,0.000000,0.000000,0.014717,3,0
1390000,0.000039,35.837769,-0.051453,-0.003020,25.953110,-0.037311,-0.002445,0.040109,1.570653,-0.076888,-0.000448,-0.008015,0.000070,-0.011443,-0.000010,0.000028,-0.000040,0.004059,-0.012396,0.205069,0.205055,0.160188,0.391698,0.000000,0.000000,0.000000,0.000000,0.000000,0.000000,0.000000,0.000000,0.000000,0.000000,0.000000,0.000000,0.003918,3,0
1400000,0.000008,36.096752,-0.050550,-0.003046,25.956163,-0.036208,-0.002471,0.040137,1.570661,-0.076777,-0.000447,-0.008471,0.000070,-0.011407,-0.000010,0.000422,-0.000008,-0.017109,0.048042,0.205241,0.205226,0.159833,0.389248,0.000000,0.000000,0.000000,0.000000,0.000000,0.000000,0.000000,0.000000,0.000000,0.000000,0.000000,0.000000,0.016521,3,0
1410000,-0.000022,36.358467,-0.049846,-0.003130,25.963913,-0.035542,-0.002490,0.040555,1.570652,-0.077161,-0.000446,-0.008866,0.000070,-0.011530,-0.000010,0.000882,0.000023,0.061821,0.040529,0.205416,0.205400,0.159478,0.386863,0.000000,0.000000,0.000000,0.000000,0.000000,0.000000,0.000000,0.000000,0.000000,0.000000,0.000000,0.000000,0.059708,3,0
1420000,-0.000053,36.617428,-0.050044,-0.003289,25.966803,-0.035698,-0.002501,0.040563,1.570661,-0.077029,-0.000446,-0.008922,0.000070,-0.011487,-0.000010,0.000077,0.000055,-0.021065,0.005987,0.205592,0.205576,0.159125,0.384545,0.000000,0.000000,0.000000,0.000000,0.000000,0.000000,0.000000,0.000000,0.000000,0.000000,0.000000,0.000000,0.020344,3,0
1430000,-0.000084,36.877075,-0.050343,-0.003329,25.970798,-0.036297,-0.002519,0.040677,1.570669,-0.077018,-0.000446,-0.008945,0.000070,-0.011484,-0.000010,0.000001,0.000087,-0.001747,0.002469,0.205770,0.205753,0.158774,0.382290,0.000000,0.000000,0.000000,0.000000,0.000000,0.000000,0.000000,0.000000,0.000000,0.000000,0.000000,0.000000,0.001688,3,0
1440000,-0.000115,37.140129,-0.049370,-0.003513,25.980782,-0.035257,-0.002542,0.041266,1.570660,-0.077608,-0.000444,-0.009454,0.000069,-0.011681,-0.000010,0.001920,0.000119,0.096382,0.051161,0.205950,0.205932,0.158424,0.380098,0.000000,0.000000,0.000000,0.000000,0.000000,0.000000,0.000000,0.000000,0.000000,0.000000,0.000000,0.000000,0.093079,3,0
1450000,-0.000147,37.401077,-0.049639,-0.003706,25.986895,-0.035508,-0.002561,0.041550,1.570662,-0.077805,-0.000443,-0.009491,0.000069,-0.011748,-0.000010,0.000167,0.000152,0.032021,0.003411,0.206132,0.206114,0.158077,0.377966,0.000000,0.000000,0.000000,0.000000,0.000000,0.000000,0.000000,0.000000,0.000000,0.000000,0.000000,0.000000,0.030922,3,0
1460000,-0.000180,37.659264,-0.049722,-0.003907,25.987913,-0.035589,-0.002568,0.041412,1.570651,-0.077498,-0.000442,-0.009587,0.000069,-0.011642,-0.000010,0.000421,0.000186,-0.050076,0.010327,0.206316,0.206297,0.157731,0.375895,0.000000,0.000000,0.000000,0.000000,0.000000,0.000000,0.000000,0.000000,0.000000,0.000000,0.000000,0.000000,0.048352,3,0
1470000,-0.000213,37.918835,-0.049351,-0.004092,25.991432,-0.035032,-0.002574,0.041465,1.570653,-0.077435,-0.000440,-0.009860,0.000068,-0.011619,-0.000010,0.000142,0.000221,-0.010094,0.027808,0.206502,0.206482,0.157388,0.373882,0.000000,0.000000,0.000000,0.000000,0.000000,0.000000,0.000000,0.000000,0.000000,0.000000,0.000000,0.000000,0.009745,3,0
1480000,-0.000246,38.181831,-0.050580,-0.004119,26.001135,-0.036502,-0.002588,0.042042,1.570654,-0.077969,-0.000439,-0.009543,0.000068,-0.011809,-0.000010,0.001427,0.000254,0.088123,-0.033036,0.206691,0.206670,0.157047,0.371925,0.000000,0.000000,0.000000,0.000000,0.000000,0.000000,0.000000,0.000000,0.000000,0.000000,0.000000,0.000000,0.085083,3,0
1490000,-0.000278,38.442017,-0.050632,-0.004199,26.005541,-0.036670,-0.002600,0.042173,1.570643,-0.077991,-0.000437,-0.009665,0.000067,-0.011817,-0.000010,0.000027,0.000288,0.003941,0.012180,0.206881,0.206859,0.156708,0.370025,0.000000,0.000000,0.000000,0.000000,0.000000,0.000000,0.000000,0.000000,0.000000,0.000000,0.000000,0.000000,0.003817,3,0
1500000,-0.000310,38.700813,-0.050370,-0.004338,26.007524,-0.036504,-0.002621,0.042086,1.570635,-0.077765,-0.000435,-0.009902,0.000066,-0.011734,-0.000010,0.000323,0.000321,-0.037621,0.024185,0.207074,0.207051,0.156372,0.368179,0.000000,0.000000,0.000000,0.000000,0.000000,0.000000,0.000000,0.000000,0.000000,0.000000,0.000000,0.000000,0.036321,3,0
1510000,-0.000342,38.962360,-0.050154,-0.004424,26.014269,-0.036241,-0.002637,0.042430,1.570642,-0.078009,-0.000433,-0.010136,0.000066,-0.011824,-0.000010,0.000361,0.000355,0.041504,0.022733,0.207268,0.207244,0.156039,0.366385,0.000000,0.000000,0.000000,0.000000,0.000000,0.000000,0.000000,0.000000,0.000000,0.000000,0.000000,0.000000,0.040075,3,0
1520000,-0.000375,39.225243,-0.050093,-0.004544,26.023508,-0.036409,-0.002660,0.042957,1.570637,-0.078466,-0.000430,-0.010318,0.000065,-0.011996,-0.000010,0.001028,0.000388,0.078072,0.016957,0.207464,0.207439,0.155709,0.364643,0.000000,0.000000,0.000000,0.000000,0.000000,0.000000,0.000000,0.000000,0.000000,0.000000,0.000000,0.000000,0.075376,3,0
1530000,-0.000406,39.486691,-0.050847,-0.004567,26.029924,-0.037516,-0.002668,0.043265,1.570629,-0.078664,-0.000428,-0.010175,0.000064,-0.012072,-0.000010,0.000218,0.000421,0.033764,-0.014637,0.207662,0.207636,0.155382,0.362951,0.000000,0.000000,0.000000,0.000000,0.000000,0.000000,0.000000,0.000000,0.000000,0.000000,0.000000,0.000000,0.032595,3,0
1540000,-0.000437,39.745331,-0.049710,-0.004633,26.031120,-0.036021,-0.002678,0.043121,1.570621,-0.078376,-0.000425,-0.010762,0.000063,-0.011960,-0.000010,0.000937,0.000453,-0.048836,0.058368,0.207861,0.207835,0.155057,0.361309,0.000000,0.000000,0.000000,0.000000,0.000000,0.000000,0.000000,0.000000,0.000000,0.000000,0.000000,0.000000,0.047136,3,0
1550000,-0.000467,40.003292,-0.050116,-0.004667,26.031128,-0.036633,-0.002685,0.042872,1.570620,-0.077980,-0.000422,-0.010732,0.000062,-0.011804,-0.000010,0.000765,0.000484,-0.068943,-0.001919,0.208062,0.208035,0.154736,0.359714,0.000000,0.000000,0.000000,0.000000,0.000000,0.000000,0.000000,0.000000,0.000000,0.000000,0.000000,0.000000,0.066553,3,0
1560000,-0.000496,40.265408,-0.050619,-0.004681,26.038698,-0.037265,-0.002702,0.043277,1.570610,-0.078270,-0.000419,-0.010690,0.000060,-0.011920,-0.000010,0.000419,0.000514,0.050797,-0.004841,0.208265,0.208237,0.154419,0.358166,0.000000,0.000000,0.000000,0.000000,0.000000,0.000000,0.000000,0.000000,0.000000,0.000000,0.000000,0.000000,0.049037,3,0
1570000,-0.000525,40.528843,-0.049609,-0.004697,26.048475,-0.036038,-0.002709,0.043870,1.570601,-0.078756,-0.000415,-0.011266,0.000059,-0.012116,-0.000010,0.001695,0.000544,0.086788,0.054525,0.208469,0.208440,0.154104,0.356662,0.000000,0.000000,0.000000,0.000000,0.000000,0.000000,0.000000,0.000000,0.000000,0.000000,0.000000,0.000000,0.083784,3,0
1580000,-0.000553,40.789444,-0.049426,-0.004760,26.053074,-0.036075,-0.002723,0.044008,1.570610,-0.078766,-0.000412,-0.011489,0.000058,-0.012120,-0.000010,0.000076,0.000573,0.002163,0.021467,0.208675,0.208644,0.153793,0.355203,0.000000,0.000000,0.000000,0.000000,0.000000,0.000000,0.000000,0.000000,0.000000,0.000000,0.000000,0.000000,0.002162,3,0
1590000,-0.000581,41.051392,-0.048743,-0.004943,26.060085,-0.035249,-0.002737,0.044354,1.570609,-0.078983,-0.000408,-0.011925,0.000056,-0.012210,-0.000010,0.000530,0.000602,0.039700,0.041233,0.208882,0.208850,0.153486,0.353787,0.000000,0.000000,0.000000,0.000000,0.000000,0.000000,0.000000,0.000000,0.000000,0.000000,0.000000,0.000000,0.038331,3,0
1600000,-0.000610,41.313984,-0.048293,-0.005071,26.068115,-0.034653,-0.002743,0.044781,1.570615,-0.079289,-0.000404,-0.012268,0.000055,-0.012339,-0.000010,0.000670,0.000633,0.055988,0.031945,0.209090,0.209057,0.153182,0.352413,0.000000,0.000000,0.000000,0.000000,0.000000,0.000000,0.000000,0.000000,0.000000,0.000000,0.000000,0.000000,0.054046,3,0
1610000,-0.000639,41.575821,-0.048382,-0.005102,26.074568,-0.035006,-0.002746,0.045083,1.570621,-0.079462,-0.000400,-0.012384,0.000053,-0.012414,-0.000010,0.000181,0.000662,0.031860,0.010563,0.209299,0.209265,0.152881,0.351078,0.000000,0.000000,0.000000,0.000000,0.000000,0.000000,0.000000,0.000000,0.000000,0.000000,0.000000,0.000000,0.030757,3,0
1620000,-0.000667,41.835514,-0.047707,-0.005165,26.077106,-0.034416,-0.002767,0.045033,1.570622,-0.079289,-0.000396,-0.012803,0.000052,-0.012337,-0.000010,0.000421,0.000691,-0.031250,0.040338,0.209509,0.209474,0.152585,0.349784,0.000000,0.000000,0.000000,0.000000,0.000000,0.000000,0.000000,0.000000,0.000000,0.000000,0.000000,0.000000,0.030159,3,0
1630000,-0.000695,42.096592,-0.049023,-0.005300,26.082224,-0.036026,-0.002786,0.045206,1.570628,-0.079331,-0.000393,-0.012402,0.000050,-0.012357,-0.000010,0.000244,0.000720,0.007214,-0.038045,0.209720,0.209683,0.152292,0.348528,0.000000,0.000000,0.000000,0.000000,0.000000,0.000000,0.000000,0.000000,0.000000,0.000000,0.000000,0.000000,0.006989,3,0
1640000,-0.000724,42.354149,-0.050201,-0.005477,26.080753,-0.037605,-0.002798,0.044793,1.570635,-0.078830,-0.000389,-0.012038,0.000048,-0.012131,-0.000010,0.001622,0.000750,-0.094883,-0.032725,0.209931,0.209894,0.152003,0.347309,0.000000,0.000000,0.000000,0.000000,0.000000,0.000000,0.000000,0.000000,0.000000,0.000000,0.000000,0.000000,0.091575,3,0
1650000,-0.000752,42.613792,-0.049772,-0.005491,26.083096,-0.037049,-0.002803,0.044700,1.570644,-0.078647,-0.000385,-0.012369,0.000046,-0.012046,-0.000010,0.000353,0.000780,-0.034363,0.031723,0.210143,0.210104,0.151717,0.346125,0.000000,0.000000,0.000000,0.000000,0.000000,0.000000,0.000000,0.000000,0.000000,0.000000,0.000000,0.000000,0.033162,3,0
1660000,-0.000781,42.872028,-0.050213,-0.005683,26.082825,-0.037543,-0.002822,0.044373,1.570652,-0.078256,-0.000380,-0.012321,0.000044,-0.011864,-0.000010,0.000915,0.000809,-0.075363,-0.003203,0.210355,0.210315,0.151436,0.344976,0.000000,0.000000,0.000000,0.000000,0.000000,0.000000,0.000000,0.000000,0.000000,0.000000,0.000000,0.000000,0.072728,3,0
1670000,-0.000811,43.130253,-0.049590,-0.005856,26.082474,-0.036764,-0.002834,0.044050,1.570656,-0.077865,-0.000376,-0.012727,0.000042,-0.011678,-0.000010,0.001158,0.000840,-0.075165,0.039184,0.210567,0.210526,0.151158,0.343861,0.000000,0.000000,0.000000,0.000000,0.000000,0.000000,0.000000,0.000000,0.000000,0.000000,0.000000,0.000000,0.072522,3,0
1680000,-0.000840,43.388485,-0.049670,-0.005986,26.082003,-0.036746,-0.002848,0.043724,1.570659,-0.077483,-0.000371,-0.012831,0.000040,-0.011493,-0.000010,0.000923,0.000871,-0.074963,0.010966,0.210779,0.210737,0.150885,0.342776,0.000000,0.000000,0.000000,0.000000,0.000000,0.000000,0.000000,0.000000,0.000000,0.000000,0.000000,0.000000,0.072332,3,0
1690000,-0.000871,43.651604,-0.049144,-0.006166,26.090548,-0.036334,-0.002861,0.044217,1.570662,-0.077804,-0.000366,-0.013237,0.000038,-0.011649,-0.000010,0.000882,0.000903,0.064388,0.036384,0.210992,0.210948,0.150615,0.341723,0.000000,0.000000,0.000000,0.000000,0.000000,0.000000,0.000000,0.000000,0.000000,0.000000,0.000000,0.000000,0.062140,3,0
1700000,-0.000900,43.909054,-0.049108,-0.006186,26.088585,-0.036100,-0.002875,0.043731,1.570656,-0.077307,-0.000361,-0.013381,0.000035,-0.011402,-0.000010,0.001627,0.000933,-0.099426,0.015175,0.211203,0.211158,0.150349,0.340702,0.000000,0.000000,0.000000,0.000000,0.000000,0.000000,0.000000,0.000000,0.000000,0.000000,0.000000,0.000000,0.095929,3,0
1710000,-0.000931,44.167923,-0.050147,-0.006362,26.089252,-0.037514,-0.002876,0.043507,1.570657,-0.077021,-0.000357,-0.013071,0.000033,-0.011258,-0.000010,0.000675,0.000965,-0.058670,-0.027356,0.211415,0.211368,0.150088,0.339710,0.000000,0.000000,0.000000,0.000000,0.000000,0.000000,0.000000,0.000000,0.000000,0.000000,0.000000,0.000000,0.056618,3,0
