time_us,pos_x,pos_y,pos_z,vel_x,vel_y,vel_z,roll,pitch,yaw,bias_ax,bias_ay,bias_az,bias_gx,bias_gy,bias_gz,nis,innov_x,innov_y,innov_z,cov_pos_x,cov_pos_y,cov_pos_z,cov_yaw,des_speed,des_heading,des_climb,pid_speed,pid_yaw,pid_alt,speed_meas,yaw_meas,climb_meas,fwd_accel,yaw_rate,vert_accel,drift_m,nav_mode,mission_state
0,0.000003,0.149999,0.000001,0.000421,24.999874,0.000373,-0.000007,0.000004,1.570802,0.000000,0.000000,0.000000,0.000000,0.000000,0.000000,0.006250,-0.000004,-0.250001,-0.000004,2.400038,2.400038,3.600017,1.000518,0.000000,0.000000,0.000000,0.000000,0.000000,0.000000,0.000000,0.000000,0.000000,0.000000,0.000000,0.000000,0.149999,1,0
10000,0.000008,0.370908,-0.004400,0.000899,24.999928,0.000642,-0.000014,0.000005,1.570812,0.000000,-0.000000,0.000000,0.000000,0.000000,0.000000,0.001248,-0.000012,-0.101817,-0.011755,1.714420,1.714420,2.250079,1.001073,0.000000,0.000000,0.000000,0.000000,0.000000,0.000000,0.000000,0.000000,0.000000,0.000000,0.000000,0.000000,0.072724,3,0
20000,0.000016,0.606617,-0.017508,0.001224,24.999912,0.000866,-0.000010,-0.000008,1.570819,0.000001,-0.000000,0.000000,-0.000000,0.000000,0.000000,0.000816,-0.000020,-0.064299,-0.048092,1.333616,1.333616,1.636554,1.001655,0.000000,0.000000,0.000000,0.000000,0.000000,0.000000,0.000000,0.000000,0.000000,0.000000,0.000000,0.000000,0.050007,3,0
30000,0.000026,0.845439,-0.029832,0.001585,24.999933,0.001174,-0.000012,-0.000020,1.570832,0.000002,-0.000000,0.000001,-0.000000,0.000000,0.000000,0.000949,-0.000032,-0.061462,-0.057560,1.091392,1.091392,1.286065,1.002257,0.000000,0.000000,0.000000,0.000000,0.000000,0.000000,0.000000,0.000000,0.000000,0.000000,0.000000,0.000000,0.050282,3,0
40000,0.000039,1.107360,-0.035220,0.002042,25.000549,0.001255,-0.000003,-0.000023,1.570839,-0.000000,-0.000000,0.000002,-0.000000,-0.000000,-0.000000,0.000974,-0.000046,0.077415,-0.030595,0.923811,0.923811,1.059385,1.002869,0.000000,0.000000,0.000000,0.000000,0.000000,0.000000,0.000000,0.000000,0.000000,0.000000,0.000000,0.000000,0.065496,3,0
50000,0.000055,1.356621,-0.030329,0.002387,25.000830,0.001858,-0.000012,-0.000016,1.570850,-0.000000,-0.000000,0.000001,0.000000,-0.000000,-0.000000,0.000154,-0.000063,-0.005602,0.032469,0.801036,0.801036,0.900822,1.003484,0.000000,0.000000,0.000000,0.000000,0.000000,0.000000,0.000000,0.000000,0.000000,0.000000,0.000000,0.000000,0.004855,3,0
60000,0.000073,1.611738,-0.030445,0.002854,25.001310,0.002019,-0.000004,-0.000012,1.570858,-0.000003,-0.000000,0.000001,0.000000,-0.000000,-0.000000,0.000276,-0.000083,0.043319,-0.001044,0.707270,0.707270,0.783741,1.004094,0.000000,0.000000,0.000000,0.000000,0.000000,0.000000,0.000000,0.000000,0.000000,0.000000,0.000000,0.000000,0.038212,3,0
70000,0.000095,1.868772,-0.026744,0.003251,25.001898,0.002570,-0.000010,-0.000011,1.570871,-0.000008,-0.000000,-0.000002,0.000000,-0.000000,-0.000000,0.000808,-0.000106,0.066503,0.031798,0.633370,0.633370,0.693801,1.004688,0.000000,0.000000,0.000000,0.000000,0.000000,0.000000,0.000000,0.000000,0.000000,0.000000,0.000000,0.000000,0.059483,3,0
80000,0.000118,2.115781,-0.025442,0.003622,25.001841,0.002872,-0.000012,-0.000015,1.570878,-0.000005,-0.000000,-0.000003,0.000000,-0.000000,-0.000000,0.000172,-0.000131,-0.031507,0.012280,0.573673,0.573673,0.622594,1.005260,0.000000,0.000000,0.000000,0.000000,0.000000,0.000000,0.000000,0.000000,0.000000,0.000000,0.000000,0.000000,0.028495,3,0
90000,0.000146,2.369259,-0.022144,0.004097,25.002476,0.003628,-0.000012,-0.000009,1.570892,-0.000010,-0.000000,-0.000007,0.000000,-0.000000,-0.000000,0.000419,-0.000159,0.039547,0.034673,0.524488,0.524488,0.564865,1.005801,0.000000,0.000000,0.000000,0.000000,0.000000,0.000000,0.000000,0.000000,0.000000,0.000000,0.000000,0.000000,0.036090,3,0
100000,0.000176,2.618066,-0.026655,0.004541,25.002544,0.003657,-0.000009,-0.000008,1.570903,-0.000007,-0.000000,0.000001,0.000000,-0.000000,-0.000000,0.000460,-0.000191,-0.015148,-0.052818,0.483303,0.483303,0.517162,1.006301,0.000000,0.000000,0.000000,0.000000,0.000000,0.000000,0.000000,0.000000,0.000000,0.000000,0.000000,0.000000,0.013929,3,0
110000,0.000209,2.870651,-0.024984,0.004976,25.003073,0.004359,-0.000002,-0.000008,1.570903,-0.000014,-0.000000,-0.000003,0.000000,-0.000000,-0.000000,0.000245,-0.000225,0.034229,0.020495,0.448354,0.448354,0.477121,1.006754,0.000000,0.000000,0.000000,0.000000,0.000000,0.000000,0.000000,0.000000,0.000000,0.000000,0.000000,0.000000,0.031672,3,0
120000,0.000244,3.127635,-0.026864,0.005382,25.004374,0.004214,0.000006,-0.000012,1.570901,-0.000036,-0.000000,0.000003,0.000000,-0.000001,-0.000000,0.001646,-0.000262,0.099701,-0.026065,0.418359,0.418359,0.443071,1.007150,0.000000,0.000000,0.000000,0.000000,0.000000,0.000000,0.000000,0.000000,0.000000,0.000000,0.000000,0.000000,0.092750,3,0
130000,0.000283,3.379094,-0.024699,0.005891,25.004787,0.004817,0.000017,-0.000018,1.570914,-0.000041,-0.000000,-0.000005,0.000000,-0.000001,-0.000000,0.000219,-0.000303,0.021615,0.030743,0.392369,0.392369,0.413797,1.007481,0.000000,0.000000,0.000000,0.000000,0.000000,0.000000,0.000000,0.000000,0.000000,0.000000,0.000000,0.000000,0.020203,3,0
140000,0.000326,3.632130,-0.022226,0.006369,25.005718,0.005612,0.000011,-0.000007,1.570919,-0.000056,-0.000000,-0.000016,0.000000,-0.000001,-0.000000,0.000585,-0.000347,0.048455,0.037412,0.369667,0.369667,0.388393,1.007739,0.000000,0.000000,0.000000,0.000000,0.000000,0.000000,0.000000,0.000000,0.000000,0.000000,0.000000,0.000000,0.045471,3,0
150000,0.000370,3.888802,-0.024300,0.006723,25.007441,0.005448,0.000004,-0.000006,1.570916,-0.000094,-0.000000,-0.000004,0.000000,-0.000002,-0.000000,0.002212,-0.000393,0.113474,-0.034958,0.349695,0.349695,0.366172,1.007915,0.000000,0.000000,0.000000,0.000000,0.000000,0.000000,0.000000,0.000000,0.000000,0.000000,0.000000,0.000000,0.106861,3,0
160000,0.000417,4.141955,-0.022342,0.007101,25.008570,0.006261,-0.000000,0.000003,1.570926,-0.000115,-0.000001,-0.000016,0.000000,-0.000002,-0.000000,0.000656,-0.000441,0.055572,0.032888,0.332021,0.332021,0.346600,1.008002,0.000000,0.000000,0.000000,0.000000,0.000000,0.000000,0.000000,0.000000,0.000000,0.000000,0.000000,0.000000,0.052498,3,0
170000,0.000466,4.392106,-0.024427,0.007479,25.008858,0.005868,0.000004,0.000006,1.570936,-0.000115,-0.000001,0.000000,0.000000,-0.000002,-0.000000,0.000242,-0.000491,0.001197,-0.039162,0.316298,0.316298,0.329260,1.007991,0.000000,0.000000,0.000000,0.000000,0.000000,0.000000,0.000000,0.000000,0.000000,0.000000,0.000000,0.000000,0.001226,3,0
180000,0.000517,4.641673,-0.022788,0.007837,25.008995,0.006581,-0.000005,0.000009,1.570934,-0.000110,-0.000001,-0.000014,0.000000,-0.000002,-0.000000,0.000161,-0.000544,-0.010410,0.030165,0.302247,0.302247,0.313817,1.007875,0.000000,0.000000,0.000000,0.000000,0.000000,0.000000,0.000000,0.000000,0.000000,0.000000,0.000000,0.000000,0.009899,3,0
190000,0.000570,4.892650,-0.023326,0.008231,25.009541,0.006674,-0.000002,0.000010,1.570939,-0.000120,-0.000001,-0.000008,0.000000,-0.000002,-0.000000,0.000077,-0.000599,0.018327,-0.012138,0.289642,0.289642,0.300003,1.007645,0.000000,0.000000,0.000000,0.000000,0.000000,0.000000,0.000000,0.000000,0.000000,0.000000,0.000000,0.000000,0.017452,3,0
200000,0.000626,5.143021,-0.021510,0.008654,25.009878,0.007540,-0.000005,0.000013,1.570936,-0.000123,-0.000002,-0.000029,0.000000,-0.000002,-0.000000,0.000217,-0.000657,0.005892,0.036460,0.278297,0.278297,0.287598,1.007295,0.000000,0.000000,0.000000,0.000000,0.000000,0.000000,0.000000,0.000000,0.000000,0.000000,0.000000,0.000000,0.005653,3,0
210000,0.000685,5.393744,-0.021153,0.009088,25.010347,0.008156,0.000000,0.000010,1.570933,-0.000132,-0.000002,-0.000032,0.000000,-0.000003,-0.000000,0.000037,-0.000717,0.013944,0.006003,0.268055,0.268055,0.276421,1.006816,0.000000,0.000000,0.000000,0.000000,0.000000,0.000000,0.000000,0.000000,0.000000,0.000000,0.000000,0.000000,0.013339,3,0
220000,0.000746,5.647356,-0.021511,0.009421,25.012159,0.008475,-0.000004,0.000033,1.570936,-0.000189,-0.000003,-0.000026,0.000000,-0.000004,-0.000000,0.001070,-0.000780,0.081278,-0.010028,0.258789,0.258789,0.266321,1.006202,0.000000,0.000000,0.000000,0.000000,0.000000,0.000000,0.000000,0.000000,0.000000,0.000000,0.000000,0.000000,0.077776,3,0
230000,0.000810,5.900241,-0.021038,0.009917,25.013689,0.008890,-0.000011,0.000055,1.570935,-0.000240,-0.000003,-0.000032,0.000000,-0.000006,-0.000000,0.000713,-0.000845,0.066196,0.009002,0.250388,0.250388,0.257172,1.005446,0.000000,0.000000,0.000000,0.000000,0.000000,0.000000,0.000000,0.000000,0.000000,0.000000,0.000000,0.000000,0.063439,3,0
240000,0.000877,6.154891,-0.020935,0.010407,25.016319,0.009321,-0.000011,0.000079,1.570948,-0.000332,-0.000004,-0.000032,0.000000,-0.000009,-0.000000,0.001988,-0.000914,0.111478,0.000242,0.242759,0.242759,0.248866,1.004541,0.000000,0.000000,0.000000,0.000000,0.000000,0.000000,0.000000,0.000000,0.000000,0.000000,0.000000,0.000000,0.106972,3,0
250000,0.000948,6.408021,-0.022023,0.010893,25.018169,0.008901,-0.000014,0.000099,1.570945,-0.000399,-0.000005,-0.000007,0.000000,-0.000012,-0.000000,0.001051,-0.000987,0.075472,-0.029417,0.235822,0.235822,0.241314,1.003481,0.000000,0.000000,0.000000,0.000000,0.000000,0.000000,0.000000,0.000000,0.000000,0.000000,0.000000,0.000000,0.072512,3,0
260000,0.001020,6.662816,-0.021208,0.011212,25.021301,0.009439,-0.000008,0.000139,1.570951,-0.000515,-0.000006,-0.000024,0.000000,-0.000016,-0.000000,0.002383,-0.001060,0.120504,0.018534,0.229508,0.229508,0.234436,1.002258,0.000000,0.000000,0.000000,0.000000,0.000000,0.000000,0.000000,0.000000,0.000000,0.000000,0.000000,0.000000,0.115899,3,0
270000,0.001093,6.916919,-0.020629,0.011596,25.024151,0.009903,-0.000007,0.000173,1.570953,-0.000622,-0.000007,-0.000037,0.000000,-0.000020,-0.000000,0.001769,-0.001136,0.104225,0.012691,0.223759,0.223759,0.228165,1.000869,0.000000,0.000000,0.000000,0.000000,0.000000,0.000000,0.000000,0.000000,0.000000,0.000000,0.000000,0.000000,0.100344,3,0
280000,0.001170,7.174735,-0.022695,0.012044,25.029581,0.009011,-0.000006,0.000239,1.570951,-0.000852,-0.000009,0.000027,0.000000,-0.000029,-0.000000,0.007492,-0.001214,0.207915,-0.058513,0.218521,0.218521,0.222443,0.999307,0.000000,0.000000,0.000000,0.000000,0.000000,0.000000,0.000000,0.000000,0.000000,0.000000,0.000000,0.000000,0.200346,3,0
290000,0.001249,7.432461,-0.023503,0.012469,25.035303,0.008754,-0.000012,0.000323,1.570960,-0.001097,-0.000010,0.000056,0.000000,-0.000039,-0.000000,0.007085,-0.001295,0.208470,-0.024911,0.213750,0.213750,0.217219,0.997567,0.000000,0.000000,0.000000,0.000000,0.000000,0.000000,0.000000,0.000000,0.000000,0.000000,0.000000,0.000000,0.201047,3,0
300000,0.001329,7.685953,-0.022486,0.012784,25.038052,0.009540,-0.000014,0.000359,1.570960,-0.001210,-0.000012,0.000023,0.000000,-0.000044,-0.000000,0.001409,-0.001377,0.089839,0.026212,0.209405,0.209406,0.212446,0.995645,0.000000,0.000000,0.000000,0.000000,0.000000,0.000000,0.000000,0.000000,0.000000,0.000000,0.000000,0.000000,0.086713,3,0
310000,0.001411,7.938899,-0.023020,0.013200,25.040367,0.009523,-0.000011,0.000386,1.570962,-0.001310,-0.000014,0.000047,0.000000,-0.000049,-0.000000,0.000956,-0.001461,0.074867,-0.018264,0.205451,0.205451,0.208087,0.993536,0.000000,0.000000,0.000000,0.000000,0.000000,0.000000,0.000000,0.000000,0.000000,0.000000,0.000000,0.000000,0.072318,3,0
320000,0.001496,8.193344,-0.024864,0.013647,25.043970,0.008433,-0.000010,0.000444,1.570969,-0.001480,-0.000016,0.000128,0.000001,-0.000056,-0.000000,0.002848,-0.001548,0.120083,-0.057128,0.201856,0.201856,0.204105,0.991237,0.000000,0.000000,0.000000,0.000000,0.000000,0.000000,0.000000,0.000000,0.000000,0.000000,0.000000,0.000000,0.116053,3,0
330000,0.001584,8.446576,-0.025823,0.014106,25.046679,0.008017,-0.000003,0.000489,1.570979,-0.001606,-0.000018,0.000174,0.000001,-0.000062,-0.000000,0.001303,-0.001638,0.084269,-0.031364,0.198592,0.198592,0.200469,0.988743,0.000000,0.000000,0.000000,0.000000,0.000000,0.000000,0.000000,0.000000,0.000000,0.000000,0.000000,0.000000,0.081494,3,0
340000,0.001673,8.699963,-0.027370,0.014569,25.049753,0.006897,-0.000012,0.000536,1.570981,-0.001748,-0.000021,0.000252,0.000001,-0.000069,-0.000000,0.001687,-0.001730,0.089435,-0.049609,0.195633,0.195633,0.197151,0.986053,0.000000,0.000000,0.000000,0.000000,0.000000,0.000000,0.000000,0.000000,0.000000,0.000000,0.000000,0.000000,0.086534,3,0
350000,0.001765,8.956697,-0.027874,0.014933,25.055971,0.006888,-0.000022,0.000636,1.570990,-0.002071,-0.000024,0.000282,0.000001,-0.000086,-0.000000,0.006113,-0.001823,0.193839,-0.017866,0.192956,0.192956,0.194125,0.983164,0.000000,0.000000,0.000000,0.000000,0.000000,0.000000,0.000000,0.000000,0.000000,0.000000,0.000000,0.000000,0.187613,3,0
360000,0.001857,9.213467,-0.026764,0.015292,25.062511,0.008161,-0.000033,0.000741,1.570998,-0.002414,-0.000027,0.000225,0.000001,-0.000104,-0.000000,0.006337,-0.001918,0.195469,0.032558,0.190541,0.190541,0.191370,0.980073,0.000000,0.000000,0.000000,0.000000,0.000000,0.000000,0.000000,0.000000,0.000000,0.000000,0.000000,0.000000,0.189271,3,0
370000,0.001951,9.469659,-0.027054,0.015678,25.068687,0.008180,-0.000031,0.000851,1.571009,-0.002741,-0.000031,0.000247,0.000001,-0.000121,-0.000001,0.005091,-0.002015,0.177178,-0.011943,0.188368,0.188368,0.188863,0.976779,0.000000,0.000000,0.000000,0.000000,0.000000,0.000000,0.000000,0.000000,0.000000,0.000000,0.000000,0.000000,0.171627,3,0
380000,0.002048,9.727774,-0.026779,0.016126,25.076931,0.008499,-0.000031,0.000996,1.571020,-0.003203,-0.000035,0.000235,0.000002,-0.000147,-0.000001,0.009230,-0.002113,0.238989,0.006204,0.186421,0.186421,0.186586,0.973282,0.000000,0.000000,0.000000,0.000000,0.000000,0.000000,0.000000,0.000000,0.000000,0.000000,0.000000,0.000000,0.231573,3,0
390000,0.002146,9.982239,-0.025752,0.016565,25.081411,0.009871,-0.000027,0.001081,1.571030,-0.003446,-0.000040,0.000173,0.000002,-0.000161,-0.000001,0.002475,-0.002214,0.119943,0.030477,0.184683,0.184683,0.184522,0.969581,0.000000,0.000000,0.000000,0.000000,0.000000,0.000000,0.000000,0.000000,0.000000,0.000000,0.000000,0.000000,0.116271,3,0
400000,0.002245,10.238657,-0.026581,0.016857,25.088192,0.009381,-0.000033,0.001202,1.571039,-0.003834,-0.000044,0.000238,0.000002,-0.000183,-0.000001,0.005593,-0.002315,0.183496,-0.030609,0.183141,0.183141,0.182655,0.965675,0.000000,0.000000,0.000000,0.000000,0.000000,0.000000,0.000000,0.000000,0.000000,0.000000,0.000000,0.000000,0.177910,3,0
410000,0.002344,10.495161,-0.026058,0.017156,25.095230,0.010020,-0.000028,0.001334,1.571054,-0.004244,-0.000050,0.000207,0.000002,-0.000208,-0.000001,0.005591,-0.002417,0.185435,0.014155,0.181779,0.181779,0.180971,0.961566,0.000000,0.000000,0.000000,0.000000,0.000000,0.000000,0.000000,0.000000,0.000000,0.000000,0.000000,0.000000,0.179832,3,0
420000,0.002444,10.751155,-0.027153,0.017451,25.101698,0.009026,-0.000030,0.001454,1.571061,-0.004630,-0.000056,0.000299,0.000003,-0.000232,-0.000001,0.004791,-0.002519,0.167409,-0.040048,0.180587,0.180587,0.179456,0.957255,0.000000,0.000000,0.000000,0.000000,0.000000,0.000000,0.000000,0.000000,0.000000,0.000000,0.000000,0.000000,0.162389,3,0
430000,0.002543,11.007851,-0.027082,0.017719,25.109169,0.009338,-0.000027,0.001613,1.571077,-0.005084,-0.000062,0.000300,0.000003,-0.000260,-0.000001,0.005817,-0.002622,0.189654,-0.000785,0.179552,0.179552,0.178097,0.952743,0.000000,0.000000,0.000000,0.000000,0.000000,0.000000,0.000000,0.000000,0.000000,0.000000,0.000000,0.000000,0.183997,3,0
440000,0.002644,11.263460,-0.026682,0.018126,25.115452,0.010141,-0.000030,0.001730,1.571078,-0.005462,-0.000069,0.000275,0.000004,-0.000285,-0.000001,0.003732,-0.002726,0.151550,0.010274,0.178664,0.178664,0.176883,0.948033,0.000000,0.000000,0.000000,0.000000,0.000000,0.000000,0.000000,0.000000,0.000000,0.000000,0.000000,0.000000,0.147061,3,0
450000,0.002746,11.519783,-0.025713,0.018451,25.122566,0.011475,-0.000036,0.001885,1.571078,-0.005914,-0.000076,0.000198,0.000004,-0.000315,-0.000001,0.005049,-0.002830,0.174185,0.029496,0.177912,0.177913,0.175803,0.943127,0.000000,0.000000,0.000000,0.000000,0.000000,0.000000,0.000000,0.000000,0.000000,0.000000,0.000000,0.000000,0.169042,3,0
460000,0.002847,11.775632,-0.025306,0.018696,25.129120,0.012220,-0.000043,0.002033,1.571091,-0.006334,-0.000084,0.000172,0.000005,-0.000343,-0.000002,0.003971,-0.002934,0.156338,0.009916,0.177288,0.177288,0.174847,0.938028,0.000000,0.000000,0.000000,0.000000,0.000000,0.000000,0.000000,0.000000,0.000000,0.000000,0.000000,0.000000,0.151745,3,0
470000,0.002949,12.031023,-0.025197,0.018937,25.135279,0.012486,-0.000052,0.002175,1.571093,-0.006720,-0.000092,0.000173,0.000005,-0.000370,-0.000002,0.003125,-0.003038,0.138968,-0.000539,0.176781,0.176782,0.174006,0.932740,0.000000,0.000000,0.000000,0.000000,0.000000,0.000000,0.000000,0.000000,0.000000,0.000000,0.000000,0.000000,0.134906,3,0
480000,0.003050,12.289474,-0.026263,0.019292,25.145588,0.011361,-0.000064,0.002406,1.571110,-0.007415,-0.000101,0.000292,0.000006,-0.000420,-0.000002,0.009701,-0.003143,0.241337,-0.041372,0.176385,0.176385,0.173271,0.927267,0.000000,0.000000,0.000000,0.000000,0.000000,0.000000,0.000000,0.000000,0.000000,0.000000,0.000000,0.000000,0.234262,3,0
490000,0.003153,12.546847,-0.027730,0.019631,25.154423,0.009487,-0.000064,0.002616,1.571120,-0.008015,-0.000111,0.000457,0.000006,-0.000463,-0.000002,0.007056,-0.003248,0.201451,-0.054990,0.176090,0.176091,0.172634,0.921613,0.000000,0.000000,0.000000,0.000000,0.000000,0.000000,0.000000,0.000000,0.000000,0.000000,0.000000,0.000000,0.195564,3,0
500000,0.003256,12.804332,-0.028415,0.019968,25.163631,0.008607,-0.000074,0.002832,1.571121,-0.008638,-0.000121,0.000541,0.000007,-0.000510,-0.000002,0.006750,-0.003354,0.202414,-0.027225,0.175890,0.175891,0.172087,0.915784,0.000000,0.000000,0.000000,0.000000,0.000000,0.000000,0.000000,0.000000,0.000000,0.000000,0.000000,0.000000,0.196507,3,0
510000,0.003359,13.063094,-0.027492,0.020301,25.174755,0.010188,-0.000077,0.003109,1.571126,-0.009408,-0.000132,0.000448,0.000008,-0.000568,-0.000003,0.009694,-0.003460,0.243020,0.029097,0.175778,0.175778,0.171622,0.909785,0.000000,0.000000,0.000000,0.000000,0.000000,0.000000,0.000000,0.000000,0.000000,0.000000,0.000000,0.000000,0.235925,3,0
520000,0.003462,13.320788,-0.026348,0.020613,25.184223,0.011994,-0.000088,0.003340,1.571136,-0.010071,-0.000143,0.000328,0.000009,-0.000620,-0.000003,0.006871,-0.003566,0.202815,0.036404,0.175746,0.175746,0.171234,0.903621,0.000000,0.000000,0.000000,0.000000,0.000000,0.000000,0.000000,0.000000,0.000000,0.000000,0.000000,0.000000,0.196905,3,0
530000,0.003564,13.576850,-0.026163,0.020781,25.191231,0.012387,-0.000100,0.003517,1.571135,-0.010555,-0.000156,0.000320,0.000010,-0.000658,-0.000003,0.003349,-0.003671,0.143815,0.002197,0.175789,0.175789,0.170914,0.897299,0.000000,0.000000,0.000000,0.000000,0.000000,0.000000,0.000000,0.000000,0.000000,0.000000,0.000000,0.000000,0.139647,3,0
540000,0.003664,13.836550,-0.026860,0.020959,25.203844,0.011451,-0.000106,0.003844,1.571143,-0.011474,-0.000169,0.000421,0.000011,-0.000733,-0.000003,0.011531,-0.003775,0.265382,-0.028908,0.175900,0.175900,0.170658,0.890826,0.000000,0.000000,0.000000,0.000000,0.000000,0.000000,0.000000,0.000000,0.000000,0.000000,0.000000,0.000000,0.257628,3,0
550000,0.003765,14.093426,-0.026156,0.021250,25.212008,0.012716,-0.000108,0.004057,1.571147,-0.012059,-0.000182,0.000347,0.000012,-0.000781,-0.000003,0.004454,-0.003879,0.164588,0.020604,0.176074,0.176074,0.170460,0.884207,0.000000,0.000000,0.000000,0.000000,0.000000,0.000000,0.000000,0.000000,0.000000,0.000000,0.000000,0.000000,0.159802,3,0
560000,0.003864,14.349263,-0.025101,0.021413,25.218521,0.014459,-0.000112,0.004232,1.571148,-0.012521,-0.000197,0.000226,0.000013,-0.000820,-0.000004,0.002754,-0.003981,0.126299,0.032529,0.176305,0.176305,0.170314,0.877450,0.000000,0.000000,0.000000,0.000000,0.000000,0.000000,0.000000,0.000000,0.000000,0.000000,0.000000,0.000000,0.122649,3,0
570000,0.003962,14.608173,-0.025563,0.021689,25.230003,0.013905,-0.000124,0.004543,1.571149,-0.013376,-0.000212,0.000307,0.000015,-0.000894,-0.000004,0.008502,-0.004082,0.228215,-0.021484,0.176589,0.176589,0.170214,0.870562,0.000000,0.000000,0.000000,0.000000,0.000000,0.000000,0.000000,0.000000,0.000000,0.000000,0.000000,0.000000,0.221534,3,0
580000,0.004060,14.864848,-0.025593,0.021898,25.237751,0.013997,-0.000122,0.004745,1.571150,-0.013945,-0.000228,0.000331,0.000016,-0.000944,-0.000004,0.003557,-0.004183,0.148100,-0.006070,0.176920,0.176920,0.170157,0.863551,0.000000,0.000000,0.000000,0.000000,0.000000,0.000000,0.000000,0.000000,0.000000,0.000000,0.000000,0.000000,0.143790,3,0
590000,0.004156,15.124008,-0.025697,0.022078,25.249464,0.014111,-0.000131,0.005086,1.571153,-0.014846,-0.000245,0.000365,0.000018,-0.001025,-0.000005,0.008519,-0.004283,0.229290,-0.008717,0.177294,0.177294,0.170138,0.856424,0.000000,0.000000,0.000000,0.000000,0.000000,0.000000,0.000000,0.000000,0.000000,0.000000,0.000000,0.000000,0.222554,3,0
600000,0.004251,15.380921,-0.026971,0.022252,25.257439,0.012356,-0.000130,0.005318,1.571156,-0.015446,-0.000262,0.000570,0.000019,-0.001080,-0.000005,0.003995,-0.004381,0.148924,-0.050014,0.177706,0.177706,0.170152,0.849189,0.000000,0.000000,0.000000,0.000000,0.000000,0.000000,0.000000,0.000000,0.000000,0.000000,0.000000,0.000000,0.144576,3,0
610000,0.004346,15.640329,-0.026747,0.022541,25.269485,0.012622,-0.000139,0.005672,1.571168,-0.016392,-0.000280,0.000554,0.000021,-0.001168,-0.000005,0.008551,-0.004479,0.229871,0.003541,0.178152,0.178153,0.170195,0.841855,0.000000,0.000000,0.000000,0.000000,0.000000,0.000000,0.000000,0.000000,0.000000,0.000000,0.000000,0.000000,0.223088,3,0
620000,0.004440,15.899845,-0.026547,0.022812,25.281670,0.013122,-0.000149,0.006033,1.571186,-0.017354,-0.000299,0.000543,0.000023,-0.001260,-0.000006,0.008467,-0.004576,0.228767,0.002476,0.178629,0.178630,0.170264,0.834428,0.000000,0.000000,0.000000,0.000000,0.000000,0.000000,0.000000,0.000000,0.000000,0.000000,0.000000,0.000000,0.222001,3,0
630000,0.004533,16.158873,-0.027316,0.023002,25.293068,0.012101,-0.000149,0.006371,1.571186,-0.018246,-0.000319,0.000682,0.000025,-0.001346,-0.000006,0.007141,-0.004672,0.207678,-0.031789,0.179133,0.179133,0.170356,0.826917,0.000000,0.000000,0.000000,0.000000,0.000000,0.000000,0.000000,0.000000,0.000000,0.000000,0.000000,0.000000,0.201528,3,0
640000,0.004624,16.419201,-0.027119,0.023114,25.306499,0.012376,-0.000152,0.006777,1.571204,-0.019327,-0.000340,0.000669,0.000027,-0.001453,-0.000007,0.009846,-0.004767,0.246717,0.002669,0.179659,0.179660,0.170465,0.819331,0.000000,0.000000,0.000000,0.000000,0.000000,0.000000,0.000000,0.000000,0.000000,0.000000,0.000000,0.000000,0.239375,3,0
650000,0.004713,16.678432,-0.027927,0.023203,25.318016,0.011191,-0.000166,0.007133,1.571218,-0.020242,-0.000362,0.000819,0.000029,-0.001545,-0.000007,0.006967,-0.004858,0.204924,-0.032794,0.180206,0.180206,0.170591,0.811677,0.000000,0.000000,0.000000,0.000000,0.000000,0.000000,0.000000,0.000000,0.000000,0.000000,0.000000,0.000000,0.198824,3,0
660000,0.004799,16.937170,-0.028142,0.023326,25.328449,0.011068,-0.000179,0.007467,1.571221,-0.021080,-0.000384,0.000873,0.000031,-0.001631,-0.000007,0.005506,-0.004948,0.184124,-0.011586,0.180769,0.180769,0.170729,0.803964,0.000000,0.000000,0.000000,0.000000,0.000000,0.000000,0.000000,0.000000,0.000000,0.000000,0.000000,0.000000,0.178642,3,0
670000,0.004884,17.196018,-0.026979,0.023435,25.339012,0.012744,-0.000183,0.007805,1.571236,-0.021932,-0.000407,0.000696,0.000033,-0.001720,-0.000008,0.005680,-0.005036,0.183706,0.036932,0.181346,0.181346,0.170877,0.796199,0.000000,0.000000,0.000000,0.000000,0.000000,0.000000,0.000000,0.000000,0.000000,0.000000,0.000000,0.000000,0.178221,3,0
680000,0.004966,17.453165,-0.027224,0.023487,25.346516,0.012445,-0.000198,0.008039,1.571235,-0.022514,-0.000431,0.000759,0.000036,-0.001782,-0.000008,0.002499,-0.005121,0.123543,-0.013123,0.181934,0.181935,0.171033,0.788391,0.000000,0.000000,0.000000,0.000000,0.000000,0.000000,0.000000,0.000000,0.000000,0.000000,0.000000,0.000000,0.119900,3,0
690000,0.005047,17.711042,-0.026015,0.023661,25.355270,0.014322,-0.000212,0.008326,1.571246,-0.023208,-0.000456,0.000570,0.000039,-0.001857,-0.000008,0.003617,-0.005206,0.144625,0.037943,0.182531,0.182531,0.171193,0.780547,0.000000,0.000000,0.000000,0.000000,0.000000,0.000000,0.000000,0.000000,0.000000,0.000000,0.000000,0.000000,0.140315,3,0
700000,0.005126,17.968430,-0.025048,0.023813,25.363026,0.015948,-0.000219,0.008586,1.571260,-0.023818,-0.000482,0.000424,0.000042,-0.001924,-0.000009,0.002671,-0.005288,0.125206,0.028734,0.183133,0.183134,0.171357,0.772676,0.000000,0.000000,0.000000,0.000000,0.000000,0.000000,0.000000,0.000000,0.000000,0.000000,0.000000,0.000000,0.121492,3,0
710000,0.005205,18.227762,-0.025619,0.024006,25.374098,0.015295,-0.000225,0.008962,1.571273,-0.024738,-0.000508,0.000555,0.000045,-0.002027,-0.000009,0.005689,-0.005369,0.185804,-0.025681,0.183740,0.183741,0.171522,0.764785,0.000000,0.000000,0.000000,0.000000,0.000000,0.000000,0.000000,0.000000,0.000000,0.000000,0.000000,0.000000,0.180190,3,0
720000,0.005281,18.489025,-0.026577,0.024014,25.388357,0.014005,-0.000242,0.009455,1.571294,-0.025967,-0.000535,0.000757,0.000048,-0.002167,-0.000010,0.009901,-0.005448,0.244423,-0.038905,0.184349,0.184350,0.171685,0.756881,0.000000,0.000000,0.000000,0.000000,0.000000,0.000000,0.000000,0.000000,0.000000,0.000000,0.000000,0.000000,0.236973,3,0
730000,0.005355,18.750364,-0.027555,0.024163,25.402678,0.012460,-0.000263,0.009969,1.571302,-0.027199,-0.000563,0.000964,0.000051,-0.002310,-0.000010,0.009668,-0.005525,0.241444,-0.039013,0.184958,0.184958,0.171846,0.748972,0.000000,0.000000,0.000000,0.000000,0.000000,0.000000,0.000000,0.000000,0.000000,0.000000,0.000000,0.000000,0.234062,3,0
740000,0.005428,19.012392,-0.027267,0.024272,25.417952,0.013025,-0.000272,0.010533,1.571315,-0.028535,-0.000592,0.000931,0.000054,-0.002467,-0.000011,0.010783,-0.005601,0.258266,0.005671,0.185565,0.185565,0.172003,0.741066,0.000000,0.000000,0.000000,0.000000,0.000000,0.000000,0.000000,0.000000,0.000000,0.000000,0.000000,0.000000,0.250337,3,0
750000,0.005499,19.273869,-0.028039,0.024442,25.432241,0.012062,-0.000278,0.011050,1.571324,-0.029765,-0.000622,0.001103,0.000058,-0.002615,-0.000012,0.009056,-0.005675,0.234629,-0.031508,0.186169,0.186169,0.172155,0.733168,0.000000,0.000000,0.000000,0.000000,0.000000,0.000000,0.000000,0.000000,0.000000,0.000000,0.000000,0.000000,0.227415,3,0
760000,0.005568,19.534792,-0.027364,0.024494,25.445393,0.013016,-0.000298,0.011535,1.571343,-0.030888,-0.000652,0.000993,0.000061,-0.002752,-0.000012,0.007293,-0.005748,0.211555,0.019304,0.186768,0.186768,0.172299,0.725286,0.000000,0.000000,0.000000,0.000000,0.000000,0.000000,0.000000,0.000000,0.000000,0.000000,0.000000,0.000000,0.205047,3,0
770000,0.005636,19.796408,-0.026307,0.024601,25.459614,0.014518,-0.000313,0.012071,1.571347,-0.032118,-0.000683,0.000808,0.000065,-0.002904,-0.000013,0.008627,-0.005818,0.228806,0.032313,0.187361,0.187361,0.172435,0.717426,0.000000,0.000000,0.000000,0.000000,0.000000,0.000000,0.000000,0.000000,0.000000,0.000000,0.000000,0.000000,0.221732,3,0
780000,0.005702,20.057463,-0.027332,0.024745,25.472601,0.013174,-0.000326,0.012554,1.571366,-0.033238,-0.000715,0.001041,0.000069,-0.003046,-0.000014,0.007099,-0.005886,0.205595,-0.040760,0.187946,0.187946,0.172563,0.709594,0.000000,0.000000,0.000000,0.000000,0.000000,0.000000,0.000000,0.000000,0.000000,0.000000,0.000000,0.000000,0.199236,3,0
790000,0.005766,20.316080,-0.026143,0.024786,25.481226,0.015200,-0.000341,0.012863,1.571367,-0.033916,-0.000747,0.000826,0.000073,-0.003132,-0.000014,0.002678,-0.005953,0.123320,0.036608,0.188523,0.188524,0.172680,0.701797,0.000000,0.000000,0.000000,0.000000,0.000000,0.000000,0.000000,0.000000,0.000000,0.000000,0.000000,0.000000,0.119585,3,0
800000,0.005827,20.574163,-0.026137,0.024762,25.488811,0.015176,-0.000350,0.013132,1.571369,-0.034490,-0.000781,0.000855,0.000078,-0.003207,-0.000014,0.001728,-0.006017,0.103161,-0.005094,0.189091,0.189092,0.172787,0.694040,0.000000,0.000000,0.000000,0.000000,0.000000,0.000000,0.000000,0.000000,0.000000,0.000000,0.000000,0.000000,0.100079,3,0
810000,0.005887,20.834852,-0.027329,0.024779,25.500772,0.013263,-0.000361,0.013592,1.571375,-0.035520,-0.000815,0.001132,0.000082,-0.003344,-0.000015,0.005759,-0.006078,0.182945,-0.046593,0.189649,0.189649,0.172882,0.686329,0.000000,0.000000,0.000000,0.000000,0.000000,0.000000,0.000000,0.000000,0.000000,0.000000,0.000000,0.000000,0.177260,3,0
820000,0.005943,21.096865,-0.027704,0.024747,25.514996,0.012808,-0.000382,0.014151,1.571382,-0.036772,-0.000849,0.001237,0.000087,-0.003513,-0.000016,0.007890,-0.006138,0.220318,-0.017636,0.190196,0.190196,0.172965,0.678668,0.000000,0.000000,0.000000,0.000000,0.000000,0.000000,0.000000,0.000000,0.000000,0.000000,0.000000,0.000000,0.213416,3,0
830000,0.005999,21.356394,-0.028970,0.024799,25.524658,0.010880,-0.000406,0.014518,1.571400,-0.037559,-0.000885,0.001533,0.000091,-0.003620,-0.000016,0.003416,-0.006195,0.137074,-0.048295,0.190731,0.190732,0.173035,0.671064,0.000000,0.000000,0.000000,0.000000,0.000000,0.000000,0.000000,0.000000,0.000000,0.000000,0.000000,0.000000,0.132851,3,0
840000,0.006050,21.615358,-0.029386,0.024728,25.533133,0.010260,-0.000423,0.014842,1.571411,-0.038231,-0.000921,0.001645,0.000096,-0.003714,-0.000017,0.002231,-0.006249,0.115995,-0.018209,0.191255,0.191255,0.173092,0.663520,0.000000,0.000000,0.000000,0.000000,0.000000,0.000000,0.000000,0.000000,0.000000,0.000000,0.000000,0.000000,0.112460,3,0
850000,0.006100,21.873762,-0.029412,0.024752,25.540491,0.010152,-0.000446,0.015117,1.571411,-0.038789,-0.000958,0.001672,0.000102,-0.003793,-0.000017,0.001481,-0.006301,0.095491,-0.004431,0.191765,0.191765,0.173136,0.656041,0.000000,0.000000,0.000000,0.000000,0.000000,0.000000,0.000000,0.000000,0.000000,0.000000,0.000000,0.000000,0.092641,3,0
860000,0.006148,22.134794,-0.029738,0.024815,25.552488,0.009907,-0.000467,0.015604,1.571427,-0.039820,-0.000995,0.001764,0.000107,-0.003941,-0.000018,0.004980,-0.006352,0.174955,-0.014849,0.192263,0.192263,0.173166,0.648632,0.000000,0.000000,0.000000,0.000000,0.000000,0.000000,0.000000,0.000000,0.000000,0.000000,0.000000,0.000000,0.169461,3,0
870000,0.006196,22.397789,-0.030052,0.024896,25.567822,0.009628,-0.000493,0.016252,1.571446,-0.041197,-0.001033,0.001853,0.000112,-0.004142,-0.000019,0.008712,-0.006401,0.231867,-0.014306,0.192748,0.192748,0.173182,0.641296,0.000000,0.000000,0.000000,0.000000,0.000000,0.000000,0.000000,0.000000,0.000000,0.000000,0.000000,0.000000,0.224504,3,0
880000,0.006240,22.658243,-0.028740,0.024867,25.578514,0.011785,-0.000519,0.016683,1.571463,-0.042081,-0.001071,0.001575,0.000118,-0.004273,-0.000019,0.003808,-0.006448,0.147627,0.042068,0.193220,0.193220,0.173184,0.634037,0.000000,0.000000,0.000000,0.000000,0.000000,0.000000,0.000000,0.000000,0.000000,0.000000,0.000000,0.000000,0.143010,3,0
890000,0.006281,22.918747,-0.027926,0.024789,25.589025,0.013116,-0.000545,0.017109,1.571479,-0.042958,-0.001110,0.001413,0.000124,-0.004405,-0.000020,0.003515,-0.006491,0.145491,0.024101,0.193678,0.193678,0.173171,0.626859,0.000000,0.000000,0.000000,0.000000,0.000000,0.000000,0.000000,0.000000,0.000000,0.000000,0.000000,0.000000,0.140935,3,0
900000,0.006320,23.177366,-0.027319,0.024685,25.596037,0.014251,-0.000567,0.017383,1.571493,-0.043466,-0.001149,0.001302,0.000130,-0.004482,-0.000020,0.001179,-0.006532,0.083672,0.016383,0.194122,0.194122,0.173145,0.619763,0.000000,0.000000,0.000000,0.000000,0.000000,0.000000,0.000000,0.000000,0.000000,0.000000,0.000000,0.000000,0.081211,3,0
910000,0.006358,23.437988,-0.028017,0.024633,25.606575,0.013321,-0.000580,0.017820,1.571510,-0.044341,-0.001189,0.001496,0.000136,-0.004619,-0.000021,0.003444,-0.006570,0.143045,-0.029111,0.194554,0.194553,0.173104,0.612755,0.000000,0.000000,0.000000,0.000000,0.000000,0.000000,0.000000,0.000000,0.000000,0.000000,0.000000,0.000000,0.138553,3,0
920000,0.006393,23.696068,-0.027476,0.024605,25.612539,0.014224,-0.000602,0.018029,1.571507,-0.044718,-0.001230,0.001399,0.000143,-0.004678,-0.000021,0.000643,-0.006608,0.061226,0.014047,0.194971,0.194971,0.173049,0.605835,0.000000,0.000000,0.000000,0.000000,0.000000,0.000000,0.000000,0.000000,0.000000,0.000000,0.000000,0.000000,0.059580,3,0
930000,0.006426,23.959400,-0.027153,0.024550,25.627697,0.014846,-0.000615,0.018719,1.571526,-0.046083,-0.001271,0.001350,0.000149,-0.004897,-0.000022,0.007856,-0.006642,0.220541,0.006327,0.195376,0.195375,0.172980,0.599007,0.000000,0.000000,0.000000,0.000000,0.000000,0.000000,0.000000,0.000000,0.000000,0.000000,0.000000,0.000000,0.213457,3,0
940000,0.006457,24.220789,-0.028587,0.024418,25.639114,0.012709,-0.000642,0.019224,1.571538,-0.047055,-0.001312,0.001729,0.000156,-0.005055,-0.000023,0.004410,-0.006673,0.155851,-0.054822,0.195767,0.195766,0.172897,0.592273,0.000000,0.000000,0.000000,0.000000,0.000000,0.000000,0.000000,0.000000,0.000000,0.000000,0.000000,0.000000,0.150903,3,0
950000,0.006486,24.484150,-0.029242,0.024407,25.653883,0.011651,-0.000666,0.019913,1.571542,-0.048385,-0.001354,0.001913,0.000163,-0.005275,-0.000024,0.007399,-0.006705,0.212408,-0.027009,0.196145,0.196144,0.172801,0.585635,0.000000,0.000000,0.000000,0.000000,0.000000,0.000000,0.000000,0.000000,0.000000,0.000000,0.000000,0.000000,0.205566,3,0
960000,0.006512,24.746853,-0.027954,0.024373,25.667280,0.013708,-0.000683,0.020529,1.571556,-0.049564,-0.001396,0.001619,0.000170,-0.005473,-0.000025,0.005940,-0.006733,0.187445,0.040722,0.196511,0.196510,0.172691,0.579094,0.000000,0.000000,0.000000,0.000000,0.000000,0.000000,0.000000,0.000000,0.000000,0.000000,0.000000,0.000000,0.181424,3,0
970000,0.006538,25.006298,-0.029069,0.024337,25.674854,0.012170,-0.000702,0.020836,1.571557,-0.050094,-0.001438,0.001929,0.000177,-0.005563,-0.000025,0.001442,-0.006759,0.083639,-0.043538,0.196864,0.196863,0.172567,0.572652,0.000000,0.000000,0.000000,0.000000,0.000000,0.000000,0.000000,0.000000,0.000000,0.000000,0.000000,0.000000,0.081158,3,0
980000,0.006562,25.264481,-0.029991,0.024205,25.680042,0.011051,-0.000732,0.021016,1.571570,-0.050366,-0.001482,0.002191,0.000184,-0.005611,-0.000025,0.000517,-0.006784,0.042789,-0.036398,0.197205,0.197203,0.172431,0.566311,0.000000,0.000000,0.000000,0.000000,0.000000,0.000000,0.000000,0.000000,0.000000,0.000000,0.000000,0.000000,0.041899,3,0
990000,0.006582,25.526649,-0.029190,0.024108,25.692181,0.012076,-0.000747,0.021584,1.571571,-0.051401,-0.001525,0.002010,0.000192,-0.005792,-0.000026,0.004346,-0.006807,0.162251,0.024216,0.197534,0.197532,0.172282,0.560072,0.000000,0.000000,0.000000,0.000000,0.000000,0.000000,0.000000,0.000000,0.000000,0.000000,0.000000,0.000000,0.157048,3,0
1000000,0.006603,25.787512,-0.029587,0.024135,25.701887,0.011421,-0.000777,0.022025,1.571581,-0.052161,-0.001568,0.002138,0.000200,-0.005928,-0.000027,0.002328,-0.006828,0.118628,-0.017957,0.197851,0.197849,0.172121,0.553936,0.000000,0.000000,0.000000,0.000000,0.000000,0.000000,0.000000,0.000000,0.000000,0.000000,0.000000,0.000000,0.114905,3,0
1010000,0.006620,26.050362,-0.028911,0.023968,25.714966,0.012407,-0.000791,0.022646,1.571583,-0.053290,-0.001612,0.001986,0.000208,-0.006132,-0.000028,0.005047,-0.006847,0.175732,0.019717,0.198157,0.198155,0.171947,0.547903,0.000000,0.000000,0.000000,0.000000,0.000000,0.000000,0.000000,0.000000,0.000000,0.000000,0.000000,0.000000,0.170058,3,0
1020000,0.006636,26.310572,-0.027698,0.023938,25.723280,0.014307,-0.000809,0.023005,1.571597,-0.053881,-0.001656,0.001698,0.000216,-0.006241,-0.000028,0.001596,-0.006863,0.091660,0.038028,0.198452,0.198450,0.171762,0.541974,0.000000,0.000000,0.000000,0.000000,0.000000,0.000000,0.000000,0.000000,0.000000,0.000000,0.000000,0.000000,0.088877,3,0
1030000,0.006651,26.570810,-0.028802,0.023811,25.731495,0.012664,-0.000840,0.023356,1.571607,-0.054463,-0.001700,0.002024,0.000224,-0.006350,-0.000029,0.001614,-0.006878,0.089792,-0.043539,0.198738,0.198735,0.171566,0.536151,0.000000,0.000000,0.000000,0.000000,0.000000,0.000000,0.000000,0.000000,0.000000,0.000000,0.000000,0.000000,0.087071,3,0
1040000,0.006664,26.830416,-0.030135,0.023671,25.738613,0.011034,-0.000868,0.023645,1.571610,-0.054906,-0.001745,0.002411,0.000232,-0.006434,-0.000029,0.001177,-0.006891,0.068016,-0.051152,0.199013,0.199010,0.171358,0.530432,0.000000,0.000000,0.000000,0.000000,0.000000,0.000000,0.000000,0.000000,0.000000,0.000000,0.000000,0.000000,0.066095,3,0
1050000,0.006675,27.094015,-0.031297,0.023540,25.752592,0.009279,-0.000893,0.024345,1.571612,-0.056118,-0.001790,0.002744,0.000241,-0.006667,-0.000030,0.005903,-0.006903,0.186041,-0.044362,0.199278,0.199275,0.171141,0.524819,0.000000,0.000000,0.000000,0.000000,0.000000,0.000000,0.000000,0.000000,0.000000,0.000000,0.000000,0.000000,0.179983,3,0
1060000,0.006682,27.352293,-0.030183,0.023390,25.757053,0.010748,-0.000928,0.024489,1.571608,-0.056258,-0.001835,0.002466,0.000250,-0.006694,-0.000030,0.000292,-0.006913,0.021694,0.035870,0.199535,0.199531,0.170913,0.519312,0.000000,0.000000,0.000000,0.000000,0.000000,0.000000,0.000000,0.000000,0.000000,0.000000,0.000000,0.000000,0.022014,3,0
1070000,0.006689,27.610622,-0.030969,0.023248,25.761593,0.009739,-0.000946,0.024635,1.571623,-0.056402,-0.001880,0.002710,0.000258,-0.006723,-0.000030,0.000245,-0.006919,0.021797,-0.031487,0.199783,0.199779,0.170675,0.513909,0.000000,0.000000,0.000000,0.000000,0.000000,0.000000,0.000000,0.000000,0.000000,0.000000,0.000000,0.000000,0.022107,3,0
1080000,0.006694,27.873638,-0.031342,0.023153,25.774338,0.009210,-0.000962,0.025259,1.571635,-0.057457,-0.001925,0.002832,0.000267,-0.006935,-0.000031,0.004227,-0.006925,0.160999,-0.016321,0.200023,0.200018,0.170428,0.508612,0.000000,0.000000,0.000000,0.000000,0.000000,0.000000,0.000000,0.000000,0.000000,0.000000,0.000000,0.000000,0.155776,3,0
1090000,0.006697,28.135302,-0.030517,0.023101,25.784550,0.010302,-0.000994,0.025747,1.571647,-0.058221,-0.001970,0.002620,0.000277,-0.007091,-0.000032,0.002305,-0.006929,0.116524,0.025997,0.200255,0.200250,0.170172,0.503420,0.000000,0.000000,0.000000,0.000000,0.000000,0.000000,0.000000,0.000000,0.000000,0.000000,0.000000,0.000000,0.112835,3,0
1100000,0.006700,28.394972,-0.031082,0.023011,25.791079,0.009756,-0.001013,0.026002,1.571651,-0.058574,-0.002016,0.002807,0.000286,-0.007164,-0.000032,0.000560,-0.006931,0.053547,-0.023658,0.200479,0.200475,0.169907,0.498332,0.000000,0.000000,0.000000,0.000000,0.000000,0.000000,0.000000,0.000000,0.000000,0.000000,0.000000,0.000000,0.052188,3,0
1110000,0.006701,28.654661,-0.029795,0.022964,25.797428,0.011704,-0.001051,0.026254,1.571659,-0.058916,-0.002061,0.002466,0.000296,-0.007236,-0.000033,0.000734,-0.006934,0.052238,0.042042,0.200698,0.200692,0.169634,0.493348,0.000000,0.000000,0.000000,0.000000,0.000000,0.000000,0.000000,0.000000,0.000000,0.000000,0.000000,0.000000,0.050936,3,0
1120000,0.006702,28.915043,-0.030992,0.022822,25.805077,0.010284,-0.001082,0.026595,1.571657,-0.059384,-0.002107,0.002839,0.000305,-0.007336,-0.000033,0.001166,-0.006933,0.070789,-0.046551,0.200909,0.200904,0.169354,0.488468,0.000000,0.000000,0.000000,0.000000,0.000000,0.000000,0.000000,0.000000,0.000000,0.000000,0.000000,0.000000,0.068744,3,0
1130000,0.006699,29.174099,-0.029988,0.022617,25.810282,0.011662,-0.001111,0.026765,1.571667,-0.059575,-0.002152,0.002577,0.000315,-0.007377,-0.000033,0.000309,-0.006933,0.028999,0.031991,0.201115,0.201109,0.169066,0.483690,0.000000,0.000000,0.000000,0.000000,0.000000,0.000000,0.000000,0.000000,0.000000,0.000000,0.000000,0.000000,0.028818,3,0
1140000,0.006696,29.435184,-0.028776,0.022570,25.818914,0.013226,-0.001145,0.027170,1.571672,-0.060154,-0.002198,0.002252,0.000325,-0.007503,-0.000034,0.001501,-0.006929,0.087954,0.039064,0.201316,0.201309,0.168771,0.479014,0.000000,0.000000,0.000000,0.000000,0.000000,0.000000,0.000000,0.000000,0.000000,0.000000,0.000000,0.000000,0.085268,3,0
1150000,0.006693,29.693602,-0.029638,0.022491,25.822762,0.012102,-0.001167,0.027269,1.571672,-0.060193,-0.002244,0.002544,0.000335,-0.007512,-0.000034,0.000217,-0.006925,0.005690,-0.035465,0.201511,0.201504,0.168470,0.474439,0.000000,0.000000,0.000000,0.000000,0.000000,0.000000,0.000000,0.000000,0.000000,0.000000,0.000000,0.000000,0.008661,3,0
1160000,0.006687,29.956064,-0.029553,0.022267,25.833612,0.012368,-0.001202,0.027821,1.571677,-0.061018,-0.002289,0.002546,0.000346,-0.007699,-0.000035,0.002522,-0.006920,0.124937,-0.001118,0.201702,0.201694,0.168162,0.469964,0.000000,0.000000,0.000000,0.000000,0.000000,0.000000,0.000000,0.000000,0.000000,0.000000,0.000000,0.000000,0.120922,3,0
1170000,0.006681,30.217833,-0.030319,0.022152,25.843132,0.011552,-0.001223,0.028302,1.571682,-0.061685,-0.002335,0.002805,0.000356,-0.007852,-0.000035,0.001811,-0.006913,0.100912,-0.031706,0.201888,0.201880,0.167849,0.465588,0.000000,0.000000,0.000000,0.000000,0.000000,0.000000,0.000000,0.000000,0.000000,0.000000,0.000000,0.000000,0.097744,3,0
1180000,0.006672,30.478914,-0.030260,0.021959,25.851423,0.011618,-0.001244,0.028675,1.571684,-0.062198,-0.002380,0.002816,0.000366,-0.007971,-0.000036,0.000978,-0.006905,0.077593,-0.001889,0.202071,0.202063,0.167531,0.461311,0.000000,0.000000,0.000000,0.000000,0.000000,0.000000,0.000000,0.000000,0.000000,0.000000,0.000000,0.000000,0.075276,3,0
1190000,0.006663,30.741333,-0.031510,0.021868,25.862000,0.009832,-0.001277,0.029210,1.571687,-0.062956,-0.002426,0.003222,0.000377,-0.008151,-0.000037,0.002508,-0.006895,0.114611,-0.048733,0.202251,0.202242,0.167207,0.457131,0.000000,0.000000,0.000000,0.000000,0.000000,0.000000,0.000000,0.000000,0.000000,0.000000,0.000000,0.000000,0.110945,3,0
1200000,0.006651,31.002375,-0.030279,0.021700,25.869980,0.011618,-0.001311,0.029572,1.571700,-0.063421,-0.002470,0.002869,0.000388,-0.008262,-0.000037,0.001083,-0.006885,0.070755,0.040769,0.202427,0.202418,0.166879,0.453047,0.000000,0.000000,0.000000,0.000000,0.000000,0.000000,0.000000,0.000000,0.000000,0.000000,0.000000,0.000000,0.068694,3,0
1210000,0.006639,31.263407,-0.029167,0.021651,25.877851,0.012950,-0.001345,0.029929,1.571707,-0.063868,-0.002515,0.002555,0.000399,-0.008370,-0.000038,0.000964,-0.006872,0.068060,0.036040,0.202601,0.202591,0.166547,0.449058,0.000000,0.000000,0.000000,0.000000,0.000000,0.000000,0.000000,0.000000,0.000000,0.000000,0.000000,0.000000,0.066100,3,0
1220000,0.006628,31.525106,-0.029753,0.021593,25.886726,0.012330,-0.001367,0.030364,1.571724,-0.064431,-0.002560,0.002771,0.000410,-0.008509,-0.000038,0.001285,-0.006859,0.085255,-0.025684,0.202772,0.202762,0.166210,0.445162,0.000000,0.000000,0.000000,0.000000,0.000000,0.000000,0.000000,0.000000,0.000000,0.000000,0.000000,0.000000,0.082637,3,0
1230000,0.006615,31.785439,-0.029646,0.021420,25.893188,0.012449,-0.001390,0.030616,1.571728,-0.064708,-0.002605,0.002772,0.000421,-0.008578,-0.000039,0.000293,-0.006846,0.042131,-0.000522,0.202942,0.202930,0.165870,0.441359,0.000000,0.000000,0.000000,0.000000,0.000000,0.000000,0.000000,0.000000,0.000000,0.000000,0.000000,0.000000,0.041241,3,0
1240000,0.006600,32.045769,-0.029005,0.021302,25.899445,0.013388,-0.001424,0.030867,1.571739,-0.064971,-0.002650,0.002605,0.000433,-0.008644,-0.000039,0.000324,-0.006832,0.040161,0.018718,0.203110,0.203098,0.165527,0.437646,0.000000,0.000000,0.000000,0.000000,0.000000,0.000000,0.000000,0.000000,0.000000,0.000000,0.000000,0.000000,0.039360,3,0
1250000,0.006584,32.307446,-0.029166,0.021086,25.908020,0.013097,-0.001451,0.031287,1.571752,-0.065483,-0.002694,0.002691,0.000444,-0.008776,-0.000040,0.001004,-0.006815,0.077953,-0.010475,0.203276,0.203264,0.165181,0.434023,0.000000,0.000000,0.000000,0.000000,0.000000,0.000000,0.000000,0.000000,0.000000,0.000000,0.000000,0.000000,0.075597,3,0
1260000,0.006567,32.568424,-0.029375,0.020920,25.915308,0.012677,-0.001481,0.031614,1.571754,-0.065841,-0.002739,0.002795,0.000456,-0.008870,-0.000040,0.000514,-0.006798,0.054737,-0.012212,0.203442,0.203428,0.164833,0.430488,0.000000,0.000000,0.000000,0.000000,0.000000,0.000000,0.000000,0.000000,0.000000,0.000000,0.000000,0.000000,0.053286,3,0
1270000,0.006551,32.831413,-0.030485,0.020841,25.925972,0.011167,-0.001505,0.032198,1.571764,-0.066573,-0.002783,0.003183,0.000467,-0.009065,-0.000041,0.002343,-0.006780,0.111744,-0.044790,0.203606,0.203592,0.164482,0.427040,0.000000,0.000000,0.000000,0.000000,0.000000,0.000000,0.000000,0.000000,0.000000,0.000000,0.000000,0.000000,0.108147,3,0
1280000,0.006531,33.092999,-0.030030,0.020588,25.934017,0.011879,-0.001540,0.032577,1.571762,-0.067012,-0.002827,0.003064,0.000479,-0.009183,-0.000042,0.000763,-0.006761,0.067318,0.012701,0.203771,0.203756,0.164129,0.423678,0.000000,0.000000,0.000000,0.000000,0.000000,0.000000,0.000000,0.000000,0.000000,0.000000,0.000000,0.000000,0.065360,3,0
1290000,0.006510,33.353207,-0.029794,0.020463,25.939680,0.012234,-0.001577,0.032775,1.571765,-0.067170,-0.002871,0.003023,0.000491,-0.009226,-0.000042,0.000106,-0.006739,0.024323,0.004309,0.203935,0.203919,0.163775,0.420401,0.000000,0.000000,0.000000,0.000000,0.000000,0.000000,0.000000,0.000000,0.000000,0.000000,0.000000,0.000000,0.024380,3,0
1300000,0.006489,33.616112,-0.029108,0.020389,25.949926,0.013168,-0.001608,0.033312,1.571776,-0.067830,-0.002914,0.002824,0.000503,-0.009408,-0.000043,0.001754,-0.006718,0.101997,0.020961,0.204099,0.204083,0.163419,0.417206,0.000000,0.000000,0.000000,0.000000,0.000000,0.000000,0.000000,0.000000,0.000000,0.000000,0.000000,0.000000,0.098743,3,0
1310000,0.006466,33.878967,-0.028296,0.020180,25.960035,0.014024,-0.001633,0.033842,1.571794,-0.068459,-0.002956,0.002583,0.000515,-0.009584,-0.000044,0.001640,-0.006695,0.097416,0.025437,0.204263,0.204246,0.163063,0.414092,0.000000,0.000000,0.000000,0.000000,0.000000,0.000000,0.000000,0.000000,0.000000,0.000000,0.000000,0.000000,0.094323,3,0
1320000,0.006442,34.137711,-0.027915,0.019949,25.962570,0.014554,-0.001671,0.033814,1.571791,-0.068289,-0.002999,0.002506,0.000528,-0.009535,-0.000043,0.000131,-0.006670,-0.026390,0.008663,0.204428,0.204410,0.162705,0.411058,0.000000,0.000000,0.000000,0.000000,0.000000,0.000000,0.000000,0.000000,0.000000,0.000000,0.000000,0.000000,0.026291,3,0
1330000,0.006417,34.398499,-0.027702,0.019738,25.968805,0.014790,-0.001698,0.034053,1.571794,-0.068500,-0.003042,0.002479,0.000540,-0.009596,-0.000044,0.000183,-0.006644,0.032906,0.002592,0.204594,0.204575,0.162347,0.408102,0.000000,0.000000,0.000000,0.000000,0.000000,0.000000,0.000000,0.000000,0.000000,0.000000,0.000000,0.000000,0.032425,3,0
1340000,0.006390,34.656555,-0.027154,0.019495,25.970148,0.015477,-0.001726,0.033912,1.571797,-0.068185,-0.003084,0.002350,0.000552,-0.009503,-0.000043,0.000428,-0.006616,-0.049038,0.014507,0.204760,0.204740,0.161988,0.405224,0.000000,0.000000,0.000000,0.000000,0.000000,0.000000,0.000000,0.000000,0.000000,0.000000,0.000000,0.000000,0.047792,3,0
1350000,0.006362,34.919388,-0.027083,0.019306,25.979961,0.015379,-0.001766,0.034434,1.571799,-0.068763,-0.003126,0.002365,0.000565,-0.009675,-0.000044,0.001326,-0.006587,0.090473,-0.002693,0.204927,0.204907,0.161630,0.402421,0.000000,0.000000,0.000000,0.000000,0.000000,0.000000,0.000000,0.000000,0.000000,0.000000,0.000000,0.000000,0.087615,3,0
1360000,0.006335,35.179455,-0.027892,0.019186,25.984682,0.014423,-0.001802,0.034558,1.571799,-0.068806,-0.003168,0.002700,0.000577,-0.009689,-0.000044,0.000222,-0.006558,0.006451,-0.035885,0.205096,0.205074,0.161272,0.399692,0.000000,0.000000,0.000000,0.000000,0.000000,0.000000,0.000000,0.000000,0.000000,0.000000,0.000000,0.000000,0.008882,3,0
1370000,0.006305,35.439510,-0.027712,0.018981,25.989294,0.014592,-0.001836,0.034681,1.571797,-0.068836,-0.003210,0.002687,0.000590,-0.009698,-0.000045,0.000011,-0.006529,0.004761,0.001289,0.205265,0.205243,0.160914,0.397036,0.000000,0.000000,0.000000,0.000000,0.000000,0.000000,0.000000,0.000000,0.000000,0.000000,0.000000,0.000000,0.007803,3,0
1380000,0.006275,35.701603,-0.028784,0.018728,25.997438,0.013225,-0.001880,0.035091,1.571810,-0.069234,-0.003251,0.003108,0.000602,-0.009823,-0.000045,0.000972,-0.006496,0.062721,-0.045278,0.205436,0.205413,0.160557,0.394450,0.000000,0.000000,0.000000,0.000000,0.000000,0.000000,0.000000,0.000000,0.000000,0.000000,0.000000,0.000000,0.060890,3,0
1390000,0.006244,35.962284,-0.029282,0.018518,26.002899,0.012489,-0.001923,0.035281,1.571818,-0.069356,-0.003292,0.003328,0.000615,-0.009862,-0.000045,0.000156,-0.006464,0.019218,-0.023514,0.205609,0.205585,0.160200,0.391933,0.000000,0.000000,0.000000,0.000000,0.000000,0.000000,0.000000,0.000000,0.000000,0.000000,0.000000,0.000000,0.019577,3,0
1400000,0.006210,36.222256,-0.029921,0.018272,26.007069,0.011698,-0.001969,0.035361,1.571816,-0.069339,-0.003333,0.003603,0.000627,-0.009858,-0.000045,0.000142,-0.006430,-0.002968,-0.028769,0.205783,0.205758,0.159845,0.389485,0.000000,0.000000,0.000000,0.000000,0.000000,0.000000,0.000000,0.000000,0.000000,0.000000,0.000000,0.000000,0.006841,3,0
1410000,0.006177,36.484951,-0.031087,0.018115,26.016186,0.010262,-0.002013,0.035822,1.571830,-0.069808,-0.003373,0.004053,0.000640,-0.010011,-0.000046,0.001283,-0.006395,0.074955,-0.047922,0.205959,0.205933,0.159491,0.387104,0.000000,0.000000,0.000000,0.000000,0.000000,0.000000,0.000000,0.000000,0.000000,0.000000,0.000000,0.000000,0.072639,3,0
1420000,0.006141,36.746212,-0.030194,0.017904,26.022429,0.011469,-0.002046,0.036065,1.571845,-0.069997,-0.003412,0.003761,0.000653,-0.010072,-0.000047,0.000304,-0.006360,0.030842,0.029872,0.206137,0.206109,0.159138,0.384788,0.000000,0.000000,0.000000,0.000000,0.000000,0.000000,0.000000,0.000000,0.000000,0.000000,0.000000,0.000000,0.030412,3,0
1430000,0.006104,37.008125,-0.030325,0.017643,26.029961,0.011293,-0.002087,0.036410,1.571857,-0.070292,-0.003451,0.003843,0.000666,-0.010171,-0.000047,0.000388,-0.006321,0.047817,-0.009036,0.206316,0.206288,0.158787,0.382537,0.000000,0.000000,0.000000,0.000000,0.000000,0.000000,0.000000,0.000000,0.000000,0.000000,0.000000,0.000000,0.046575,3,0
1440000,0.006064,37.271355,-0.029386,0.017360,26.039650,0.012522,-0.002124,0.036924,1.571860,-0.070806,-0.003488,0.003523,0.000679,-0.010344,-0.000048,0.001305,-0.006282,0.084011,0.031685,0.206497,0.206468,0.158438,0.380347,0.000000,0.000000,0.000000,0.000000,0.000000,0.000000,0.000000,0.000000,0.000000,0.000000,0.000000,0.000000,0.081354,3,0
1450000,0.006026,37.532471,-0.029814,0.017244,26.045376,0.011990,-0.002151,0.037128,1.571868,-0.070926,-0.003527,0.003725,0.000692,-0.010386,-0.000048,0.000138,-0.006241,0.019478,-0.020937,0.206681,0.206650,0.158090,0.378219,0.000000,0.000000,0.000000,0.000000,0.000000,0.000000,0.000000,0.000000,0.000000,0.000000,0.000000,0.000000,0.019745,3,0
1460000,0.005988,37.790119,-0.029829,0.017114,26.044756,0.012111,-0.002197,0.036811,1.571868,-0.070425,-0.003565,0.003793,0.000705,-0.010211,-0.000048,0.001111,-0.006201,-0.082664,-0.005767,0.206866,0.206834,0.157745,0.376150,0.000000,0.000000,0.000000,0.000000,0.000000,0.000000,0.000000,0.000000,0.000000,0.000000,0.000000,0.000000,0.080039,3,0
1470000,0.005948,38.047787,-0.029530,0.016924,26.044275,0.012511,-0.002244,0.036496,1.571876,-0.069931,-0.003602,0.003745,0.000719,-0.010037,-0.000047,0.001091,-0.006161,-0.081882,0.006184,0.207053,0.207020,0.157402,0.374141,0.000000,0.000000,0.000000,0.000000,0.000000,0.000000,0.000000,0.000000,0.000000,0.000000,0.000000,0.000000,0.079279,3,0
1480000,0.005908,38.310287,-0.030199,0.016639,26.052498,0.011799,-0.002279,0.036902,1.571888,-0.070280,-0.003639,0.004034,0.000731,-0.010163,-0.000048,0.000694,-0.006118,0.058029,-0.030058,0.207242,0.207208,0.157061,0.372187,0.000000,0.000000,0.000000,0.000000,0.000000,0.000000,0.000000,0.000000,0.000000,0.000000,0.000000,0.000000,0.056329,3,0
1490000,0.005866,38.573410,-0.030232,0.016467,26.061737,0.011878,-0.002312,0.037393,1.571887,-0.070719,-0.003675,0.004076,0.000744,-0.010323,-0.000048,0.000886,-0.006076,0.073757,-0.005410,0.207433,0.207397,0.156723,0.370289,0.000000,0.000000,0.000000,0.000000,0.000000,0.000000,0.000000,0.000000,0.000000,0.000000,0.000000,0.000000,0.071446,3,0
1500000,0.005822,38.835766,-0.029489,0.016161,26.069456,0.012607,-0.002352,0.037750,1.571894,-0.071008,-0.003710,0.003825,0.000758,-0.010429,-0.000049,0.000490,-0.006032,0.049091,0.024326,0.207625,0.207589,0.156388,0.368446,0.000000,0.000000,0.000000,0.000000,0.000000,0.000000,0.000000,0.000000,0.000000,0.000000,0.000000,0.000000,0.047754,3,0
1510000,0.005779,39.098766,-0.030423,0.015938,26.078203,0.011532,-0.002397,0.038196,1.571898,-0.071391,-0.003746,0.004221,0.000771,-0.010575,-0.000050,0.000949,-0.005985,0.064957,-0.040378,0.207820,0.207782,0.156055,0.366655,0.000000,0.000000,0.000000,0.000000,0.000000,0.000000,0.000000,0.000000,0.000000,0.000000,0.000000,0.000000,0.062964,3,0
1520000,0.005736,39.359631,-0.031560,0.015763,26.082973,0.010141,-0.002442,0.038312,1.571894,-0.071397,-0.003781,0.004708,0.000783,-0.010579,-0.000050,0.000384,-0.005941,0.000660,-0.048294,0.208016,0.207977,0.155725,0.364916,0.000000,0.000000,0.000000,0.000000,0.000000,0.000000,0.000000,0.000000,0.000000,0.000000,0.000000,0.000000,0.005770,3,0
1530000,0.005689,39.619053,-0.030331,0.015478,26.084988,0.011634,-0.002482,0.038186,1.571902,-0.071155,-0.003815,0.004278,0.000797,-0.010483,-0.000049,0.000586,-0.005895,-0.041584,0.043134,0.208214,0.208174,0.155398,0.363226,0.000000,0.000000,0.000000,0.000000,0.000000,0.000000,0.000000,0.000000,0.000000,0.000000,0.000000,0.000000,0.040532,3,0
1540000,0.005642,39.881226,-0.029875,0.015329,26.091980,0.012171,-0.002519,0.038486,1.571907,-0.071366,-0.003848,0.004135,0.000810,-0.010566,-0.000050,0.000254,-0.005846,0.036919,0.013378,0.208414,0.208372,0.155074,0.361586,0.000000,0.000000,0.000000,0.000000,0.000000,0.000000,0.000000,0.000000,0.000000,0.000000,0.000000,0.000000,0.036085,3,0
1550000,0.005595,40.140575,-0.029410,0.015046,26.093779,0.012851,-0.002561,0.038327,1.571914,-0.071101,-0.003881,0.004012,0.000824,-0.010459,-0.000050,0.000379,-0.005796,-0.046417,0.012846,0.208615,0.208571,0.154754,0.359994,0.000000,0.000000,0.000000,0.000000,0.000000,0.000000,0.000000,0.000000,0.000000,0.000000,0.000000,0.000000,0.045148,3,0
1560000,0.005546,40.401295,-0.029587,0.014766,26.097963,0.012715,-0.002607,0.038382,1.571915,-0.071059,-0.003914,0.004137,0.000837,-0.010443,-0.000050,0.000038,-0.005746,-0.007599,-0.012050,0.208817,0.208773,0.154436,0.358447,0.000000,0.000000,0.000000,0.000000,0.000000,0.000000,0.000000,0.000000,0.000000,0.000000,0.000000,0.000000,0.009196,3,0
1570000,0.005496,40.659199,-0.028645,0.014513,26.096916,0.014105,-0.002644,0.037991,1.571916,-0.070556,-0.003945,0.003836,0.000850,-0.010235,-0.000049,0.001446,-0.005695,-0.089455,0.030784,0.209021,0.208975,0.154122,0.356945,0.000000,0.000000,0.000000,0.000000,0.000000,0.000000,0.000000,0.000000,0.000000,0.000000,0.000000,0.000000,0.086505,3,0
1580000,0.005444,40.919189,-0.027913,0.014214,26.099735,0.014952,-0.002690,0.037917,1.571927,-0.070392,-0.003976,0.003606,0.000863,-0.010165,-0.000049,0.000227,-0.005642,-0.029285,0.022756,0.209226,0.209179,0.153812,0.355487,0.000000,0.000000,0.000000,0.000000,0.000000,0.000000,0.000000,0.000000,0.000000,0.000000,0.000000,0.000000,0.028779,3,0
1590000,0.005392,41.179150,-0.027195,0.014028,26.102499,0.015822,-0.002720,0.037843,1.571935,-0.070221,-0.004007,0.003385,0.000877,-0.010092,-0.000049,0.000236,-0.005588,-0.030876,0.021872,0.209432,0.209384,0.153504,0.354073,0.000000,0.000000,0.000000,0.000000,0.000000,0.000000,0.000000,0.000000,0.000000,0.000000,0.000000,0.000000,0.030277,3,0
1600000,0.005340,41.440483,-0.027294,0.013686,26.107700,0.015745,-0.002750,0.037993,1.571944,-0.070262,-0.004037,0.003489,0.000889,-0.010110,-0.000049,0.000030,-0.005533,0.007317,-0.010116,0.209640,0.209589,0.153201,0.352699,0.000000,0.000000,0.000000,0.000000,0.000000,0.000000,0.000000,0.000000,0.000000,0.000000,0.000000,0.000000,0.008850,3,0
1610000,0.005286,41.701767,-0.027870,0.013389,26.112705,0.014976,-0.002794,0.038130,1.571943,-0.070286,-0.004067,0.003790,0.000902,-0.010122,-0.000049,0.000142,-0.005477,0.004356,-0.028777,0.209848,0.209796,0.152901,0.351366,0.000000,0.000000,0.000000,0.000000,0.000000,0.000000,0.000000,0.000000,0.000000,0.000000,0.000000,0.000000,0.006749,3,0
1620000,0.005231,41.961594,-0.027105,0.013137,26.114943,0.015976,-0.002836,0.038007,1.571949,-0.070080,-0.004096,0.003549,0.000915,-0.010029,-0.000049,0.000332,-0.005421,-0.038307,0.023693,0.210057,0.210004,0.152604,0.350072,0.000000,0.000000,0.000000,0.000000,0.000000,0.000000,0.000000,0.000000,0.000000,0.000000,0.000000,0.000000,0.037329,3,0
1630000,0.005176,42.222095,-0.027213,0.012946,26.118313,0.015965,-0.002884,0.037991,1.571961,-0.069975,-0.004125,0.003668,0.000928,-0.009983,-0.000049,0.000087,-0.005364,-0.019848,-0.010862,0.210266,0.210212,0.152312,0.348814,0.000000,0.000000,0.000000,0.000000,0.000000,0.000000,0.000000,0.000000,0.000000,0.000000,0.000000,0.000000,0.019841,3,0
1640000,0.005122,42.483269,-0.028402,0.012694,26.122868,0.014540,-0.002926,0.038086,1.571962,-0.069966,-0.004154,0.004234,0.000941,-0.009982,-0.000049,0.000467,-0.005306,-0.002083,-0.053326,0.210477,0.210421,0.152023,0.347594,0.000000,0.000000,0.000000,0.000000,0.000000,0.000000,0.000000,0.000000,0.000000,0.000000,0.000000,0.000000,0.005508,3,0
1650000,0.005068,42.743690,-0.029558,0.012512,26.125887,0.013019,-0.002968,0.038055,1.571972,-0.069839,-0.004183,0.004791,0.000953,-0.009926,-0.000049,0.000538,-0.005250,-0.024754,-0.051714,0.210687,0.210630,0.151738,0.346409,0.000000,0.000000,0.000000,0.000000,0.000000,0.000000,0.000000,0.000000,0.000000,0.000000,0.000000,0.000000,0.024430,3,0
1660000,0.005011,43.006161,-0.030158,0.012212,26.132643,0.012383,-0.003015,0.038342,1.571987,-0.070009,-0.004210,0.005091,0.000965,-0.010008,-0.000049,0.000312,-0.005193,0.032856,-0.028695,0.210898,0.210839,0.151457,0.345258,0.000000,0.000000,0.000000,0.000000,0.000000,0.000000,0.000000,0.000000,0.000000,0.000000,0.000000,0.000000,0.032086,3,0
1670000,0.004953,43.267838,-0.029271,0.011974,26.137850,0.013354,-0.003044,0.038477,1.572001,-0.070054,-0.004235,0.004763,0.000978,-0.010027,-0.000049,0.000166,-0.005135,0.008865,0.030329,0.211109,0.211048,0.151180,0.344142,0.000000,0.000000,0.000000,0.000000,0.000000,0.000000,0.000000,0.000000,0.000000,0.000000,0.000000,0.000000,0.009890,3,0
1680000,0.004894,43.529449,-0.028214,0.011708,26.142786,0.014479,-0.003074,0.038599,1.572002,-0.070080,-0.004260,0.004366,0.000991,-0.010038,-0.000050,0.000229,-0.005073,0.005566,0.036757,0.211319,0.211257,0.150906,0.343057,0.000000,0.000000,0.000000,0.000000,0.000000,0.000000,0.000000,0.000000,0.000000,0.000000,0.000000,0.000000,0.007272,3,0
1690000,0.004834,43.786797,-0.027485,0.011443,26.139872,0.015284,-0.003118,0.037997,1.571999,-0.069497,-0.004285,0.004156,0.001004,-0.009747,-0.000049,0.002281,-0.005011,-0.116943,0.021941,0.211530,0.211466,0.150637,0.342005,0.000000,0.000000,0.000000,0.000000,0.000000,0.000000,0.000000,0.000000,0.000000,0.000000,0.000000,0.000000,0.112919,3,0
1700000,0.004775,44.046265,-0.027788,0.011151,26.140841,0.015162,-0.003160,0.037754,1.571995,-0.069220,-0.004310,0.004376,0.001016,-0.009609,-0.000048,0.000571,-0.004949,-0.056198,-0.019021,0.211740,0.211674,0.150371,0.340983,0.000000,0.000000,0.000000,0.000000,0.000000,0.000000,0.000000,0.000000,0.000000,0.000000,0.000000,0.000000,0.054432,3,0
1710000,0.004714,44.303589,-0.027290,0.010865,26.137869,0.016053,-0.003203,0.037145,1.571992,-0.068651,-0.004334,0.004270,0.001028,-0.009317,-0.000047,0.002225,-0.004887,-0.116890,0.012308,0.211949,0.211882,0.150110,0.339990,0.000000,0.000000,0.000000,0.000000,0.000000,0.000000,0.000000,0.000000,0.000000,0.000000,0.000000,0.000000,0.112857,3,0
1720000,0.004653,44.562332,-0.027630,0.010605,26.137400,0.015760,-0.003235,0.036778,1.571998,-0.068286,-0.004358,0.004520,0.001040,-0.009128,-0.000047,0.001005,-0.004823,-0.076000,-0.021063,0.212158,0.212090,0.149853,0.339024,0.000000,0.000000,0.000000,0.000000,0.000000,0.000000,0.000000,0.000000,0.000000,0.000000,0.000000,0.000000,0.073466,3,0
