time_us,pos_x,pos_y,pos_z,vel_x,vel_y,vel_z,roll,pitch,yaw,bias_ax,bias_ay,bias_az,bias_gx,bias_gy,bias_gz,nis,innov_x,innov_y,innov_z,cov_pos_x,cov_pos_y,cov_pos_z,cov_yaw,des_speed,des_heading,des_climb,pid_speed,pid_yaw,pid_alt,speed_meas,yaw_meas,climb_meas,fwd_accel,yaw_rate,vert_accel,drift_m,nav_mode,mission_state
0,0.000004,0.149994,-0.000003,0.000705,24.999060,-0.000833,0.000031,0.000001,1.570795,0.000000,0.000000,0.000000,0.000000,0.000000,0.000000,0.006250,-0.000007,-0.249993,0.000008,2.400038,2.400038,3.600017,1.000518,0.000000,0.000000,0.000000,0.000000,0.000000,0.000000,0.000000,0.000000,0.000000,0.000000,0.000000,0.000000,0.149994,1,0
10000,0.000013,0.382251,-0.027366,0.001452,24.998177,-0.002019,0.000045,0.000002,1.570801,0.000000,-0.000000,0.000000,0.000000,0.000000,0.000000,0.001012,-0.000019,-0.062036,-0.072914,1.714420,1.714420,2.250079,1.001073,0.000000,0.000000,0.000000,0.000000,0.000000,0.000000,0.000000,0.000000,0.000000,0.000000,0.000000,0.000000,0.044310,3,0
20000,0.000026,0.611001,-0.023330,0.002047,24.997231,-0.003020,0.000070,0.000009,1.570798,0.000001,-0.000000,0.000000,0.000000,0.000000,0.000000,0.001209,-0.000034,-0.095496,0.014908,1.333616,1.333616,1.636554,1.001655,0.000000,0.000000,0.000000,0.000000,0.000000,0.000000,0.000000,0.000000,0.000000,0.000000,0.000000,0.000000,0.074270,3,0
30000,0.000044,0.859844,-0.028797,0.002711,24.996616,-0.004018,0.000085,0.000014,1.570801,0.000001,-0.000000,0.000000,-0.000000,0.000000,0.000000,0.000089,-0.000053,-0.006174,-0.025320,1.091392,1.091392,1.286065,1.002257,0.000000,0.000000,0.000000,0.000000,0.000000,0.000000,0.000000,0.000000,0.000000,0.000000,0.000000,0.000000,0.005051,3,0
40000,0.000065,1.101148,-0.032780,0.003350,24.995764,-0.005077,0.000099,0.000010,1.570801,0.000003,-0.000000,0.000001,-0.000000,0.000000,0.000000,0.000514,-0.000077,-0.056222,-0.022276,0.923811,0.923811,1.059385,1.002869,0.000000,0.000000,0.000000,0.000000,0.000000,0.000000,0.000000,0.000000,0.000000,0.000000,0.000000,0.000000,0.047565,3,0
50000,0.000092,1.351188,-0.026457,0.004113,24.995115,-0.005787,0.000126,0.000020,1.570815,0.000003,-0.000000,-0.000001,0.000000,0.000000,0.000000,0.000256,-0.000106,0.000667,0.042513,0.801036,0.801036,0.900822,1.003484,0.000000,0.000000,0.000000,0.000000,0.000000,0.000000,0.000000,0.000000,0.000000,0.000000,0.000000,0.000000,0.000586,3,0
60000,0.000123,1.606886,-0.021892,0.004692,24.994663,-0.006410,0.000149,0.000021,1.570814,-0.000000,-0.000000,-0.000003,0.000000,-0.000000,-0.000000,0.000533,-0.000139,0.048818,0.035453,0.707270,0.707270,0.783741,1.004094,0.000000,0.000000,0.000000,0.000000,0.000000,0.000000,0.000000,0.000000,0.000000,0.000000,0.000000,0.000000,0.043064,3,0
70000,0.000158,1.853873,-0.025501,0.005373,24.993687,-0.007703,0.000179,0.000033,1.570821,0.000002,-0.000000,-0.000000,0.000000,0.000000,0.000000,0.000254,-0.000177,-0.027965,-0.030560,0.633370,0.633370,0.693801,1.004688,0.000000,0.000000,0.000000,0.000000,0.000000,0.000000,0.000000,0.000000,0.000000,0.000000,0.000000,0.000000,0.025013,3,0
80000,0.000197,2.098423,-0.021669,0.006020,24.992632,-0.008598,0.000198,0.000041,1.570828,0.000008,-0.000000,-0.000004,0.000000,0.000000,0.000000,0.000691,-0.000218,-0.056276,0.037783,0.573673,0.573673,0.622594,1.005260,0.000000,0.000000,0.000000,0.000000,0.000000,0.000000,0.000000,0.000000,0.000000,0.000000,0.000000,0.000000,0.050895,3,0
90000,0.000240,2.346375,-0.021510,0.006594,24.991730,-0.009587,0.000221,0.000051,1.570835,0.000011,-0.000000,-0.000004,0.000000,0.000000,0.000000,0.000078,-0.000263,-0.022509,0.002708,0.524488,0.524488,0.564865,1.005801,0.000000,0.000000,0.000000,0.000000,0.000000,0.000000,0.000000,0.000000,0.000000,0.000000,0.000000,0.000000,0.020543,3,0
100000,0.000287,2.601722,-0.018069,0.007220,24.991709,-0.010349,0.000243,0.000059,1.570833,0.000000,-0.000000,-0.000011,0.000000,-0.000000,-0.000000,0.000956,-0.000312,0.067489,0.041162,0.483303,0.483303,0.517162,1.006301,0.000000,0.000000,0.000000,0.000000,0.000000,0.000000,0.000000,0.000000,0.000000,0.000000,0.000000,0.000000,0.062054,3,0
110000,0.000340,2.846507,-0.019993,0.007967,24.990309,-0.011535,0.000260,0.000053,1.570835,0.000013,-0.000000,-0.000006,0.000000,0.000000,0.000000,0.000805,-0.000367,-0.068584,-0.022768,0.448353,0.448353,0.477121,1.006754,0.000000,0.000000,0.000000,0.000000,0.000000,0.000000,0.000000,0.000000,0.000000,0.000000,0.000000,0.000000,0.063460,3,0
120000,0.000397,3.103662,-0.020268,0.008694,24.990795,-0.012370,0.000279,0.000072,1.570831,-0.000010,-0.000000,-0.000006,0.000000,-0.000000,-0.000000,0.001681,-0.000427,0.104102,-0.002048,0.418358,0.418358,0.443071,1.007150,0.000000,0.000000,0.000000,0.000000,0.000000,0.000000,0.000000,0.000000,0.000000,0.000000,0.000000,0.000000,0.096845,3,0
130000,0.000459,3.350055,-0.024235,0.009460,24.989538,-0.013951,0.000300,0.000073,1.570836,0.000004,-0.000000,0.000008,0.000000,0.000000,0.000000,0.000928,-0.000491,-0.053664,-0.055598,0.392369,0.392369,0.413797,1.007481,0.000000,0.000000,0.000000,0.000000,0.000000,0.000000,0.000000,0.000000,0.000000,0.000000,0.000000,0.000000,0.050157,3,0
140000,0.000527,3.605953,-0.024900,0.010222,24.990158,-0.014925,0.000328,0.000084,1.570844,-0.000025,-0.000001,0.000010,0.000000,-0.000001,-0.000000,0.001498,-0.000562,0.097535,-0.007973,0.369666,0.369666,0.388393,1.007739,0.000000,0.000000,0.000000,0.000000,0.000000,0.000000,0.000000,0.000000,0.000000,0.000000,0.000000,0.000000,0.091527,3,0
150000,0.000600,3.861679,-0.023819,0.010974,24.990833,-0.015658,0.000361,0.000097,1.570844,-0.000059,-0.000001,0.000003,0.000000,-0.000001,-0.000000,0.001636,-0.000637,0.100057,0.020311,0.349694,0.349694,0.366172,1.007916,0.000000,0.000000,0.000000,0.000000,0.000000,0.000000,0.000000,0.000000,0.000000,0.000000,0.000000,0.000000,0.094228,3,0
160000,0.000677,4.116165,-0.023404,0.011669,24.991306,-0.016378,0.000375,0.000107,1.570845,-0.000090,-0.000001,-0.000000,0.000000,-0.000002,-0.000000,0.001097,-0.000717,0.082872,0.010059,0.332020,0.332020,0.346600,1.008003,0.000000,0.000000,0.000000,0.000000,0.000000,0.000000,0.000000,0.000000,0.000000,0.000000,0.000000,0.000000,0.078289,3,0
170000,0.000759,4.371696,-0.026579,0.012395,24.992355,-0.018220,0.000393,0.000131,1.570848,-0.000136,-0.000001,0.000023,0.000000,-0.000003,-0.000000,0.002268,-0.000801,0.106684,-0.054701,0.316296,0.316296,0.329260,1.007992,0.000000,0.000000,0.000000,0.000000,0.000000,0.000000,0.000000,0.000000,0.000000,0.000000,0.000000,0.000000,0.101063,3,0
180000,0.000844,4.624128,-0.024327,0.012984,24.992506,-0.018670,0.000413,0.000147,1.570861,-0.000159,-0.000002,0.000001,0.000000,-0.000004,-0.000000,0.000740,-0.000889,0.049932,0.046781,0.302245,0.302245,0.313817,1.007876,0.000000,0.000000,0.000000,0.000000,0.000000,0.000000,0.000000,0.000000,0.000000,0.000000,0.000000,0.000000,0.047425,3,0
190000,0.000934,4.875786,-0.025218,0.013726,24.992403,-0.020001,0.000433,0.000157,1.570870,-0.000179,-0.000002,0.000008,0.000000,-0.000004,-0.000000,0.000237,-0.000981,0.036046,-0.013867,0.289639,0.289639,0.300003,1.007647,0.000000,0.000000,0.000000,0.000000,0.000000,0.000000,0.000000,0.000000,0.000000,0.000000,0.000000,0.000000,0.034319,3,0
200000,0.001029,5.127690,-0.026116,0.014467,24.992584,-0.021355,0.000463,0.000165,1.570867,-0.000204,-0.000003,0.000016,0.000000,-0.000005,-0.000000,0.000324,-0.001079,0.042814,-0.014346,0.278293,0.278293,0.287598,1.007297,0.000000,0.000000,0.000000,0.000000,0.000000,0.000000,0.000000,0.000000,0.000000,0.000000,0.000000,0.000000,0.040841,3,0
210000,0.001128,5.377149,-0.024381,0.015169,24.991629,-0.021434,0.000484,0.000165,1.570863,-0.000197,-0.000004,-0.000011,0.000000,-0.000005,-0.000000,0.000304,-0.001181,-0.010301,0.042492,0.268051,0.268051,0.276421,1.006819,0.000000,0.000000,0.000000,0.000000,0.000000,0.000000,0.000000,0.000000,0.000000,0.000000,0.000000,0.000000,0.009905,3,0
220000,0.001232,5.627001,-0.025731,0.015913,24.990955,-0.022867,0.000509,0.000171,1.570873,-0.000196,-0.000005,0.000007,0.000000,-0.000005,-0.000000,0.000103,-0.001287,-0.001325,-0.025366,0.258783,0.258783,0.266321,1.006206,0.000000,0.000000,0.000000,0.000000,0.000000,0.000000,0.000000,0.000000,0.000000,0.000000,0.000000,0.000000,0.001768,3,0
230000,0.001340,5.882185,-0.027858,0.016647,24.992950,-0.024618,0.000532,0.000199,1.570884,-0.000292,-0.000006,0.000040,0.000000,-0.000008,-0.000000,0.002867,-0.001399,0.126528,-0.044094,0.250381,0.250381,0.257172,1.005450,0.000000,0.000000,0.000000,0.000000,0.000000,0.000000,0.000000,0.000000,0.000000,0.000000,0.000000,0.000000,0.121256,3,0
240000,0.001453,6.136552,-0.026739,0.017368,24.994570,-0.024817,0.000546,0.000226,1.570882,-0.000383,-0.000007,0.000013,0.000000,-0.000011,-0.000000,0.002106,-0.001514,0.109874,0.033128,0.242751,0.242751,0.248866,1.004546,0.000000,0.000000,0.000000,0.000000,0.000000,0.000000,0.000000,0.000000,0.000000,0.000000,0.000000,0.000000,0.105438,3,0
250000,0.001569,6.390186,-0.026324,0.017967,24.995956,-0.025538,0.000567,0.000265,1.570896,-0.000467,-0.000008,-0.000002,0.000000,-0.000014,-0.000000,0.001461,-0.001633,0.094037,0.016763,0.235813,0.235813,0.241314,1.003486,0.000000,0.000000,0.000000,0.000000,0.000000,0.000000,0.000000,0.000000,0.000000,0.000000,0.000000,0.000000,0.090354,3,0
260000,0.001689,6.644680,-0.026849,0.018644,24.998125,-0.026728,0.000598,0.000302,1.570911,-0.000581,-0.000010,0.000004,0.000000,-0.000018,-0.000000,0.002266,-0.001756,0.118691,-0.006634,0.229498,0.229498,0.234436,1.002264,0.000000,0.000000,0.000000,0.000000,0.000000,0.000000,0.000000,0.000000,0.000000,0.000000,0.000000,0.000000,0.114164,3,0
270000,0.001812,6.899227,-0.029097,0.019291,25.000429,-0.028975,0.000626,0.000338,1.570916,-0.000707,-0.000012,0.000057,0.000000,-0.000023,-0.000000,0.002843,-0.001882,0.122602,-0.051828,0.223747,0.223747,0.228165,1.000875,0.000000,0.000000,0.000000,0.000000,0.000000,0.000000,0.000000,0.000000,0.000000,0.000000,0.000000,0.000000,0.118044,3,0
280000,0.001939,7.153105,-0.029197,0.019962,25.002394,-0.029768,0.000641,0.000377,1.570913,-0.000825,-0.000014,0.000051,0.000000,-0.000027,-0.000000,0.001830,-0.002012,0.106581,0.005372,0.218507,0.218507,0.222443,0.999313,0.000000,0.000000,0.000000,0.000000,0.000000,0.000000,0.000000,0.000000,0.000000,0.000000,0.000000,0.000000,0.102718,3,0
290000,0.002069,7.405664,-0.027898,0.020642,25.003559,-0.029540,0.000658,0.000414,1.570915,-0.000909,-0.000017,-0.000000,0.000001,-0.000031,-0.000000,0.001135,-0.002146,0.071351,0.044332,0.213734,0.213734,0.217219,0.997574,0.000000,0.000000,0.000000,0.000000,0.000000,0.000000,0.000000,0.000000,0.000000,0.000000,0.000000,0.000000,0.068840,3,0
300000,0.002202,7.661857,-0.027266,0.021242,25.007746,-0.029682,0.000671,0.000482,1.570921,-0.001131,-0.000020,-0.000033,0.000001,-0.000040,-0.000000,0.005130,-0.002282,0.176599,0.026430,0.209387,0.209387,0.212446,0.995652,0.000000,0.000000,0.000000,0.000000,0.000000,0.000000,0.000000,0.000000,0.000000,0.000000,0.000000,0.000000,0.170450,3,0
310000,0.002339,7.917370,-0.028240,0.021823,25.011581,-0.031331,0.000694,0.000553,1.570925,-0.001343,-0.000023,-0.000008,0.000001,-0.000049,-0.000000,0.004125,-0.002421,0.158911,-0.019197,0.205431,0.205431,0.208087,0.993544,0.000000,0.000000,0.000000,0.000000,0.000000,0.000000,0.000000,0.000000,0.000000,0.000000,0.000000,0.000000,0.153488,3,0
320000,0.002477,8.173591,-0.028687,0.022381,25.016138,-0.032536,0.000721,0.000630,1.570931,-0.001600,-0.000026,-0.000003,0.000001,-0.000061,-0.000000,0.005319,-0.002563,0.181665,-0.003615,0.201833,0.201833,0.204105,0.991245,0.000000,0.000000,0.000000,0.000000,0.000000,0.000000,0.000000,0.000000,0.000000,0.000000,0.000000,0.000000,0.175572,3,0
330000,0.002618,8.426540,-0.030567,0.022954,25.018042,-0.034897,0.000744,0.000683,1.570928,-0.001727,-0.000030,0.000066,0.000001,-0.000067,-0.000000,0.001494,-0.002707,0.084430,-0.046191,0.198566,0.198566,0.200469,0.988752,0.000000,0.000000,0.000000,0.000000,0.000000,0.000000,0.000000,0.000000,0.000000,0.000000,0.000000,0.000000,0.081677,3,0
340000,0.002762,8.680942,-0.031639,0.023682,25.021385,-0.036633,0.000764,0.000745,1.570937,-0.001932,-0.000035,0.000100,0.000001,-0.000077,-0.000001,0.002787,-0.002855,0.129645,-0.021689,0.195604,0.195604,0.197151,0.986062,0.000000,0.000000,0.000000,0.000000,0.000000,0.000000,0.000000,0.000000,0.000000,0.000000,0.000000,0.000000,0.125449,3,0
350000,0.002910,8.935446,-0.033269,0.024293,25.024858,-0.038795,0.000779,0.000829,1.570948,-0.002155,-0.000040,0.000164,0.000002,-0.000088,-0.000001,0.003124,-0.003006,0.133637,-0.038717,0.192924,0.192924,0.194125,0.983172,0.000000,0.000000,0.000000,0.000000,0.000000,0.000000,0.000000,0.000000,0.000000,0.000000,0.000000,0.000000,0.129373,3,0
360000,0.003059,9.191948,-0.034423,0.024831,25.030466,-0.040641,0.000796,0.000940,1.570949,-0.002501,-0.000045,0.000205,0.000002,-0.000106,-0.000001,0.006365,-0.003159,0.197160,-0.023686,0.190505,0.190505,0.191370,0.980082,0.000000,0.000000,0.000000,0.000000,0.000000,0.000000,0.000000,0.000000,0.000000,0.000000,0.000000,0.000000,0.190924,3,0
370000,0.003210,9.447247,-0.035855,0.025468,25.035141,-0.042653,0.000815,0.001036,1.570967,-0.002794,-0.000052,0.000264,0.000002,-0.000121,-0.000001,0.004265,-0.003314,0.159269,-0.032234,0.188329,0.188329,0.188863,0.976789,0.000000,0.000000,0.000000,0.000000,0.000000,0.000000,0.000000,0.000000,0.000000,0.000000,0.000000,0.000000,0.154304,3,0
380000,0.003365,9.702635,-0.036817,0.026182,25.039957,-0.044136,0.000830,0.001140,1.570974,-0.003108,-0.000058,0.000297,0.000003,-0.000138,-0.000001,0.004305,-0.003473,0.162351,-0.016928,0.186378,0.186378,0.186586,0.973292,0.000000,0.000000,0.000000,0.000000,0.000000,0.000000,0.000000,0.000000,0.000000,0.000000,0.000000,0.000000,0.157344,3,0
390000,0.003522,9.955059,-0.036059,0.026726,25.041752,-0.043913,0.000854,0.001192,1.570982,-0.003242,-0.000066,0.000218,0.000003,-0.000146,-0.000001,0.000954,-0.003634,0.065944,0.039306,0.184636,0.184636,0.184523,0.969591,0.000000,0.000000,0.000000,0.000000,0.000000,0.000000,0.000000,0.000000,0.000000,0.000000,0.000000,0.000000,0.064011,3,0
400000,0.003682,10.210093,-0.037561,0.027428,25.046494,-0.046008,0.000871,0.001307,1.570982,-0.003562,-0.000074,0.000291,0.000003,-0.000164,-0.000001,0.003902,-0.003798,0.151444,-0.034581,0.183088,0.183088,0.182656,0.965686,0.000000,0.000000,0.000000,0.000000,0.000000,0.000000,0.000000,0.000000,0.000000,0.000000,0.000000,0.000000,0.146869,3,0
410000,0.003844,10.465842,-0.036913,0.028098,25.052246,-0.045637,0.000885,0.001446,1.570999,-0.003948,-0.000082,0.000209,0.000004,-0.000187,-0.000001,0.005155,-0.003964,0.174667,0.037000,0.181722,0.181722,0.180971,0.961577,0.000000,0.000000,0.000000,0.000000,0.000000,0.000000,0.000000,0.000000,0.000000,0.000000,0.000000,0.000000,0.169421,3,0
420000,0.004007,10.721694,-0.035826,0.028603,25.058216,-0.044751,0.000905,0.001588,1.571002,-0.004357,-0.000092,0.000090,0.000005,-0.000212,-0.000001,0.005518,-0.004132,0.177286,0.051850,0.180525,0.180525,0.179456,0.957266,0.000000,0.000000,0.000000,0.000000,0.000000,0.000000,0.000000,0.000000,0.000000,0.000000,0.000000,0.000000,0.171999,3,0
430000,0.004172,10.975270,-0.035761,0.029192,25.061377,-0.044942,0.000924,0.001666,1.571012,-0.004597,-0.000102,0.000048,0.000005,-0.000227,-0.000002,0.001679,-0.004301,0.100286,0.017518,0.179485,0.179485,0.178097,0.952755,0.000000,0.000000,0.000000,0.000000,0.000000,0.000000,0.000000,0.000000,0.000000,0.000000,0.000000,0.000000,0.097376,3,0
440000,0.004338,11.229599,-0.035040,0.029753,25.065605,-0.044387,0.000943,0.001766,1.571014,-0.004909,-0.000113,-0.000052,0.000006,-0.000247,-0.000002,0.002788,-0.004471,0.124983,0.039986,0.178591,0.178591,0.176883,0.948045,0.000000,0.000000,0.000000,0.000000,0.000000,0.000000,0.000000,0.000000,0.000000,0.000000,0.000000,0.000000,0.121340,3,0
450000,0.004506,11.485252,-0.036486,0.030396,25.071625,-0.046558,0.000958,0.001920,1.571018,-0.005346,-0.000125,0.000036,0.000007,-0.000276,-0.000002,0.004797,-0.004644,0.168796,-0.033887,0.177833,0.177833,0.175803,0.943139,0.000000,0.000000,0.000000,0.000000,0.000000,0.000000,0.000000,0.000000,0.000000,0.000000,0.000000,0.000000,0.163855,3,0
460000,0.004676,11.739855,-0.038014,0.030992,25.076342,-0.048681,0.000967,0.002035,1.571017,-0.005700,-0.000138,0.000133,0.000008,-0.000299,-0.000002,0.003023,-0.004818,0.131749,-0.036175,0.177203,0.177203,0.174847,0.938040,0.000000,0.000000,0.000000,0.000000,0.000000,0.000000,0.000000,0.000000,0.000000,0.000000,0.000000,0.000000,0.127944,3,0
470000,0.004846,11.994604,-0.038998,0.031450,25.081303,-0.050165,0.000981,0.002172,1.571028,-0.006078,-0.000152,0.000180,0.000008,-0.000325,-0.000002,0.003021,-0.004993,0.135527,-0.016886,0.176690,0.176690,0.174007,0.932752,0.000000,0.000000,0.000000,0.000000,0.000000,0.000000,0.000000,0.000000,0.000000,0.000000,0.000000,0.000000,0.131625,3,0
480000,0.005016,12.249501,-0.039483,0.032001,25.086596,-0.051119,0.000997,0.002306,1.571045,-0.006478,-0.000167,0.000177,0.000010,-0.000353,-0.000002,0.003137,-0.005168,0.139153,0.000927,0.176287,0.176287,0.173272,0.927280,0.000000,0.000000,0.000000,0.000000,0.000000,0.000000,0.000000,0.000000,0.000000,0.000000,0.000000,0.000000,0.135157,3,0
490000,0.005186,12.503963,-0.040114,0.032469,25.091249,-0.052167,0.001010,0.002438,1.571062,-0.006844,-0.000183,0.000189,0.000011,-0.000380,-0.000003,0.002445,-0.005343,0.122749,-0.003868,0.175985,0.175985,0.172634,0.921626,0.000000,0.000000,0.000000,0.000000,0.000000,0.000000,0.000000,0.000000,0.000000,0.000000,0.000000,0.000000,0.119262,3,0
500000,0.005357,12.760912,-0.039746,0.033026,25.099596,-0.051791,0.001019,0.002659,1.571065,-0.007478,-0.000200,0.000092,0.000012,-0.000426,-0.000003,0.007041,-0.005519,0.206182,0.031251,0.175778,0.175778,0.172087,0.915797,0.000000,0.000000,0.000000,0.000000,0.000000,0.000000,0.000000,0.000000,0.000000,0.000000,0.000000,0.000000,0.200214,3,0
510000,0.005528,13.016817,-0.039327,0.033562,25.106394,-0.051386,0.001041,0.002858,1.571080,-0.008010,-0.000218,-0.000014,0.000013,-0.000466,-0.000003,0.004738,-0.005695,0.167817,0.033035,0.175658,0.175658,0.171623,0.909798,0.000000,0.000000,0.000000,0.000000,0.000000,0.000000,0.000000,0.000000,0.000000,0.000000,0.000000,0.000000,0.162998,3,0
520000,0.005699,13.274025,-0.040130,0.034019,25.115223,-0.052594,0.001066,0.003101,1.571083,-0.008697,-0.000237,0.000019,0.000015,-0.000519,-0.000004,0.007158,-0.005871,0.210028,-0.009897,0.175618,0.175619,0.171234,0.903635,0.000000,0.000000,0.000000,0.000000,0.000000,0.000000,0.000000,0.000000,0.000000,0.000000,0.000000,0.000000,0.203960,3,0
530000,0.005871,13.528447,-0.041737,0.034597,25.119947,-0.055077,0.001074,0.003233,1.571102,-0.009073,-0.000257,0.000146,0.000016,-0.000548,-0.000004,0.002256,-0.006048,0.111762,-0.037607,0.175653,0.175653,0.170915,0.897313,0.000000,0.000000,0.000000,0.000000,0.000000,0.000000,0.000000,0.000000,0.000000,0.000000,0.000000,0.000000,0.108649,3,0
540000,0.006043,13.784780,-0.043186,0.035131,25.127459,-0.057437,0.001084,0.003456,1.571121,-0.009681,-0.000279,0.000255,0.000018,-0.000597,-0.000004,0.005139,-0.006225,0.175357,-0.031230,0.175756,0.175756,0.170659,0.890840,0.000000,0.000000,0.000000,0.000000,0.000000,0.000000,0.000000,0.000000,0.000000,0.000000,0.000000,0.000000,0.170328,3,0
550000,0.006213,14.041836,-0.042563,0.035512,25.136124,-0.056644,0.001093,0.003713,1.571138,-0.010382,-0.000302,0.000103,0.000020,-0.000654,-0.000004,0.006593,-0.006401,0.197252,0.042416,0.175922,0.175922,0.170460,0.884221,0.000000,0.000000,0.000000,0.000000,0.000000,0.000000,0.000000,0.000000,0.000000,0.000000,0.000000,0.000000,0.191569,3,0
560000,0.006383,14.299606,-0.042715,0.036043,25.145828,-0.056916,0.001103,0.004013,1.571154,-0.011180,-0.000326,0.000047,0.000022,-0.000721,-0.000005,0.007760,-0.006576,0.218415,0.014886,0.176144,0.176145,0.170314,0.877464,0.000000,0.000000,0.000000,0.000000,0.000000,0.000000,0.000000,0.000000,0.000000,0.000000,0.000000,0.000000,0.212099,3,0
570000,0.006552,14.555748,-0.041768,0.036417,25.153019,-0.055536,0.001124,0.004234,1.571162,-0.011778,-0.000351,-0.000157,0.000024,-0.000772,-0.000005,0.004581,-0.006751,0.159335,0.053675,0.176419,0.176419,0.170215,0.870576,0.000000,0.000000,0.000000,0.000000,0.000000,0.000000,0.000000,0.000000,0.000000,0.000000,0.000000,0.000000,0.154788,3,0
580000,0.006719,14.811450,-0.042256,0.036798,25.159515,-0.056366,0.001141,0.004444,1.571165,-0.012322,-0.000377,-0.000167,0.000027,-0.000819,-0.000006,0.003255,-0.006923,0.141669,0.002644,0.176741,0.176742,0.170158,0.863565,0.000000,0.000000,0.000000,0.000000,0.000000,0.000000,0.000000,0.000000,0.000000,0.000000,0.000000,0.000000,0.137660,3,0
590000,0.006885,15.069063,-0.043164,0.037153,25.168982,-0.057735,0.001162,0.004750,1.571183,-0.013124,-0.000405,-0.000120,0.000029,-0.000890,-0.000006,0.006760,-0.007094,0.203966,-0.011855,0.177106,0.177106,0.170139,0.856438,0.000000,0.000000,0.000000,0.000000,0.000000,0.000000,0.000000,0.000000,0.000000,0.000000,0.000000,0.000000,0.198065,3,0
600000,0.007048,15.324456,-0.042292,0.037487,25.174963,-0.056502,0.001179,0.004937,1.571199,-0.013628,-0.000435,-0.000331,0.000032,-0.000936,-0.000006,0.002969,-0.007263,0.125165,0.051359,0.177509,0.177509,0.170153,0.849203,0.000000,0.000000,0.000000,0.000000,0.000000,0.000000,0.000000,0.000000,0.000000,0.000000,0.000000,0.000000,0.121666,3,0
610000,0.007210,15.581776,-0.041172,0.037935,25.184092,-0.055197,0.001185,0.005230,1.571217,-0.014401,-0.000465,-0.000582,0.000035,-0.001007,-0.000007,0.006289,-0.007431,0.187775,0.059759,0.177946,0.177946,0.170196,0.841868,0.000000,0.000000,0.000000,0.000000,0.000000,0.000000,0.000000,0.000000,0.000000,0.000000,0.000000,0.000000,0.182348,3,0
620000,0.007371,15.838049,-0.042623,0.038325,25.191452,-0.057568,0.001191,0.005481,1.571227,-0.015029,-0.000497,-0.000448,0.000038,-0.001066,-0.000007,0.003760,-0.007597,0.149032,-0.031330,0.178413,0.178413,0.170265,0.834441,0.000000,0.000000,0.000000,0.000000,0.000000,0.000000,0.000000,0.000000,0.000000,0.000000,0.000000,0.000000,0.144788,3,0
630000,0.007532,16.098026,-0.044145,0.038751,25.204912,-0.060063,0.001194,0.005931,1.571245,-0.016190,-0.000530,-0.000303,0.000041,-0.001177,-0.000008,0.012008,-0.007763,0.270386,-0.033031,0.178907,0.178907,0.170356,0.826930,0.000000,0.000000,0.000000,0.000000,0.000000,0.000000,0.000000,0.000000,0.000000,0.000000,0.000000,0.000000,0.262431,3,0
640000,0.007690,16.356329,-0.044079,0.039200,25.215460,-0.060056,0.001201,0.006295,1.571256,-0.017107,-0.000565,-0.000410,0.000044,-0.001266,-0.000009,0.007168,-0.007928,0.209061,0.023743,0.179423,0.179424,0.170466,0.819343,0.000000,0.000000,0.000000,0.000000,0.000000,0.000000,0.000000,0.000000,0.000000,0.000000,0.000000,0.000000,0.202954,3,0
650000,0.007847,16.612371,-0.044881,0.039561,25.222178,-0.061150,0.001205,0.006531,1.571263,-0.017686,-0.000601,-0.000379,0.000048,-0.001324,-0.000009,0.002732,-0.008090,0.129560,-0.006863,0.179960,0.179960,0.170592,0.811689,0.000000,0.000000,0.000000,0.000000,0.000000,0.000000,0.000000,0.000000,0.000000,0.000000,0.000000,0.000000,0.125920,3,0
660000,0.008003,16.872749,-0.045885,0.039961,25.236067,-0.062813,0.001207,0.007009,1.571281,-0.018921,-0.000638,-0.000317,0.000052,-0.001448,-0.000010,0.011915,-0.008251,0.271030,-0.013494,0.180513,0.180513,0.170730,0.803975,0.000000,0.000000,0.000000,0.000000,0.000000,0.000000,0.000000,0.000000,0.000000,0.000000,0.000000,0.000000,0.262998,3,0
670000,0.008156,17.131430,-0.045862,0.040223,25.246964,-0.062618,0.001222,0.007395,1.571295,-0.019891,-0.000677,-0.000427,0.000056,-0.001548,-0.000011,0.007179,-0.008410,0.209303,0.023068,0.181080,0.181080,0.170878,0.796210,0.000000,0.000000,0.000000,0.000000,0.000000,0.000000,0.000000,0.000000,0.000000,0.000000,0.000000,0.000000,0.203150,3,0
680000,0.008306,17.389023,-0.047042,0.040495,25.255951,-0.064475,0.001235,0.007718,1.571308,-0.020690,-0.000718,-0.000335,0.000060,-0.001632,-0.000011,0.004697,-0.008565,0.169182,-0.019142,0.181657,0.181658,0.171034,0.788401,0.000000,0.000000,0.000000,0.000000,0.000000,0.000000,0.000000,0.000000,0.000000,0.000000,0.000000,0.000000,0.164271,3,0
690000,0.008454,17.645538,-0.047501,0.040829,25.262938,-0.065151,0.001238,0.007982,1.571318,-0.021315,-0.000759,-0.000369,0.000064,-0.001699,-0.000012,0.002758,-0.008719,0.130167,0.006819,0.182244,0.182244,0.171194,0.780557,0.000000,0.000000,0.000000,0.000000,0.000000,0.000000,0.000000,0.000000,0.000000,0.000000,0.000000,0.000000,0.126496,3,0
700000,0.008600,17.907040,-0.048630,0.041139,25.278416,-0.066636,0.001251,0.008553,1.571330,-0.022735,-0.000802,-0.000286,0.000069,-0.001853,-0.000013,0.013744,-0.008870,0.291039,-0.016578,0.182836,0.182837,0.171358,0.772685,0.000000,0.000000,0.000000,0.000000,0.000000,0.000000,0.000000,0.000000,0.000000,0.000000,0.000000,0.000000,0.282300,3,0
710000,0.008742,18.166195,-0.047852,0.041358,25.289654,-0.065461,0.001259,0.008975,1.571353,-0.023767,-0.000847,-0.000549,0.000074,-0.001967,-0.000013,0.007441,-0.009018,0.208292,0.050816,0.183433,0.183433,0.171523,0.764793,0.000000,0.000000,0.000000,0.000000,0.000000,0.000000,0.000000,0.000000,0.000000,0.000000,0.000000,0.000000,0.202113,3,0
720000,0.008882,18.427288,-0.047348,0.041656,25.304222,-0.064566,0.001260,0.009530,1.571379,-0.025111,-0.000893,-0.000763,0.000079,-0.002118,-0.000015,0.011806,-0.009163,0.267086,0.040669,0.184031,0.184031,0.171686,0.756889,0.000000,0.000000,0.000000,0.000000,0.000000,0.000000,0.000000,0.000000,0.000000,0.000000,0.000000,0.000000,0.259046,3,0
730000,0.009020,18.686022,-0.048161,0.041979,25.314550,-0.065879,0.001267,0.009924,1.571387,-0.026055,-0.000941,-0.000734,0.000085,-0.002226,-0.000015,0.005533,-0.009307,0.184755,-0.005539,0.184629,0.184630,0.171847,0.748979,0.000000,0.000000,0.000000,0.000000,0.000000,0.000000,0.000000,0.000000,0.000000,0.000000,0.000000,0.000000,0.179297,3,0
740000,0.009155,18.943638,-0.046904,0.042180,25.322773,-0.063771,0.001274,0.010248,1.571399,-0.026803,-0.000989,-0.001098,0.000091,-0.002313,-0.000016,0.004118,-0.009447,0.144587,0.067011,0.185226,0.185226,0.172004,0.741071,0.000000,0.000000,0.000000,0.000000,0.000000,0.000000,0.000000,0.000000,0.000000,0.000000,0.000000,0.000000,0.140420,3,0
750000,0.009287,19.204449,-0.048118,0.042402,25.336489,-0.065647,0.001282,0.010787,1.571427,-0.028087,-0.001040,-0.000990,0.000097,-0.002465,-0.000017,0.009750,-0.009584,0.244711,-0.019820,0.185819,0.185820,0.172155,0.733172,0.000000,0.000000,0.000000,0.000000,0.000000,0.000000,0.000000,0.000000,0.000000,0.000000,0.000000,0.000000,0.237315,3,0
760000,0.009416,19.464109,-0.047837,0.042621,25.348154,-0.065247,0.001279,0.011254,1.571441,-0.029164,-0.001091,-0.001175,0.000103,-0.002595,-0.000018,0.006808,-0.009719,0.202427,0.032896,0.186407,0.186408,0.172300,0.725289,0.000000,0.000000,0.000000,0.000000,0.000000,0.000000,0.000000,0.000000,0.000000,0.000000,0.000000,0.000000,0.196364,3,0
770000,0.009544,19.722626,-0.049375,0.042867,25.357565,-0.067715,0.001275,0.011630,1.571453,-0.030032,-0.001144,-0.001003,0.000109,-0.002701,-0.000018,0.004368,-0.009850,0.161318,-0.030486,0.186990,0.186990,0.172436,0.717427,0.000000,0.000000,0.000000,0.000000,0.000000,0.000000,0.000000,0.000000,0.000000,0.000000,0.000000,0.000000,0.156581,3,0
780000,0.009667,19.984354,-0.049050,0.043005,25.372602,-0.067050,0.001268,0.012248,1.571465,-0.031452,-0.001198,-0.001206,0.000116,-0.002878,-0.000020,0.011173,-0.009980,0.260527,0.035027,0.187565,0.187566,0.172564,0.709594,0.000000,0.000000,0.000000,0.000000,0.000000,0.000000,0.000000,0.000000,0.000000,0.000000,0.000000,0.000000,0.252567,3,0
790000,0.009788,20.246149,-0.050458,0.043222,25.387459,-0.068995,0.001269,0.012855,1.571477,-0.032869,-0.001254,-0.001059,0.000123,-0.003057,-0.000021,0.010791,-0.010105,0.257074,-0.025462,0.188132,0.188132,0.172681,0.701795,0.000000,0.000000,0.000000,0.000000,0.000000,0.000000,0.000000,0.000000,0.000000,0.000000,0.000000,0.000000,0.249206,3,0
800000,0.009906,20.506132,-0.049489,0.043441,25.399010,-0.067528,0.001273,0.013340,1.571486,-0.033950,-0.001311,-0.001403,0.000131,-0.003196,-0.000022,0.006630,-0.010229,0.193920,0.057888,0.188689,0.188690,0.172787,0.694037,0.000000,0.000000,0.000000,0.000000,0.000000,0.000000,0.000000,0.000000,0.000000,0.000000,0.000000,0.000000,0.188081,3,0
810000,0.010021,20.766823,-0.048754,0.043686,25.411615,-0.066439,0.001280,0.013871,1.571506,-0.035144,-0.001369,-0.001700,0.000139,-0.003353,-0.000023,0.007672,-0.010348,0.212124,0.049207,0.189237,0.189238,0.172882,0.686324,0.000000,0.000000,0.000000,0.000000,0.000000,0.000000,0.000000,0.000000,0.000000,0.000000,0.000000,0.000000,0.205677,3,0
820000,0.010135,21.028212,-0.049736,0.043830,25.425306,-0.067793,0.001283,0.014448,1.571532,-0.036451,-0.001428,-0.001636,0.000146,-0.003526,-0.000024,0.008546,-0.010465,0.229612,-0.010841,0.189773,0.189774,0.172965,0.678661,0.000000,0.000000,0.000000,0.000000,0.000000,0.000000,0.000000,0.000000,0.000000,0.000000,0.000000,0.000000,0.222580,3,0
830000,0.010245,21.289661,-0.050420,0.043958,25.439009,-0.068827,0.001280,0.015031,1.571556,-0.037753,-0.001489,-0.001638,0.000155,-0.003702,-0.000025,0.008298,-0.010580,0.226511,0.000059,0.190298,0.190299,0.173036,0.671055,0.000000,0.000000,0.000000,0.000000,0.000000,0.000000,0.000000,0.000000,0.000000,0.000000,0.000000,0.000000,0.219565,3,0
840000,0.010352,21.549900,-0.051881,0.044096,25.450352,-0.070952,0.001280,0.015525,1.571574,-0.038819,-0.001550,-0.001474,0.000163,-0.003848,-0.000026,0.005572,-0.010691,0.183594,-0.026529,0.190812,0.190813,0.173093,0.663509,0.000000,0.000000,0.000000,0.000000,0.000000,0.000000,0.000000,0.000000,0.000000,0.000000,0.000000,0.000000,0.178057,3,0
850000,0.010456,21.812111,-0.051613,0.044268,25.465128,-0.070370,0.001277,0.016178,1.571591,-0.040231,-0.001613,-0.001692,0.000172,-0.004045,-0.000028,0.009602,-0.010801,0.241302,0.034062,0.191312,0.191314,0.173136,0.656029,0.000000,0.000000,0.000000,0.000000,0.000000,0.000000,0.000000,0.000000,0.000000,0.000000,0.000000,0.000000,0.233842,3,0
860000,0.010556,22.069914,-0.051242,0.044336,25.471945,-0.069889,0.001278,0.016468,1.571600,-0.040810,-0.001678,-0.001933,0.000181,-0.004128,-0.000028,0.001804,-0.010905,0.098217,0.037568,0.191800,0.191802,0.173166,0.648617,0.000000,0.000000,0.000000,0.000000,0.000000,0.000000,0.000000,0.000000,0.000000,0.000000,0.000000,0.000000,0.095662,3,0
870000,0.010652,22.332909,-0.049914,0.044418,25.487688,-0.067693,0.001276,0.017193,1.571611,-0.042344,-0.001743,-0.002392,0.000191,-0.004349,-0.000030,0.011543,-0.011006,0.257803,0.070382,0.192275,0.192277,0.173182,0.641279,0.000000,0.000000,0.000000,0.000000,0.000000,0.000000,0.000000,0.000000,0.000000,0.000000,0.000000,0.000000,0.249768,3,0
880000,0.010748,22.594652,-0.050670,0.044592,25.501032,-0.068950,0.001277,0.017803,1.571622,-0.043624,-0.001809,-0.002378,0.000201,-0.004536,-0.000031,0.007361,-0.011104,0.213318,-0.002467,0.192737,0.192739,0.173184,0.634018,0.000000,0.000000,0.000000,0.000000,0.000000,0.000000,0.000000,0.000000,0.000000,0.000000,0.000000,0.000000,0.206744,3,0
890000,0.010840,22.853233,-0.051778,0.044621,25.508661,-0.070517,0.001273,0.018155,1.571632,-0.044292,-0.001877,-0.002285,0.000211,-0.004635,-0.000032,0.002021,-0.011200,0.110472,-0.014217,0.193186,0.193187,0.173172,0.626836,0.000000,0.000000,0.000000,0.000000,0.000000,0.000000,0.000000,0.000000,0.000000,0.000000,0.000000,0.000000,0.107463,3,0
900000,0.010928,23.115742,-0.052051,0.044645,25.523224,-0.070818,0.001268,0.018837,1.571646,-0.045689,-0.001945,-0.002390,0.000221,-0.004846,-0.000033,0.008554,-0.011293,0.229513,0.015220,0.193621,0.193622,0.173145,0.619739,0.000000,0.000000,0.000000,0.000000,0.000000,0.000000,0.000000,0.000000,0.000000,0.000000,0.000000,0.000000,0.222376,3,0
910000,0.011012,23.375061,-0.051539,0.044656,25.531937,-0.070144,0.001265,0.019237,1.571653,-0.046460,-0.002015,-0.002679,0.000232,-0.004964,-0.000034,0.002870,-0.011381,0.125891,0.042591,0.194042,0.194044,0.173104,0.612727,0.000000,0.000000,0.000000,0.000000,0.000000,0.000000,0.000000,0.000000,0.000000,0.000000,0.000000,0.000000,0.122315,3,0
920000,0.011094,23.637665,-0.051894,0.044765,25.546288,-0.070661,0.001262,0.019928,1.571681,-0.047844,-0.002086,-0.002767,0.000243,-0.005180,-0.000036,0.008159,-0.011466,0.224304,0.012292,0.194451,0.194452,0.173049,0.605805,0.000000,0.000000,0.000000,0.000000,0.000000,0.000000,0.000000,0.000000,0.000000,0.000000,0.000000,0.000000,0.217319,3,0
930000,0.011174,23.900936,-0.051299,0.044889,25.561790,-0.069817,0.001248,0.020668,1.571711,-0.049332,-0.002157,-0.003084,0.000255,-0.005415,-0.000037,0.009632,-0.011550,0.239859,0.045405,0.194846,0.194847,0.172980,0.598974,0.000000,0.000000,0.000000,0.000000,0.000000,0.000000,0.000000,0.000000,0.000000,0.000000,0.000000,0.000000,0.232338,3,0
940000,0.011252,24.160980,-0.051593,0.045054,25.571356,-0.070002,0.001242,0.021114,1.571723,-0.050177,-0.002229,-0.003185,0.000267,-0.005551,-0.000038,0.003013,-0.011631,0.135462,0.014236,0.195228,0.195229,0.172897,0.592237,0.000000,0.000000,0.000000,0.000000,0.000000,0.000000,0.000000,0.000000,0.000000,0.000000,0.000000,0.000000,0.131536,3,0
950000,0.011327,24.419777,-0.050336,0.045216,25.578516,-0.068024,0.001218,0.021449,1.571742,-0.050766,-0.002303,-0.003667,0.000279,-0.005647,-0.000039,0.002199,-0.011711,0.093992,0.068178,0.195597,0.195598,0.172801,0.585596,0.000000,0.000000,0.000000,0.000000,0.000000,0.000000,0.000000,0.000000,0.000000,0.000000,0.000000,0.000000,0.091630,3,0
960000,0.011402,24.683182,-0.050565,0.045307,25.593719,-0.068254,0.001207,0.022205,1.571752,-0.052234,-0.002377,-0.003784,0.000292,-0.005890,-0.000040,0.008794,-0.011787,0.232700,0.015918,0.195953,0.195954,0.172690,0.579053,0.000000,0.000000,0.000000,0.000000,0.000000,0.000000,0.000000,0.000000,0.000000,0.000000,0.000000,0.000000,0.225388,3,0
970000,0.011475,24.941380,-0.051943,0.045323,25.599636,-0.070073,0.001195,0.022474,1.571756,-0.052670,-0.002452,-0.003613,0.000304,-0.005963,-0.000041,0.000873,-0.011862,0.068537,-0.023946,0.196297,0.196299,0.172567,0.572608,0.000000,0.000000,0.000000,0.000000,0.000000,0.000000,0.000000,0.000000,0.000000,0.000000,0.000000,0.000000,0.067281,3,0
980000,0.011545,25.200951,-0.052261,0.045464,25.607824,-0.070383,0.001178,0.022869,1.571771,-0.053361,-0.002528,-0.003714,0.000317,-0.006081,-0.000042,0.001949,-0.011936,0.108467,0.013592,0.196629,0.196631,0.172431,0.566264,0.000000,0.000000,0.000000,0.000000,0.000000,0.000000,0.000000,0.000000,0.000000,0.000000,0.000000,0.000000,0.105545,3,0
990000,0.011612,25.459265,-0.052789,0.045468,25.613840,-0.071184,0.001164,0.023148,1.571787,-0.053792,-0.002605,-0.003762,0.000330,-0.006156,-0.000042,0.000764,-0.012006,0.067476,0.006471,0.196950,0.196951,0.172282,0.560022,0.000000,0.000000,0.000000,0.000000,0.000000,0.000000,0.000000,0.000000,0.000000,0.000000,0.000000,0.000000,0.066287,3,0
1000000,0.011676,25.722872,-0.053224,0.045448,25.629015,-0.071663,0.001149,0.023925,1.571800,-0.055248,-0.002682,-0.003840,0.000344,-0.006412,-0.000044,0.008313,-0.012073,0.226561,0.009862,0.197258,0.197260,0.172120,0.553882,0.000000,0.000000,0.000000,0.000000,0.000000,0.000000,0.000000,0.000000,0.000000,0.000000,0.000000,0.000000,0.219423,3,0
1010000,0.011736,25.985159,-0.052398,0.045430,25.641594,-0.070589,0.001125,0.024583,1.571827,-0.056417,-0.002760,-0.004247,0.000358,-0.006621,-0.000045,0.005807,-0.012138,0.181469,0.054187,0.197556,0.197558,0.171947,0.547846,0.000000,0.000000,0.000000,0.000000,0.000000,0.000000,0.000000,0.000000,0.000000,0.000000,0.000000,0.000000,0.175885,3,0
1020000,0.011795,26.244171,-0.053623,0.045365,25.648315,-0.072458,0.001105,0.024907,1.571843,-0.056923,-0.002839,-0.004116,0.000373,-0.006713,-0.000046,0.001058,-0.012197,0.078089,-0.017763,0.197844,0.197845,0.171762,0.541914,0.000000,0.000000,0.000000,0.000000,0.000000,0.000000,0.000000,0.000000,0.000000,0.000000,0.000000,0.000000,0.076430,3,0
1030000,0.011852,26.503891,-0.053676,0.045456,25.656162,-0.072447,0.001079,0.025294,1.571858,-0.057555,-0.002918,-0.004298,0.000387,-0.006829,-0.000047,0.001642,-0.012257,0.097313,0.023778,0.198121,0.198122,0.171565,0.536087,0.000000,0.000000,0.000000,0.000000,0.000000,0.000000,0.000000,0.000000,0.000000,0.000000,0.000000,0.000000,0.094842,3,0
1040000,0.011907,26.762991,-0.054169,0.045526,25.662844,-0.073203,0.001049,0.025620,1.571865,-0.058050,-0.002998,-0.004364,0.000403,-0.006922,-0.000047,0.000968,-0.012314,0.076061,0.008481,0.198388,0.198389,0.171358,0.530365,0.000000,0.000000,0.000000,0.000000,0.000000,0.000000,0.000000,0.000000,0.000000,0.000000,0.000000,0.000000,0.074503,3,0
1050000,0.011956,27.022795,-0.052873,0.045450,25.670723,-0.071203,0.001021,0.026017,1.571879,-0.058670,-0.003079,-0.004914,0.000418,-0.007039,-0.000048,0.002309,-0.012368,0.095198,0.071331,0.198646,0.198647,0.171140,0.524747,0.000000,0.000000,0.000000,0.000000,0.000000,0.000000,0.000000,0.000000,0.000000,0.000000,0.000000,0.000000,0.092820,3,0
1060000,0.012003,27.281975,-0.051657,0.045371,25.677366,-0.069312,0.000995,0.026346,1.571895,-0.059151,-0.003160,-0.005442,0.000435,-0.007132,-0.000049,0.001652,-0.012417,0.073864,0.067947,0.198894,0.198896,0.170911,0.519236,0.000000,0.000000,0.000000,0.000000,0.000000,0.000000,0.000000,0.000000,0.000000,0.000000,0.000000,0.000000,0.072417,3,0
1070000,0.012051,27.543837,-0.051865,0.045435,25.688728,-0.069768,0.000967,0.026943,1.571908,-0.060152,-0.003241,-0.005583,0.000451,-0.007327,-0.000050,0.003825,-0.012465,0.152559,0.017446,0.199135,0.199136,0.170673,0.513830,0.000000,0.000000,0.000000,0.000000,0.000000,0.000000,0.000000,0.000000,0.000000,0.000000,0.000000,0.000000,0.147987,3,0
1080000,0.012094,27.805040,-0.050689,0.045358,25.698872,-0.068372,0.000940,0.027480,1.571917,-0.060999,-0.003323,-0.006108,0.000468,-0.007495,-0.000051,0.003425,-0.012512,0.129126,0.066351,0.199367,0.199369,0.170426,0.508529,0.000000,0.000000,0.000000,0.000000,0.000000,0.000000,0.000000,0.000000,0.000000,0.000000,0.000000,0.000000,0.125420,3,0
1090000,0.012137,28.064272,-0.051817,0.045318,25.705336,-0.070001,0.000916,0.027804,1.571926,-0.061439,-0.003406,-0.005989,0.000484,-0.007584,-0.000052,0.000778,-0.012554,0.066612,-0.015294,0.199592,0.199593,0.170170,0.503332,0.000000,0.000000,0.000000,0.000000,0.000000,0.000000,0.000000,0.000000,0.000000,0.000000,0.000000,0.000000,0.065530,3,0
1100000,0.012177,28.326851,-0.051173,0.045342,25.717554,-0.069204,0.000890,0.028469,1.571949,-0.062527,-0.003488,-0.006376,0.000502,-0.007806,-0.000053,0.004789,-0.012598,0.165134,0.047817,0.199810,0.199811,0.169905,0.498240,0.000000,0.000000,0.000000,0.000000,0.000000,0.000000,0.000000,0.000000,0.000000,0.000000,0.000000,0.000000,0.160099,3,0
1110000,0.012213,28.586765,-0.050127,0.045300,25.725073,-0.067757,0.000862,0.028841,1.571952,-0.063063,-0.003572,-0.006875,0.000520,-0.007917,-0.000054,0.001711,-0.012637,0.081341,0.061819,0.200021,0.200022,0.169632,0.493253,0.000000,0.000000,0.000000,0.000000,0.000000,0.000000,0.000000,0.000000,0.000000,0.000000,0.000000,0.000000,0.079573,3,0
1120000,0.012250,28.848032,-0.050658,0.045224,25.734814,-0.068354,0.000839,0.029361,1.571963,-0.063854,-0.003655,-0.006924,0.000537,-0.008083,-0.000055,0.002333,-0.012673,0.119539,0.005475,0.200226,0.200227,0.169351,0.488368,0.000000,0.000000,0.000000,0.000000,0.000000,0.000000,0.000000,0.000000,0.000000,0.000000,0.000000,0.000000,0.116199,3,0
1130000,0.012282,29.111294,-0.049582,0.045129,25.747856,-0.066876,0.000817,0.030097,1.571978,-0.065019,-0.003739,-0.007443,0.000556,-0.008332,-0.000057,0.005669,-0.012709,0.176235,0.062811,0.200425,0.200426,0.169063,0.483586,0.000000,0.000000,0.000000,0.000000,0.000000,0.000000,0.000000,0.000000,0.000000,0.000000,0.000000,0.000000,0.170791,3,0
1140000,0.012316,29.374527,-0.050628,0.045171,25.760708,-0.068540,0.000792,0.030828,1.572003,-0.066156,-0.003823,-0.007343,0.000574,-0.008577,-0.000059,0.004779,-0.012741,0.171268,-0.012980,0.200619,0.200619,0.168768,0.478906,0.000000,0.000000,0.000000,0.000000,0.000000,0.000000,0.000000,0.000000,0.000000,0.000000,0.000000,0.000000,0.166000,3,0
1150000,0.012348,29.637732,-0.051903,0.045123,25.773390,-0.070333,0.000766,0.031559,1.572029,-0.067261,-0.003907,-0.007181,0.000592,-0.008820,-0.000060,0.004552,-0.012774,0.166332,-0.020566,0.200808,0.200808,0.168467,0.474327,0.000000,0.000000,0.000000,0.000000,0.000000,0.000000,0.000000,0.000000,0.000000,0.000000,0.000000,0.000000,0.161238,3,0
1160000,0.012376,29.898239,-0.051646,0.045129,25.781279,-0.069943,0.000728,0.031958,1.572031,-0.067803,-0.003992,-0.007472,0.000611,-0.008941,-0.000061,0.001301,-0.012806,0.081909,0.034599,0.200992,0.200992,0.168159,0.469849,0.000000,0.000000,0.000000,0.000000,0.000000,0.000000,0.000000,0.000000,0.000000,0.000000,0.000000,0.000000,0.080128,3,0
1170000,0.012404,30.156759,-0.052520,0.045000,25.785629,-0.071009,0.000706,0.032126,1.572045,-0.067937,-0.004077,-0.007423,0.000631,-0.008971,-0.000061,0.000097,-0.012834,0.020111,-0.005955,0.201172,0.201172,0.167846,0.465469,0.000000,0.000000,0.000000,0.000000,0.000000,0.000000,0.000000,0.000000,0.000000,0.000000,0.000000,0.000000,0.023057,3,0
1180000,0.012427,30.418652,-0.051851,0.044913,25.795704,-0.070041,0.000663,0.032688,1.572066,-0.068727,-0.004162,-0.007847,0.000651,-0.009152,-0.000063,0.002723,-0.012860,0.119371,0.049756,0.201349,0.201349,0.167527,0.461188,0.000000,0.000000,0.000000,0.000000,0.000000,0.000000,0.000000,0.000000,0.000000,0.000000,0.000000,0.000000,0.116033,3,0
1190000,0.012451,30.681866,-0.052494,0.044917,25.808142,-0.070811,0.000624,0.033402,1.572072,-0.069759,-0.004247,-0.007876,0.000671,-0.009392,-0.000064,0.003925,-0.012883,0.155560,0.002431,0.201522,0.201522,0.167203,0.457004,0.000000,0.000000,0.000000,0.000000,0.000000,0.000000,0.000000,0.000000,0.000000,0.000000,0.000000,0.000000,0.150850,3,0
1200000,0.012473,30.943708,-0.053731,0.044798,25.817966,-0.072602,0.000600,0.033942,1.572091,-0.070496,-0.004333,-0.007723,0.000690,-0.009566,-0.000065,0.002063,-0.012906,0.110889,-0.018552,0.201693,0.201693,0.166875,0.452916,0.000000,0.000000,0.000000,0.000000,0.000000,0.000000,0.000000,0.000000,0.000000,0.000000,0.000000,0.000000,0.107884,3,0
1210000,0.012494,31.205534,-0.054826,0.044727,25.827578,-0.074223,0.000559,0.034483,1.572100,-0.071209,-0.004418,-0.007619,0.000711,-0.009737,-0.000067,0.001910,-0.012928,0.107372,-0.012803,0.201861,0.201861,0.166542,0.448922,0.000000,0.000000,0.000000,0.000000,0.000000,0.000000,0.000000,0.000000,0.000000,0.000000,0.000000,0.000000,0.104509,3,0
1220000,0.012511,31.463995,-0.055374,0.044551,25.831270,-0.074902,0.000531,0.034603,1.572110,-0.071238,-0.004504,-0.007682,0.000732,-0.009744,-0.000067,0.000039,-0.012947,0.004482,0.007351,0.202027,0.202026,0.166206,0.445023,0.000000,0.000000,0.000000,0.000000,0.000000,0.000000,0.000000,0.000000,0.000000,0.000000,0.000000,0.000000,0.013239,3,0
1230000,0.012525,31.727179,-0.056066,0.044341,25.843174,-0.075663,0.000498,0.035289,1.572122,-0.072189,-0.004589,-0.007712,0.000753,-0.009978,-0.000068,0.003347,-0.012962,0.143562,0.002472,0.202191,0.202190,0.165866,0.441215,0.000000,0.000000,0.000000,0.000000,0.000000,0.000000,0.000000,0.000000,0.000000,0.000000,0.000000,0.000000,0.139290,3,0
1240000,0.012533,31.988979,-0.054760,0.044172,25.852621,-0.073852,0.000466,0.035804,1.572129,-0.072838,-0.004674,-0.008375,0.000775,-0.010140,-0.000069,0.002519,-0.012974,0.098927,0.075184,0.202354,0.202352,0.165522,0.437499,0.000000,0.000000,0.000000,0.000000,0.000000,0.000000,0.000000,0.000000,0.000000,0.000000,0.000000,0.000000,0.096411,3,0
1250000,0.012543,32.248081,-0.055169,0.044096,25.857191,-0.074393,0.000419,0.035983,1.572127,-0.072942,-0.004760,-0.008484,0.000797,-0.010166,-0.000069,0.000093,-0.012982,0.015938,0.012326,0.202516,0.202514,0.165176,0.433873,0.000000,0.000000,0.000000,0.000000,0.000000,0.000000,0.000000,0.000000,0.000000,0.000000,0.000000,0.000000,0.019862,3,0
1260000,0.012550,32.507202,-0.055260,0.043924,25.861681,-0.074595,0.000377,0.036150,1.572133,-0.073041,-0.004845,-0.008698,0.000819,-0.010192,-0.000070,0.000159,-0.012990,0.015217,0.024130,0.202676,0.202674,0.164827,0.430335,0.000000,0.000000,0.000000,0.000000,0.000000,0.000000,0.000000,0.000000,0.000000,0.000000,0.000000,0.000000,0.019330,3,0
1270000,0.012555,32.769703,-0.055097,0.043825,25.871939,-0.074502,0.000332,0.036748,1.572148,-0.073788,-0.004930,-0.009005,0.000842,-0.010386,-0.000071,0.002299,-0.012996,0.113873,0.033701,0.202836,0.202834,0.164476,0.426883,0.000000,0.000000,0.000000,0.000000,0.000000,0.000000,0.000000,0.000000,0.000000,0.000000,0.000000,0.000000,0.110738,3,0
1280000,0.012560,33.028805,-0.055786,0.043695,25.876165,-0.075399,0.000300,0.036903,1.572159,-0.073856,-0.005015,-0.009027,0.000865,-0.010404,-0.000071,0.000045,-0.013000,0.010303,0.002402,0.202996,0.202993,0.164123,0.423517,0.000000,0.000000,0.000000,0.000000,0.000000,0.000000,0.000000,0.000000,0.000000,0.000000,0.000000,0.000000,0.016028,3,0
1290000,0.012562,33.288597,-0.055614,0.043614,25.881510,-0.075294,0.000263,0.037131,1.572177,-0.074046,-0.005100,-0.009338,0.000888,-0.010455,-0.000071,0.000358,-0.013004,0.029461,0.034350,0.203155,0.203152,0.163769,0.420236,0.000000,0.000000,0.000000,0.000000,0.000000,0.000000,0.000000,0.000000,0.000000,0.000000,0.000000,0.000000,0.031114,3,0
1300000,0.012561,33.548393,-0.054720,0.043480,25.886787,-0.074028,0.000217,0.037365,1.572183,-0.074225,-0.005184,-0.009890,0.000912,-0.010504,-0.000072,0.000753,-0.013005,0.028042,0.060802,0.203315,0.203311,0.163413,0.417037,0.000000,0.000000,0.000000,0.000000,0.000000,0.000000,0.000000,0.000000,0.000000,0.000000,0.000000,0.000000,0.029866,3,0
1310000,0.012559,33.810219,-0.053890,0.043395,25.895685,-0.073005,0.000180,0.037861,1.572193,-0.074783,-0.005268,-0.010426,0.000936,-0.010658,-0.000073,0.001775,-0.013003,0.086254,0.058257,0.203475,0.203471,0.163055,0.413920,0.000000,0.000000,0.000000,0.000000,0.000000,0.000000,0.000000,0.000000,0.000000,0.000000,0.000000,0.000000,0.084273,3,0
1320000,0.012557,34.071346,-0.054287,0.043184,25.903286,-0.073452,0.000142,0.038259,1.572210,-0.075191,-0.005352,-0.010547,0.000960,-0.010772,-0.000074,0.000690,-0.012999,0.062885,0.012684,0.203636,0.203631,0.162698,0.410882,0.000000,0.000000,0.000000,0.000000,0.000000,0.000000,0.000000,0.000000,0.000000,0.000000,0.000000,0.000000,0.062037,3,0
1330000,0.012549,34.332455,-0.053142,0.042925,25.910721,-0.071989,0.000086,0.038651,1.572216,-0.075576,-0.005435,-0.011195,0.000985,-0.010881,-0.000074,0.001402,-0.012994,0.060108,0.069930,0.203798,0.203793,0.162339,0.407923,0.000000,0.000000,0.000000,0.000000,0.000000,0.000000,0.000000,0.000000,0.000000,0.000000,0.000000,0.000000,0.059412,3,0
1340000,0.012543,34.596256,-0.053956,0.042683,25.922861,-0.073253,0.000044,0.039396,1.572224,-0.076460,-0.005519,-0.011181,0.001009,-0.011136,-0.000076,0.003044,-0.012984,0.136864,-0.002810,0.203961,0.203955,0.161980,0.405041,0.000000,0.000000,0.000000,0.000000,0.000000,0.000000,0.000000,0.000000,0.000000,0.000000,0.000000,0.000000,0.132803,3,0
1350000,0.012534,34.859314,-0.054742,0.042533,25.933434,-0.074438,-0.000006,0.040031,1.572239,-0.077178,-0.005602,-0.011178,0.001033,-0.011347,-0.000078,0.002029,-0.012976,0.111492,-0.001317,0.204124,0.204118,0.161622,0.402234,0.000000,0.000000,0.000000,0.000000,0.000000,0.000000,0.000000,0.000000,0.000000,0.000000,0.000000,0.000000,0.108427,3,0
1360000,0.012522,35.119614,-0.054483,0.042301,25.939125,-0.073958,-0.000065,0.040272,1.572248,-0.077350,-0.005685,-0.011532,0.001058,-0.011397,-0.000078,0.000376,-0.012965,0.027233,0.037659,0.204289,0.204283,0.161263,0.399502,0.000000,0.000000,0.000000,0.000000,0.000000,0.000000,0.000000,0.000000,0.000000,0.000000,0.000000,0.000000,0.029138,3,0
1370000,0.012508,35.381260,-0.055031,0.042029,25.947027,-0.074845,-0.000113,0.040695,1.572260,-0.077765,-0.005767,-0.011610,0.001083,-0.011522,-0.000079,0.000718,-0.012950,0.065063,0.007696,0.204456,0.204449,0.160905,0.396842,0.000000,0.000000,0.000000,0.000000,0.000000,0.000000,0.000000,0.000000,0.000000,0.000000,0.000000,0.000000,0.064080,3,0
1380000,0.012489,35.640839,-0.053840,0.041816,25.951223,-0.073409,-0.000166,0.040818,1.572261,-0.077773,-0.005848,-0.012298,0.001109,-0.011524,-0.000079,0.000888,-0.012934,0.002129,0.072843,0.204624,0.204616,0.160547,0.394254,0.000000,0.000000,0.000000,0.000000,0.000000,0.000000,0.000000,0.000000,0.000000,0.000000,0.000000,0.000000,0.012658,3,0
1390000,0.012473,35.903137,-0.054986,0.041567,25.960211,-0.075077,-0.000218,0.041327,1.572278,-0.078284,-0.005930,-0.012165,0.001135,-0.011683,-0.000080,0.001104,-0.012913,0.080448,-0.014807,0.204794,0.204785,0.160191,0.391736,0.000000,0.000000,0.000000,0.000000,0.000000,0.000000,0.000000,0.000000,0.000000,0.000000,0.000000,0.000000,0.078696,3,0
1400000,0.012455,36.165394,-0.055930,0.041399,25.969057,-0.076256,-0.000270,0.041819,1.572281,-0.078767,-0.006011,-0.012109,0.001160,-0.011835,-0.000081,0.000976,-0.012895,0.076485,-0.006673,0.204965,0.204956,0.159835,0.389286,0.000000,0.000000,0.000000,0.000000,0.000000,0.000000,0.000000,0.000000,0.000000,0.000000,0.000000,0.000000,0.074914,3,0
1410000,0.012433,36.427605,-0.055841,0.041216,25.977661,-0.076135,-0.000313,0.042290,1.572297,-0.079221,-0.006091,-0.012428,0.001186,-0.011979,-0.000082,0.001046,-0.012875,0.072563,0.032559,0.205138,0.205128,0.159481,0.386902,0.000000,0.000000,0.000000,0.000000,0.000000,0.000000,0.000000,0.000000,0.000000,0.000000,0.000000,0.000000,0.071178,3,0
1420000,0.012409,36.687050,-0.055889,0.040946,25.981127,-0.076017,-0.000376,0.042366,1.572305,-0.079151,-0.006171,-0.012688,0.001213,-0.011956,-0.000082,0.000165,-0.012850,-0.010822,0.027141,0.205314,0.205303,0.159128,0.384584,0.000000,0.000000,0.000000,0.000000,0.000000,0.000000,0.000000,0.000000,0.000000,0.000000,0.000000,0.000000,0.016222,3,0
1430000,0.012383,36.948540,-0.056425,0.040630,25.988241,-0.076828,-0.000435,0.042720,1.572307,-0.079447,-0.006251,-0.012780,0.001239,-0.012054,-0.000083,0.000407,-0.012823,0.047760,0.009019,0.205491,0.205479,0.158776,0.382330,0.000000,0.000000,0.000000,0.000000,0.000000,0.000000,0.000000,0.000000,0.000000,0.000000,0.000000,0.000000,0.047757,3,0
1440000,0.012358,37.207272,-0.057623,0.040447,25.990351,-0.078148,-0.000488,0.042679,1.572310,-0.079233,-0.006330,-0.012619,0.001265,-0.011982,-0.000082,0.000264,-0.012796,-0.034893,-0.016108,0.205670,0.205658,0.158427,0.380138,0.000000,0.000000,0.000000,0.000000,0.000000,0.000000,0.000000,0.000000,0.000000,0.000000,0.000000,0.000000,0.035893,3,0
1450000,0.012326,37.465321,-0.056566,0.040219,25.991205,-0.076873,-0.000552,0.042529,1.572303,-0.078887,-0.006408,-0.013295,0.001293,-0.011865,-0.000081,0.001308,-0.012768,-0.055096,0.069901,0.205851,0.205838,0.158079,0.378008,0.000000,0.000000,0.000000,0.000000,0.000000,0.000000,0.000000,0.000000,0.000000,0.000000,0.000000,0.000000,0.054609,3,0
1460000,0.012295,37.723389,-0.056468,0.040002,25.991970,-0.076530,-0.000599,0.042377,1.572305,-0.078550,-0.006486,-0.013613,0.001320,-0.011749,-0.000080,0.000685,-0.012734,-0.054726,0.033021,0.206035,0.206021,0.157734,0.375937,0.000000,0.000000,0.000000,0.000000,0.000000,0.000000,0.000000,0.000000,0.000000,0.000000,0.000000,0.000000,0.054253,3,0
1470000,0.012260,37.986256,-0.056049,0.039696,26.001406,-0.076035,-0.000653,0.042924,1.572312,-0.079062,-0.006562,-0.014075,0.001348,-0.011926,-0.000082,0.001523,-0.012700,0.084774,0.045824,0.206220,0.206205,0.157390,0.373924,0.000000,0.000000,0.000000,0.000000,0.000000,0.000000,0.000000,0.000000,0.000000,0.000000,0.000000,0.000000,0.082780,3,0
1480000,0.012224,38.245644,-0.055189,0.039485,26.004507,-0.074805,-0.000718,0.042937,1.572317,-0.078940,-0.006637,-0.014688,0.001376,-0.011883,-0.000081,0.000710,-0.012663,-0.019154,0.062060,0.206408,0.206392,0.157049,0.371968,0.000000,0.000000,0.000000,0.000000,0.000000,0.000000,0.000000,0.000000,0.000000,0.000000,0.000000,0.000000,0.022162,3,0
1490000,0.012187,38.505718,-0.055230,0.039183,26.008688,-0.074849,-0.000778,0.043054,1.572316,-0.078936,-0.006713,-0.014960,0.001403,-0.011881,-0.000081,0.000147,-0.012624,-0.000271,0.027395,0.206598,0.206581,0.156711,0.370068,0.000000,0.000000,0.000000,0.000000,0.000000,0.000000,0.000000,0.000000,0.000000,0.000000,0.000000,0.000000,0.012190,3,0
1500000,0.012147,38.767143,-0.054414,0.038969,26.015343,-0.073721,-0.000840,0.043367,1.572333,-0.079157,-0.006786,-0.015570,0.001432,-0.011961,-0.000082,0.000850,-0.012585,0.037792,0.060498,0.206789,0.206771,0.156375,0.368222,0.000000,0.000000,0.000000,0.000000,0.000000,0.000000,0.000000,0.000000,0.000000,0.000000,0.000000,0.000000,0.038467,3,0
1510000,0.012109,39.027164,-0.054591,0.038749,26.019371,-0.074078,-0.000891,0.043460,1.572332,-0.079125,-0.006860,-0.015789,0.001459,-0.011949,-0.000082,0.000107,-0.012543,-0.005028,0.021868,0.206983,0.206964,0.156042,0.366429,0.000000,0.000000,0.000000,0.000000,0.000000,0.000000,0.000000,0.000000,0.000000,0.000000,0.000000,0.000000,0.013045,3,0
1520000,0.012068,39.287170,-0.054921,0.038377,26.023329,-0.074581,-0.000945,0.043542,1.572332,-0.079084,-0.006934,-0.015950,0.001487,-0.011933,-0.000082,0.000075,-0.012500,-0.006664,0.016146,0.207179,0.207159,0.155712,0.364688,0.000000,0.000000,0.000000,0.000000,0.000000,0.000000,0.000000,0.000000,0.000000,0.000000,0.000000,0.000000,0.013675,3,0
1530000,0.012026,39.545788,-0.055730,0.038093,26.024599,-0.075581,-0.001013,0.043410,1.572336,-0.078803,-0.007007,-0.015919,0.001515,-0.011826,-0.000081,0.000397,-0.012456,-0.048038,-0.002352,0.207376,0.207355,0.155384,0.362996,0.000000,0.000000,0.000000,0.000000,0.000000,0.000000,0.000000,0.000000,0.000000,0.000000,0.000000,0.000000,0.047913,3,0
1540000,0.011982,39.809219,-0.056349,0.037768,26.034670,-0.076208,-0.001063,0.044024,1.572347,-0.079331,-0.007079,-0.015994,0.001543,-0.012030,-0.000083,0.001361,-0.012412,0.090908,0.006089,0.207575,0.207553,0.155060,0.361354,0.000000,0.000000,0.000000,0.000000,0.000000,0.000000,0.000000,0.000000,0.000000,0.000000,0.000000,0.000000,0.088579,3,0
1550000,0.011933,40.067066,-0.055689,0.037510,26.034456,-0.075526,-0.001125,0.043751,1.572348,-0.078904,-0.007149,-0.016546,0.001572,-0.011862,-0.000081,0.001380,-0.012365,-0.073231,0.055089,0.207776,0.207753,0.154739,0.359760,0.000000,0.000000,0.000000,0.000000,0.000000,0.000000,0.000000,0.000000,0.000000,0.000000,0.000000,0.000000,0.071687,3,0
1560000,0.011884,40.326305,-0.055263,0.037274,26.036758,-0.074970,-0.001188,0.043690,1.572352,-0.078711,-0.007218,-0.017014,0.001601,-0.011784,-0.000081,0.000542,-0.012314,-0.032890,0.046037,0.207978,0.207955,0.154421,0.358212,0.000000,0.000000,0.000000,0.000000,0.000000,0.000000,0.000000,0.000000,0.000000,0.000000,0.000000,0.000000,0.033894,3,0
1570000,0.011831,40.586224,-0.054083,0.036953,26.040104,-0.073531,-0.001262,0.043737,1.572349,-0.078625,-0.007286,-0.017789,0.001630,-0.011749,-0.000081,0.000977,-0.012261,-0.013847,0.075363,0.208182,0.208157,0.154107,0.356708,0.000000,0.000000,0.000000,0.000000,0.000000,0.000000,0.000000,0.000000,0.000000,0.000000,0.000000,0.000000,0.017842,3,0
1580000,0.011780,40.844749,-0.054395,0.036615,26.041019,-0.073978,-0.001327,0.043548,1.572344,-0.078314,-0.007355,-0.017950,0.001658,-0.011621,-0.000080,0.000557,-0.012205,-0.055134,0.016528,0.208388,0.208362,0.153796,0.355249,0.000000,0.000000,0.000000,0.000000,0.000000,0.000000,0.000000,0.000000,0.000000,0.000000,0.000000,0.000000,0.054503,3,0
1590000,0.011727,41.108120,-0.055153,0.036218,26.050642,-0.074838,-0.001383,0.044146,1.572355,-0.078782,-0.007422,-0.017965,0.001687,-0.011816,-0.000081,0.001156,-0.012150,0.083912,0.000114,0.208594,0.208567,0.153489,0.353831,0.000000,0.000000,0.000000,0.000000,0.000000,0.000000,0.000000,0.000000,0.000000,0.000000,0.000000,0.000000,0.081838,3,0
1600000,0.011669,41.367252,-0.054259,0.035893,26.052345,-0.073812,-0.001446,0.044033,1.572356,-0.078553,-0.007488,-0.018630,0.001716,-0.011717,-0.000080,0.000960,-0.012094,-0.040401,0.064400,0.208802,0.208774,0.153185,0.352456,0.000000,0.000000,0.000000,0.000000,0.000000,0.000000,0.000000,0.000000,0.000000,0.000000,0.000000,0.000000,0.040695,3,0
1610000,0.011609,41.629841,-0.053876,0.035448,26.060371,-0.073384,-0.001513,0.044486,1.572361,-0.078868,-0.007552,-0.019109,0.001745,-0.011852,-0.000081,0.000894,-0.012031,0.058270,0.044709,0.209011,0.208981,0.152884,0.351120,0.000000,0.000000,0.000000,0.000000,0.000000,0.000000,0.000000,0.000000,0.000000,0.000000,0.000000,0.000000,0.057433,3,0
1620000,0.011547,41.888206,-0.053598,0.035039,26.060585,-0.073174,-0.001586,0.044239,1.572353,-0.078510,-0.007616,-0.019515,0.001774,-0.011695,-0.000080,0.000964,-0.011967,-0.065250,0.039707,0.209221,0.209190,0.152588,0.349824,0.000000,0.000000,0.000000,0.000000,0.000000,0.000000,0.000000,0.000000,0.000000,0.000000,0.000000,0.000000,0.064019,3,0
1630000,0.011482,42.148651,-0.052509,0.034691,26.064594,-0.071719,-0.001644,0.044328,1.572352,-0.078473,-0.007678,-0.020274,0.001804,-0.011677,-0.000080,0.000868,-0.011902,-0.005554,0.071926,0.209431,0.209400,0.152295,0.348567,0.000000,0.000000,0.000000,0.000000,0.000000,0.000000,0.000000,0.000000,0.000000,0.000000,0.000000,0.000000,0.012666,3,0
1640000,0.011419,42.411160,-0.053445,0.034253,26.072313,-0.072695,-0.001706,0.044743,1.572358,-0.078751,-0.007741,-0.020199,0.001832,-0.011803,-0.000081,0.000468,-0.011832,0.052025,-0.007992,0.209643,0.209610,0.152006,0.347345,0.000000,0.000000,0.000000,0.000000,0.000000,0.000000,0.000000,0.000000,0.000000,0.000000,0.000000,0.000000,0.051487,3,0
1650000,0.011354,42.672909,-0.054409,0.033814,26.078619,-0.073976,-0.001772,0.045024,1.572364,-0.078900,-0.007804,-0.020110,0.001860,-0.011871,-0.000082,0.000161,-0.011765,0.027985,-0.008801,0.209855,0.209820,0.151721,0.346161,0.000000,0.000000,0.000000,0.000000,0.000000,0.000000,0.000000,0.000000,0.000000,0.000000,0.000000,0.000000,0.029294,3,0
1660000,0.011286,42.933899,-0.054607,0.033538,26.083347,-0.074031,-0.001840,0.045170,1.572367,-0.078923,-0.007864,-0.020343,0.001889,-0.011881,-0.000082,0.000103,-0.011697,0.004723,0.021774,0.210067,0.210031,0.151439,0.345011,0.000000,0.000000,0.000000,0.000000,0.000000,0.000000,0.000000,0.000000,0.000000,0.000000,0.000000,0.000000,0.012173,3,0
1670000,0.011217,43.196938,-0.054816,0.033239,26.091763,-0.074367,-0.001902,0.045655,1.572377,-0.079240,-0.007923,-0.020590,0.001917,-0.012030,-0.000083,0.000713,-0.011626,0.061745,0.021921,0.210280,0.210243,0.151162,0.343894,0.000000,0.000000,0.000000,0.000000,0.000000,0.000000,0.000000,0.000000,0.000000,0.000000,0.000000,0.000000,0.060632,3,0
1680000,0.011146,43.456413,-0.055147,0.032796,26.093651,-0.074829,-0.001967,0.045531,1.572375,-0.079022,-0.007982,-0.020758,0.001946,-0.011925,-0.000082,0.000354,-0.011552,-0.042347,0.016431,0.210493,0.210454,0.150888,0.342811,0.000000,0.000000,0.000000,0.000000,0.000000,0.000000,0.000000,0.000000,0.000000,0.000000,0.000000,0.000000,0.042352,3,0
1690000,0.011070,43.714462,-0.054530,0.032328,26.092735,-0.073836,-0.002032,0.045154,1.572379,-0.078596,-0.008039,-0.021323,0.001975,-0.011716,-0.000081,0.001605,-0.011477,-0.083176,0.053881,0.210705,0.210666,0.150618,0.341759,0.000000,0.000000,0.000000,0.000000,0.000000,0.000000,0.000000,0.000000,0.000000,0.000000,0.000000,0.000000,0.081002,3,0
1700000,0.010992,43.972507,-0.053480,0.031949,26.091715,-0.072385,-0.002092,0.044767,1.572384,-0.078175,-0.008094,-0.022075,0.002005,-0.011507,-0.000079,0.001940,-0.011397,-0.082787,0.070907,0.210918,0.210877,0.150353,0.340736,0.000000,0.000000,0.000000,0.000000,0.000000,0.000000,0.000000,0.000000,0.000000,0.000000,0.000000,0.000000,0.080614,3,0
1710000,0.010917,44.234066,-0.054277,0.031574,26.097216,-0.073502,-0.002157,0.044988,1.572386,-0.078260,-0.008150,-0.022052,0.002033,-0.011549,-0.000080,0.000068,-0.011315,0.017002,-0.002398,0.211130,0.211088,0.150091,0.339743,0.000000,0.000000,0.000000,0.000000,0.000000,0.000000,0.000000,0.000000,0.000000,0.000000,0.000000,0.000000,0.019704,3,0
