time_us,pos_x,pos_y,pos_z,vel_x,vel_y,vel_z,roll,pitch,yaw,bias_ax,bias_ay,bias_az,bias_gx,bias_gy,bias_gz,nis,innov_x,innov_y,innov_z,cov_pos_x,cov_pos_y,cov_pos_z,cov_yaw,des_speed,des_heading,des_climb,pid_speed,pid_yaw,pid_alt,speed_meas,yaw_meas,climb_meas,fwd_accel,yaw_rate,vert_accel,drift_m,nav_mode,mission_state
0,-0.000003,0.149995,0.000000,-0.000440,24.999249,0.000088,-0.000018,-0.000001,1.570799,0.000000,0.000000,0.000000,0.000000,0.000000,0.000000,0.006250,0.000004,-0.249995,-0.000001,2.400038,2.400038,3.600017,1.000518,0.000000,0.000000,0.000000,0.000000,0.000000,0.000000,0.000000,0.000000,0.000000,0.000000,0.000000,0.000000,0.149995,1,0
10000,-0.000009,0.342495,-0.015779,-0.000973,24.998381,-0.000044,-0.000038,-0.000009,1.570796,0.000001,0.000000,0.000000,0.000000,0.000000,0.000000,0.005003,0.000012,-0.201194,-0.042078,1.714420,1.714420,2.250079,1.001073,0.000000,0.000000,0.000000,0.000000,0.000000,0.000000,0.000000,0.000000,0.000000,0.000000,0.000000,0.000000,0.143705,3,0
20000,-0.000018,0.553573,-0.011798,-0.001436,24.997398,-0.000075,-0.000064,-0.000020,1.570790,0.000002,0.000000,-0.000000,-0.000000,0.000000,-0.000000,0.003996,0.000023,-0.175016,0.014601,1.333616,1.333616,1.636554,1.001655,0.000000,0.000000,0.000000,0.000000,0.000000,0.000000,0.000000,0.000000,0.000000,0.000000,0.000000,0.000000,0.136115,3,0
30000,-0.000030,0.780321,-0.020038,-0.001891,24.996414,-0.000183,-0.000083,-0.000025,1.570784,0.000004,0.000000,0.000001,0.000000,0.000000,-0.000000,0.002416,0.000037,-0.127658,-0.038443,1.091392,1.091392,1.286065,1.002257,0.000000,0.000000,0.000000,0.000000,0.000000,0.000000,0.000000,0.000000,0.000000,0.000000,0.000000,0.000000,0.104437,3,0
40000,-0.000045,1.033867,-0.012461,-0.002256,24.995907,0.000066,-0.000107,-0.000038,1.570788,0.000004,0.000000,-0.000001,-0.000000,0.000000,-0.000000,0.000329,0.000053,0.023304,0.042924,0.923811,0.923811,1.059385,1.002869,0.000000,0.000000,0.000000,0.000000,0.000000,0.000000,0.000000,0.000000,0.000000,0.000000,0.000000,0.000000,0.019716,3,0
50000,-0.000063,1.284929,-0.020067,-0.002813,24.995300,-0.000172,-0.000124,-0.000033,1.570779,0.000003,0.000000,0.000002,0.000000,0.000000,-0.000000,0.000374,0.000073,0.008310,-0.050670,0.801036,0.801036,0.900822,1.003484,0.000000,0.000000,0.000000,0.000000,0.000000,0.000000,0.000000,0.000000,0.000000,0.000000,0.000000,0.000000,0.007201,3,0
60000,-0.000084,1.539067,-0.020557,-0.003215,24.994932,-0.000082,-0.000141,-0.000028,1.570780,0.000001,0.000000,0.000002,-0.000000,-0.000000,0.000000,0.000188,0.000095,0.035558,-0.003740,0.707270,0.707270,0.783741,1.004094,0.000000,0.000000,0.000000,0.000000,0.000000,0.000000,0.000000,0.000000,0.000000,0.000000,0.000000,0.000000,0.031367,3,0
70000,-0.000108,1.784824,-0.017867,-0.003637,24.994097,0.000149,-0.000159,-0.000042,1.570777,0.000004,0.000000,-0.000000,-0.000000,0.000000,-0.000000,0.000314,0.000120,-0.039667,0.023260,0.633370,0.633370,0.693801,1.004688,0.000000,0.000000,0.000000,0.000000,0.000000,0.000000,0.000000,0.000000,0.000000,0.000000,0.000000,0.000000,0.035479,3,0
80000,-0.000134,2.034080,-0.014261,-0.004029,24.993507,0.000155,-0.000185,-0.000057,1.570770,0.000005,0.000000,-0.000003,-0.000000,0.000000,-0.000000,0.000188,0.000148,-0.007110,0.034763,0.573673,0.573673,0.622594,1.005260,0.000000,0.000000,0.000000,0.000000,0.000000,0.000000,0.000000,0.000000,0.000000,0.000000,0.000000,0.000000,0.006432,3,0
90000,-0.000164,2.278977,-0.011587,-0.004560,24.992420,0.000262,-0.000207,-0.000066,1.570774,0.000012,0.000000,-0.000007,-0.000000,0.000000,-0.000000,0.000626,0.000179,-0.057570,0.028396,0.524488,0.524488,0.564865,1.005801,0.000000,0.000000,0.000000,0.000000,0.000000,0.000000,0.000000,0.000000,0.000000,0.000000,0.000000,0.000000,0.052538,3,0
100000,-0.000196,2.536556,-0.016920,-0.004971,24.992653,-0.000440,-0.000221,-0.000071,1.570774,-0.000002,0.000000,0.000002,-0.000000,-0.000000,0.000000,0.001970,0.000213,0.095123,-0.061880,0.483304,0.483304,0.517162,1.006301,0.000000,0.000000,0.000000,0.000000,0.000000,0.000000,0.000000,0.000000,0.000000,0.000000,0.000000,0.000000,0.087461,3,0
110000,-0.000232,2.787706,-0.014383,-0.005447,24.992235,-0.000153,-0.000234,-0.000065,1.570774,-0.000005,0.000000,-0.000003,-0.000000,-0.000000,0.000000,0.000198,0.000251,0.016450,0.031962,0.448354,0.448354,0.477121,1.006754,0.000000,0.000000,0.000000,0.000000,0.000000,0.000000,0.000000,0.000000,0.000000,0.000000,0.000000,0.000000,0.015222,3,0
120000,-0.000271,3.037891,-0.014449,-0.005874,24.991611,-0.000244,-0.000262,-0.000069,1.570781,-0.000006,0.000000,-0.000003,-0.000000,-0.000000,0.000000,0.000002,0.000291,0.003852,-0.000860,0.418359,0.418359,0.443071,1.007150,0.000000,0.000000,0.000000,0.000000,0.000000,0.000000,0.000000,0.000000,0.000000,0.000000,0.000000,0.000000,0.003594,3,0
130000,-0.000312,3.292493,-0.017472,-0.006346,24.991968,-0.000916,-0.000278,-0.000069,1.570784,-0.000025,0.000000,0.000008,-0.000000,-0.000000,0.000000,0.001099,0.000334,0.071735,-0.043780,0.392369,0.392369,0.413797,1.007481,0.000000,0.000000,0.000000,0.000000,0.000000,0.000000,0.000000,0.000000,0.000000,0.000000,0.000000,0.000000,0.067045,3,0
140000,-0.000357,3.542162,-0.016347,-0.006803,24.991266,-0.000915,-0.000298,-0.000071,1.570773,-0.000023,0.000000,0.000003,-0.000000,-0.000000,0.000000,0.000051,0.000380,-0.003959,0.017557,0.369666,0.369666,0.388393,1.007739,0.000000,0.000000,0.000000,0.000000,0.000000,0.000000,0.000000,0.000000,0.000000,0.000000,0.000000,0.000000,0.003732,3,0
150000,-0.000404,3.791190,-0.015401,-0.007179,24.990479,-0.000675,-0.000312,-0.000070,1.570776,-0.000018,0.000001,-0.000003,-0.000000,-0.000000,0.000000,0.000074,0.000429,-0.015075,0.015643,0.349695,0.349695,0.366172,1.007915,0.000000,0.000000,0.000000,0.000000,0.000000,0.000000,0.000000,0.000000,0.000000,0.000000,0.000000,0.000000,0.014202,3,0
160000,-0.000454,4.045176,-0.014245,-0.007715,24.990984,-0.000500,-0.000329,-0.000064,1.570773,-0.000046,0.000001,-0.000010,-0.000000,-0.000001,0.000000,0.000922,0.000481,0.073846,0.020142,0.332021,0.332021,0.346600,1.008002,0.000000,0.000000,0.000000,0.000000,0.000000,0.000000,0.000000,0.000000,0.000000,0.000000,0.000000,0.000000,0.069761,3,0
170000,-0.000508,4.302351,-0.012762,-0.008167,24.992588,-0.000065,-0.000349,-0.000051,1.570776,-0.000105,0.000001,-0.000021,-0.000000,-0.000002,0.000000,0.003119,0.000536,0.137918,0.027108,0.316297,0.316297,0.329260,1.007991,0.000000,0.000000,0.000000,0.000000,0.000000,0.000000,0.000000,0.000000,0.000000,0.000000,0.000000,0.000000,0.130649,3,0
180000,-0.000564,4.558279,-0.011086,-0.008580,24.993904,0.000550,-0.000364,-0.000031,1.570775,-0.000162,0.000001,-0.000036,-0.000000,-0.000004,0.000000,0.002414,0.000594,0.119276,0.032038,0.302246,0.302246,0.313817,1.007875,0.000000,0.000000,0.000000,0.000000,0.000000,0.000000,0.000000,0.000000,0.000000,0.000000,0.000000,0.000000,0.113268,3,0
190000,-0.000622,4.813131,-0.012598,-0.008965,24.995182,-0.000144,-0.000388,-0.000024,1.570769,-0.000216,0.000002,-0.000021,-0.000000,-0.000005,0.000000,0.001792,0.000654,0.101880,-0.030316,0.289641,0.289641,0.300003,1.007645,0.000000,0.000000,0.000000,0.000000,0.000000,0.000000,0.000000,0.000000,0.000000,0.000000,0.000000,0.000000,0.096963,3,0
200000,-0.000683,5.067045,-0.015457,-0.009380,24.996115,-0.001333,-0.000411,-0.000022,1.570768,-0.000266,0.000002,0.000014,-0.000000,-0.000007,0.000000,0.001727,0.000716,0.085563,-0.059576,0.278296,0.278295,0.287598,1.007295,0.000000,0.000000,0.000000,0.000000,0.000000,0.000000,0.000000,0.000000,0.000000,0.000000,0.000000,0.000000,0.081597,3,0
210000,-0.000746,5.320137,-0.018073,-0.009765,24.996948,-0.002423,-0.000421,-0.000022,1.570759,-0.000311,0.000002,0.000049,-0.000000,-0.000008,0.000000,0.001292,0.000781,0.070185,-0.056484,0.268054,0.268054,0.276421,1.006817,0.000000,0.000000,0.000000,0.000000,0.000000,0.000000,0.000000,0.000000,0.000000,0.000000,0.000000,0.000000,0.067053,3,0
220000,-0.000812,5.573358,-0.017662,-0.010262,24.997929,-0.002133,-0.000447,-0.000004,1.570763,-0.000364,0.000003,0.000042,-0.000000,-0.000010,0.000000,0.000925,0.000848,0.075511,0.009800,0.258787,0.258787,0.266321,1.006203,0.000000,0.000000,0.000000,0.000000,0.000000,0.000000,0.000000,0.000000,0.000000,0.000000,0.000000,0.000000,0.072259,3,0
230000,-0.000880,5.823382,-0.016052,-0.010678,24.997454,-0.001452,-0.000458,-0.000000,1.570754,-0.000365,0.000004,0.000014,-0.000000,-0.000010,0.000000,0.000232,0.000919,0.001190,0.038069,0.250386,0.250386,0.257172,1.005446,0.000000,0.000000,0.000000,0.000000,0.000000,0.000000,0.000000,0.000000,0.000000,0.000000,0.000000,0.000000,0.001441,3,0
240000,-0.000952,6.074543,-0.016676,-0.011179,24.997561,-0.001906,-0.000478,0.000004,1.570753,-0.000389,0.000005,0.000026,-0.000000,-0.000010,0.000000,0.000173,0.000992,0.029476,-0.014673,0.242756,0.242756,0.248866,1.004541,0.000000,0.000000,0.000000,0.000000,0.000000,0.000000,0.000000,0.000000,0.000000,0.000000,0.000000,0.000000,0.028300,3,0
250000,-0.001027,6.326739,-0.015525,-0.011601,24.998260,-0.001469,-0.000502,0.000015,1.570759,-0.000439,0.000006,0.000000,-0.000000,-0.000012,0.000000,0.000649,0.001069,0.056618,0.029144,0.235819,0.235819,0.241314,1.003481,0.000000,0.000000,0.000000,0.000000,0.000000,0.000000,0.000000,0.000000,0.000000,0.000000,0.000000,0.000000,0.054403,3,0
260000,-0.001104,6.577599,-0.017248,-0.012136,24.998234,-0.002570,-0.000526,0.000014,1.570766,-0.000462,0.000007,0.000042,-0.000000,-0.000013,0.000000,0.000391,0.001148,0.023084,-0.043669,0.229505,0.229505,0.234436,1.002259,0.000000,0.000000,0.000000,0.000000,0.000000,0.000000,0.000000,0.000000,0.000000,0.000000,0.000000,0.000000,0.022229,3,0
270000,-0.001186,6.830943,-0.016292,-0.012704,24.999868,-0.002208,-0.000554,0.000046,1.570763,-0.000555,0.000008,0.000015,-0.000000,-0.000017,0.000000,0.001415,0.001232,0.090287,0.025864,0.223755,0.223755,0.228165,1.000870,0.000000,0.000000,0.000000,0.000000,0.000000,0.000000,0.000000,0.000000,0.000000,0.000000,0.000000,0.000000,0.086928,3,0
280000,-0.001269,7.082237,-0.017424,-0.013084,25.000214,-0.003127,-0.000577,0.000046,1.570770,-0.000594,0.000009,0.000048,-0.000000,-0.000018,0.000000,0.000348,0.001317,0.035716,-0.029873,0.218517,0.218517,0.222443,0.999308,0.000000,0.000000,0.000000,0.000000,0.000000,0.000000,0.000000,0.000000,0.000000,0.000000,0.000000,0.000000,0.034439,3,0
290000,-0.001354,7.336592,-0.017264,-0.013475,25.002752,-0.003093,-0.000589,0.000095,1.570771,-0.000738,0.000011,0.000042,-0.000000,-0.000024,0.000000,0.002411,0.001404,0.122361,0.005289,0.213746,0.213746,0.217219,0.997569,0.000000,0.000000,0.000000,0.000000,0.000000,0.000000,0.000000,0.000000,0.000000,0.000000,0.000000,0.000000,0.118009,3,0
300000,-0.001442,7.588943,-0.018392,-0.014022,25.003942,-0.003776,-0.000601,0.000113,1.570773,-0.000822,0.000013,0.000080,-0.000000,-0.000028,0.000000,0.000872,0.001495,0.066770,-0.031013,0.209400,0.209400,0.212446,0.995647,0.000000,0.000000,0.000000,0.000000,0.000000,0.000000,0.000000,0.000000,0.000000,0.000000,0.000000,0.000000,0.064455,3,0
310000,-0.001534,7.842151,-0.018577,-0.014509,25.005877,-0.003806,-0.000614,0.000146,1.570764,-0.000946,0.000015,0.000086,-0.000001,-0.000033,0.000000,0.001387,0.001588,0.092710,-0.004263,0.205445,0.205445,0.208087,0.993538,0.000000,0.000000,0.000000,0.000000,0.000000,0.000000,0.000000,0.000000,0.000000,0.000000,0.000000,0.000000,0.089549,3,0
320000,-0.001626,8.098173,-0.018180,-0.014877,25.010361,-0.003649,-0.000637,0.000222,1.570761,-0.001197,0.000017,0.000068,-0.000001,-0.000045,0.000000,0.005097,0.001683,0.177425,0.012848,0.201850,0.201850,0.204105,0.991239,0.000000,0.000000,0.000000,0.000000,0.000000,0.000000,0.000000,0.000000,0.000000,0.000000,0.000000,0.000000,0.171464,3,0
330000,-0.001721,8.353562,-0.020088,-0.015295,25.014425,-0.005101,-0.000646,0.000297,1.570759,-0.001437,0.000020,0.000151,-0.000001,-0.000056,0.000000,0.004627,0.001780,0.159905,-0.056037,0.198584,0.198584,0.200469,0.988746,0.000000,0.000000,0.000000,0.000000,0.000000,0.000000,0.000000,0.000000,0.000000,0.000000,0.000000,0.000000,0.154623,3,0
340000,-0.001818,8.610309,-0.019195,-0.015740,25.019957,-0.004332,-0.000669,0.000389,1.570752,-0.001757,0.000023,0.000106,-0.000001,-0.000072,0.000000,0.006756,0.001879,0.202660,0.028733,0.195625,0.195624,0.197151,0.986056,0.000000,0.000000,0.000000,0.000000,0.000000,0.000000,0.000000,0.000000,0.000000,0.000000,0.000000,0.000000,0.196060,3,0
350000,-0.001916,8.865153,-0.020472,-0.016152,25.023861,-0.005589,-0.000681,0.000460,1.570752,-0.001999,0.000026,0.000169,-0.000001,-0.000084,0.000000,0.003609,0.001980,0.144647,-0.038079,0.192947,0.192947,0.194125,0.983166,0.000000,0.000000,0.000000,0.000000,0.000000,0.000000,0.000000,0.000000,0.000000,0.000000,0.000000,0.000000,0.140009,3,0
360000,-0.002016,9.118199,-0.019272,-0.016588,25.026184,-0.004656,-0.000690,0.000498,1.570755,-0.002154,0.000030,0.000100,-0.000001,-0.000092,0.000000,0.001517,0.002083,0.088552,0.039431,0.190531,0.190531,0.191370,0.980076,0.000000,0.000000,0.000000,0.000000,0.000000,0.000000,0.000000,0.000000,0.000000,0.000000,0.000000,0.000000,0.085763,3,0
370000,-0.002118,9.373900,-0.018346,-0.016990,25.031269,-0.003878,-0.000708,0.000598,1.570749,-0.002474,0.000034,0.000044,-0.000002,-0.000109,0.000000,0.005010,0.002187,0.173424,0.030926,0.188357,0.188357,0.188863,0.976782,0.000000,0.000000,0.000000,0.000000,0.000000,0.000000,0.000000,0.000000,0.000000,0.000000,0.000000,0.000000,0.167993,3,0
380000,-0.002223,9.629680,-0.017628,-0.017494,25.036715,-0.003360,-0.000729,0.000710,1.570740,-0.002814,0.000038,-0.000003,-0.000002,-0.000128,0.000001,0.005105,0.002294,0.176097,0.024418,0.186408,0.186408,0.186586,0.973285,0.000000,0.000000,0.000000,0.000000,0.000000,0.000000,0.000000,0.000000,0.000000,0.000000,0.000000,0.000000,0.170640,3,0
390000,-0.002330,9.883094,-0.019331,-0.018010,25.039562,-0.005042,-0.000739,0.000780,1.570746,-0.003015,0.000043,0.000106,-0.000002,-0.000139,0.000001,0.002066,0.002404,0.099175,-0.054301,0.184669,0.184669,0.184522,0.969584,0.000000,0.000000,0.000000,0.000000,0.000000,0.000000,0.000000,0.000000,0.000000,0.000000,0.000000,0.000000,0.096151,3,0
400000,-0.002439,10.138483,-0.020266,-0.018513,25.044765,-0.006114,-0.000758,0.000887,1.570736,-0.003362,0.000049,0.000167,-0.000002,-0.000159,0.000001,0.004472,0.002516,0.163795,-0.029029,0.183125,0.183125,0.182656,0.965679,0.000000,0.000000,0.000000,0.000000,0.000000,0.000000,0.000000,0.000000,0.000000,0.000000,0.000000,0.000000,0.158814,3,0
410000,-0.002551,10.393376,-0.021693,-0.019043,25.049562,-0.007620,-0.000773,0.000994,1.570727,-0.003686,0.000054,0.000267,-0.000003,-0.000179,0.000001,0.003820,0.002630,0.146899,-0.045270,0.181762,0.181762,0.180971,0.961570,0.000000,0.000000,0.000000,0.000000,0.000000,0.000000,0.000000,0.000000,0.000000,0.000000,0.000000,0.000000,0.142472,3,0
420000,-0.002664,10.648992,-0.021562,-0.019478,25.055357,-0.007405,-0.000789,0.001123,1.570729,-0.004079,0.000061,0.000251,-0.000003,-0.000203,0.000001,0.004695,0.002747,0.170263,0.006931,0.180569,0.180569,0.179456,0.957259,0.000000,0.000000,0.000000,0.000000,0.000000,0.000000,0.000000,0.000000,0.000000,0.000000,0.000000,0.000000,0.165161,3,0
430000,-0.002779,10.904717,-0.022777,-0.019928,25.061407,-0.008725,-0.000814,0.001257,1.570729,-0.004494,0.000068,0.000343,-0.000003,-0.000229,0.000001,0.005081,0.002864,0.173016,-0.038476,0.179532,0.179532,0.178097,0.952748,0.000000,0.000000,0.000000,0.000000,0.000000,0.000000,0.000000,0.000000,0.000000,0.000000,0.000000,0.000000,0.167862,3,0
440000,-0.002894,11.162924,-0.024089,-0.020314,25.070654,-0.010022,-0.000836,0.001468,1.570724,-0.005130,0.000075,0.000447,-0.000004,-0.000270,0.000001,0.010810,0.002983,0.255171,-0.041611,0.178642,0.178642,0.176883,0.948037,0.000000,0.000000,0.000000,0.000000,0.000000,0.000000,0.000000,0.000000,0.000000,0.000000,0.000000,0.000000,0.247591,3,0
450000,-0.003011,11.420606,-0.023608,-0.020711,25.079332,-0.009195,-0.000845,0.001677,1.570709,-0.005740,0.000083,0.000396,-0.000004,-0.000310,0.000001,0.009028,0.003103,0.235419,0.019788,0.177889,0.177889,0.175803,0.943131,0.000000,0.000000,0.000000,0.000000,0.000000,0.000000,0.000000,0.000000,0.000000,0.000000,0.000000,0.000000,0.228459,3,0
460000,-0.003128,11.678370,-0.023088,-0.021135,25.088345,-0.008645,-0.000862,0.001896,1.570699,-0.006374,0.000092,0.000339,-0.000005,-0.000353,0.000002,0.009087,0.003223,0.236074,0.021046,0.177263,0.177262,0.174847,0.938032,0.000000,0.000000,0.000000,0.000000,0.000000,0.000000,0.000000,0.000000,0.000000,0.000000,0.000000,0.000000,0.229122,3,0
470000,-0.003246,11.936222,-0.023887,-0.021497,25.097561,-0.009678,-0.000880,0.002109,1.570683,-0.007033,0.000101,0.000408,-0.000006,-0.000398,0.000002,0.009158,0.003344,0.236646,-0.024558,0.176754,0.176754,0.174006,0.932744,0.000000,0.000000,0.000000,0.000000,0.000000,0.000000,0.000000,0.000000,0.000000,0.000000,0.000000,0.000000,0.229697,3,0
480000,-0.003364,12.190074,-0.025175,-0.021878,25.101315,-0.011075,-0.000900,0.002206,1.570681,-0.007315,0.000111,0.000527,-0.000006,-0.000418,0.000002,0.001831,0.003466,0.097976,-0.041296,0.176356,0.176356,0.173271,0.927271,0.000000,0.000000,0.000000,0.000000,0.000000,0.000000,0.000000,0.000000,0.000000,0.000000,0.000000,0.000000,0.095156,3,0
490000,-0.003484,12.445843,-0.026021,-0.022319,25.107853,-0.012018,-0.000922,0.002372,1.570672,-0.007798,0.000121,0.000603,-0.000007,-0.000453,0.000002,0.004361,0.003589,0.162148,-0.025562,0.176059,0.176059,0.172634,0.921618,0.000000,0.000000,0.000000,0.000000,0.000000,0.000000,0.000000,0.000000,0.000000,0.000000,0.000000,0.000000,0.157429,3,0
500000,-0.003604,12.703495,-0.026647,-0.022707,25.117077,-0.012816,-0.000938,0.002602,1.570676,-0.008488,0.000133,0.000658,-0.000008,-0.000505,0.000002,0.008197,0.003712,0.224377,-0.017615,0.175857,0.175857,0.172087,0.915789,0.000000,0.000000,0.000000,0.000000,0.000000,0.000000,0.000000,0.000000,0.000000,0.000000,0.000000,0.000000,0.217830,3,0
510000,-0.003723,12.961256,-0.027658,-0.023047,25.126585,-0.013942,-0.000962,0.002839,1.570679,-0.009201,0.000145,0.000756,-0.000009,-0.000559,0.000003,0.008352,0.003836,0.225057,-0.030928,0.175742,0.175742,0.171622,0.909790,0.000000,0.000000,0.000000,0.000000,0.000000,0.000000,0.000000,0.000000,0.000000,0.000000,0.000000,0.000000,0.218497,3,0
520000,-0.003843,13.220292,-0.027534,-0.023362,25.138041,-0.013643,-0.000982,0.003141,1.570674,-0.010069,0.000158,0.000726,-0.000010,-0.000626,0.000003,0.011411,0.003959,0.265385,0.009196,0.175708,0.175708,0.171234,0.903626,0.000000,0.000000,0.000000,0.000000,0.000000,0.000000,0.000000,0.000000,0.000000,0.000000,0.000000,0.000000,0.257642,3,0
530000,-0.003963,13.478260,-0.027299,-0.023756,25.147900,-0.013356,-0.000998,0.003416,1.570665,-0.010826,0.000172,0.000682,-0.000011,-0.000686,0.000003,0.008214,0.004082,0.224902,0.013096,0.175748,0.175748,0.170915,0.897304,0.000000,0.000000,0.000000,0.000000,0.000000,0.000000,0.000000,0.000000,0.000000,0.000000,0.000000,0.000000,0.218350,3,0
540000,-0.004082,13.735758,-0.026438,-0.024081,25.157042,-0.011883,-0.001021,0.003666,1.570653,-0.011537,0.000186,0.000560,-0.000012,-0.000743,0.000003,0.007024,0.004205,0.205382,0.034890,0.175857,0.175857,0.170659,0.890830,0.000000,0.000000,0.000000,0.000000,0.000000,0.000000,0.000000,0.000000,0.000000,0.000000,0.000000,0.000000,0.199405,3,0
550000,-0.004201,13.994543,-0.025616,-0.024377,25.168034,-0.010450,-0.001037,0.003973,1.570640,-0.012412,0.000202,0.000441,-0.000013,-0.000815,0.000004,0.009968,0.004328,0.245977,0.033043,0.176028,0.176028,0.170460,0.884211,0.000000,0.000000,0.000000,0.000000,0.000000,0.000000,0.000000,0.000000,0.000000,0.000000,0.000000,0.000000,0.238798,3,0
560000,-0.004318,14.251100,-0.026241,-0.024638,25.175686,-0.011252,-0.001051,0.004182,1.570640,-0.013018,0.000218,0.000508,-0.000015,-0.000866,0.000004,0.004515,0.004449,0.165991,-0.018357,0.176257,0.176257,0.170314,0.877454,0.000000,0.000000,0.000000,0.000000,0.000000,0.000000,0.000000,0.000000,0.000000,0.000000,0.000000,0.000000,0.161173,3,0
570000,-0.004435,14.507793,-0.025414,-0.024921,25.183489,-0.010160,-0.001061,0.004408,1.570643,-0.013647,0.000235,0.000382,-0.000016,-0.000921,0.000004,0.004735,0.004570,0.167784,0.033169,0.176538,0.176538,0.170215,0.870566,0.000000,0.000000,0.000000,0.000000,0.000000,0.000000,0.000000,0.000000,0.000000,0.000000,0.000000,0.000000,0.162907,3,0
580000,-0.004552,14.764623,-0.025696,-0.025292,25.191505,-0.010317,-0.001065,0.004644,1.570635,-0.014298,0.000253,0.000407,-0.000018,-0.000978,0.000004,0.004654,0.004690,0.169437,-0.006427,0.176866,0.176866,0.170158,0.863554,0.000000,0.000000,0.000000,0.000000,0.000000,0.000000,0.000000,0.000000,0.000000,0.000000,0.000000,0.000000,0.164506,3,0
590000,-0.004669,15.022761,-0.027082,-0.025686,25.201515,-0.012182,-0.001087,0.004948,1.570636,-0.015127,0.000272,0.000588,-0.000019,-0.001052,0.000005,0.007517,0.004811,0.210711,-0.045277,0.177237,0.177237,0.170138,0.856427,0.000000,0.000000,0.000000,0.000000,0.000000,0.000000,0.000000,0.000000,0.000000,0.000000,0.000000,0.000000,0.204541,3,0
600000,-0.004787,15.278667,-0.028485,-0.026065,25.207939,-0.014038,-0.001097,0.005143,1.570631,-0.015656,0.000292,0.000773,-0.000021,-0.001100,0.000005,0.003127,0.004932,0.131383,-0.045232,0.177647,0.177647,0.170152,0.849192,0.000000,0.000000,0.000000,0.000000,0.000000,0.000000,0.000000,0.000000,0.000000,0.000000,0.000000,0.000000,0.127583,3,0
610000,-0.004903,15.535310,-0.028852,-0.026400,25.215433,-0.014401,-0.001105,0.005374,1.570630,-0.016288,0.000312,0.000807,-0.000023,-0.001159,0.000005,0.003836,0.005053,0.153718,-0.008003,0.178091,0.178090,0.170196,0.841857,0.000000,0.000000,0.000000,0.000000,0.000000,0.000000,0.000000,0.000000,0.000000,0.000000,0.000000,0.000000,0.149236,3,0
620000,-0.005019,15.793864,-0.029076,-0.026702,25.226019,-0.014750,-0.001125,0.005720,1.570613,-0.017193,0.000334,0.000818,-0.000025,-0.001244,0.000006,0.007485,0.005173,0.215063,-0.002780,0.178564,0.178564,0.170265,0.834430,0.000000,0.000000,0.000000,0.000000,0.000000,0.000000,0.000000,0.000000,0.000000,0.000000,0.000000,0.000000,0.208723,3,0
630000,-0.005134,16.054317,-0.028171,-0.027070,25.239735,-0.013218,-0.001133,0.006170,1.570609,-0.018372,0.000357,0.000655,-0.000027,-0.001358,0.000006,0.012407,0.005292,0.274464,0.037004,0.179065,0.179065,0.170356,0.826919,0.000000,0.000000,0.000000,0.000000,0.000000,0.000000,0.000000,0.000000,0.000000,0.000000,0.000000,0.000000,0.266321,3,0
640000,-0.005250,16.313677,-0.029306,-0.027451,25.251490,-0.014676,-0.001143,0.006565,1.570607,-0.019391,0.000380,0.000814,-0.000030,-0.001458,0.000007,0.008950,0.005411,0.232542,-0.035394,0.179589,0.179588,0.170466,0.819333,0.000000,0.000000,0.000000,0.000000,0.000000,0.000000,0.000000,0.000000,0.000000,0.000000,0.000000,0.000000,0.225643,3,0
650000,-0.005364,16.571354,-0.029415,-0.027720,25.260466,-0.014599,-0.001148,0.006870,1.570598,-0.020159,0.000405,0.000808,-0.000032,-0.001535,0.000007,0.004780,0.005530,0.171852,0.001282,0.180132,0.180132,0.170591,0.811678,0.000000,0.000000,0.000000,0.000000,0.000000,0.000000,0.000000,0.000000,0.000000,0.000000,0.000000,0.000000,0.166779,3,0
660000,-0.005478,16.831551,-0.030430,-0.028087,25.273504,-0.015772,-0.001150,0.007304,1.570585,-0.021306,0.000431,0.000951,-0.000035,-0.001652,0.000008,0.010425,0.005647,0.252028,-0.030657,0.180692,0.180692,0.170729,0.803964,0.000000,0.000000,0.000000,0.000000,0.000000,0.000000,0.000000,0.000000,0.000000,0.000000,0.000000,0.000000,0.244500,3,0
670000,-0.005591,17.090645,-0.031081,-0.028405,25.284685,-0.016475,-0.001155,0.007679,1.570581,-0.022281,0.000457,0.001033,-0.000037,-0.001753,0.000008,0.007207,0.005765,0.210367,-0.017399,0.181266,0.181266,0.170877,0.796199,0.000000,0.000000,0.000000,0.000000,0.000000,0.000000,0.000000,0.000000,0.000000,0.000000,0.000000,0.000000,0.204089,3,0
680000,-0.005701,17.351051,-0.030909,-0.028584,25.297882,-0.015937,-0.001156,0.008139,1.570569,-0.023458,0.000485,0.000976,-0.000040,-0.001878,0.000009,0.010076,0.005879,0.249346,0.011740,0.181851,0.181851,0.171033,0.788390,0.000000,0.000000,0.000000,0.000000,0.000000,0.000000,0.000000,0.000000,0.000000,0.000000,0.000000,0.000000,0.241856,3,0
690000,-0.005811,17.610949,-0.030383,-0.028870,25.310160,-0.014827,-0.001156,0.008572,1.570562,-0.024548,0.000514,0.000856,-0.000044,-0.001995,0.000009,0.008451,0.005993,0.227352,0.023925,0.182445,0.182445,0.171194,0.780546,0.000000,0.000000,0.000000,0.000000,0.000000,0.000000,0.000000,0.000000,0.000000,0.000000,0.000000,0.000000,0.220515,3,0
700000,-0.005919,17.867910,-0.031714,-0.029120,25.317331,-0.016708,-0.001163,0.008819,1.570549,-0.025165,0.000543,0.001065,-0.000047,-0.002063,0.000010,0.002864,0.006105,0.126364,-0.041415,0.183045,0.183045,0.171357,0.772674,0.000000,0.000000,0.000000,0.000000,0.000000,0.000000,0.000000,0.000000,0.000000,0.000000,0.000000,0.000000,0.122652,3,0
710000,-0.006026,18.127434,-0.031521,-0.029369,25.328796,-0.016097,-0.001180,0.009228,1.570546,-0.026191,0.000574,0.001000,-0.000050,-0.002177,0.000010,0.006973,0.006216,0.207272,0.012503,0.183649,0.183649,0.171522,0.764782,0.000000,0.000000,0.000000,0.000000,0.000000,0.000000,0.000000,0.000000,0.000000,0.000000,0.000000,0.000000,0.201018,3,0
720000,-0.006131,18.384003,-0.032375,-0.029559,25.335136,-0.017257,-0.001187,0.009453,1.570540,-0.026728,0.000606,0.001127,-0.000054,-0.002238,0.000010,0.001940,0.006325,0.106665,-0.024235,0.184255,0.184254,0.171686,0.756877,0.000000,0.000000,0.000000,0.000000,0.000000,0.000000,0.000000,0.000000,0.000000,0.000000,0.000000,0.000000,0.103571,3,0
730000,-0.006234,18.644989,-0.031513,-0.029850,25.348885,-0.015620,-0.001189,0.009973,1.570523,-0.027991,0.000639,0.000934,-0.000058,-0.002384,0.000011,0.010120,0.006433,0.247610,0.036024,0.184860,0.184860,0.171847,0.748968,0.000000,0.000000,0.000000,0.000000,0.000000,0.000000,0.000000,0.000000,0.000000,0.000000,0.000000,0.000000,0.240062,3,0
740000,-0.006335,18.901754,-0.030814,-0.029992,25.355227,-0.014441,-0.001185,0.010213,1.570512,-0.028538,0.000673,0.000772,-0.000062,-0.002448,0.000011,0.001957,0.006538,0.105759,0.029818,0.185465,0.185464,0.172004,0.741060,0.000000,0.000000,0.000000,0.000000,0.000000,0.000000,0.000000,0.000000,0.000000,0.000000,0.000000,0.000000,0.102685,3,0
750000,-0.006434,19.159260,-0.029627,-0.030211,25.362841,-0.012672,-0.001187,0.010491,1.570509,-0.029205,0.000707,0.000516,-0.000066,-0.002528,0.000012,0.002970,0.006641,0.127235,0.046422,0.186065,0.186065,0.172155,0.733161,0.000000,0.000000,0.000000,0.000000,0.000000,0.000000,0.000000,0.000000,0.000000,0.000000,0.000000,0.000000,0.123457,3,0
760000,-0.006534,19.417498,-0.030529,-0.030505,25.371572,-0.013901,-0.001185,0.010825,1.570496,-0.029991,0.000743,0.000666,-0.000070,-0.002624,0.000012,0.003661,0.006743,0.147959,-0.027002,0.186661,0.186661,0.172299,0.725277,0.000000,0.000000,0.000000,0.000000,0.000000,0.000000,0.000000,0.000000,0.000000,0.000000,0.000000,0.000000,0.143505,3,0
770000,-0.006631,19.678944,-0.029457,-0.030767,25.385883,-0.011968,-0.001197,0.011396,1.570483,-0.031322,0.000780,0.000427,-0.000075,-0.002788,0.000013,0.010180,0.006845,0.247454,0.041982,0.187251,0.187251,0.172436,0.717416,0.000000,0.000000,0.000000,0.000000,0.000000,0.000000,0.000000,0.000000,0.000000,0.000000,0.000000,0.000000,0.239823,3,0
780000,-0.006727,19.939835,-0.030182,-0.030892,25.398966,-0.012938,-0.001209,0.011917,1.570477,-0.032544,0.000818,0.000547,-0.000080,-0.002942,0.000014,0.008210,0.006944,0.224411,-0.021093,0.187834,0.187834,0.172563,0.709583,0.000000,0.000000,0.000000,0.000000,0.000000,0.000000,0.000000,0.000000,0.000000,0.000000,0.000000,0.000000,0.217490,3,0
790000,-0.006821,20.199549,-0.030643,-0.031129,25.409868,-0.013425,-0.001210,0.012358,1.570470,-0.033547,0.000856,0.000613,-0.000084,-0.003070,0.000014,0.005380,0.007042,0.182056,-0.011588,0.188408,0.188408,0.172680,0.701784,0.000000,0.000000,0.000000,0.000000,0.000000,0.000000,0.000000,0.000000,0.000000,0.000000,0.000000,0.000000,0.176472,3,0
800000,-0.006912,20.459972,-0.030780,-0.031223,25.421892,-0.013396,-0.001210,0.012841,1.570458,-0.034663,0.000896,0.000613,-0.000090,-0.003215,0.000015,0.006500,0.007137,0.200537,-0.000186,0.188973,0.188973,0.172787,0.694026,0.000000,0.000000,0.000000,0.000000,0.000000,0.000000,0.000000,0.000000,0.000000,0.000000,0.000000,0.000000,0.194344,3,0
810000,-0.007001,20.722353,-0.030066,-0.031335,25.437136,-0.012196,-0.001217,0.013472,1.570453,-0.036115,0.000937,0.000435,-0.000095,-0.003406,0.000016,0.010896,0.007230,0.258055,0.029363,0.189528,0.189528,0.172882,0.686313,0.000000,0.000000,0.000000,0.000000,0.000000,0.000000,0.000000,0.000000,0.000000,0.000000,0.000000,0.000000,0.250001,3,0
820000,-0.007088,20.980373,-0.030071,-0.031448,25.444647,-0.012025,-0.001213,0.013782,1.570452,-0.036768,0.000978,0.000410,-0.000101,-0.003494,0.000016,0.002138,0.007320,0.114794,0.004020,0.190072,0.190072,0.172965,0.678651,0.000000,0.000000,0.000000,0.000000,0.000000,0.000000,0.000000,0.000000,0.000000,0.000000,0.000000,0.000000,0.111382,3,0
830000,-0.007172,21.242908,-0.030386,-0.031504,25.460022,-0.012366,-0.001221,0.014434,1.570444,-0.038227,0.001021,0.000450,-0.000106,-0.003693,0.000017,0.010450,0.007407,0.254278,-0.006821,0.190605,0.190605,0.173035,0.671044,0.000000,0.000000,0.000000,0.000000,0.000000,0.000000,0.000000,0.000000,0.000000,0.000000,0.000000,0.000000,0.246305,3,0
840000,-0.007254,21.501684,-0.030935,-0.031615,25.468605,-0.012931,-0.001216,0.014798,1.570444,-0.038985,0.001064,0.000541,-0.000112,-0.003798,0.000018,0.002803,0.007492,0.130741,-0.014837,0.191125,0.191125,0.173092,0.663499,0.000000,0.000000,0.000000,0.000000,0.000000,0.000000,0.000000,0.000000,0.000000,0.000000,0.000000,0.000000,0.126785,3,0
850000,-0.007334,21.759909,-0.030426,-0.031802,25.476074,-0.012055,-0.001215,0.015105,1.570445,-0.039630,0.001108,0.000400,-0.000119,-0.003889,0.000018,0.002056,0.007576,0.110426,0.022119,0.191634,0.191634,0.173136,0.656018,0.000000,0.000000,0.000000,0.000000,0.000000,0.000000,0.000000,0.000000,0.000000,0.000000,0.000000,0.000000,0.107151,3,0
860000,-0.007412,22.020132,-0.030765,-0.031951,25.486973,-0.012357,-0.001215,0.015578,1.570427,-0.040634,0.001153,0.000447,-0.000125,-0.004032,0.000019,0.004692,0.007657,0.170187,-0.007632,0.192129,0.192129,0.173165,0.648607,0.000000,0.000000,0.000000,0.000000,0.000000,0.000000,0.000000,0.000000,0.000000,0.000000,0.000000,0.000000,0.164904,3,0
870000,-0.007488,22.279140,-0.029535,-0.032079,25.495506,-0.010382,-0.001217,0.015947,1.570413,-0.041397,0.001199,0.000143,-0.000132,-0.004144,0.000020,0.003029,0.007738,0.128525,0.046840,0.192611,0.192611,0.173181,0.641269,0.000000,0.000000,0.000000,0.000000,0.000000,0.000000,0.000000,0.000000,0.000000,0.000000,0.000000,0.000000,0.124624,3,0
880000,-0.007562,22.538866,-0.028422,-0.032154,25.505348,-0.008814,-0.001211,0.016386,1.570415,-0.042282,0.001246,-0.000135,-0.000139,-0.004274,0.000020,0.003818,0.007814,0.147732,0.042168,0.193080,0.193080,0.173183,0.634008,0.000000,0.000000,0.000000,0.000000,0.000000,0.000000,0.000000,0.000000,0.000000,0.000000,0.000000,0.000000,0.143177,3,0
890000,-0.007636,22.798016,-0.028737,-0.032362,25.514061,-0.009020,-0.001208,0.016768,1.570410,-0.043045,0.001294,-0.000084,-0.000146,-0.004389,0.000021,0.002599,0.007890,0.126455,-0.007944,0.193536,0.193536,0.173171,0.626827,0.000000,0.000000,0.000000,0.000000,0.000000,0.000000,0.000000,0.000000,0.000000,0.000000,0.000000,0.000000,0.122613,3,0
900000,-0.007708,23.060448,-0.028042,-0.032519,25.528299,-0.008088,-0.001205,0.017419,1.570401,-0.044412,0.001342,-0.000269,-0.000154,-0.004597,0.000022,0.008298,0.007966,0.225040,0.027227,0.193978,0.193978,0.173144,0.619729,0.000000,0.000000,0.000000,0.000000,0.000000,0.000000,0.000000,0.000000,0.000000,0.000000,0.000000,0.000000,0.217900,3,0
910000,-0.007780,23.322905,-0.029240,-0.032701,25.542576,-0.009833,-0.001193,0.018082,1.570382,-0.045765,0.001391,-0.000010,-0.000161,-0.004806,0.000023,0.008122,0.008039,0.220888,-0.038755,0.194407,0.194407,0.173103,0.612719,0.000000,0.000000,0.000000,0.000000,0.000000,0.000000,0.000000,0.000000,0.000000,0.000000,0.000000,0.000000,0.213873,3,0
920000,-0.007849,23.584093,-0.029398,-0.032835,25.554447,-0.009984,-0.001191,0.018633,1.570381,-0.046855,0.001441,0.000002,-0.000169,-0.004978,0.000024,0.005061,0.008113,0.176956,-0.002090,0.194822,0.194822,0.173048,0.605797,0.000000,0.000000,0.000000,0.000000,0.000000,0.000000,0.000000,0.000000,0.000000,0.000000,0.000000,0.000000,0.171391,3,0
930000,-0.007916,23.844673,-0.028121,-0.032879,25.565073,-0.007946,-0.001191,0.019125,1.570380,-0.047809,0.001492,-0.000330,-0.000177,-0.005130,0.000024,0.004213,0.008183,0.154196,0.047703,0.195224,0.195224,0.172979,0.598966,0.000000,0.000000,0.000000,0.000000,0.000000,0.000000,0.000000,0.000000,0.000000,0.000000,0.000000,0.000000,0.149387,3,0
940000,-0.007981,24.105295,-0.027886,-0.032974,25.575542,-0.007465,-0.001186,0.019616,1.570375,-0.048756,0.001543,-0.000408,-0.000186,-0.005284,0.000025,0.003752,0.008250,0.151937,0.010836,0.195613,0.195613,0.172896,0.592229,0.000000,0.000000,0.000000,0.000000,0.000000,0.000000,0.000000,0.000000,0.000000,0.000000,0.000000,0.000000,0.147201,3,0
950000,-0.008046,24.367254,-0.028528,-0.033100,25.588299,-0.008389,-0.001185,0.020216,1.570372,-0.049943,0.001595,-0.000272,-0.000194,-0.005479,0.000026,0.005857,0.008317,0.189394,-0.019682,0.195989,0.195989,0.172800,0.585589,0.000000,0.000000,0.000000,0.000000,0.000000,0.000000,0.000000,0.000000,0.000000,0.000000,0.000000,0.000000,0.183385,3,0
960000,-0.008108,24.629234,-0.028401,-0.033175,25.600920,-0.008030,-0.001169,0.020823,1.570364,-0.051113,0.001648,-0.000327,-0.000203,-0.005675,0.000027,0.005581,0.008382,0.185732,0.007257,0.196352,0.196352,0.172690,0.579045,0.000000,0.000000,0.000000,0.000000,0.000000,0.000000,0.000000,0.000000,0.000000,0.000000,0.000000,0.000000,0.179836,3,0
970000,-0.008167,24.887321,-0.028163,-0.033159,25.606474,-0.007844,-0.001156,0.021072,1.570359,-0.051510,0.001701,-0.000408,-0.000212,-0.005742,0.000027,0.000667,0.008444,0.062777,0.011156,0.196703,0.196702,0.172566,0.572601,0.000000,0.000000,0.000000,0.000000,0.000000,0.000000,0.000000,0.000000,0.000000,0.000000,0.000000,0.000000,0.061265,3,0
980000,-0.008223,25.150047,-0.026827,-0.033129,25.620146,-0.006110,-0.001148,0.021743,1.570356,-0.052794,0.001755,-0.000769,-0.000222,-0.005964,0.000028,0.006996,0.008503,0.202211,0.049263,0.197041,0.197041,0.172430,0.566257,0.000000,0.000000,0.000000,0.000000,0.000000,0.000000,0.000000,0.000000,0.000000,0.000000,0.000000,0.000000,0.195743,3,0
990000,-0.008278,25.408197,-0.027166,-0.033148,25.625647,-0.006419,-0.001146,0.021980,1.570360,-0.053169,0.001810,-0.000699,-0.000231,-0.006029,0.000029,0.000581,0.008560,0.058622,-0.009704,0.197368,0.197367,0.172281,0.560015,0.000000,0.000000,0.000000,0.000000,0.000000,0.000000,0.000000,0.000000,0.000000,0.000000,0.000000,0.000000,0.057295,3,0
1000000,-0.008332,25.671000,-0.027810,-0.033222,25.639311,-0.007156,-0.001143,0.022665,1.570357,-0.054439,0.001865,-0.000554,-0.000241,-0.006255,0.000030,0.006397,0.008615,0.197992,-0.020268,0.197683,0.197682,0.172119,0.553875,0.000000,0.000000,0.000000,0.000000,0.000000,0.000000,0.000000,0.000000,0.000000,0.000000,0.000000,0.000000,0.191650,3,0
1010000,-0.008384,25.933798,-0.028292,-0.033289,25.652658,-0.008008,-0.001137,0.023354,1.570350,-0.055685,0.001920,-0.000453,-0.000251,-0.006479,0.000031,0.006078,0.008670,0.193483,-0.014240,0.197987,0.197986,0.171946,0.547839,0.000000,0.000000,0.000000,0.000000,0.000000,0.000000,0.000000,0.000000,0.000000,0.000000,0.000000,0.000000,0.187287,3,0
1020000,-0.008433,26.195936,-0.027227,-0.033236,25.664734,-0.006334,-0.001120,0.023961,1.570350,-0.056775,0.001977,-0.000756,-0.000261,-0.006679,0.000032,0.004878,0.008722,0.169094,0.039929,0.198280,0.198279,0.171761,0.541908,0.000000,0.000000,0.000000,0.000000,0.000000,0.000000,0.000000,0.000000,0.000000,0.000000,0.000000,0.000000,0.163723,3,0
1030000,-0.008481,26.457420,-0.028574,-0.033231,25.675602,-0.008033,-0.001105,0.024504,1.570342,-0.057719,0.002033,-0.000421,-0.000272,-0.006854,0.000033,0.003745,0.008770,0.145382,-0.044913,0.198563,0.198562,0.171564,0.536081,0.000000,0.000000,0.000000,0.000000,0.000000,0.000000,0.000000,0.000000,0.000000,0.000000,0.000000,0.000000,0.140825,3,0
1040000,-0.008526,26.718914,-0.029323,-0.033170,25.686371,-0.009110,-0.001091,0.025039,1.570331,-0.058644,0.002091,-0.000247,-0.000282,-0.007029,0.000034,0.003360,0.008818,0.142216,-0.023359,0.198836,0.198836,0.171357,0.530359,0.000000,0.000000,0.000000,0.000000,0.000000,0.000000,0.000000,0.000000,0.000000,0.000000,0.000000,0.000000,0.137767,3,0
1050000,-0.008570,26.979095,-0.029810,-0.033248,25.694607,-0.009732,-0.001082,0.025436,1.570320,-0.059291,0.002148,-0.000143,-0.000293,-0.007153,0.000034,0.001632,0.008864,0.099283,-0.013849,0.199100,0.199099,0.171139,0.524742,0.000000,0.000000,0.000000,0.000000,0.000000,0.000000,0.000000,0.000000,0.000000,0.000000,0.000000,0.000000,0.096371,3,0
1060000,-0.008612,27.241945,-0.028905,-0.033327,25.707491,-0.008466,-0.001059,0.026117,1.570305,-0.060446,0.002206,-0.000421,-0.000305,-0.007377,0.000035,0.005260,0.008908,0.176958,0.035245,0.199355,0.199354,0.170911,0.519231,0.000000,0.000000,0.000000,0.000000,0.000000,0.000000,0.000000,0.000000,0.000000,0.000000,0.000000,0.000000,0.171296,3,0
1070000,-0.008653,27.502136,-0.028995,-0.033373,25.715597,-0.008570,-0.001036,0.026504,1.570291,-0.061054,0.002265,-0.000422,-0.000316,-0.007497,0.000036,0.001403,0.008951,0.092890,-0.000155,0.199601,0.199600,0.170673,0.513826,0.000000,0.000000,0.000000,0.000000,0.000000,0.000000,0.000000,0.000000,0.000000,0.000000,0.000000,0.000000,0.090216,3,0
1080000,-0.008693,27.764338,-0.029908,-0.033379,25.727093,-0.009785,-0.001027,0.027096,1.570286,-0.062044,0.002324,-0.000199,-0.000328,-0.007695,0.000037,0.003808,0.008992,0.150681,-0.029075,0.199839,0.199838,0.170425,0.508525,0.000000,0.000000,0.000000,0.000000,0.000000,0.000000,0.000000,0.000000,0.000000,0.000000,0.000000,0.000000,0.145921,3,0
1090000,-0.008730,28.025867,-0.029352,-0.033353,25.737175,-0.008990,-0.001018,0.027624,1.570270,-0.062877,0.002383,-0.000386,-0.000340,-0.007864,0.000038,0.002694,0.009032,0.126909,0.023113,0.200069,0.200068,0.170169,0.503329,0.000000,0.000000,0.000000,0.000000,0.000000,0.000000,0.000000,0.000000,0.000000,0.000000,0.000000,0.000000,0.122987,3,0
1100000,-0.008767,28.289389,-0.030181,-0.033332,25.750732,-0.010095,-0.000998,0.028354,1.570259,-0.064085,0.002442,-0.000185,-0.000352,-0.008113,0.000039,0.005538,0.009069,0.183340,-0.026017,0.200293,0.200291,0.169904,0.498237,0.000000,0.000000,0.000000,0.000000,0.000000,0.000000,0.000000,0.000000,0.000000,0.000000,0.000000,0.000000,0.177436,3,0
1110000,-0.008802,28.549555,-0.030564,-0.033365,25.758261,-0.010487,-0.000973,0.028713,1.570247,-0.064604,0.002502,-0.000108,-0.000365,-0.008222,0.000040,0.001028,0.009106,0.078716,-0.009972,0.200509,0.200508,0.169631,0.493250,0.000000,0.000000,0.000000,0.000000,0.000000,0.000000,0.000000,0.000000,0.000000,0.000000,0.000000,0.000000,0.076593,3,0
1120000,-0.008835,28.807743,-0.031115,-0.033315,25.762114,-0.011318,-0.000950,0.028861,1.570238,-0.064718,0.002563,0.000019,-0.000377,-0.008246,0.000040,0.000101,0.009140,0.017263,-0.015720,0.200719,0.200718,0.169351,0.488366,0.000000,0.000000,0.000000,0.000000,0.000000,0.000000,0.000000,0.000000,0.000000,0.000000,0.000000,0.000000,0.018880,3,0
1130000,-0.008867,29.067308,-0.031392,-0.033390,25.768299,-0.011596,-0.000931,0.029153,1.570235,-0.065097,0.002623,0.000063,-0.000390,-0.008328,0.000040,0.000546,0.009174,0.057220,-0.005754,0.200923,0.200922,0.169063,0.483584,0.000000,0.000000,0.000000,0.000000,0.000000,0.000000,0.000000,0.000000,0.000000,0.000000,0.000000,0.000000,0.056010,3,0
1140000,-0.008897,29.330896,-0.030888,-0.033324,25.781595,-0.010826,-0.000918,0.029891,1.570224,-0.066254,0.002684,-0.000125,-0.000404,-0.008581,0.000041,0.005042,0.009206,0.175289,0.022132,0.201122,0.201120,0.168768,0.478905,0.000000,0.000000,0.000000,0.000000,0.000000,0.000000,0.000000,0.000000,0.000000,0.000000,0.000000,0.000000,0.169648,3,0
1150000,-0.008926,29.591112,-0.031196,-0.033302,25.788843,-0.011148,-0.000892,0.030245,1.570228,-0.066721,0.002745,-0.000070,-0.000417,-0.008684,0.000042,0.000825,0.009235,0.070601,-0.007072,0.201316,0.201314,0.168466,0.474326,0.000000,0.000000,0.000000,0.000000,0.000000,0.000000,0.000000,0.000000,0.000000,0.000000,0.000000,0.000000,0.068813,3,0
1160000,-0.008952,29.853340,-0.030678,-0.033268,25.799419,-0.010458,-0.000871,0.030821,1.570226,-0.067569,0.002806,-0.000263,-0.000431,-0.008875,0.000043,0.002751,0.009264,0.128376,0.022590,0.201505,0.201503,0.168159,0.469848,0.000000,0.000000,0.000000,0.000000,0.000000,0.000000,0.000000,0.000000,0.000000,0.000000,0.000000,0.000000,0.124388,3,0
1170000,-0.008977,30.116215,-0.029592,-0.033317,25.811024,-0.009188,-0.000843,0.031478,1.570215,-0.068522,0.002867,-0.000628,-0.000445,-0.009093,0.000044,0.003666,0.009291,0.144346,0.042780,0.201691,0.201688,0.167845,0.465469,0.000000,0.000000,0.000000,0.000000,0.000000,0.000000,0.000000,0.000000,0.000000,0.000000,0.000000,0.000000,0.139784,3,0
1180000,-0.009000,30.379059,-0.028300,-0.033185,25.822445,-0.007370,-0.000818,0.032114,1.570199,-0.069444,0.002929,-0.001053,-0.000460,-0.009306,0.000045,0.003561,0.009315,0.139780,0.049674,0.201872,0.201869,0.167526,0.461188,0.000000,0.000000,0.000000,0.000000,0.000000,0.000000,0.000000,0.000000,0.000000,0.000000,0.000000,0.000000,0.135378,3,0
1190000,-0.009020,30.640530,-0.027207,-0.033065,25.831316,-0.006058,-0.000804,0.032588,1.570198,-0.070073,0.002990,-0.001414,-0.000475,-0.009454,0.000046,0.001768,0.009336,0.095490,0.042001,0.202050,0.202047,0.167203,0.457004,0.000000,0.000000,0.000000,0.000000,0.000000,0.000000,0.000000,0.000000,0.000000,0.000000,0.000000,0.000000,0.092715,3,0
1200000,-0.009041,30.903330,-0.028026,-0.032972,25.842466,-0.007201,-0.000791,0.033205,1.570180,-0.070947,0.003052,-0.001189,-0.000489,-0.009663,0.000047,0.002944,0.009355,0.132113,-0.027112,0.202225,0.202222,0.166874,0.452916,0.000000,0.000000,0.000000,0.000000,0.000000,0.000000,0.000000,0.000000,0.000000,0.000000,0.000000,0.000000,0.127979,3,0
1210000,-0.009058,31.163412,-0.028177,-0.032813,25.848728,-0.007321,-0.000772,0.033489,1.570172,-0.071265,0.003114,-0.001168,-0.000504,-0.009739,0.000047,0.000388,0.009375,0.048109,-0.002785,0.202397,0.202394,0.166542,0.448923,0.000000,0.000000,0.000000,0.000000,0.000000,0.000000,0.000000,0.000000,0.000000,0.000000,0.000000,0.000000,0.047360,3,0
1220000,-0.009074,31.422157,-0.027926,-0.032695,25.852530,-0.007104,-0.000748,0.033611,1.570175,-0.071308,0.003176,-0.001270,-0.000520,-0.009750,0.000047,0.000044,0.009391,0.006632,0.011761,0.202567,0.202563,0.166205,0.445024,0.000000,0.000000,0.000000,0.000000,0.000000,0.000000,0.000000,0.000000,0.000000,0.000000,0.000000,0.000000,0.011109,3,0
1230000,-0.009087,31.683617,-0.028120,-0.032531,25.861181,-0.007453,-0.000726,0.034055,1.570168,-0.071874,0.003237,-0.001237,-0.000535,-0.009891,0.000048,0.001202,0.009405,0.085793,-0.004288,0.202735,0.202731,0.165865,0.441217,0.000000,0.000000,0.000000,0.000000,0.000000,0.000000,0.000000,0.000000,0.000000,0.000000,0.000000,0.000000,0.083390,3,0
1240000,-0.009100,31.943714,-0.028497,-0.032544,25.867149,-0.007893,-0.000698,0.034326,1.570165,-0.072157,0.003299,-0.001145,-0.000551,-0.009962,0.000048,0.000330,0.009418,0.042915,-0.010871,0.202902,0.202897,0.165522,0.437501,0.000000,0.000000,0.000000,0.000000,0.000000,0.000000,0.000000,0.000000,0.000000,0.000000,0.000000,0.000000,0.042451,3,0
1250000,-0.009111,32.203140,-0.029212,-0.032380,25.871881,-0.008915,-0.000679,0.034520,1.570159,-0.072298,0.003361,-0.000944,-0.000566,-0.009999,0.000048,0.000173,0.009429,0.021301,-0.023038,0.203067,0.203062,0.165176,0.433874,0.000000,0.000000,0.000000,0.000000,0.000000,0.000000,0.000000,0.000000,0.000000,0.000000,0.000000,0.000000,0.022507,3,0
1260000,-0.009118,32.461231,-0.027949,-0.032318,25.874338,-0.007169,-0.000645,0.034532,1.570157,-0.072167,0.003423,-0.001377,-0.000583,-0.009964,0.000048,0.000468,0.009440,-0.019505,0.049198,0.203231,0.203226,0.164827,0.430336,0.000000,0.000000,0.000000,0.000000,0.000000,0.000000,0.000000,0.000000,0.000000,0.000000,0.000000,0.000000,0.020931,3,0
1270000,-0.009125,32.723400,-0.028096,-0.032154,25.883831,-0.007339,-0.000625,0.035051,1.570153,-0.072822,0.003485,-0.001361,-0.000599,-0.010137,0.000049,0.001628,0.009446,0.100082,-0.002597,0.203395,0.203389,0.164476,0.426885,0.000000,0.000000,0.000000,0.000000,0.000000,0.000000,0.000000,0.000000,0.000000,0.000000,0.000000,0.000000,0.097121,3,0
1280000,-0.009131,32.982166,-0.028487,-0.031994,25.887232,-0.007765,-0.000601,0.035138,1.570152,-0.072803,0.003547,-0.001257,-0.000615,-0.010132,0.000049,0.000038,0.009451,-0.003151,-0.011595,0.203558,0.203552,0.164123,0.423519,0.000000,0.000000,0.000000,0.000000,0.000000,0.000000,0.000000,0.000000,0.000000,0.000000,0.000000,0.000000,0.009625,3,0
1290000,-0.009134,33.242306,-0.027779,-0.031931,25.893106,-0.006963,-0.000567,0.035396,1.570138,-0.073037,0.003608,-0.001519,-0.000632,-0.010196,0.000049,0.000361,0.009456,0.036228,0.028906,0.203721,0.203714,0.163768,0.420238,0.000000,0.000000,0.000000,0.000000,0.000000,0.000000,0.000000,0.000000,0.000000,0.000000,0.000000,0.000000,0.036172,3,0
1300000,-0.009138,33.503124,-0.029007,-0.031867,25.899994,-0.008471,-0.000542,0.035731,1.570129,-0.073393,0.003670,-0.001139,-0.000649,-0.010294,0.000050,0.000782,0.009458,0.054337,-0.042446,0.203884,0.203877,0.163412,0.417039,0.000000,0.000000,0.000000,0.000000,0.000000,0.000000,0.000000,0.000000,0.000000,0.000000,0.000000,0.000000,0.053276,3,0
1310000,-0.009140,33.763248,-0.028954,-0.031806,25.905632,-0.008224,-0.000505,0.035980,1.570131,-0.073600,0.003731,-0.001188,-0.000666,-0.010352,0.000050,0.000183,0.009462,0.031994,0.005108,0.204047,0.204040,0.163055,0.413922,0.000000,0.000000,0.000000,0.000000,0.000000,0.000000,0.000000,0.000000,0.000000,0.000000,0.000000,0.000000,0.032230,3,0
1320000,-0.009140,34.024723,-0.029010,-0.031659,25.913502,-0.008316,-0.000485,0.036388,1.570126,-0.074052,0.003792,-0.001204,-0.000683,-0.010480,0.000051,0.000803,0.009462,0.069996,0.001144,0.204211,0.204204,0.162697,0.410884,0.000000,0.000000,0.000000,0.000000,0.000000,0.000000,0.000000,0.000000,0.000000,0.000000,0.000000,0.000000,0.068231,3,0
1330000,-0.009139,34.288204,-0.028451,-0.031592,25.924929,-0.007724,-0.000452,0.037068,1.570113,-0.074866,0.003853,-0.001436,-0.000701,-0.010714,0.000052,0.002685,0.009462,0.126507,0.024101,0.204376,0.204368,0.162339,0.407925,0.000000,0.000000,0.000000,0.000000,0.000000,0.000000,0.000000,0.000000,0.000000,0.000000,0.000000,0.000000,0.122541,3,0
1340000,-0.009137,34.546883,-0.028527,-0.031503,25.927591,-0.007824,-0.000426,0.037083,1.570116,-0.074751,0.003913,-0.001434,-0.000719,-0.010680,0.000052,0.000065,0.009459,-0.017811,0.000024,0.204541,0.204533,0.161980,0.405042,0.000000,0.000000,0.000000,0.000000,0.000000,0.000000,0.000000,0.000000,0.000000,0.000000,0.000000,0.000000,0.019480,3,0
1350000,-0.009136,34.807617,-0.029811,-0.031403,25.934002,-0.009527,-0.000390,0.037380,1.570117,-0.075020,0.003974,-0.001023,-0.000736,-0.010760,0.000052,0.000615,0.009457,0.041542,-0.044592,0.204708,0.204699,0.161621,0.402236,0.000000,0.000000,0.000000,0.000000,0.000000,0.000000,0.000000,0.000000,0.000000,0.000000,0.000000,0.000000,0.041150,3,0
1360000,-0.009131,35.065617,-0.029638,-0.031226,25.935337,-0.009299,-0.000351,0.037287,1.570112,-0.074762,0.004035,-0.001112,-0.000755,-0.010683,0.000052,0.000292,0.009454,-0.040344,0.009892,0.204876,0.204866,0.161263,0.399503,0.000000,0.000000,0.000000,0.000000,0.000000,0.000000,0.000000,0.000000,0.000000,0.000000,0.000000,0.000000,0.040023,3,0
1370000,-0.009123,35.325680,-0.029108,-0.031018,25.940344,-0.008663,-0.000316,0.037475,1.570103,-0.074886,0.004094,-0.001332,-0.000773,-0.010720,0.000052,0.000165,0.009447,0.019703,0.023316,0.205045,0.205035,0.160905,0.396843,0.000000,0.000000,0.000000,0.000000,0.000000,0.000000,0.000000,0.000000,0.000000,0.000000,0.000000,0.000000,0.021105,3,0
1380000,-0.009116,35.587780,-0.030264,-0.030886,25.949060,-0.009988,-0.000281,0.037953,1.570102,-0.075380,0.004154,-0.000965,-0.000791,-0.010873,0.000053,0.001241,0.009437,0.077652,-0.039732,0.205215,0.205204,0.160547,0.394254,0.000000,0.000000,0.000000,0.000000,0.000000,0.000000,0.000000,0.000000,0.000000,0.000000,0.000000,0.000000,0.075545,3,0
1390000,-0.009108,35.848480,-0.030775,-0.030813,25.955154,-0.010741,-0.000250,0.038219,1.570105,-0.075596,0.004214,-0.000823,-0.000810,-0.010941,0.000053,0.000239,0.009430,0.034134,-0.015229,0.205388,0.205376,0.160191,0.391735,0.000000,0.000000,0.000000,0.000000,0.000000,0.000000,0.000000,0.000000,0.000000,0.000000,0.000000,0.000000,0.034198,3,0
1400000,-0.009100,36.111889,-0.031900,-0.030719,25.965919,-0.012366,-0.000227,0.038877,1.570088,-0.076297,0.004273,-0.000475,-0.000828,-0.011164,0.000054,0.002239,0.009421,0.111317,-0.037716,0.205561,0.205549,0.159835,0.389284,0.000000,0.000000,0.000000,0.000000,0.000000,0.000000,0.000000,0.000000,0.000000,0.000000,0.000000,0.000000,0.107883,3,0
1410000,-0.009088,36.373867,-0.031488,-0.030579,25.974056,-0.011940,-0.000182,0.039319,1.570085,-0.076710,0.004331,-0.000677,-0.000847,-0.011298,0.000055,0.000793,0.009411,0.066463,0.020444,0.205737,0.205724,0.159481,0.386900,0.000000,0.000000,0.000000,0.000000,0.000000,0.000000,0.000000,0.000000,0.000000,0.000000,0.000000,0.000000,0.064826,3,0
1420000,-0.009076,36.637169,-0.031818,-0.030439,25.984350,-0.012318,-0.000155,0.039938,1.570085,-0.077348,0.004390,-0.000616,-0.000866,-0.011506,0.000056,0.001717,0.009398,0.102589,-0.007554,0.205914,0.205900,0.159128,0.384581,0.000000,0.000000,0.000000,0.000000,0.000000,0.000000,0.000000,0.000000,0.000000,0.000000,0.000000,0.000000,0.099483,3,0
1430000,-0.009063,36.897675,-0.032516,-0.030346,25.989511,-0.013164,-0.000117,0.040139,1.570086,-0.077461,0.004448,-0.000408,-0.000885,-0.011544,0.000056,0.000143,0.009385,0.018093,-0.021603,0.206093,0.206078,0.158776,0.382326,0.000000,0.000000,0.000000,0.000000,0.000000,0.000000,0.000000,0.000000,0.000000,0.000000,0.000000,0.000000,0.019682,3,0
1440000,-0.009050,37.160896,-0.032956,-0.030230,25.999571,-0.013649,-0.000074,0.040739,1.570088,-0.078049,0.004505,-0.000309,-0.000904,-0.011743,0.000057,0.001502,0.009371,0.095478,-0.011304,0.206274,0.206258,0.158427,0.380134,0.000000,0.000000,0.000000,0.000000,0.000000,0.000000,0.000000,0.000000,0.000000,0.000000,0.000000,0.000000,0.092637,3,0
1450000,-0.009035,37.419945,-0.032974,-0.030152,26.001963,-0.013797,-0.000039,0.040701,1.570096,-0.077873,0.004563,-0.000349,-0.000924,-0.011683,0.000057,0.000150,0.009357,-0.028690,0.004480,0.206456,0.206440,0.158079,0.378003,0.000000,0.000000,0.000000,0.000000,0.000000,0.000000,0.000000,0.000000,0.000000,0.000000,0.000000,0.000000,0.029138,3,0
1460000,-0.009018,37.681053,-0.033394,-0.029893,26.008091,-0.014395,-0.000010,0.040962,1.570086,-0.078058,0.004619,-0.000249,-0.000944,-0.011747,0.000057,0.000180,0.009340,0.030296,-0.010518,0.206641,0.206624,0.157733,0.375932,0.000000,0.000000,0.000000,0.000000,0.000000,0.000000,0.000000,0.000000,0.000000,0.000000,0.000000,0.000000,0.030610,3,0
1470000,-0.008998,37.938690,-0.032220,-0.029752,26.007729,-0.012816,0.000021,0.040701,1.570095,-0.077620,0.004675,-0.000733,-0.000964,-0.011592,0.000057,0.001249,0.009322,-0.071838,0.049936,0.206828,0.206810,0.157390,0.373918,0.000000,0.000000,0.000000,0.000000,0.000000,0.000000,0.000000,0.000000,0.000000,0.000000,0.000000,0.000000,0.069936,3,0
1480000,-0.008979,38.200474,-0.031926,-0.029600,26.014999,-0.012664,0.000053,0.041066,1.570087,-0.077909,0.004731,-0.000902,-0.000984,-0.011695,0.000057,0.000432,0.009300,0.048225,0.016453,0.207016,0.206998,0.157049,0.371963,0.000000,0.000000,0.000000,0.000000,0.000000,0.000000,0.000000,0.000000,0.000000,0.000000,0.000000,0.000000,0.047420,3,0
1490000,-0.008956,38.459465,-0.031196,-0.029364,26.017040,-0.011547,0.000087,0.040984,1.570096,-0.077699,0.004786,-0.001222,-0.001005,-0.011618,0.000057,0.000380,0.009278,-0.034721,0.032584,0.207206,0.207187,0.156711,0.370062,0.000000,0.000000,0.000000,0.000000,0.000000,0.000000,0.000000,0.000000,0.000000,0.000000,0.000000,0.000000,0.034696,3,0
1500000,-0.008934,38.718456,-0.031054,-0.029255,26.019056,-0.011327,0.000125,0.040903,1.570091,-0.077489,0.004841,-0.001314,-0.001025,-0.011541,0.000056,0.000230,0.009255,-0.035309,0.009753,0.207399,0.207378,0.156375,0.368216,0.000000,0.000000,0.000000,0.000000,0.000000,0.000000,0.000000,0.000000,0.000000,0.000000,0.000000,0.000000,0.035239,3,0
1510000,-0.008913,38.977451,-0.032243,-0.029027,26.020994,-0.012545,0.000172,0.040820,1.570087,-0.077281,0.004896,-0.000891,-0.001045,-0.011464,0.000056,0.000502,0.009230,-0.035889,-0.041584,0.207593,0.207571,0.156042,0.366421,0.000000,0.000000,0.000000,0.000000,0.000000,0.000000,0.000000,0.000000,0.000000,0.000000,0.000000,0.000000,0.035781,3,0
1520000,-0.008890,39.235756,-0.032784,-0.028912,26.021662,-0.013017,0.000206,0.040622,1.570085,-0.076953,0.004950,-0.000718,-0.001065,-0.011340,0.000055,0.000568,0.009208,-0.056362,-0.016357,0.207789,0.207766,0.155712,0.364679,0.000000,0.000000,0.000000,0.000000,0.000000,0.000000,0.000000,0.000000,0.000000,0.000000,0.000000,0.000000,0.055134,3,0
1530000,-0.008866,39.494759,-0.033818,-0.028700,26.023640,-0.014025,0.000254,0.040532,1.570075,-0.076745,0.005004,-0.000356,-0.001085,-0.011260,0.000055,0.000427,0.009182,-0.036366,-0.035119,0.207986,0.207963,0.155384,0.362987,0.000000,0.000000,0.000000,0.000000,0.000000,0.000000,0.000000,0.000000,0.000000,0.000000,0.000000,0.000000,0.036213,3,0
1540000,-0.008837,39.755817,-0.033396,-0.028423,26.029177,-0.013690,0.000304,0.040764,1.570081,-0.076874,0.005056,-0.000583,-0.001106,-0.011310,0.000055,0.000175,0.009156,0.022675,0.021980,0.208186,0.208161,0.155060,0.361343,0.000000,0.000000,0.000000,0.000000,0.000000,0.000000,0.000000,0.000000,0.000000,0.000000,0.000000,0.000000,0.023609,3,0
1550000,-0.008806,40.016838,-0.032197,-0.028204,26.034611,-0.012191,0.000354,0.040973,1.570070,-0.076984,0.005107,-0.001117,-0.001127,-0.011353,0.000055,0.000516,0.009125,0.019985,0.051962,0.208387,0.208361,0.154739,0.359747,0.000000,0.000000,0.000000,0.000000,0.000000,0.000000,0.000000,0.000000,0.000000,0.000000,0.000000,0.000000,0.021213,3,0
1560000,-0.008777,40.276451,-0.033007,-0.028026,26.037365,-0.013201,0.000398,0.040953,1.570067,-0.076859,0.005159,-0.000838,-0.001148,-0.011303,0.000055,0.000211,0.009092,-0.022423,-0.026826,0.208589,0.208563,0.154421,0.358197,0.000000,0.000000,0.000000,0.000000,0.000000,0.000000,0.000000,0.000000,0.000000,0.000000,0.000000,0.000000,0.023360,3,0
1570000,-0.008744,40.538807,-0.032673,-0.027756,26.045078,-0.012922,0.000435,0.041363,1.570069,-0.077171,0.005210,-0.001038,-0.001169,-0.011430,0.000056,0.000572,0.009060,0.055882,0.018561,0.208793,0.208765,0.154107,0.356693,0.000000,0.000000,0.000000,0.000000,0.000000,0.000000,0.000000,0.000000,0.000000,0.000000,0.000000,0.000000,0.054644,3,0
1580000,-0.008710,40.799030,-0.032989,-0.027469,26.048944,-0.013225,0.000471,0.041432,1.570069,-0.077129,0.005260,-0.000961,-0.001190,-0.011413,0.000056,0.000031,0.009024,-0.007767,-0.007297,0.208998,0.208969,0.153796,0.355233,0.000000,0.000000,0.000000,0.000000,0.000000,0.000000,0.000000,0.000000,0.000000,0.000000,0.000000,0.000000,0.011492,3,0
1590000,-0.008673,41.061993,-0.032046,-0.027261,26.057642,-0.012160,0.000523,0.041932,1.570057,-0.077512,0.005309,-0.001415,-0.001211,-0.011573,0.000057,0.001093,0.008989,0.069916,0.042535,0.209204,0.209174,0.153489,0.353815,0.000000,0.000000,0.000000,0.000000,0.000000,0.000000,0.000000,0.000000,0.000000,0.000000,0.000000,0.000000,0.068041,3,0
1600000,-0.008637,41.324200,-0.032388,-0.027053,26.064890,-0.012490,0.000558,0.042301,1.570062,-0.077762,0.005358,-0.001335,-0.001232,-0.011680,0.000057,0.000356,0.008949,0.045414,-0.008311,0.209411,0.209380,0.153185,0.352440,0.000000,0.000000,0.000000,0.000000,0.000000,0.000000,0.000000,0.000000,0.000000,0.000000,0.000000,0.000000,0.044670,3,0
1610000,-0.008601,41.582874,-0.033026,-0.026809,26.065470,-0.013174,0.000601,0.042088,1.570072,-0.077449,0.005407,-0.001110,-0.001253,-0.011545,0.000057,0.000619,0.008911,-0.057838,-0.020519,0.209619,0.209587,0.152884,0.351104,0.000000,0.000000,0.000000,0.000000,0.000000,0.000000,0.000000,0.000000,0.000000,0.000000,0.000000,0.000000,0.056479,3,0
1620000,-0.008564,41.845718,-0.033959,-0.026576,26.073805,-0.014158,0.000640,0.042544,1.570062,-0.077781,0.005456,-0.000793,-0.001273,-0.011692,0.000058,0.000771,0.008872,0.061184,-0.031069,0.209828,0.209795,0.152588,0.349808,0.000000,0.000000,0.000000,0.000000,0.000000,0.000000,0.000000,0.000000,0.000000,0.000000,0.000000,0.000000,0.059658,3,0
1630000,-0.008526,42.105015,-0.034911,-0.026434,26.075537,-0.015338,0.000676,0.042418,1.570069,-0.077556,0.005503,-0.000445,-0.001294,-0.011592,0.000057,0.000474,0.008834,-0.042717,-0.032174,0.210038,0.210004,0.152295,0.348550,0.000000,0.000000,0.000000,0.000000,0.000000,0.000000,0.000000,0.000000,0.000000,0.000000,0.000000,0.000000,0.042102,3,0
1640000,-0.008486,42.366375,-0.035076,-0.026207,26.080942,-0.015400,0.000715,0.042631,1.570059,-0.077641,0.005550,-0.000444,-0.001315,-0.011631,0.000057,0.000054,0.008794,0.016037,-0.000335,0.210248,0.210213,0.152006,0.347329,0.000000,0.000000,0.000000,0.000000,0.000000,0.000000,0.000000,0.000000,0.000000,0.000000,0.000000,0.000000,0.017650,3,0
1650000,-0.008444,42.629082,-0.035641,-0.025943,26.088810,-0.016154,0.000761,0.043052,1.570061,-0.077918,0.005596,-0.000286,-0.001336,-0.011759,0.000058,0.000501,0.008751,0.052807,-0.015753,0.210459,0.210422,0.151720,0.346144,0.000000,0.000000,0.000000,0.000000,0.000000,0.000000,0.000000,0.000000,0.000000,0.000000,0.000000,0.000000,0.051648,3,0
1660000,-0.008400,42.887520,-0.034970,-0.025684,26.088558,-0.015156,0.000807,0.042740,1.570066,-0.077549,0.005640,-0.000618,-0.001358,-0.011585,0.000057,0.000989,0.008707,-0.070827,0.032390,0.210670,0.210632,0.151439,0.344993,0.000000,0.000000,0.000000,0.000000,0.000000,0.000000,0.000000,0.000000,0.000000,0.000000,0.000000,0.000000,0.068847,3,0
1670000,-0.008357,43.148754,-0.035310,-0.025526,26.093498,-0.015339,0.000860,0.042896,1.570065,-0.077594,0.005685,-0.000540,-0.001379,-0.011607,0.000057,0.000033,0.008661,0.008678,-0.007428,0.210881,0.210842,0.151161,0.343876,0.000000,0.000000,0.000000,0.000000,0.000000,0.000000,0.000000,0.000000,0.000000,0.000000,0.000000,0.000000,0.011830,3,0
1680000,-0.008313,43.409946,-0.036388,-0.025195,26.098314,-0.016726,0.000903,0.043053,1.570064,-0.077626,0.005729,-0.000146,-0.001400,-0.011624,0.000058,0.000235,0.008614,0.005821,-0.036633,0.211092,0.211052,0.150888,0.342791,0.000000,0.000000,0.000000,0.000000,0.000000,0.000000,0.000000,0.000000,0.000000,0.000000,0.000000,0.000000,0.010027,3,0
1690000,-0.008266,43.666882,-0.036535,-0.024921,26.095209,-0.016584,0.000947,0.042472,1.570058,-0.077045,0.005772,-0.000119,-0.001421,-0.011337,0.000056,0.002186,0.008568,-0.116268,-0.000272,0.211303,0.211261,0.150618,0.341738,0.000000,0.000000,0.000000,0.000000,0.000000,0.000000,0.000000,0.000000,0.000000,0.000000,0.000000,0.000000,0.112479,3,0
1700000,-0.008217,43.925934,-0.036766,-0.024589,26.095907,-0.016571,0.000982,0.042248,1.570049,-0.076772,0.005815,-0.000074,-0.001442,-0.011200,0.000055,0.000502,0.008518,-0.055107,-0.003119,0.211513,0.211471,0.150352,0.340714,0.000000,0.000000,0.000000,0.000000,0.000000,0.000000,0.000000,0.000000,0.000000,0.000000,0.000000,0.000000,0.053797,3,0
1710000,-0.008170,44.188480,-0.037587,-0.024410,26.103088,-0.017535,0.001021,0.042627,1.570052,-0.076988,0.005856,0.000197,-0.001463,-0.011311,0.000056,0.000425,0.008467,0.043652,-0.025725,0.211723,0.211679,0.150091,0.339720,0.000000,0.000000,0.000000,0.000000,0.000000,0.000000,0.000000,0.000000,0.000000,0.000000,0.000000,0.000000,0.042892,3,0
