time_us,pos_x,pos_y,pos_z,vel_x,vel_y,vel_z,roll,pitch,yaw,bias_ax,bias_ay,bias_az,bias_gx,bias_gy,bias_gz,nis,innov_x,innov_y,innov_z,cov_pos_x,cov_pos_y,cov_pos_z,cov_yaw,des_speed,des_heading,des_climb,pid_speed,pid_yaw,pid_alt,speed_meas,yaw_meas,climb_meas,fwd_accel,yaw_rate,vert_accel,drift_m,nav_mode,mission_state
0,-0.000003,0.149998,0.000002,-0.000425,24.999681,0.000433,-0.000010,0.000000,1.570781,0.000000,0.000000,0.000000,0.000000,0.000000,0.000000,0.006250,0.000004,-0.249999,-0.000004,2.400038,2.400038,3.600017,1.000518,0.000000,0.000000,0.000000,0.000000,0.000000,0.000000,0.000000,0.000000,0.000000,0.000000,0.000000,0.000000,0.149998,1,0
10000,-0.000008,0.359543,-0.013728,-0.000930,24.999365,0.001015,-0.000010,-0.000002,1.570776,0.000000,0.000000,0.000000,0.000000,0.000000,0.000000,0.002526,0.000012,-0.141568,-0.036641,1.714420,1.714420,2.250079,1.001073,0.000000,0.000000,0.000000,0.000000,0.000000,0.000000,0.000000,0.000000,0.000000,0.000000,0.000000,0.000000,0.101117,3,0
20000,-0.000016,0.580099,-0.016182,-0.001258,24.998976,0.001730,-0.000011,-0.000002,1.570769,0.000002,0.000000,0.000000,0.000000,0.000000,-0.000000,0.002284,0.000021,-0.132443,-0.009060,1.333616,1.333616,1.636554,1.001655,0.000000,0.000000,0.000000,0.000000,0.000000,0.000000,0.000000,0.000000,0.000000,0.000000,0.000000,0.000000,0.103005,3,0
30000,-0.000027,0.816501,-0.013816,-0.001717,24.998566,0.002256,-0.000025,-0.000011,1.570753,0.000003,0.000000,-0.000000,-0.000000,0.000000,-0.000000,0.000776,0.000034,-0.074688,0.010938,1.091392,1.091392,1.286065,1.002257,0.000000,0.000000,0.000000,0.000000,0.000000,0.000000,0.000000,0.000000,0.000000,0.000000,0.000000,0.000000,0.061103,3,0
40000,-0.000041,1.055318,-0.007655,-0.002123,24.998234,0.002948,-0.000020,-0.000018,1.570738,0.000005,0.000000,-0.000001,-0.000000,0.000000,-0.000000,0.000908,0.000049,-0.072541,0.034732,0.923811,0.923811,1.059385,1.002869,0.000000,0.000000,0.000000,0.000000,0.000000,0.000000,0.000000,0.000000,0.000000,0.000000,0.000000,0.000000,0.061372,3,0
50000,-0.000058,1.298233,0.001738,-0.002544,24.997799,0.004019,-0.000026,-0.000027,1.570721,0.000007,0.000000,-0.000003,-0.000000,0.000000,-0.000000,0.000955,0.000067,-0.052927,0.062313,0.801036,0.801036,0.900822,1.003484,0.000000,0.000000,0.000000,0.000000,0.000000,0.000000,0.000000,0.000000,0.000000,0.000000,0.000000,0.000000,0.045861,3,0
60000,-0.000077,1.548486,0.006702,-0.002979,24.997717,0.004970,-0.000034,-0.000039,1.570706,0.000007,0.000000,-0.000006,-0.000000,0.000000,-0.000000,0.000206,0.000088,0.002346,0.037642,0.707270,0.707270,0.783741,1.004094,0.000000,0.000000,0.000000,0.000000,0.000000,0.000000,0.000000,0.000000,0.000000,0.000000,0.000000,0.000000,0.002071,3,0
70000,-0.000099,1.797475,0.003729,-0.003350,24.997585,0.005364,-0.000031,-0.000048,1.570692,0.000008,0.000000,-0.000004,-0.000000,0.000000,-0.000000,0.000114,0.000111,-0.009360,-0.026195,0.633370,0.633370,0.693801,1.004688,0.000000,0.000000,0.000000,0.000000,0.000000,0.000000,0.000000,0.000000,0.000000,0.000000,0.000000,0.000000,0.008373,3,0
80000,-0.000123,2.043656,0.001372,-0.003677,24.997232,0.005738,-0.000036,-0.000050,1.570679,0.000012,0.000000,-0.000001,-0.000000,0.000000,-0.000000,0.000318,0.000136,-0.039680,-0.023275,0.573673,0.573673,0.622594,1.005260,0.000000,0.000000,0.000000,0.000000,0.000000,0.000000,0.000000,0.000000,0.000000,0.000000,0.000000,0.000000,0.035886,3,0
90000,-0.000149,2.294705,-0.001318,-0.004008,24.997276,0.005993,-0.000049,-0.000046,1.570666,0.000010,0.000000,0.000002,-0.000000,0.000000,-0.000000,0.000152,0.000163,0.012327,-0.029242,0.524488,0.524488,0.564865,1.005801,0.000000,0.000000,0.000000,0.000000,0.000000,0.000000,0.000000,0.000000,0.000000,0.000000,0.000000,0.000000,0.011250,3,0
100000,-0.000177,2.547865,0.003611,-0.004392,24.997492,0.007305,-0.000051,-0.000055,1.570668,0.000004,0.000000,-0.000006,-0.000000,-0.000000,0.000000,0.000725,0.000193,0.039582,0.056396,0.483304,0.483304,0.517162,1.006301,0.000000,0.000000,0.000000,0.000000,0.000000,0.000000,0.000000,0.000000,0.000000,0.000000,0.000000,0.000000,0.036395,3,0
110000,-0.000208,2.799705,0.008063,-0.004778,24.997650,0.008465,-0.000046,-0.000064,1.570665,-0.000000,0.000000,-0.000016,-0.000000,-0.000000,0.000000,0.000560,0.000225,0.024967,0.054986,0.448354,0.448354,0.477121,1.006754,0.000000,0.000000,0.000000,0.000000,0.000000,0.000000,0.000000,0.000000,0.000000,0.000000,0.000000,0.000000,0.023103,3,0
120000,-0.000243,3.049109,0.010128,-0.005266,24.997536,0.009427,-0.000045,-0.000077,1.570657,0.000001,0.000000,-0.000022,-0.000000,-0.000000,0.000000,0.000121,0.000261,-0.008207,0.026737,0.418359,0.418359,0.443071,1.007150,0.000000,0.000000,0.000000,0.000000,0.000000,0.000000,0.000000,0.000000,0.000000,0.000000,0.000000,0.000000,0.007638,3,0
130000,-0.000281,3.303036,0.011703,-0.005764,24.998152,0.010219,-0.000054,-0.000079,1.570646,-0.000014,0.000000,-0.000027,-0.000000,-0.000000,0.000000,0.000640,0.000300,0.060454,0.021379,0.392369,0.392369,0.413797,1.007481,0.000000,0.000000,0.000000,0.000000,0.000000,0.000000,0.000000,0.000000,0.000000,0.000000,0.000000,0.000000,0.056501,3,0
140000,-0.000321,3.558244,0.008707,-0.006142,24.999239,0.010400,-0.000057,-0.000068,1.570635,-0.000039,0.000000,-0.000013,-0.000000,-0.000001,0.000000,0.001484,0.000342,0.084824,-0.047978,0.369667,0.369667,0.388393,1.007739,0.000000,0.000000,0.000000,0.000000,0.000000,0.000000,0.000000,0.000000,0.000000,0.000000,0.000000,0.000000,0.079598,3,0
150000,-0.000364,3.805256,0.006194,-0.006562,24.998461,0.010400,-0.000061,-0.000070,1.570630,-0.000022,0.000000,0.000001,-0.000000,-0.000000,0.000000,0.000699,0.000387,-0.051121,-0.042975,0.349696,0.349696,0.366172,1.007915,0.000000,0.000000,0.000000,0.000000,0.000000,0.000000,0.000000,0.000000,0.000000,0.000000,0.000000,0.000000,0.048142,3,0
160000,-0.000409,4.056343,0.004889,-0.006913,24.998642,0.010860,-0.000066,-0.000063,1.570613,-0.000030,0.000001,0.000010,-0.000000,-0.000001,0.000000,0.000157,0.000433,0.019938,-0.024518,0.332022,0.332022,0.346600,1.008002,0.000000,0.000000,0.000000,0.000000,0.000000,0.000000,0.000000,0.000000,0.000000,0.000000,0.000000,0.000000,0.018840,3,0
170000,-0.000457,4.308814,0.005502,-0.007330,24.999228,0.011587,-0.000078,-0.000061,1.570600,-0.000050,0.000001,0.000006,-0.000000,-0.000001,0.000000,0.000364,0.000483,0.047155,0.009075,0.316298,0.316298,0.329260,1.007991,0.000000,0.000000,0.000000,0.000000,0.000000,0.000000,0.000000,0.000000,0.000000,0.000000,0.000000,0.000000,0.044671,3,0
180000,-0.000507,4.563482,0.004015,-0.007654,25.000593,0.011753,-0.000083,-0.000051,1.570592,-0.000094,0.000001,0.000020,-0.000000,-0.000002,0.000000,0.001514,0.000534,0.092863,-0.030761,0.302248,0.302248,0.313817,1.007875,0.000000,0.000000,0.000000,0.000000,0.000000,0.000000,0.000000,0.000000,0.000000,0.000000,0.000000,0.000000,0.088186,3,0
190000,-0.000560,4.815272,0.005427,-0.008139,25.001175,0.012668,-0.000090,-0.000058,1.570576,-0.000113,0.000001,0.000007,-0.000000,-0.000003,0.000000,0.000322,0.000589,0.036968,0.025788,0.289643,0.289643,0.300003,1.007645,0.000000,0.000000,0.000000,0.000000,0.000000,0.000000,0.000000,0.000000,0.000000,0.000000,0.000000,0.000000,0.035188,3,0
200000,-0.000615,5.068227,0.004857,-0.008455,25.002218,0.013181,-0.000097,-0.000056,1.570568,-0.000150,0.000002,0.000015,-0.000000,-0.000004,0.000000,0.000675,0.000645,0.063478,-0.014690,0.278297,0.278297,0.287598,1.007295,0.000000,0.000000,0.000000,0.000000,0.000000,0.000000,0.000000,0.000000,0.000000,0.000000,0.000000,0.000000,0.060537,3,0
210000,-0.000672,5.318664,0.003751,-0.008811,25.002367,0.013237,-0.000105,-0.000051,1.570553,-0.000156,0.000002,0.000032,-0.000000,-0.000004,0.000000,0.000130,0.000703,0.009301,-0.026985,0.268056,0.268056,0.276421,1.006816,0.000000,0.000000,0.000000,0.000000,0.000000,0.000000,0.000000,0.000000,0.000000,0.000000,0.000000,0.000000,0.008911,3,0
220000,-0.000731,5.573720,0.006028,-0.009255,25.004602,0.014652,-0.000115,-0.000028,1.570550,-0.000238,0.000003,-0.000001,-0.000000,-0.000006,0.000000,0.002541,0.000764,0.116683,0.048191,0.258790,0.258790,0.266321,1.006202,0.000000,0.000000,0.000000,0.000000,0.000000,0.000000,0.000000,0.000000,0.000000,0.000000,0.000000,0.000000,0.111653,3,0
230000,-0.000795,5.826286,0.005235,-0.009754,25.005840,0.014947,-0.000120,-0.000017,1.570545,-0.000284,0.000003,0.000016,-0.000000,-0.000008,0.000000,0.000660,0.000829,0.060394,-0.022082,0.250389,0.250389,0.257172,1.005446,0.000000,0.000000,0.000000,0.000000,0.000000,0.000000,0.000000,0.000000,0.000000,0.000000,0.000000,0.000000,0.057879,3,0
240000,-0.000861,6.076611,0.006241,-0.010230,25.005949,0.015916,-0.000133,-0.000025,1.570536,-0.000289,0.000004,-0.000001,-0.000000,-0.000008,0.000000,0.000074,0.000897,0.006604,0.020502,0.242760,0.242760,0.248866,1.004541,0.000000,0.000000,0.000000,0.000000,0.000000,0.000000,0.000000,0.000000,0.000000,0.000000,0.000000,0.000000,0.006395,3,0
250000,-0.000929,6.328029,0.006971,-0.010628,25.006601,0.016766,-0.000145,-0.000011,1.570526,-0.000320,0.000005,-0.000013,-0.000000,-0.000009,0.000000,0.000223,0.000967,0.034584,0.014073,0.235824,0.235824,0.241314,1.003481,0.000000,0.000000,0.000000,0.000000,0.000000,0.000000,0.000000,0.000000,0.000000,0.000000,0.000000,0.000000,0.033238,3,0
260000,-0.001000,6.582727,0.007952,-0.010990,25.009399,0.017992,-0.000147,0.000023,1.570519,-0.000437,0.000006,-0.000033,-0.000000,-0.000014,0.000000,0.002419,0.001039,0.121100,0.020615,0.229510,0.229511,0.234436,1.002258,0.000000,0.000000,0.000000,0.000000,0.000000,0.000000,0.000000,0.000000,0.000000,0.000000,0.000000,0.000000,0.116472,3,0
270000,-0.001073,6.835991,0.009307,-0.011459,25.011379,0.019216,-0.000148,0.000039,1.570516,-0.000524,0.000007,-0.000064,-0.000000,-0.000017,0.000000,0.001312,0.001114,0.085043,0.030748,0.223761,0.223761,0.228165,1.000869,0.000000,0.000000,0.000000,0.000000,0.000000,0.000000,0.000000,0.000000,0.000000,0.000000,0.000000,0.000000,0.081879,3,0
280000,-0.001149,7.090113,0.010151,-0.011905,25.014029,0.020153,-0.000152,0.000066,1.570501,-0.000646,0.000008,-0.000083,-0.000000,-0.000022,0.000000,0.001995,0.001192,0.110064,0.017451,0.218524,0.218524,0.222443,0.999307,0.000000,0.000000,0.000000,0.000000,0.000000,0.000000,0.000000,0.000000,0.000000,0.000000,0.000000,0.000000,0.106061,3,0
290000,-0.001226,7.342201,0.012042,-0.012203,25.015331,0.022028,-0.000161,0.000083,1.570487,-0.000710,0.000010,-0.000137,-0.000000,-0.000025,0.000000,0.000828,0.001271,0.054705,0.046470,0.213754,0.213754,0.217219,0.997567,0.000000,0.000000,0.000000,0.000000,0.000000,0.000000,0.000000,0.000000,0.000000,0.000000,0.000000,0.000000,0.052771,3,0
300000,-0.001306,7.597260,0.011857,-0.012662,25.019114,0.022544,-0.000173,0.000139,1.570483,-0.000887,0.000012,-0.000123,-0.000000,-0.000032,0.000000,0.003199,0.001353,0.140544,-0.011682,0.209410,0.209410,0.212446,0.995645,0.000000,0.000000,0.000000,0.000000,0.000000,0.000000,0.000000,0.000000,0.000000,0.000000,0.000000,0.000000,0.135645,3,0
310000,-0.001387,7.851695,0.012686,-0.012975,25.022392,0.023687,-0.000183,0.000179,1.570473,-0.001052,0.000013,-0.000146,-0.000001,-0.000040,0.000000,0.002523,0.001436,0.123996,0.017190,0.205456,0.205456,0.208087,0.993536,0.000000,0.000000,0.000000,0.000000,0.000000,0.000000,0.000000,0.000000,0.000000,0.000000,0.000000,0.000000,0.119759,3,0
320000,-0.001470,8.104218,0.011682,-0.013424,25.024328,0.023486,-0.000195,0.000200,1.570455,-0.001149,0.000016,-0.000094,-0.000001,-0.000044,0.000000,0.000969,0.001521,0.068316,-0.036700,0.201862,0.201862,0.204105,0.991237,0.000000,0.000000,0.000000,0.000000,0.000000,0.000000,0.000000,0.000000,0.000000,0.000000,0.000000,0.000000,0.066034,3,0
330000,-0.001555,8.359549,0.013033,-0.013799,25.028860,0.025023,-0.000203,0.000278,1.570452,-0.001379,0.000018,-0.000143,-0.000001,-0.000055,0.000000,0.003986,0.001609,0.153715,0.033234,0.198598,0.198598,0.200469,0.988743,0.000000,0.000000,0.000000,0.000000,0.000000,0.000000,0.000000,0.000000,0.000000,0.000000,0.000000,0.000000,0.148635,3,0
340000,-0.001642,8.611060,0.013443,-0.014128,25.030001,0.025827,-0.000202,0.000287,1.570437,-0.001439,0.000021,-0.000151,-0.000001,-0.000058,0.000000,0.000231,0.001697,0.037491,0.004658,0.195639,0.195640,0.197151,0.986053,0.000000,0.000000,0.000000,0.000000,0.000000,0.000000,0.000000,0.000000,0.000000,0.000000,0.000000,0.000000,0.036305,3,0
350000,-0.001730,8.867263,0.014054,-0.014531,25.035616,0.026933,-0.000198,0.000383,1.570420,-0.001745,0.000024,-0.000168,-0.000001,-0.000073,0.000000,0.005453,0.001788,0.183547,0.010631,0.192963,0.192964,0.194125,0.983164,0.000000,0.000000,0.000000,0.000000,0.000000,0.000000,0.000000,0.000000,0.000000,0.000000,0.000000,0.000000,0.177652,3,0
360000,-0.001820,9.119729,0.013240,-0.014898,25.037670,0.026480,-0.000203,0.000423,1.570412,-0.001861,0.000027,-0.000109,-0.000001,-0.000080,0.000000,0.000901,0.001880,0.066441,-0.034123,0.190549,0.190549,0.191370,0.980073,0.000000,0.000000,0.000000,0.000000,0.000000,0.000000,0.000000,0.000000,0.000000,0.000000,0.000000,0.000000,0.064356,3,0
370000,-0.001912,9.374874,0.011892,-0.015369,25.042545,0.025739,-0.000214,0.000520,1.570400,-0.002141,0.000030,-0.000014,-0.000001,-0.000095,0.000000,0.004153,0.001974,0.151896,-0.051487,0.188377,0.188378,0.188863,0.976779,0.000000,0.000000,0.000000,0.000000,0.000000,0.000000,0.000000,0.000000,0.000000,0.000000,0.000000,0.000000,0.147140,3,0
380000,-0.002006,9.628267,0.011595,-0.015754,25.045784,0.025623,-0.000212,0.000580,1.570395,-0.002326,0.000034,0.000020,-0.000002,-0.000105,0.000000,0.001526,0.002071,0.095490,-0.017998,0.186431,0.186431,0.186586,0.973282,0.000000,0.000000,0.000000,0.000000,0.000000,0.000000,0.000000,0.000000,0.000000,0.000000,0.000000,0.000000,0.092545,3,0
390000,-0.002101,9.883042,0.012809,-0.016114,25.050585,0.027389,-0.000217,0.000672,1.570389,-0.002610,0.000039,-0.000042,-0.000002,-0.000121,0.000001,0.003332,0.002168,0.140248,0.030907,0.184694,0.184695,0.184522,0.969581,0.000000,0.000000,0.000000,0.000000,0.000000,0.000000,0.000000,0.000000,0.000000,0.000000,0.000000,0.000000,0.135947,3,0
400000,-0.002198,10.140367,0.012955,-0.016522,25.058372,0.027874,-0.000220,0.000835,1.570389,-0.003083,0.000044,-0.000033,-0.000002,-0.000149,0.000001,0.008066,0.002267,0.223368,-0.004402,0.183153,0.183153,0.182655,0.965675,0.000000,0.000000,0.000000,0.000000,0.000000,0.000000,0.000000,0.000000,0.000000,0.000000,0.000000,0.000000,0.216560,3,0
410000,-0.002296,10.396545,0.012060,-0.016834,25.065065,0.027171,-0.000233,0.000972,1.570382,-0.003491,0.000049,0.000053,-0.000002,-0.000173,0.000001,0.005758,0.002367,0.184632,-0.039137,0.181793,0.181793,0.180971,0.961566,0.000000,0.000000,0.000000,0.000000,0.000000,0.000000,0.000000,0.000000,0.000000,0.000000,0.000000,0.000000,0.179053,3,0
420000,-0.002393,10.651624,0.011870,-0.017100,25.070597,0.027126,-0.000232,0.001083,1.570380,-0.003829,0.000054,0.000089,-0.000003,-0.000194,0.000001,0.003536,0.002468,0.147054,-0.015566,0.180602,0.180602,0.179456,0.957255,0.000000,0.000000,0.000000,0.000000,0.000000,0.000000,0.000000,0.000000,0.000000,0.000000,0.000000,0.000000,0.142648,3,0
430000,-0.002492,10.906830,0.012537,-0.017469,25.076262,0.028087,-0.000241,0.001193,1.570374,-0.004190,0.000060,0.000058,-0.000003,-0.000217,0.000001,0.003684,0.002569,0.150347,0.013132,0.179568,0.179568,0.178097,0.952743,0.000000,0.000000,0.000000,0.000000,0.000000,0.000000,0.000000,0.000000,0.000000,0.000000,0.000000,0.000000,0.145869,3,0
440000,-0.002592,11.162756,0.013061,-0.017870,25.082895,0.029125,-0.000242,0.001339,1.570365,-0.004622,0.000067,0.000038,-0.000004,-0.000245,0.000001,0.004873,0.002672,0.173389,0.008007,0.178681,0.178681,0.176883,0.948033,0.000000,0.000000,0.000000,0.000000,0.000000,0.000000,0.000000,0.000000,0.000000,0.000000,0.000000,0.000000,0.168246,3,0
450000,-0.002692,11.418210,0.013571,-0.018135,25.089060,0.029903,-0.000235,0.001474,1.570358,-0.005026,0.000074,0.000019,-0.000004,-0.000272,0.000001,0.003943,0.002775,0.155944,0.007265,0.177931,0.177931,0.175803,0.943126,0.000000,0.000000,0.000000,0.000000,0.000000,0.000000,0.000000,0.000000,0.000000,0.000000,0.000000,0.000000,0.151343,3,0
460000,-0.002793,11.673208,0.014942,-0.018419,25.094669,0.031988,-0.000239,0.001598,1.570344,-0.005400,0.000082,-0.000079,-0.000005,-0.000297,0.000001,0.003341,0.002878,0.138975,0.036519,0.177308,0.177308,0.174847,0.938027,0.000000,0.000000,0.000000,0.000000,0.000000,0.000000,0.000000,0.000000,0.000000,0.000000,0.000000,0.000000,0.134898,3,0
470000,-0.002894,11.931279,0.015485,-0.018757,25.104540,0.032829,-0.000239,0.001826,1.570330,-0.006072,0.000090,-0.000100,-0.000005,-0.000344,0.000001,0.009463,0.002981,0.241740,0.007489,0.176803,0.176803,0.174006,0.932739,0.000000,0.000000,0.000000,0.000000,0.000000,0.000000,0.000000,0.000000,0.000000,0.000000,0.000000,0.000000,0.234635,3,0
480000,-0.002995,12.184766,0.014489,-0.019085,25.108095,0.031944,-0.000247,0.001913,1.570314,-0.006311,0.000099,0.000033,-0.000006,-0.000361,0.000002,0.001459,0.003086,0.082965,-0.046132,0.176408,0.176408,0.173271,0.927266,0.000000,0.000000,0.000000,0.000000,0.000000,0.000000,0.000000,0.000000,0.000000,0.000000,0.000000,0.000000,0.080581,3,0
490000,-0.003097,12.440178,0.014020,-0.019378,25.114407,0.031524,-0.000254,0.002069,1.570301,-0.006751,0.000108,0.000116,-0.000006,-0.000394,0.000002,0.003645,0.003190,0.147506,-0.027623,0.176115,0.176115,0.172634,0.921612,0.000000,0.000000,0.000000,0.000000,0.000000,0.000000,0.000000,0.000000,0.000000,0.000000,0.000000,0.000000,0.143210,3,0
500000,-0.003198,12.698648,0.013602,-0.019634,25.125158,0.031343,-0.000251,0.002328,1.570299,-0.007519,0.000118,0.000195,-0.000007,-0.000451,0.000002,0.010209,0.003294,0.249851,-0.025840,0.175917,0.175917,0.172087,0.915783,0.000000,0.000000,0.000000,0.000000,0.000000,0.000000,0.000000,0.000000,0.000000,0.000000,0.000000,0.000000,0.242547,3,0
510000,-0.003298,12.955471,0.014642,-0.019833,25.133503,0.032786,-0.000247,0.002538,1.570279,-0.008122,0.000129,0.000115,-0.000008,-0.000497,0.000002,0.005949,0.003398,0.190062,0.025245,0.175806,0.175806,0.171622,0.909784,0.000000,0.000000,0.000000,0.000000,0.000000,0.000000,0.000000,0.000000,0.000000,0.000000,0.000000,0.000000,0.184522,3,0
520000,-0.003397,13.210673,0.015463,-0.020055,25.139496,0.034170,-0.000254,0.002694,1.570268,-0.008553,0.000140,0.000059,-0.000009,-0.000531,0.000002,0.002865,0.003500,0.131944,0.017006,0.175776,0.175776,0.171234,0.903620,0.000000,0.000000,0.000000,0.000000,0.000000,0.000000,0.000000,0.000000,0.000000,0.000000,0.000000,0.000000,0.128124,3,0
530000,-0.003496,13.464866,0.015460,-0.020281,25.144005,0.034202,-0.000246,0.002817,1.570261,-0.008874,0.000152,0.000100,-0.000010,-0.000556,0.000002,0.001497,0.003602,0.095349,-0.012269,0.175821,0.175821,0.170914,0.897298,0.000000,0.000000,0.000000,0.000000,0.000000,0.000000,0.000000,0.000000,0.000000,0.000000,0.000000,0.000000,0.092621,3,0
540000,-0.003596,13.722141,0.015054,-0.020614,25.153160,0.033827,-0.000236,0.003069,1.570254,-0.009562,0.000165,0.000193,-0.000011,-0.000612,0.000003,0.006519,0.003704,0.198934,-0.026546,0.175934,0.175934,0.170658,0.890824,0.000000,0.000000,0.000000,0.000000,0.000000,0.000000,0.000000,0.000000,0.000000,0.000000,0.000000,0.000000,0.193133,3,0
550000,-0.003695,13.977213,0.015290,-0.020932,25.159052,0.034388,-0.000231,0.003216,1.570242,-0.009991,0.000178,0.000207,-0.000012,-0.000648,0.000003,0.002353,0.003807,0.120475,-0.003852,0.176110,0.176110,0.170460,0.884205,0.000000,0.000000,0.000000,0.000000,0.000000,0.000000,0.000000,0.000000,0.000000,0.000000,0.000000,0.000000,0.116997,3,0
560000,-0.003794,14.234197,0.015922,-0.021171,25.167850,0.035385,-0.000230,0.003449,1.570229,-0.010660,0.000192,0.000170,-0.000013,-0.000705,0.000003,0.005460,0.003909,0.183408,0.009948,0.176343,0.176344,0.170314,0.877448,0.000000,0.000000,0.000000,0.000000,0.000000,0.000000,0.000000,0.000000,0.000000,0.000000,0.000000,0.000000,0.178058,3,0
570000,-0.003891,14.493073,0.016561,-0.021369,25.179585,0.036433,-0.000221,0.003776,1.570215,-0.011576,0.000207,0.000132,-0.000014,-0.000784,0.000003,0.009680,0.004009,0.244398,0.009814,0.176629,0.176629,0.170214,0.870560,0.000000,0.000000,0.000000,0.000000,0.000000,0.000000,0.000000,0.000000,0.000000,0.000000,0.000000,0.000000,0.237236,3,0
580000,-0.003989,14.752651,0.017316,-0.021689,25.192421,0.037761,-0.000221,0.004146,1.570197,-0.012589,0.000223,0.000080,-0.000016,-0.000873,0.000004,0.011281,0.004110,0.263708,0.013477,0.176962,0.176962,0.170157,0.863548,0.000000,0.000000,0.000000,0.000000,0.000000,0.000000,0.000000,0.000000,0.000000,0.000000,0.000000,0.000000,0.255961,3,0
590000,-0.004086,15.008224,0.017154,-0.021987,25.198830,0.037445,-0.000226,0.004332,1.570179,-0.013074,0.000239,0.000156,-0.000017,-0.000917,0.000004,0.002521,0.004211,0.123275,-0.019206,0.177338,0.177339,0.170138,0.856421,0.000000,0.000000,0.000000,0.000000,0.000000,0.000000,0.000000,0.000000,0.000000,0.000000,0.000000,0.000000,0.119701,3,0
600000,-0.004182,15.267487,0.016561,-0.022158,25.211233,0.036501,-0.000220,0.004702,1.570167,-0.014061,0.000256,0.000296,-0.000019,-0.001008,0.000004,0.009928,0.004310,0.245337,-0.034272,0.177752,0.177753,0.170152,0.849186,0.000000,0.000000,0.000000,0.000000,0.000000,0.000000,0.000000,0.000000,0.000000,0.000000,0.000000,0.000000,0.238105,3,0
610000,-0.004278,15.522730,0.017520,-0.022440,25.216946,0.037767,-0.000209,0.004864,1.570158,-0.014494,0.000274,0.000209,-0.000021,-0.001048,0.000004,0.001864,0.004409,0.105224,0.020799,0.178201,0.178202,0.170195,0.841851,0.000000,0.000000,0.000000,0.000000,0.000000,0.000000,0.000000,0.000000,0.000000,0.000000,0.000000,0.000000,0.102188,3,0
620000,-0.004371,15.782277,0.018720,-0.022570,25.229771,0.039519,-0.000216,0.005257,1.570143,-0.015535,0.000293,0.000085,-0.000022,-0.001147,0.000005,0.010043,0.004506,0.247499,0.028765,0.178680,0.178681,0.170264,0.834424,0.000000,0.000000,0.000000,0.000000,0.000000,0.000000,0.000000,0.000000,0.000000,0.000000,0.000000,0.000000,0.240168,3,0
630000,-0.004464,16.040154,0.018034,-0.022792,25.239553,0.038682,-0.000217,0.005561,1.570136,-0.016336,0.000313,0.000253,-0.000024,-0.001225,0.000005,0.005872,0.004602,0.186615,-0.038344,0.179186,0.179187,0.170355,0.826913,0.000000,0.000000,0.000000,0.000000,0.000000,0.000000,0.000000,0.000000,0.000000,0.000000,0.000000,0.000000,0.181097,3,0
640000,-0.004556,16.298159,0.016949,-0.022957,25.249582,0.037205,-0.000217,0.005871,1.570116,-0.017155,0.000333,0.000487,-0.000026,-0.001307,0.000006,0.006100,0.004696,0.187067,-0.052057,0.179715,0.179716,0.170465,0.819327,0.000000,0.000000,0.000000,0.000000,0.000000,0.000000,0.000000,0.000000,0.000000,0.000000,0.000000,0.000000,0.181520,3,0
650000,-0.004646,16.557486,0.018005,-0.023185,25.261711,0.038816,-0.000206,0.006268,1.570103,-0.018170,0.000354,0.000377,-0.000028,-0.001409,0.000006,0.008436,0.004790,0.227144,0.023837,0.180264,0.180265,0.170591,0.811672,0.000000,0.000000,0.000000,0.000000,0.000000,0.000000,0.000000,0.000000,0.000000,0.000000,0.000000,0.000000,0.220369,3,0
660000,-0.004736,16.815128,0.018347,-0.023432,25.270855,0.039384,-0.000207,0.006571,1.570094,-0.018928,0.000376,0.000385,-0.000031,-0.001487,0.000006,0.004485,0.004883,0.166485,-0.001854,0.180829,0.180830,0.170729,0.803959,0.000000,0.000000,0.000000,0.000000,0.000000,0.000000,0.000000,0.000000,0.000000,0.000000,0.000000,0.000000,0.161536,3,0
670000,-0.004825,17.072899,0.018582,-0.023683,25.280228,0.039871,-0.000201,0.006869,1.570072,-0.019702,0.000399,0.000412,-0.000033,-0.001568,0.000007,0.004527,0.004975,0.167177,-0.005810,0.181409,0.181410,0.170877,0.796194,0.000000,0.000000,0.000000,0.000000,0.000000,0.000000,0.000000,0.000000,0.000000,0.000000,0.000000,0.000000,0.162195,3,0
680000,-0.004912,17.333811,0.019114,-0.023859,25.294817,0.040838,-0.000197,0.007359,1.570060,-0.020962,0.000422,0.000390,-0.000036,-0.001702,0.000007,0.011540,0.005066,0.267132,0.004389,0.182000,0.182000,0.171033,0.788385,0.000000,0.000000,0.000000,0.000000,0.000000,0.000000,0.000000,0.000000,0.000000,0.000000,0.000000,0.000000,0.259076,3,0
690000,-0.004998,17.591793,0.018682,-0.023921,25.304386,0.040259,-0.000198,0.007687,1.570056,-0.021754,0.000447,0.000537,-0.000038,-0.001788,0.000008,0.004552,0.005154,0.165104,-0.029705,0.182599,0.182600,0.171193,0.780541,0.000000,0.000000,0.000000,0.000000,0.000000,0.000000,0.000000,0.000000,0.000000,0.000000,0.000000,0.000000,0.160158,3,0
700000,-0.005082,17.849291,0.017813,-0.024128,25.312935,0.038945,-0.000192,0.007984,1.570054,-0.022463,0.000472,0.000763,-0.000041,-0.001866,0.000008,0.003753,0.005242,0.145573,-0.044740,0.183204,0.183205,0.171357,0.772670,0.000000,0.000000,0.000000,0.000000,0.000000,0.000000,0.000000,0.000000,0.000000,0.000000,0.000000,0.000000,0.141220,3,0
710000,-0.005164,18.107525,0.018401,-0.024240,25.322729,0.039692,-0.000178,0.008317,1.570041,-0.023287,0.000498,0.000727,-0.000044,-0.001959,0.000008,0.004480,0.005327,0.166294,0.006790,0.183814,0.183814,0.171522,0.764778,0.000000,0.000000,0.000000,0.000000,0.000000,0.000000,0.000000,0.000000,0.000000,0.000000,0.000000,0.000000,0.161282,3,0
720000,-0.005245,18.368320,0.018757,-0.024467,25.336723,0.040120,-0.000170,0.008825,1.570036,-0.024523,0.000525,0.000735,-0.000047,-0.002100,0.000009,0.009774,0.005412,0.245905,-0.001584,0.184425,0.184426,0.171685,0.756874,0.000000,0.000000,0.000000,0.000000,0.000000,0.000000,0.000000,0.000000,0.000000,0.000000,0.000000,0.000000,0.238404,3,0
730000,-0.005325,18.627979,0.020149,-0.024657,25.348713,0.042149,-0.000171,0.009252,1.570015,-0.025561,0.000553,0.000550,-0.000050,-0.002221,0.000009,0.006895,0.005495,0.203634,0.034407,0.185036,0.185037,0.171846,0.748964,0.000000,0.000000,0.000000,0.000000,0.000000,0.000000,0.000000,0.000000,0.000000,0.000000,0.000000,0.000000,0.197425,3,0
740000,-0.005403,18.887735,0.021130,-0.024756,25.360714,0.043665,-0.000169,0.009692,1.569999,-0.026607,0.000581,0.000445,-0.000054,-0.002344,0.000010,0.006674,0.005576,0.202282,0.019257,0.185646,0.185647,0.172003,0.741057,0.000000,0.000000,0.000000,0.000000,0.000000,0.000000,0.000000,0.000000,0.000000,0.000000,0.000000,0.000000,0.196098,3,0
750000,-0.005479,19.145737,0.022410,-0.024846,25.369450,0.045642,-0.000162,0.010019,1.569979,-0.027346,0.000611,0.000284,-0.000057,-0.002433,0.000010,0.003362,0.005654,0.141195,0.029158,0.186252,0.186253,0.172154,0.733158,0.000000,0.000000,0.000000,0.000000,0.000000,0.000000,0.000000,0.000000,0.000000,0.000000,0.000000,0.000000,0.136922,3,0
760000,-0.005553,19.405708,0.021138,-0.024881,25.381525,0.043509,-0.000149,0.010465,1.569957,-0.028415,0.000641,0.000620,-0.000061,-0.002564,0.000011,0.007129,0.005730,0.201168,-0.060326,0.186854,0.186855,0.172299,0.725275,0.000000,0.000000,0.000000,0.000000,0.000000,0.000000,0.000000,0.000000,0.000000,0.000000,0.000000,0.000000,0.194982,3,0
770000,-0.005624,19.667011,0.022628,-0.024944,25.395937,0.045745,-0.000140,0.011018,1.569936,-0.029701,0.000672,0.000412,-0.000065,-0.002724,0.000012,0.009464,0.005805,0.239260,0.036480,0.187449,0.187450,0.172435,0.717415,0.000000,0.000000,0.000000,0.000000,0.000000,0.000000,0.000000,0.000000,0.000000,0.000000,0.000000,0.000000,0.231853,3,0
780000,-0.005693,19.928387,0.023098,-0.025071,25.410128,0.046421,-0.000137,0.011581,1.569923,-0.030986,0.000703,0.000409,-0.000069,-0.002887,0.000012,0.009016,0.005877,0.236238,0.000221,0.188037,0.188038,0.172563,0.709582,0.000000,0.000000,0.000000,0.000000,0.000000,0.000000,0.000000,0.000000,0.000000,0.000000,0.000000,0.000000,0.228905,3,0
790000,-0.005763,20.189205,0.021786,-0.025264,25.423267,0.044481,-0.000119,0.012091,1.569917,-0.032160,0.000735,0.000769,-0.000073,-0.003038,0.000013,0.007969,0.005949,0.213266,-0.061968,0.188617,0.188618,0.172680,0.701784,0.000000,0.000000,0.000000,0.000000,0.000000,0.000000,0.000000,0.000000,0.000000,0.000000,0.000000,0.000000,0.206642,3,0
800000,-0.005830,20.448217,0.020421,-0.025306,25.433115,0.042470,-0.000108,0.012467,1.569897,-0.033001,0.000769,0.001142,-0.000077,-0.003148,0.000013,0.004335,0.006019,0.151104,-0.063085,0.189188,0.189189,0.172786,0.694027,0.000000,0.000000,0.000000,0.000000,0.000000,0.000000,0.000000,0.000000,0.000000,0.000000,0.000000,0.000000,0.146456,3,0
810000,-0.005896,20.706692,0.019353,-0.025477,25.441813,0.040959,-0.000094,0.012797,1.569877,-0.033735,0.000803,0.001453,-0.000081,-0.003246,0.000014,0.003194,0.006088,0.130543,-0.052017,0.189748,0.189749,0.172881,0.686315,0.000000,0.000000,0.000000,0.000000,0.000000,0.000000,0.000000,0.000000,0.000000,0.000000,0.000000,0.000000,0.126551,3,0
820000,-0.005960,20.967783,0.019561,-0.025480,25.455067,0.041102,-0.000078,0.013338,1.569857,-0.034928,0.000837,0.001495,-0.000086,-0.003407,0.000015,0.007126,0.006155,0.209921,-0.007148,0.190298,0.190298,0.172964,0.678653,0.000000,0.000000,0.000000,0.000000,0.000000,0.000000,0.000000,0.000000,0.000000,0.000000,0.000000,0.000000,0.203350,3,0
830000,-0.006022,21.230202,0.019487,-0.025621,25.470503,0.041098,-0.000067,0.013973,1.569843,-0.036344,0.000872,0.001597,-0.000091,-0.003601,0.000015,0.009889,0.006219,0.246881,-0.017031,0.190836,0.190836,0.173034,0.671048,0.000000,0.000000,0.000000,0.000000,0.000000,0.000000,0.000000,0.000000,0.000000,0.000000,0.000000,0.000000,0.239105,3,0
840000,-0.006083,21.487593,0.018384,-0.025729,25.476818,0.039441,-0.000056,0.014221,1.569832,-0.036829,0.000909,0.001926,-0.000095,-0.003669,0.000016,0.001586,0.006282,0.083702,-0.052685,0.191361,0.191362,0.173092,0.663503,0.000000,0.000000,0.000000,0.000000,0.000000,0.000000,0.000000,0.000000,0.000000,0.000000,0.000000,0.000000,0.081260,3,0
850000,-0.006142,21.747629,0.019150,-0.025839,25.487806,0.040662,-0.000049,0.014681,1.569826,-0.037787,0.000945,0.001844,-0.000101,-0.003805,0.000016,0.004382,0.006345,0.164186,0.012687,0.191875,0.191876,0.173135,0.656024,0.000000,0.000000,0.000000,0.000000,0.000000,0.000000,0.000000,0.000000,0.000000,0.000000,0.000000,0.000000,0.159054,3,0
860000,-0.006199,22.008371,0.019421,-0.025861,25.499941,0.041000,-0.000038,0.015192,1.569805,-0.038861,0.000983,0.001873,-0.000106,-0.003960,0.000017,0.005374,0.006404,0.182344,-0.004857,0.192376,0.192376,0.173165,0.648613,0.000000,0.000000,0.000000,0.000000,0.000000,0.000000,0.000000,0.000000,0.000000,0.000000,0.000000,0.000000,0.176607,3,0
870000,-0.006254,22.269812,0.020610,-0.025965,25.513126,0.042826,-0.000031,0.015756,1.569784,-0.040047,0.001021,0.001697,-0.000112,-0.004133,0.000018,0.006561,0.006462,0.199787,0.026761,0.192863,0.192864,0.173181,0.641277,0.000000,0.000000,0.000000,0.000000,0.000000,0.000000,0.000000,0.000000,0.000000,0.000000,0.000000,0.000000,0.193466,3,0
880000,-0.006308,22.529377,0.020014,-0.025961,25.522812,0.042036,-0.000028,0.016170,1.569773,-0.040868,0.001059,0.001929,-0.000117,-0.004255,0.000018,0.003241,0.006517,0.137003,-0.035706,0.193337,0.193338,0.173183,0.634017,0.000000,0.000000,0.000000,0.000000,0.000000,0.000000,0.000000,0.000000,0.000000,0.000000,0.000000,0.000000,0.132737,3,0
890000,-0.006359,22.792219,0.019995,-0.026013,25.538187,0.042128,-0.000019,0.016846,1.569765,-0.042286,0.001098,0.002028,-0.000123,-0.004470,0.000019,0.008964,0.006572,0.235161,-0.015417,0.193798,0.193799,0.173171,0.626837,0.000000,0.000000,0.000000,0.000000,0.000000,0.000000,0.000000,0.000000,0.000000,0.000000,0.000000,0.000000,0.227655,3,0
900000,-0.006410,23.052513,0.019239,-0.026034,25.548908,0.041024,-0.000008,0.017304,1.569744,-0.043203,0.001138,0.002300,-0.000129,-0.004611,0.000020,0.003960,0.006624,0.151073,-0.040976,0.194245,0.194246,0.173144,0.619741,0.000000,0.000000,0.000000,0.000000,0.000000,0.000000,0.000000,0.000000,0.000000,0.000000,0.000000,0.000000,0.146323,3,0
910000,-0.006458,23.313505,0.018927,-0.026084,25.560608,0.040585,0.000007,0.017824,1.569725,-0.044236,0.001179,0.002467,-0.000135,-0.004772,0.000020,0.004714,0.006674,0.168978,-0.025196,0.194679,0.194680,0.173103,0.612731,0.000000,0.000000,0.000000,0.000000,0.000000,0.000000,0.000000,0.000000,0.000000,0.000000,0.000000,0.000000,0.163622,3,0
920000,-0.006505,23.575832,0.018035,-0.026127,25.574577,0.039066,0.000019,0.018455,1.569708,-0.045504,0.001220,0.002772,-0.000142,-0.004973,0.000021,0.007182,0.006723,0.206051,-0.045038,0.195099,0.195100,0.173048,0.605810,0.000000,0.000000,0.000000,0.000000,0.000000,0.000000,0.000000,0.000000,0.000000,0.000000,0.000000,0.000000,0.199456,3,0
930000,-0.006550,23.833649,0.017322,-0.026085,25.580370,0.038126,0.000038,0.018691,1.569708,-0.045894,0.001261,0.003036,-0.000148,-0.005035,0.000022,0.000884,0.006770,0.062857,-0.038508,0.195506,0.195507,0.172979,0.598981,0.000000,0.000000,0.000000,0.000000,0.000000,0.000000,0.000000,0.000000,0.000000,0.000000,0.000000,0.000000,0.061160,3,0
940000,-0.006594,24.092194,0.016043,-0.026102,25.587385,0.036470,0.000051,0.018982,1.569700,-0.046413,0.001304,0.003438,-0.000155,-0.005120,0.000022,0.001667,0.006815,0.083286,-0.057840,0.195900,0.195900,0.172896,0.592246,0.000000,0.000000,0.000000,0.000000,0.000000,0.000000,0.000000,0.000000,0.000000,0.000000,0.000000,0.000000,0.080836,3,0
950000,-0.006634,24.354059,0.015129,-0.026037,25.600172,0.035227,0.000061,0.019584,1.569675,-0.047556,0.001346,0.003748,-0.000162,-0.005310,0.000023,0.005698,0.006858,0.182493,-0.044547,0.196281,0.196281,0.172800,0.585606,0.000000,0.000000,0.000000,0.000000,0.000000,0.000000,0.000000,0.000000,0.000000,0.000000,0.000000,0.000000,0.176648,3,0
960000,-0.006673,24.615297,0.014237,-0.026009,25.611671,0.033946,0.000070,0.020115,1.569666,-0.048557,0.001389,0.004052,-0.000169,-0.005479,0.000024,0.004389,0.006898,0.159046,-0.043312,0.196649,0.196649,0.172690,0.579064,0.000000,0.000000,0.000000,0.000000,0.000000,0.000000,0.000000,0.000000,0.000000,0.000000,0.000000,0.000000,0.153978,3,0
970000,-0.006708,24.873953,0.015772,-0.025971,25.618507,0.036133,0.000095,0.020402,1.569661,-0.049040,0.001433,0.003754,-0.000176,-0.005561,0.000024,0.001231,0.006937,0.076601,0.041413,0.197004,0.197004,0.172566,0.572621,0.000000,0.000000,0.000000,0.000000,0.000000,0.000000,0.000000,0.000000,0.000000,0.000000,0.000000,0.000000,0.074390,3,0
980000,-0.006743,25.136597,0.015228,-0.025985,25.632343,0.035445,0.000106,0.021065,1.569648,-0.050282,0.001476,0.003978,-0.000184,-0.005777,0.000025,0.006335,0.006972,0.195576,-0.031621,0.197347,0.197347,0.172430,0.566279,0.000000,0.000000,0.000000,0.000000,0.000000,0.000000,0.000000,0.000000,0.000000,0.000000,0.000000,0.000000,0.189262,3,0
990000,-0.006777,25.398592,0.014425,-0.025977,25.644859,0.034445,0.000120,0.021659,1.569635,-0.051375,0.001521,0.004269,-0.000192,-0.005970,0.000026,0.005004,0.007007,0.171339,-0.040423,0.197678,0.197678,0.172281,0.560039,0.000000,0.000000,0.000000,0.000000,0.000000,0.000000,0.000000,0.000000,0.000000,0.000000,0.000000,0.000000,0.165832,3,0
1000000,-0.006809,25.656662,0.014643,-0.026023,25.650196,0.034698,0.000142,0.021869,1.569620,-0.051685,0.001566,0.004302,-0.000200,-0.006025,0.000026,0.000388,0.007041,0.048374,-0.004560,0.197998,0.197998,0.172120,0.553901,0.000000,0.000000,0.000000,0.000000,0.000000,0.000000,0.000000,0.000000,0.000000,0.000000,0.000000,0.000000,0.047271,3,0
1010000,-0.006839,25.916769,0.014812,-0.025918,25.659063,0.034893,0.000163,0.022275,1.569616,-0.052381,0.001611,0.004345,-0.000208,-0.006152,0.000026,0.001905,0.007072,0.108313,-0.006282,0.198306,0.198306,0.171946,0.547867,0.000000,0.000000,0.000000,0.000000,0.000000,0.000000,0.000000,0.000000,0.000000,0.000000,0.000000,0.000000,0.104956,3,0
1020000,-0.006868,26.176912,0.014479,-0.025959,25.667921,0.034558,0.000186,0.022691,1.569613,-0.053068,0.001656,0.004522,-0.000216,-0.006279,0.000027,0.001930,0.007102,0.106541,-0.023975,0.198604,0.198603,0.171761,0.541937,0.000000,0.000000,0.000000,0.000000,0.000000,0.000000,0.000000,0.000000,0.000000,0.000000,0.000000,0.000000,0.103243,3,0
1030000,-0.006895,26.440386,0.014716,-0.025946,25.682598,0.034814,0.000208,0.023425,1.569598,-0.054388,0.001702,0.004545,-0.000225,-0.006526,0.000028,0.006725,0.007131,0.204130,-0.003782,0.198891,0.198890,0.171565,0.536112,0.000000,0.000000,0.000000,0.000000,0.000000,0.000000,0.000000,0.000000,0.000000,0.000000,0.000000,0.000000,0.197483,3,0
1040000,-0.006922,26.698565,0.014373,-0.025939,25.687683,0.034424,0.000233,0.023626,1.569581,-0.054647,0.001748,0.004729,-0.000233,-0.006575,0.000028,0.000361,0.007159,0.039904,-0.024393,0.199168,0.199168,0.171357,0.530392,0.000000,0.000000,0.000000,0.000000,0.000000,0.000000,0.000000,0.000000,0.000000,0.000000,0.000000,0.000000,0.039194,3,0
1050000,-0.006948,26.957464,0.013178,-0.025992,25.693998,0.032722,0.000244,0.023898,1.569576,-0.055039,0.001795,0.005142,-0.000242,-0.006651,0.000029,0.001061,0.007186,0.059977,-0.054049,0.199436,0.199435,0.171139,0.524777,0.000000,0.000000,0.000000,0.000000,0.000000,0.000000,0.000000,0.000000,0.000000,0.000000,0.000000,0.000000,0.058396,3,0
1060000,-0.006972,27.221041,0.013360,-0.026004,25.708439,0.032871,0.000265,0.024652,1.569551,-0.056333,0.001841,0.005175,-0.000251,-0.006904,0.000030,0.006367,0.007212,0.198593,-0.005080,0.199695,0.199694,0.170911,0.519268,0.000000,0.000000,0.000000,0.000000,0.000000,0.000000,0.000000,0.000000,0.000000,0.000000,0.000000,0.000000,0.192111,3,0
1070000,-0.006995,27.480619,0.013900,-0.026022,25.715626,0.033639,0.000291,0.024983,1.569537,-0.056817,0.001888,0.005115,-0.000260,-0.007000,0.000030,0.000900,0.007237,0.074024,0.007337,0.199945,0.199943,0.170673,0.513864,0.000000,0.000000,0.000000,0.000000,0.000000,0.000000,0.000000,0.000000,0.000000,0.000000,0.000000,0.000000,0.071899,3,0
1080000,-0.007018,27.742889,0.013747,-0.025993,25.727627,0.033373,0.000304,0.025590,1.569532,-0.057814,0.001935,0.005245,-0.000270,-0.007202,0.000031,0.003794,0.007260,0.152313,-0.017234,0.200186,0.200185,0.170426,0.508565,0.000000,0.000000,0.000000,0.000000,0.000000,0.000000,0.000000,0.000000,0.000000,0.000000,0.000000,0.000000,0.147397,3,0
1090000,-0.007039,28.004490,0.013033,-0.025945,25.738216,0.032278,0.000329,0.026121,1.569525,-0.058658,0.001983,0.005532,-0.000279,-0.007375,0.000032,0.002888,0.007281,0.128471,-0.036915,0.200420,0.200418,0.170170,0.503371,0.000000,0.000000,0.000000,0.000000,0.000000,0.000000,0.000000,0.000000,0.000000,0.000000,0.000000,0.000000,0.124377,3,0
1100000,-0.007058,28.263432,0.013017,-0.025887,25.744097,0.032471,0.000346,0.026363,1.569517,-0.058958,0.002031,0.005627,-0.000289,-0.007437,0.000032,0.000368,0.007302,0.045673,-0.012135,0.200647,0.200645,0.169905,0.498282,0.000000,0.000000,0.000000,0.000000,0.000000,0.000000,0.000000,0.000000,0.000000,0.000000,0.000000,0.000000,0.044706,3,0
1110000,-0.007075,28.527071,0.013994,-0.025800,25.758142,0.033660,0.000369,0.027101,1.569500,-0.060169,0.002078,0.005433,-0.000299,-0.007692,0.000033,0.005564,0.007321,0.184250,0.023155,0.200867,0.200864,0.169632,0.493297,0.000000,0.000000,0.000000,0.000000,0.000000,0.000000,0.000000,0.000000,0.000000,0.000000,0.000000,0.000000,0.178224,3,0
1120000,-0.007092,28.788017,0.013149,-0.025792,25.767294,0.032704,0.000392,0.027534,1.569488,-0.060824,0.002126,0.005768,-0.000309,-0.007833,0.000034,0.001885,0.007337,0.099379,-0.041961,0.201080,0.201077,0.169352,0.488415,0.000000,0.000000,0.000000,0.000000,0.000000,0.000000,0.000000,0.000000,0.000000,0.000000,0.000000,0.000000,0.096308,3,0
1130000,-0.007105,29.047634,0.014635,-0.025628,25.773859,0.034631,0.000409,0.027830,1.569478,-0.061198,0.002174,0.005432,-0.000320,-0.007913,0.000034,0.000805,0.007353,0.057011,0.041058,0.201287,0.201285,0.169064,0.483635,0.000000,0.000000,0.000000,0.000000,0.000000,0.000000,0.000000,0.000000,0.000000,0.000000,0.000000,0.000000,0.055556,3,0
1140000,-0.007118,29.308611,0.015449,-0.025611,25.782726,0.035579,0.000436,0.028277,1.569467,-0.061827,0.002222,0.005291,-0.000331,-0.008052,0.000035,0.001523,0.007366,0.095512,0.016637,0.201489,0.201486,0.168769,0.478958,0.000000,0.000000,0.000000,0.000000,0.000000,0.000000,0.000000,0.000000,0.000000,0.000000,0.000000,0.000000,0.092580,3,0
1150000,-0.007129,29.569592,0.016446,-0.025531,25.791483,0.037100,0.000466,0.028709,1.569460,-0.062439,0.002270,0.005099,-0.000342,-0.008188,0.000036,0.001482,0.007378,0.092873,0.022733,0.201686,0.201683,0.168468,0.474381,0.000000,0.000000,0.000000,0.000000,0.000000,0.000000,0.000000,0.000000,0.000000,0.000000,0.000000,0.000000,0.090035,3,0
1160000,-0.007138,29.832582,0.016820,-0.025362,25.803768,0.037396,0.000500,0.029361,1.569436,-0.063427,0.002318,0.005089,-0.000353,-0.008412,0.000037,0.003626,0.007387,0.149866,0.000251,0.201878,0.201874,0.168160,0.469905,0.000000,0.000000,0.000000,0.000000,0.000000,0.000000,0.000000,0.000000,0.000000,0.000000,0.000000,0.000000,0.144999,3,0
1170000,-0.007147,30.094875,0.016598,-0.025284,25.814648,0.037106,0.000526,0.029924,1.569428,-0.064254,0.002367,0.005260,-0.000364,-0.008603,0.000037,0.002611,0.007396,0.125299,-0.021290,0.202066,0.202062,0.167847,0.465528,0.000000,0.000000,0.000000,0.000000,0.000000,0.000000,0.000000,0.000000,0.000000,0.000000,0.000000,0.000000,0.121289,3,0
1180000,-0.007155,30.355139,0.015992,-0.025195,25.821856,0.036116,0.000562,0.030259,1.569423,-0.064662,0.002416,0.005552,-0.000375,-0.008699,0.000038,0.000820,0.007403,0.061686,-0.035008,0.202250,0.202246,0.167528,0.461249,0.000000,0.000000,0.000000,0.000000,0.000000,0.000000,0.000000,0.000000,0.000000,0.000000,0.000000,0.000000,0.060033,3,0
1190000,-0.007161,30.618763,0.015875,-0.025184,25.834818,0.036005,0.000587,0.030981,1.569418,-0.065712,0.002464,0.005687,-0.000386,-0.008947,0.000039,0.004136,0.007411,0.159170,-0.017071,0.202431,0.202426,0.167205,0.457068,0.000000,0.000000,0.000000,0.000000,0.000000,0.000000,0.000000,0.000000,0.000000,0.000000,0.000000,0.000000,0.153966,3,0
1200000,-0.007166,30.881001,0.015935,-0.025014,25.845230,0.036003,0.000612,0.031531,1.569409,-0.066464,0.002512,0.005772,-0.000398,-0.009128,0.000040,0.002123,0.007416,0.114082,-0.010705,0.202609,0.202603,0.166876,0.452982,0.000000,0.000000,0.000000,0.000000,0.000000,0.000000,0.000000,0.000000,0.000000,0.000000,0.000000,0.000000,0.110462,3,0
1210000,-0.007169,31.140528,0.014988,-0.024853,25.850695,0.034668,0.000634,0.031746,1.569401,-0.066668,0.002561,0.006175,-0.000409,-0.009178,0.000040,0.000521,0.007419,0.030651,-0.047175,0.202783,0.202777,0.166544,0.448991,0.000000,0.000000,0.000000,0.000000,0.000000,0.000000,0.000000,0.000000,0.000000,0.000000,0.000000,0.000000,0.030467,3,0
1220000,-0.007171,31.402088,0.013809,-0.024726,25.859680,0.033128,0.000663,0.032202,1.569386,-0.067256,0.002610,0.006644,-0.000421,-0.009325,0.000041,0.001779,0.007421,0.089132,-0.055061,0.202956,0.202949,0.166207,0.445093,0.000000,0.000000,0.000000,0.000000,0.000000,0.000000,0.000000,0.000000,0.000000,0.000000,0.000000,0.000000,0.086413,3,0
1230000,-0.007168,31.664301,0.015293,-0.024514,25.869740,0.035063,0.000703,0.032726,1.569364,-0.067949,0.002658,0.006274,-0.000433,-0.009498,0.000042,0.002094,0.007421,0.105787,0.041782,0.203126,0.203119,0.165867,0.441288,0.000000,0.000000,0.000000,0.000000,0.000000,0.000000,0.000000,0.000000,0.000000,0.000000,0.000000,0.000000,0.102460,3,0
1240000,-0.007165,31.924467,0.016412,-0.024395,25.876110,0.036669,0.000739,0.032995,1.569347,-0.068225,0.002706,0.006029,-0.000446,-0.009568,0.000042,0.000421,0.007417,0.042261,0.027702,0.203295,0.203287,0.165524,0.437575,0.000000,0.000000,0.000000,0.000000,0.000000,0.000000,0.000000,0.000000,0.000000,0.000000,0.000000,0.000000,0.041454,3,0
1250000,-0.007162,32.185993,0.015671,-0.024347,25.884884,0.035655,0.000768,0.033428,1.569340,-0.068752,0.002755,0.006377,-0.000458,-0.009704,0.000043,0.001307,0.007413,0.080212,-0.040195,0.203462,0.203454,0.165178,0.433951,0.000000,0.000000,0.000000,0.000000,0.000000,0.000000,0.000000,0.000000,0.000000,0.000000,0.000000,0.000000,0.077818,3,0
1260000,-0.007158,32.448849,0.015176,-0.024201,25.895744,0.034920,0.000803,0.034027,1.569320,-0.069516,0.002803,0.006642,-0.000470,-0.009905,0.000043,0.002359,0.007409,0.116783,-0.030861,0.203629,0.203620,0.164829,0.430415,0.000000,0.000000,0.000000,0.000000,0.000000,0.000000,0.000000,0.000000,0.000000,0.000000,0.000000,0.000000,0.113043,3,0
1270000,-0.007153,32.710987,0.015013,-0.024100,25.905376,0.034736,0.000825,0.034535,1.569298,-0.070120,0.002851,0.006800,-0.000483,-0.010066,0.000044,0.001439,0.007404,0.092365,-0.018610,0.203794,0.203785,0.164479,0.426967,0.000000,0.000000,0.000000,0.000000,0.000000,0.000000,0.000000,0.000000,0.000000,0.000000,0.000000,0.000000,0.089512,3,0
1280000,-0.007145,32.974442,0.015463,-0.023938,25.917122,0.035305,0.000855,0.035194,1.569285,-0.070954,0.002899,0.006755,-0.000496,-0.010291,0.000045,0.002662,0.007397,0.128315,0.003950,0.203960,0.203950,0.164126,0.423604,0.000000,0.000000,0.000000,0.000000,0.000000,0.000000,0.000000,0.000000,0.000000,0.000000,0.000000,0.000000,0.124161,3,0
1290000,-0.007137,33.232437,0.014853,-0.023820,25.919064,0.034583,0.000881,0.035127,1.569282,-0.070723,0.002947,0.007078,-0.000509,-0.010228,0.000045,0.000421,0.007388,-0.035862,-0.035578,0.204124,0.204114,0.163771,0.420326,0.000000,0.000000,0.000000,0.000000,0.000000,0.000000,0.000000,0.000000,0.000000,0.000000,0.000000,0.000000,0.035373,3,0
1300000,-0.007127,33.491142,0.014231,-0.023583,25.922321,0.033908,0.000908,0.035160,1.569265,-0.070624,0.002995,0.007403,-0.000522,-0.010202,0.000045,0.000256,0.007378,-0.015575,-0.035826,0.204289,0.204278,0.163416,0.417130,0.000000,0.000000,0.000000,0.000000,0.000000,0.000000,0.000000,0.000000,0.000000,0.000000,0.000000,0.000000,0.016651,3,0
1310000,-0.007116,33.751900,0.013292,-0.023340,25.929043,0.032775,0.000930,0.035461,1.569254,-0.070909,0.003043,0.007828,-0.000535,-0.010283,0.000045,0.000676,0.007365,0.043751,-0.047065,0.204455,0.204443,0.163059,0.414015,0.000000,0.000000,0.000000,0.000000,0.000000,0.000000,0.000000,0.000000,0.000000,0.000000,0.000000,0.000000,0.042850,3,0
1320000,-0.007101,34.012642,0.013137,-0.023136,25.935699,0.032658,0.000963,0.035746,1.569252,-0.071176,0.003090,0.007987,-0.000548,-0.010359,0.000046,0.000336,0.007351,0.041355,-0.017850,0.204620,0.204608,0.162701,0.410981,0.000000,0.000000,0.000000,0.000000,0.000000,0.000000,0.000000,0.000000,0.000000,0.000000,0.000000,0.000000,0.040570,3,0
1330000,-0.007085,34.272690,0.014531,-0.023046,25.941114,0.034491,0.000999,0.035934,1.569239,-0.071297,0.003137,0.007624,-0.000562,-0.010393,0.000046,0.000318,0.007336,0.019093,0.039306,0.204786,0.204773,0.162343,0.408025,0.000000,0.000000,0.000000,0.000000,0.000000,0.000000,0.000000,0.000000,0.000000,0.000000,0.000000,0.000000,0.019758,3,0
1340000,-0.007067,34.534775,0.014701,-0.022808,25.950045,0.034829,0.001035,0.036390,1.569230,-0.071790,0.003183,0.007676,-0.000576,-0.010539,0.000047,0.000971,0.007317,0.077049,-0.006423,0.204954,0.204939,0.161984,0.405146,0.000000,0.000000,0.000000,0.000000,0.000000,0.000000,0.000000,0.000000,0.000000,0.000000,0.000000,0.000000,0.074752,3,0
1350000,-0.007049,34.796829,0.013953,-0.022557,25.958853,0.033851,0.001062,0.036831,1.569227,-0.072259,0.003230,0.008046,-0.000589,-0.010679,0.000047,0.001141,0.007297,0.073299,-0.040590,0.205122,0.205107,0.161626,0.402342,0.000000,0.000000,0.000000,0.000000,0.000000,0.000000,0.000000,0.000000,0.000000,0.000000,0.000000,0.000000,0.071139,3,0
1360000,-0.007027,35.054756,0.015451,-0.022421,25.960173,0.035802,0.001106,0.036692,1.569220,-0.071942,0.003276,0.007652,-0.000604,-0.010582,0.000047,0.000702,0.007278,-0.049690,0.042752,0.205291,0.205275,0.161267,0.399613,0.000000,0.000000,0.000000,0.000000,0.000000,0.000000,0.000000,0.000000,0.000000,0.000000,0.000000,0.000000,0.048497,3,0
1370000,-0.007004,35.313393,0.016838,-0.022196,25.962692,0.037628,0.001142,0.036654,1.569209,-0.071754,0.003322,0.007298,-0.000618,-0.010524,0.000047,0.000382,0.007254,-0.029324,0.038065,0.205461,0.205445,0.160909,0.396956,0.000000,0.000000,0.000000,0.000000,0.000000,0.000000,0.000000,0.000000,0.000000,0.000000,0.000000,0.000000,0.029170,3,0
1380000,-0.006982,35.572056,0.016113,-0.021925,25.965162,0.036746,0.001180,0.036623,1.569198,-0.071570,0.003368,0.007693,-0.000632,-0.010468,0.000047,0.000428,0.007228,-0.029560,-0.041495,0.205633,0.205616,0.160552,0.394370,0.000000,0.000000,0.000000,0.000000,0.000000,0.000000,0.000000,0.000000,0.000000,0.000000,0.000000,0.000000,0.029394,3,0
1390000,-0.006957,35.833458,0.015635,-0.021730,25.972544,0.036004,0.001223,0.036976,1.569193,-0.071884,0.003413,0.007987,-0.000646,-0.010567,0.000047,0.000567,0.007203,0.049694,-0.031555,0.205807,0.205788,0.160196,0.391853,0.000000,0.000000,0.000000,0.000000,0.000000,0.000000,0.000000,0.000000,0.000000,0.000000,0.000000,0.000000,0.048487,3,0
1400000,-0.006930,36.091419,0.015671,-0.021451,25.973537,0.035920,0.001264,0.036822,1.569192,-0.071555,0.003458,0.008113,-0.000660,-0.010462,0.000047,0.000482,0.007176,-0.052750,-0.012540,0.205982,0.205962,0.159840,0.389405,0.000000,0.000000,0.000000,0.000000,0.000000,0.000000,0.000000,0.000000,0.000000,0.000000,0.000000,0.000000,0.051411,3,0
1410000,-0.006900,36.354183,0.016467,-0.021197,25.983276,0.037014,0.001306,0.037349,1.569188,-0.072094,0.003502,0.007943,-0.000675,-0.010637,0.000047,0.001267,0.007147,0.086853,0.016600,0.206158,0.206138,0.159486,0.387023,0.000000,0.000000,0.000000,0.000000,0.000000,0.000000,0.000000,0.000000,0.000000,0.000000,0.000000,0.000000,0.084153,3,0
1420000,-0.006872,36.614849,0.015777,-0.021087,25.989132,0.035999,0.001336,0.037564,1.569180,-0.072237,0.003546,0.008326,-0.000689,-0.010685,0.000048,0.000351,0.007116,0.022781,-0.039948,0.206336,0.206315,0.159133,0.384707,0.000000,0.000000,0.000000,0.000000,0.000000,0.000000,0.000000,0.000000,0.000000,0.000000,0.000000,0.000000,0.023040,3,0
1430000,-0.006841,36.877541,0.016395,-0.020856,25.998507,0.036541,0.001370,0.038075,1.569165,-0.072729,0.003589,0.008219,-0.000703,-0.010850,0.000049,0.001057,0.007085,0.080120,0.010032,0.206516,0.206494,0.158782,0.382455,0.000000,0.000000,0.000000,0.000000,0.000000,0.000000,0.000000,0.000000,0.000000,0.000000,0.000000,0.000000,0.077668,3,0
1440000,-0.006811,37.135395,0.015371,-0.020729,25.998949,0.035321,0.001399,0.037860,1.569154,-0.072344,0.003634,0.008744,-0.000718,-0.010721,0.000048,0.001113,0.007053,-0.063389,-0.053130,0.206698,0.206675,0.158433,0.380265,0.000000,0.000000,0.000000,0.000000,0.000000,0.000000,0.000000,0.000000,0.000000,0.000000,0.000000,0.000000,0.061592,3,0
1450000,-0.006778,37.397373,0.015828,-0.020494,26.006882,0.035636,0.001431,0.038250,1.569148,-0.072687,0.003676,0.008696,-0.000732,-0.010839,0.000049,0.000524,0.007021,0.056450,0.004137,0.206881,0.206857,0.158085,0.378136,0.000000,0.000000,0.000000,0.000000,0.000000,0.000000,0.000000,0.000000,0.000000,0.000000,0.000000,0.000000,0.054924,3,0
1460000,-0.006744,37.655880,0.016225,-0.020253,26.008358,0.036121,0.001478,0.038108,1.569147,-0.072406,0.003718,0.008692,-0.000747,-0.010740,0.000048,0.000357,0.006985,-0.046574,0.001109,0.207067,0.207041,0.157740,0.376066,0.000000,0.000000,0.000000,0.000000,0.000000,0.000000,0.000000,0.000000,0.000000,0.000000,0.000000,0.000000,0.045471,3,0
1470000,-0.006708,37.917828,0.016733,-0.019964,26.016092,0.036682,0.001526,0.038477,1.569145,-0.072722,0.003760,0.008628,-0.000762,-0.010853,0.000049,0.000460,0.006948,0.052723,0.005736,0.207254,0.207227,0.157397,0.374055,0.000000,0.000000,0.000000,0.000000,0.000000,0.000000,0.000000,0.000000,0.000000,0.000000,0.000000,0.000000,0.051343,3,0
1480000,-0.006673,38.179737,0.015747,-0.019739,26.023619,0.035465,0.001564,0.038836,1.569139,-0.073019,0.003802,0.009132,-0.000776,-0.010961,0.000049,0.000827,0.006910,0.049126,-0.051569,0.207443,0.207415,0.157056,0.372101,0.000000,0.000000,0.000000,0.000000,0.000000,0.000000,0.000000,0.000000,0.000000,0.000000,0.000000,0.000000,0.047888,3,0
1490000,-0.006633,38.442966,0.016446,-0.019451,26.033421,0.036214,0.001596,0.039388,1.569123,-0.073524,0.003842,0.008985,-0.000791,-0.011145,0.000050,0.001209,0.006871,0.085323,0.013581,0.207633,0.207604,0.156717,0.370202,0.000000,0.000000,0.000000,0.000000,0.000000,0.000000,0.000000,0.000000,0.000000,0.000000,0.000000,0.000000,0.082641,3,0
1500000,-0.006594,38.703381,0.016255,-0.019231,26.038034,0.035887,0.001634,0.039505,1.569124,-0.073531,0.003882,0.009199,-0.000806,-0.011149,0.000050,0.000082,0.006830,0.000904,-0.021359,0.207826,0.207796,0.156382,0.368357,0.000000,0.000000,0.000000,0.000000,0.000000,0.000000,0.000000,0.000000,0.000000,0.000000,0.000000,0.000000,0.006651,3,0
1510000,-0.006555,38.965843,0.015319,-0.019089,26.046347,0.034812,0.001671,0.039936,1.569117,-0.073876,0.003922,0.009689,-0.000821,-0.011280,0.000051,0.000958,0.006789,0.058506,-0.049615,0.208020,0.207989,0.156049,0.366566,0.000000,0.000000,0.000000,0.000000,0.000000,0.000000,0.000000,0.000000,0.000000,0.000000,0.000000,0.000000,0.056848,3,0
1520000,-0.006513,39.224098,0.015865,-0.018828,26.046804,0.035349,0.001716,0.039703,1.569120,-0.073498,0.003962,0.009627,-0.000836,-0.011136,0.000050,0.000693,0.006748,-0.064888,0.007056,0.208216,0.208183,0.155719,0.364826,0.000000,0.000000,0.000000,0.000000,0.000000,0.000000,0.000000,0.000000,0.000000,0.000000,0.000000,0.000000,0.062971,3,0
1530000,-0.006470,39.486507,0.016251,-0.018582,26.054926,0.035868,0.001752,0.040098,1.569117,-0.073813,0.004000,0.009604,-0.000851,-0.011258,0.000051,0.000486,0.006703,0.054554,0.001427,0.208413,0.208380,0.155392,0.363137,0.000000,0.000000,0.000000,0.000000,0.000000,0.000000,0.000000,0.000000,0.000000,0.000000,0.000000,0.000000,0.053054,3,0
1540000,-0.006426,39.744022,0.016412,-0.018275,26.054014,0.036274,0.001795,0.039716,1.569120,-0.073306,0.004039,0.009706,-0.000866,-0.011058,0.000050,0.001284,0.006657,-0.088669,-0.008507,0.208612,0.208577,0.155068,0.361497,0.000000,0.000000,0.000000,0.000000,0.000000,0.000000,0.000000,0.000000,0.000000,0.000000,0.000000,0.000000,0.085827,3,0
1550000,-0.006383,40.007095,0.015683,-0.018094,26.063185,0.035313,0.001826,0.040221,1.569114,-0.073713,0.004077,0.010123,-0.000880,-0.011223,0.000051,0.001110,0.006611,0.071285,-0.041981,0.208813,0.208777,0.154747,0.359904,0.000000,0.000000,0.000000,0.000000,0.000000,0.000000,0.000000,0.000000,0.000000,0.000000,0.000000,0.000000,0.069094,3,0
1560000,-0.006339,40.268024,0.014569,-0.017872,26.068214,0.033876,0.001868,0.040371,1.569096,-0.073756,0.004115,0.010709,-0.000895,-0.011242,0.000051,0.000544,0.006566,0.006912,-0.057073,0.209015,0.208978,0.154430,0.358357,0.000000,0.000000,0.000000,0.000000,0.000000,0.000000,0.000000,0.000000,0.000000,0.000000,0.000000,0.000000,0.009195,3,0
1570000,-0.006293,40.526825,0.014979,-0.017734,26.069338,0.034324,0.001904,0.040169,1.569093,-0.073447,0.004152,0.010696,-0.000910,-0.011115,0.000051,0.000499,0.006520,-0.055279,0.002187,0.209218,0.209180,0.154115,0.356855,0.000000,0.000000,0.000000,0.000000,0.000000,0.000000,0.000000,0.000000,0.000000,0.000000,0.000000,0.000000,0.053722,3,0
1580000,-0.006245,40.788391,0.015878,-0.017478,26.075380,0.035343,0.001952,0.040402,1.569088,-0.073578,0.004187,0.010467,-0.000925,-0.011169,0.000051,0.000175,0.006472,0.023853,0.021709,0.209423,0.209383,0.153805,0.355396,0.000000,0.000000,0.000000,0.000000,0.000000,0.000000,0.000000,0.000000,0.000000,0.000000,0.000000,0.000000,0.023857,3,0
1590000,-0.006200,41.050617,0.014849,-0.017338,26.082613,0.033917,0.002000,0.040751,1.569088,-0.073803,0.004223,0.011020,-0.000940,-0.011267,0.000052,0.000741,0.006423,0.040527,-0.053809,0.209628,0.209587,0.153497,0.353981,0.000000,0.000000,0.000000,0.000000,0.000000,0.000000,0.000000,0.000000,0.000000,0.000000,0.000000,0.000000,0.039589,3,0
1600000,-0.006152,41.312077,0.015182,-0.017095,26.088446,0.034261,0.002039,0.040960,1.569075,-0.073895,0.004258,0.011019,-0.000955,-0.011306,0.000052,0.000052,0.006375,0.016777,-0.000229,0.209835,0.209792,0.153194,0.352608,0.000000,0.000000,0.000000,0.000000,0.000000,0.000000,0.000000,0.000000,0.000000,0.000000,0.000000,0.000000,0.017319,3,0
1610000,-0.006106,41.572109,0.014282,-0.016932,26.091478,0.033339,0.002070,0.040927,1.569064,-0.073757,0.004293,0.011540,-0.000969,-0.011248,0.000052,0.000509,0.006326,-0.026073,-0.049202,0.210042,0.209998,0.152894,0.351275,0.000000,0.000000,0.000000,0.000000,0.000000,0.000000,0.000000,0.000000,0.000000,0.000000,0.000000,0.000000,0.025903,3,0
1620000,-0.006058,41.829327,0.013417,-0.016625,26.089355,0.032518,0.002106,0.040434,1.569069,-0.073186,0.004328,0.012070,-0.000984,-0.010996,0.000051,0.002235,0.006276,-0.107227,-0.048311,0.210250,0.210205,0.152597,0.349981,0.000000,0.000000,0.000000,0.000000,0.000000,0.000000,0.000000,0.000000,0.000000,0.000000,0.000000,0.000000,0.103658,3,0
1630000,-0.006008,42.088650,0.012864,-0.016328,26.091030,0.031859,0.002146,0.040282,1.569065,-0.072943,0.004363,0.012451,-0.000999,-0.010888,0.000051,0.000553,0.006225,-0.046360,-0.035174,0.210459,0.210412,0.152305,0.348724,0.000000,0.000000,0.000000,0.000000,0.000000,0.000000,0.000000,0.000000,0.000000,0.000000,0.000000,0.000000,0.045144,3,0
1640000,-0.005957,42.347946,0.013344,-0.016145,26.092537,0.032502,0.002188,0.040110,1.569056,-0.072695,0.004395,0.012400,-0.001014,-0.010773,0.000050,0.000371,0.006174,-0.047272,0.005751,0.210668,0.210620,0.152016,0.347504,0.000000,0.000000,0.000000,0.000000,0.000000,0.000000,0.000000,0.000000,0.000000,0.000000,0.000000,0.000000,0.046000,3,0
1650000,-0.005906,42.605137,0.012962,-0.015931,26.090172,0.032309,0.002231,0.039585,1.569046,-0.072137,0.004428,0.012733,-0.001029,-0.010514,0.000049,0.002014,0.006120,-0.107796,-0.029221,0.210877,0.210828,0.151731,0.346320,0.000000,0.000000,0.000000,0.000000,0.000000,0.000000,0.000000,0.000000,0.000000,0.000000,0.000000,0.000000,0.104183,3,0
1660000,-0.005853,42.865128,0.013913,-0.015762,26.092865,0.033582,0.002271,0.039521,1.569039,-0.071997,0.004459,0.012478,-0.001044,-0.010447,0.000049,0.000220,0.006068,-0.027020,0.024370,0.211087,0.211036,0.151449,0.345169,0.000000,0.000000,0.000000,0.000000,0.000000,0.000000,0.000000,0.000000,0.000000,0.000000,0.000000,0.000000,0.026711,3,0
1670000,-0.005800,43.123695,0.014243,-0.015416,26.092974,0.033841,0.002321,0.039217,1.569042,-0.071650,0.004490,0.012504,-0.001058,-0.010280,0.000048,0.000758,0.006011,-0.068367,-0.000990,0.211297,0.211244,0.151172,0.344052,0.000000,0.000000,0.000000,0.000000,0.000000,0.000000,0.000000,0.000000,0.000000,0.000000,0.000000,0.000000,0.066214,3,0
1680000,-0.005745,43.382244,0.015679,-0.015237,26.093077,0.035644,0.002358,0.038895,1.569034,-0.071304,0.004519,0.012058,-0.001074,-0.010108,0.000048,0.001057,0.005956,-0.068512,0.042741,0.211507,0.211453,0.150899,0.342968,0.000000,0.000000,0.000000,0.000000,0.000000,0.000000,0.000000,0.000000,0.000000,0.000000,0.000000,0.000000,0.066335,3,0
1690000,-0.005688,43.642891,0.017091,-0.014945,26.097004,0.037195,0.002408,0.038929,1.569029,-0.071257,0.004548,0.011608,-0.001089,-0.010082,0.000048,0.000303,0.005898,-0.008999,0.041834,0.211716,0.211660,0.150629,0.341915,0.000000,0.000000,0.000000,0.000000,0.000000,0.000000,0.000000,0.000000,0.000000,0.000000,0.000000,0.000000,0.010370,3,0
1700000,-0.005632,43.900700,0.017624,-0.014636,26.095591,0.037883,0.002444,0.038489,1.569027,-0.070811,0.004577,0.011571,-0.001103,-0.009856,0.000047,0.001335,0.005839,-0.090778,0.005238,0.211925,0.211868,0.150364,0.340893,0.000000,0.000000,0.000000,0.000000,0.000000,0.000000,0.000000,0.000000,0.000000,0.000000,0.000000,0.000000,0.087751,3,0
1710000,-0.005575,44.158508,0.018319,-0.014371,26.094015,0.038830,0.002494,0.038041,1.569021,-0.070374,0.004605,0.011467,-0.001118,-0.009630,0.000046,0.001333,0.005780,-0.090141,0.011467,0.212133,0.212075,0.150102,0.339898,0.000000,0.000000,0.000000,0.000000,0.000000,0.000000,0.000000,0.000000,0.000000,0.000000,0.000000,0.000000,0.087131,3,0
1720000,-0.005520,44.419151,0.017339,-0.014156,26.097717,0.037487,0.002541,0.038089,1.569006,-0.070328,0.004634,0.012072,-0.001132,-0.009609,0.000046,0.000514,0.005720,-0.009991,-0.055041,0.212341,0.212281,0.149845,0.338931,0.000000,0.000000,0.000000,0.000000,0.000000,0.000000,0.000000,0.000000,0.000000,0.000000,0.000000,0.000000,0.011118,3,0
