time_us,pos_x,pos_y,pos_z,vel_x,vel_y,vel_z,roll,pitch,yaw,bias_ax,bias_ay,bias_az,bias_gx,bias_gy,bias_gz,nis,innov_x,innov_y,innov_z,cov_pos_x,cov_pos_y,cov_pos_z,cov_yaw,des_speed,des_heading,des_climb,pid_speed,pid_yaw,pid_alt,speed_meas,yaw_meas,climb_meas,fwd_accel,yaw_rate,vert_accel,drift_m,nav_mode,mission_state
0,-0.000001,0.150001,-0.000002,-0.000129,25.000147,-0.000488,-0.000006,-0.000007,1.570788,0.000000,0.000000,0.000000,0.000000,0.000000,0.000000,0.006250,0.000001,-0.250004,0.000005,2.400038,2.400038,3.600017,1.000518,0.000000,0.000000,0.000000,0.000000,0.000000,0.000000,0.000000,0.000000,0.000000,0.000000,0.000000,0.000000,0.150001,1,0
10000,-0.000002,0.348192,-0.021401,-0.000247,25.000328,-0.000818,-0.000024,-0.000014,1.570776,0.000001,0.000000,0.000000,0.000000,0.000000,0.000000,0.004254,0.000003,-0.181339,-0.057042,1.714420,1.714420,2.250079,1.001073,0.000000,0.000000,0.000000,0.000000,0.000000,0.000000,0.000000,0.000000,0.000000,0.000000,0.000000,0.000000,0.129524,3,0
20000,-0.000006,0.584538,-0.021667,-0.000556,25.000704,-0.001245,-0.000033,-0.000024,1.570764,0.000001,0.000000,0.000000,-0.000000,0.000000,-0.000000,0.000490,0.000008,-0.061470,-0.000930,1.333616,1.333616,1.636554,1.001655,0.000000,0.000000,0.000000,0.000000,0.000000,0.000000,0.000000,0.000000,0.000000,0.000000,0.000000,0.000000,0.047807,3,0
30000,-0.000011,0.820152,-0.032442,-0.000787,25.000874,-0.001510,-0.000048,-0.000026,1.570760,0.000002,0.000000,0.000001,0.000000,0.000000,-0.000000,0.001184,0.000014,-0.079151,-0.050207,1.091392,1.091392,1.286065,1.002257,0.000000,0.000000,0.000000,0.000000,0.000000,0.000000,0.000000,0.000000,0.000000,0.000000,0.000000,0.000000,0.064753,3,0
40000,-0.000018,1.061490,-0.039438,-0.000935,25.001009,-0.001989,-0.000048,-0.000038,1.570747,0.000004,0.000000,0.000002,0.000000,0.000000,-0.000000,0.000662,0.000021,-0.056340,-0.039515,0.923811,0.923811,1.059385,1.002869,0.000000,0.000000,0.000000,0.000000,0.000000,0.000000,0.000000,0.000000,0.000000,0.000000,0.000000,0.000000,0.047666,3,0
50000,-0.000025,1.306264,-0.039000,-0.001141,25.001194,-0.002468,-0.000065,-0.000051,1.570742,0.000006,0.000000,0.000002,0.000000,0.000000,-0.000000,0.000224,0.000029,-0.039254,0.003077,0.801036,0.801036,0.900822,1.003484,0.000000,0.000000,0.000000,0.000000,0.000000,0.000000,0.000000,0.000000,0.000000,0.000000,0.000000,0.000000,0.034013,3,0
60000,-0.000034,1.550920,-0.038335,-0.001321,25.001492,-0.002585,-0.000067,-0.000071,1.570741,0.000009,0.000000,0.000002,-0.000000,0.000000,-0.000000,0.000308,0.000038,-0.045484,0.005292,0.707270,0.707270,0.783741,1.004094,0.000000,0.000000,0.000000,0.000000,0.000000,0.000000,0.000000,0.000000,0.000000,0.000000,0.000000,0.000000,0.040123,3,0
70000,-0.000044,1.805986,-0.040330,-0.001482,25.002331,-0.002848,-0.000079,-0.000075,1.570732,0.000005,0.000000,0.000003,-0.000000,0.000000,-0.000000,0.000383,0.000049,0.047799,-0.017010,0.633370,0.633370,0.693801,1.004688,0.000000,0.000000,0.000000,0.000000,0.000000,0.000000,0.000000,0.000000,0.000000,0.000000,0.000000,0.000000,0.042754,3,0
80000,-0.000055,2.053301,-0.039630,-0.001735,25.002485,-0.003054,-0.000088,-0.000095,1.570718,0.000008,0.000000,0.000002,-0.000000,0.000000,-0.000000,0.000129,0.000061,-0.028363,0.007044,0.573673,0.573673,0.622594,1.005260,0.000000,0.000000,0.000000,0.000000,0.000000,0.000000,0.000000,0.000000,0.000000,0.000000,0.000000,0.000000,0.025652,3,0
90000,-0.000069,2.300085,-0.037436,-0.002029,25.002663,-0.003272,-0.000092,-0.000105,1.570707,0.000012,0.000000,-0.000001,-0.000000,0.000000,-0.000000,0.000294,0.000075,-0.037134,0.023665,0.524488,0.524488,0.564865,1.005801,0.000000,0.000000,0.000000,0.000000,0.000000,0.000000,0.000000,0.000000,0.000000,0.000000,0.000000,0.000000,0.033888,3,0
100000,-0.000084,2.548063,-0.037347,-0.002286,25.002947,-0.003620,-0.000109,-0.000125,1.570704,0.000016,0.000000,-0.000001,-0.000000,0.000000,-0.000000,0.000100,0.000092,-0.025494,0.001459,0.483303,0.483303,0.517162,1.006301,0.000000,0.000000,0.000000,0.000000,0.000000,0.000000,0.000000,0.000000,0.000000,0.000000,0.000000,0.000000,0.023441,3,0
110000,-0.000101,2.795488,-0.040384,-0.002518,25.003145,-0.004482,-0.000116,-0.000131,1.570699,0.000023,0.000000,0.000006,-0.000000,0.000000,-0.000000,0.000406,0.000109,-0.034929,-0.037681,0.448353,0.448353,0.477121,1.006754,0.000000,0.000000,0.000000,0.000000,0.000000,0.000000,0.000000,0.000000,0.000000,0.000000,0.000000,0.000000,0.032319,3,0
120000,-0.000119,3.048014,-0.043650,-0.002698,25.004030,-0.005368,-0.000122,-0.000142,1.570684,0.000015,0.000000,0.000015,-0.000000,0.000000,-0.000000,0.000491,0.000128,0.035708,-0.043560,0.418358,0.418358,0.443071,1.007150,0.000000,0.000000,0.000000,0.000000,0.000000,0.000000,0.000000,0.000000,0.000000,0.000000,0.000000,0.000000,0.033218,3,0
130000,-0.000139,3.304680,-0.043438,-0.002922,25.005749,-0.005513,-0.000121,-0.000141,1.570683,-0.000011,0.000000,0.000014,-0.000000,-0.000000,0.000000,0.001599,0.000149,0.101235,0.003886,0.392369,0.392369,0.413797,1.007481,0.000000,0.000000,0.000000,0.000000,0.000000,0.000000,0.000000,0.000000,0.000000,0.000000,0.000000,0.000000,0.094615,3,0
140000,-0.000161,3.556187,-0.040453,-0.003222,25.006529,-0.005279,-0.000137,-0.000154,1.570683,-0.000018,0.000000,0.000001,-0.000000,-0.000000,0.000000,0.000431,0.000171,0.023463,0.047015,0.369666,0.369666,0.388393,1.007739,0.000000,0.000000,0.000000,0.000000,0.000000,0.000000,0.000000,0.000000,0.000000,0.000000,0.000000,0.000000,0.022018,3,0
150000,-0.000183,3.805711,-0.040113,-0.003411,25.006895,-0.005459,-0.000150,-0.000169,1.570668,-0.000015,0.000000,-0.000001,-0.000000,-0.000000,0.000000,0.000020,0.000195,-0.009385,0.006473,0.349695,0.349695,0.366172,1.007915,0.000000,0.000000,0.000000,0.000000,0.000000,0.000000,0.000000,0.000000,0.000000,0.000000,0.000000,0.000000,0.008840,3,0
160000,-0.000208,4.061257,-0.039667,-0.003682,25.008745,-0.005509,-0.000152,-0.000169,1.570652,-0.000052,0.000000,-0.000005,-0.000000,-0.000001,0.000000,0.001552,0.000220,0.098910,0.008705,0.332020,0.332020,0.346600,1.008002,0.000000,0.000000,0.000000,0.000000,0.000000,0.000000,0.000000,0.000000,0.000000,0.000000,0.000000,0.000000,0.093437,3,0
170000,-0.000234,4.310427,-0.037750,-0.003877,25.008968,-0.005423,-0.000168,-0.000187,1.570638,-0.000045,0.000000,-0.000020,-0.000000,-0.000001,0.000000,0.000253,0.000247,-0.017503,0.036019,0.316297,0.316297,0.329260,1.007991,0.000000,0.000000,0.000000,0.000000,0.000000,0.000000,0.000000,0.000000,0.000000,0.000000,0.000000,0.000000,0.016582,3,0
180000,-0.000261,4.568116,-0.039145,-0.004066,25.011898,-0.006078,-0.000171,-0.000172,1.570627,-0.000117,0.000001,-0.000008,-0.000000,-0.000003,0.000000,0.003702,0.000274,0.150783,-0.025590,0.302246,0.302246,0.313817,1.007875,0.000000,0.000000,0.000000,0.000000,0.000000,0.000000,0.000000,0.000000,0.000000,0.000000,0.000000,0.000000,0.143187,3,0
190000,-0.000288,4.817876,-0.037882,-0.004224,25.012306,-0.005934,-0.000175,-0.000188,1.570614,-0.000113,0.000001,-0.000022,-0.000000,-0.000003,0.000000,0.000121,0.000303,-0.007543,0.026533,0.289641,0.289641,0.300003,1.007645,0.000000,0.000000,0.000000,0.000000,0.000000,0.000000,0.000000,0.000000,0.000000,0.000000,0.000000,0.000000,0.007185,3,0
200000,-0.000317,5.074510,-0.036106,-0.004438,25.015324,-0.005702,-0.000176,-0.000166,1.570615,-0.000194,0.000001,-0.000044,-0.000000,-0.000005,0.000000,0.003361,0.000333,0.140272,0.038386,0.278295,0.278295,0.287598,1.007295,0.000000,0.000000,0.000000,0.000000,0.000000,0.000000,0.000000,0.000000,0.000000,0.000000,0.000000,0.000000,0.133767,3,0
210000,-0.000348,5.327462,-0.034114,-0.004657,25.017061,-0.005088,-0.000192,-0.000165,1.570612,-0.000235,0.000001,-0.000072,-0.000000,-0.000006,0.000000,0.000937,0.000364,0.062517,0.044524,0.268053,0.268053,0.276421,1.006816,0.000000,0.000000,0.000000,0.000000,0.000000,0.000000,0.000000,0.000000,0.000000,0.000000,0.000000,0.000000,0.059725,3,0
220000,-0.000379,5.584856,-0.032351,-0.004857,25.020905,-0.004662,-0.000202,-0.000140,1.570608,-0.000352,0.000001,-0.000100,-0.000000,-0.000010,0.000000,0.004734,0.000396,0.167370,0.040929,0.258786,0.258786,0.266321,1.006202,0.000000,0.000000,0.000000,0.000000,0.000000,0.000000,0.000000,0.000000,0.000000,0.000000,0.000000,0.000000,0.160151,3,0
230000,-0.000413,5.839607,-0.031501,-0.005140,25.023676,-0.004695,-0.000207,-0.000120,1.570590,-0.000434,0.000002,-0.000115,-0.000000,-0.000012,0.000000,0.001959,0.000431,0.108726,0.021031,0.250384,0.250384,0.257172,1.005446,0.000000,0.000000,0.000000,0.000000,0.000000,0.000000,0.000000,0.000000,0.000000,0.000000,0.000000,0.000000,0.104189,3,0
240000,-0.000447,6.094397,-0.032670,-0.005316,25.026686,-0.005368,-0.000224,-0.000099,1.570578,-0.000527,0.000002,-0.000093,-0.000000,-0.000016,0.000000,0.002136,0.000466,0.112372,-0.027021,0.242755,0.242755,0.248866,1.004541,0.000000,0.000000,0.000000,0.000000,0.000000,0.000000,0.000000,0.000000,0.000000,0.000000,0.000000,0.000000,0.107826,3,0
250000,-0.000483,6.346101,-0.034703,-0.005506,25.027935,-0.006615,-0.000225,-0.000105,1.570565,-0.000559,0.000003,-0.000050,-0.000000,-0.000017,0.000000,0.000600,0.000502,0.036464,-0.049165,0.235817,0.235817,0.241314,1.003481,0.000000,0.000000,0.000000,0.000000,0.000000,0.000000,0.000000,0.000000,0.000000,0.000000,0.000000,0.000000,0.035034,3,0
260000,-0.000520,6.598796,-0.036569,-0.005776,25.029799,-0.007989,-0.000229,-0.000101,1.570565,-0.000620,0.000003,-0.000007,-0.000000,-0.000019,0.000000,0.000976,0.000541,0.063053,-0.045981,0.229503,0.229503,0.234436,1.002258,0.000000,0.000000,0.000000,0.000000,0.000000,0.000000,0.000000,0.000000,0.000000,0.000000,0.000000,0.000000,0.060643,3,0
270000,-0.000559,6.853888,-0.036646,-0.006089,25.033381,-0.008329,-0.000232,-0.000061,1.570557,-0.000752,0.000004,-0.000007,-0.000000,-0.000024,0.000000,0.002645,0.000581,0.128401,0.000176,0.223753,0.223753,0.228165,1.000869,0.000000,0.000000,0.000000,0.000000,0.000000,0.000000,0.000000,0.000000,0.000000,0.000000,0.000000,0.000000,0.123614,3,0
280000,-0.000600,7.106127,-0.038206,-0.006284,25.035204,-0.009376,-0.000241,-0.000058,1.570538,-0.000810,0.000004,0.000037,-0.000000,-0.000026,0.000000,0.000692,0.000622,0.052184,-0.039803,0.218514,0.218514,0.222443,0.999307,0.000000,0.000000,0.000000,0.000000,0.000000,0.000000,0.000000,0.000000,0.000000,0.000000,0.000000,0.000000,0.050287,3,0
290000,-0.000642,7.358562,-0.037092,-0.006572,25.037186,-0.008749,-0.000256,-0.000055,1.570536,-0.000879,0.000005,-0.000002,-0.000000,-0.000029,0.000000,0.000727,0.000665,0.058352,0.033416,0.213742,0.213742,0.217219,0.997567,0.000000,0.000000,0.000000,0.000000,0.000000,0.000000,0.000000,0.000000,0.000000,0.000000,0.000000,0.000000,0.056277,3,0
300000,-0.000685,7.613959,-0.037463,-0.006735,25.041592,-0.009149,-0.000261,-0.000003,1.570533,-0.001059,0.000006,0.000008,-0.000000,-0.000037,0.000000,0.003338,0.000709,0.143838,-0.007955,0.209397,0.209397,0.212446,0.995645,0.000000,0.000000,0.000000,0.000000,0.000000,0.000000,0.000000,0.000000,0.000000,0.000000,0.000000,0.000000,0.138820,3,0
310000,-0.000728,7.867366,-0.039348,-0.006910,25.044504,-0.010972,-0.000277,0.000020,1.570518,-0.001176,0.000007,0.000076,-0.000000,-0.000042,0.000000,0.001652,0.000754,0.087186,-0.051580,0.205441,0.205441,0.208087,0.993536,0.000000,0.000000,0.000000,0.000000,0.000000,0.000000,0.000000,0.000000,0.000000,0.000000,0.000000,0.000000,0.084204,3,0
320000,-0.000773,8.121585,-0.040095,-0.007198,25.048130,-0.011714,-0.000281,0.000059,1.570506,-0.001334,0.000008,0.000102,-0.000000,-0.000049,0.000000,0.002079,0.000800,0.112057,-0.018654,0.201845,0.201845,0.204105,0.991237,0.000000,0.000000,0.000000,0.000000,0.000000,0.000000,0.000000,0.000000,0.000000,0.000000,0.000000,0.000000,0.108290,3,0
330000,-0.000820,8.377892,-0.040813,-0.007446,25.053850,-0.012536,-0.000280,0.000129,1.570503,-0.001598,0.000009,0.000129,-0.000000,-0.000062,0.000000,0.005036,0.000848,0.175861,-0.017880,0.198579,0.198579,0.200469,0.988743,0.000000,0.000000,0.000000,0.000000,0.000000,0.000000,0.000000,0.000000,0.000000,0.000000,0.000000,0.000000,0.170043,3,0
340000,-0.000868,8.634886,-0.041280,-0.007680,25.060413,-0.013247,-0.000291,0.000211,1.570488,-0.001911,0.000011,0.000145,-0.000000,-0.000077,0.000000,0.006325,0.000897,0.197802,-0.010250,0.195619,0.195619,0.197151,0.986053,0.000000,0.000000,0.000000,0.000000,0.000000,0.000000,0.000000,0.000000,0.000000,0.000000,0.000000,0.000000,0.191355,3,0
350000,-0.000917,8.890621,-0.042979,-0.007940,25.065868,-0.015127,-0.000297,0.000278,1.570483,-0.002177,0.000012,0.000225,-0.000000,-0.000090,0.000000,0.004475,0.000947,0.159411,-0.048267,0.192940,0.192940,0.194125,0.983164,0.000000,0.000000,0.000000,0.000000,0.000000,0.000000,0.000000,0.000000,0.000000,0.000000,0.000000,0.000000,0.154288,3,0
360000,-0.000968,9.143907,-0.042462,-0.008228,25.069052,-0.014647,-0.000314,0.000313,1.570481,-0.002322,0.000014,0.000188,-0.000001,-0.000098,0.000000,0.001171,0.001000,0.082532,0.021005,0.190524,0.190523,0.191370,0.980073,0.000000,0.000000,0.000000,0.000000,0.000000,0.000000,0.000000,0.000000,0.000000,0.000000,0.000000,0.000000,0.079917,3,0
370000,-0.001020,9.397977,-0.041402,-0.008488,25.073038,-0.013797,-0.000331,0.000362,1.570475,-0.002520,0.000016,0.000118,-0.000001,-0.000108,0.000000,0.002105,0.001053,0.107520,0.038413,0.188349,0.188349,0.188863,0.976779,0.000000,0.000000,0.000000,0.000000,0.000000,0.000000,0.000000,0.000000,0.000000,0.000000,0.000000,0.000000,0.104150,3,0
380000,-0.001072,9.654657,-0.042863,-0.008601,25.080038,-0.015435,-0.000343,0.000464,1.570457,-0.002890,0.000018,0.000199,-0.000001,-0.000129,0.000000,0.006204,0.001106,0.191351,-0.042433,0.186400,0.186400,0.186586,0.973282,0.000000,0.000000,0.000000,0.000000,0.000000,0.000000,0.000000,0.000000,0.000000,0.000000,0.000000,0.000000,0.185410,3,0
390000,-0.001125,9.910793,-0.041650,-0.008850,25.086596,-0.014346,-0.000355,0.000570,1.570440,-0.003240,0.000020,0.000110,-0.000001,-0.000149,0.000000,0.005164,0.001161,0.173146,0.044587,0.184660,0.184660,0.184522,0.969581,0.000000,0.000000,0.000000,0.000000,0.000000,0.000000,0.000000,0.000000,0.000000,0.000000,0.000000,0.000000,0.167821,3,0
400000,-0.001180,10.163983,-0.041128,-0.009126,25.089821,-0.013843,-0.000369,0.000623,1.570430,-0.003401,0.000023,0.000063,-0.000001,-0.000158,0.000000,0.001011,0.001217,0.075977,0.021924,0.183115,0.183115,0.182656,0.965675,0.000000,0.000000,0.000000,0.000000,0.000000,0.000000,0.000000,0.000000,0.000000,0.000000,0.000000,0.000000,0.073668,3,0
410000,-0.001234,10.417949,-0.040908,-0.009268,25.094015,-0.013679,-0.000373,0.000690,1.570420,-0.003625,0.000026,0.000037,-0.000001,-0.000171,0.000000,0.001674,0.001273,0.101059,0.011955,0.181752,0.181751,0.180971,0.961567,0.000000,0.000000,0.000000,0.000000,0.000000,0.000000,0.000000,0.000000,0.000000,0.000000,0.000000,0.000000,0.098005,3,0
420000,-0.001290,10.672070,-0.041039,-0.009478,25.098547,-0.013981,-0.000379,0.000762,1.570401,-0.003868,0.000029,0.000036,-0.000001,-0.000186,0.000000,0.001799,0.001330,0.105476,0.000317,0.180557,0.180557,0.179456,0.957256,0.000000,0.000000,0.000000,0.000000,0.000000,0.000000,0.000000,0.000000,0.000000,0.000000,0.000000,0.000000,0.102311,3,0
430000,-0.001346,10.930508,-0.042631,-0.009763,25.108364,-0.015780,-0.000386,0.000942,1.570397,-0.004465,0.000032,0.000153,-0.000002,-0.000224,0.000001,0.010402,0.001388,0.248891,-0.048852,0.179519,0.179519,0.178097,0.952744,0.000000,0.000000,0.000000,0.000000,0.000000,0.000000,0.000000,0.000000,0.000000,0.000000,0.000000,0.000000,0.241447,3,0
440000,-0.001403,11.186046,-0.044214,-0.009900,25.114670,-0.017770,-0.000394,0.001062,1.570389,-0.004837,0.000035,0.000274,-0.000002,-0.000248,0.000001,0.003985,0.001446,0.149384,-0.048227,0.178629,0.178628,0.176883,0.948034,0.000000,0.000000,0.000000,0.000000,0.000000,0.000000,0.000000,0.000000,0.000000,0.000000,0.000000,0.000000,0.144943,3,0
450000,-0.001459,11.442301,-0.045608,-0.010050,25.121965,-0.019390,-0.000395,0.001196,1.570370,-0.005283,0.000039,0.000381,-0.000002,-0.000277,0.000001,0.005068,0.001504,0.172089,-0.041436,0.177874,0.177874,0.175803,0.943127,0.000000,0.000000,0.000000,0.000000,0.000000,0.000000,0.000000,0.000000,0.000000,0.000000,0.000000,0.000000,0.166993,3,0
460000,-0.001516,11.698086,-0.046228,-0.010262,25.128752,-0.020060,-0.000411,0.001333,1.570353,-0.005697,0.000043,0.000420,-0.000002,-0.000305,0.000001,0.003886,0.001563,0.154306,-0.014563,0.177247,0.177246,0.174847,0.938028,0.000000,0.000000,0.000000,0.000000,0.000000,0.000000,0.000000,0.000000,0.000000,0.000000,0.000000,0.000000,0.149756,3,0
470000,-0.001574,11.954000,-0.045495,-0.010476,25.135717,-0.019386,-0.000428,0.001465,1.570350,-0.006134,0.000048,0.000330,-0.000003,-0.000335,0.000001,0.004151,0.001622,0.156880,0.032360,0.176737,0.176737,0.174006,0.932740,0.000000,0.000000,0.000000,0.000000,0.000000,0.000000,0.000000,0.000000,0.000000,0.000000,0.000000,0.000000,0.152268,3,0
480000,-0.001632,12.209463,-0.045801,-0.010720,25.142208,-0.019876,-0.000428,0.001597,1.570338,-0.006536,0.000053,0.000341,-0.000003,-0.000363,0.000001,0.003148,0.001682,0.139441,-0.003718,0.176337,0.176337,0.173271,0.927267,0.000000,0.000000,0.000000,0.000000,0.000000,0.000000,0.000000,0.000000,0.000000,0.000000,0.000000,0.000000,0.135353,3,0
490000,-0.001690,12.464484,-0.045265,-0.010818,25.147964,-0.019238,-0.000436,0.001707,1.570337,-0.006900,0.000058,0.000264,-0.000003,-0.000390,0.000001,0.002533,0.001741,0.122462,0.025637,0.176040,0.176039,0.172634,0.921614,0.000000,0.000000,0.000000,0.000000,0.000000,0.000000,0.000000,0.000000,0.000000,0.000000,0.000000,0.000000,0.118882,3,0
500000,-0.001748,12.719658,-0.045805,-0.010934,25.153948,-0.019926,-0.000451,0.001836,1.570328,-0.007287,0.000063,0.000301,-0.000004,-0.000418,0.000001,0.002585,0.001800,0.125809,-0.012006,0.175836,0.175836,0.172087,0.915785,0.000000,0.000000,0.000000,0.000000,0.000000,0.000000,0.000000,0.000000,0.000000,0.000000,0.000000,0.000000,0.122134,3,0
510000,-0.001805,12.975565,-0.044555,-0.011155,25.161119,-0.018145,-0.000458,0.001993,1.570323,-0.007760,0.000069,0.000139,-0.000004,-0.000454,0.000001,0.004003,0.001860,0.148881,0.050725,0.175720,0.175720,0.171622,0.909786,0.000000,0.000000,0.000000,0.000000,0.000000,0.000000,0.000000,0.000000,0.000000,0.000000,0.000000,0.000000,0.144532,3,0
520000,-0.001864,13.233360,-0.044332,-0.011382,25.171053,-0.018070,-0.000471,0.002220,1.570307,-0.008449,0.000075,0.000092,-0.000005,-0.000507,0.000001,0.007234,0.001920,0.210965,0.014354,0.175684,0.175684,0.171234,0.903622,0.000000,0.000000,0.000000,0.000000,0.000000,0.000000,0.000000,0.000000,0.000000,0.000000,0.000000,0.000000,0.204797,3,0
530000,-0.001923,13.493018,-0.043273,-0.011643,25.183762,-0.016711,-0.000487,0.002534,1.570289,-0.009362,0.000082,-0.000056,-0.000005,-0.000579,0.000001,0.012203,0.001981,0.271132,0.043671,0.175723,0.175723,0.170914,0.897301,0.000000,0.000000,0.000000,0.000000,0.000000,0.000000,0.000000,0.000000,0.000000,0.000000,0.000000,0.000000,0.263198,3,0
540000,-0.001981,13.748692,-0.042837,-0.011728,25.190411,-0.016065,-0.000503,0.002681,1.570286,-0.009814,0.000089,-0.000131,-0.000006,-0.000616,0.000001,0.002835,0.002041,0.130620,0.021315,0.175830,0.175830,0.170658,0.890827,0.000000,0.000000,0.000000,0.000000,0.000000,0.000000,0.000000,0.000000,0.000000,0.000000,0.000000,0.000000,0.126807,3,0
550000,-0.002038,14.005098,-0.042209,-0.011794,25.198219,-0.015389,-0.000504,0.002872,1.570282,-0.010359,0.000096,-0.000232,-0.000007,-0.000661,0.000002,0.003923,0.002100,0.153184,0.027933,0.176000,0.176000,0.170460,0.884208,0.000000,0.000000,0.000000,0.000000,0.000000,0.000000,0.000000,0.000000,0.000000,0.000000,0.000000,0.000000,0.148704,3,0
560000,-0.002095,14.263397,-0.041266,-0.011907,25.208979,-0.014184,-0.000504,0.003146,1.570266,-0.011143,0.000104,-0.000375,-0.000007,-0.000726,0.000002,0.007706,0.002159,0.214762,0.038774,0.176228,0.176227,0.170314,0.877451,0.000000,0.000000,0.000000,0.000000,0.000000,0.000000,0.000000,0.000000,0.000000,0.000000,0.000000,0.000000,0.208465,3,0
570000,-0.002151,14.522985,-0.041734,-0.012010,25.221708,-0.014964,-0.000507,0.003481,1.570250,-0.012097,0.000112,-0.000332,-0.000008,-0.000808,0.000002,0.010502,0.002216,0.254539,-0.011312,0.176507,0.176506,0.170214,0.870564,0.000000,0.000000,0.000000,0.000000,0.000000,0.000000,0.000000,0.000000,0.000000,0.000000,0.000000,0.000000,0.247060,3,0
580000,-0.002206,14.778574,-0.041320,-0.012064,25.228088,-0.014505,-0.000511,0.003638,1.570244,-0.012536,0.000121,-0.000410,-0.000009,-0.000847,0.000002,0.002171,0.002273,0.114098,0.020011,0.176833,0.176833,0.170157,0.863553,0.000000,0.000000,0.000000,0.000000,0.000000,0.000000,0.000000,0.000000,0.000000,0.000000,0.000000,0.000000,0.110757,3,0
590000,-0.002261,15.039014,-0.042435,-0.012283,25.242277,-0.016126,-0.000508,0.004036,1.570223,-0.013621,0.000130,-0.000274,-0.000009,-0.000943,0.000002,0.012501,0.002330,0.275900,-0.034069,0.177203,0.177202,0.170138,0.856426,0.000000,0.000000,0.000000,0.000000,0.000000,0.000000,0.000000,0.000000,0.000000,0.000000,0.000000,0.000000,0.267761,3,0
600000,-0.002316,15.298961,-0.043656,-0.012473,25.255428,-0.017789,-0.000504,0.004408,1.570220,-0.014643,0.000139,-0.000122,-0.000010,-0.001036,0.000002,0.010649,0.002387,0.253866,-0.037253,0.177610,0.177610,0.170152,0.849191,0.000000,0.000000,0.000000,0.000000,0.000000,0.000000,0.000000,0.000000,0.000000,0.000000,0.000000,0.000000,0.246362,3,0
610000,-0.002371,15.555470,-0.042948,-0.012606,25.263029,-0.016964,-0.000506,0.004607,1.570207,-0.015190,0.000149,-0.000254,-0.000011,-0.001087,0.000003,0.003019,0.002443,0.132939,0.031434,0.178052,0.178052,0.170195,0.841857,0.000000,0.000000,0.000000,0.000000,0.000000,0.000000,0.000000,0.000000,0.000000,0.000000,0.000000,0.000000,0.129017,3,0
620000,-0.002425,15.812121,-0.042492,-0.012717,25.270699,-0.016470,-0.000513,0.004819,1.570187,-0.015757,0.000159,-0.000350,-0.000012,-0.001141,0.000003,0.003019,0.002499,0.134780,0.022229,0.178525,0.178524,0.170264,0.834430,0.000000,0.000000,0.000000,0.000000,0.000000,0.000000,0.000000,0.000000,0.000000,0.000000,0.000000,0.000000,0.130792,3,0
630000,-0.002479,16.071877,-0.043967,-0.012903,25.283474,-0.018777,-0.000508,0.005186,1.570175,-0.016771,0.000170,-0.000148,-0.000013,-0.001238,0.000003,0.009339,0.002555,0.235874,-0.045968,0.179023,0.179023,0.170356,0.826920,0.000000,0.000000,0.000000,0.000000,0.000000,0.000000,0.000000,0.000000,0.000000,0.000000,0.000000,0.000000,0.228850,3,0
640000,-0.002534,16.329952,-0.045183,-0.013127,25.293297,-0.020545,-0.000518,0.005480,1.570161,-0.017537,0.000181,0.000013,-0.000014,-0.001314,0.000003,0.005150,0.002612,0.174778,-0.036041,0.179545,0.179544,0.170465,0.819334,0.000000,0.000000,0.000000,0.000000,0.000000,0.000000,0.000000,0.000000,0.000000,0.000000,0.000000,0.000000,0.169567,3,0
650000,-0.002587,16.588747,-0.045675,-0.013220,25.304342,-0.021431,-0.000529,0.005814,1.570141,-0.018407,0.000193,0.000058,-0.000015,-0.001401,0.000003,0.006158,0.002667,0.194908,-0.009863,0.180087,0.180086,0.170591,0.811680,0.000000,0.000000,0.000000,0.000000,0.000000,0.000000,0.000000,0.000000,0.000000,0.000000,0.000000,0.000000,0.189076,3,0
660000,-0.002640,16.849451,-0.046516,-0.013344,25.318411,-0.022819,-0.000526,0.006259,1.570134,-0.019564,0.000205,0.000159,-0.000017,-0.001518,0.000004,0.010512,0.002722,0.254065,-0.021761,0.180645,0.180644,0.170729,0.803967,0.000000,0.000000,0.000000,0.000000,0.000000,0.000000,0.000000,0.000000,0.000000,0.000000,0.000000,0.000000,0.246430,3,0
670000,-0.002693,17.106646,-0.046816,-0.013547,25.326479,-0.023390,-0.000538,0.006497,1.570118,-0.020178,0.000218,0.000170,-0.000018,-0.001582,0.000004,0.002834,0.002777,0.132374,-0.002325,0.181217,0.181216,0.170877,0.796203,0.000000,0.000000,0.000000,0.000000,0.000000,0.000000,0.000000,0.000000,0.000000,0.000000,0.000000,0.000000,0.128404,3,0
680000,-0.002744,17.366377,-0.047384,-0.013571,25.338776,-0.024042,-0.000535,0.006892,1.570111,-0.021183,0.000231,0.000226,-0.000019,-0.001688,0.000004,0.007358,0.002830,0.213039,-0.011601,0.181800,0.181799,0.171033,0.788395,0.000000,0.000000,0.000000,0.000000,0.000000,0.000000,0.000000,0.000000,0.000000,0.000000,0.000000,0.000000,0.206603,3,0
690000,-0.002795,17.625004,-0.047487,-0.013650,25.349184,-0.023988,-0.000539,0.007210,1.570095,-0.022008,0.000244,0.000201,-0.000021,-0.001777,0.000004,0.004778,0.002882,0.171850,0.004946,0.182391,0.182390,0.171194,0.780552,0.000000,0.000000,0.000000,0.000000,0.000000,0.000000,0.000000,0.000000,0.000000,0.000000,0.000000,0.000000,0.166649,3,0
700000,-0.002843,17.882528,-0.046508,-0.013679,25.357550,-0.022295,-0.000533,0.007474,1.570086,-0.022651,0.000259,-0.000016,-0.000022,-0.001847,0.000004,0.003104,0.002933,0.131788,0.042762,0.182989,0.182988,0.171357,0.772681,0.000000,0.000000,0.000000,0.000000,0.000000,0.000000,0.000000,0.000000,0.000000,0.000000,0.000000,0.000000,0.127801,3,0
710000,-0.002891,18.140783,-0.046864,-0.013734,25.367018,-0.022723,-0.000537,0.007769,1.570076,-0.023406,0.000273,0.000007,-0.000024,-0.001931,0.000005,0.003761,0.002982,0.152485,-0.004517,0.183591,0.183590,0.171522,0.764790,0.000000,0.000000,0.000000,0.000000,0.000000,0.000000,0.000000,0.000000,0.000000,0.000000,0.000000,0.000000,0.147848,3,0
720000,-0.002938,18.399151,-0.046718,-0.013831,25.376627,-0.022555,-0.000537,0.008080,1.570065,-0.024173,0.000288,-0.000063,-0.000026,-0.002018,0.000005,0.003790,0.003031,0.152561,0.013266,0.184195,0.184194,0.171686,0.756886,0.000000,0.000000,0.000000,0.000000,0.000000,0.000000,0.000000,0.000000,0.000000,0.000000,0.000000,0.000000,0.147908,3,0
730000,-0.002984,18.661304,-0.046377,-0.013925,25.392731,-0.022066,-0.000542,0.008643,1.570057,-0.025560,0.000304,-0.000171,-0.000028,-0.002177,0.000005,0.011999,0.003079,0.271795,0.020013,0.184798,0.184797,0.171847,0.748978,0.000000,0.000000,0.000000,0.000000,0.000000,0.000000,0.000000,0.000000,0.000000,0.000000,0.000000,0.000000,0.263441,3,0
740000,-0.003029,18.921068,-0.047765,-0.014033,25.404348,-0.024066,-0.000551,0.009044,1.570040,-0.026535,0.000319,0.000047,-0.000029,-0.002292,0.000006,0.006000,0.003126,0.188391,-0.040528,0.185400,0.185399,0.172003,0.741071,0.000000,0.000000,0.000000,0.000000,0.000000,0.000000,0.000000,0.000000,0.000000,0.000000,0.000000,0.000000,0.182595,3,0
750000,-0.003075,19.180923,-0.048994,-0.014192,25.416054,-0.026035,-0.000557,0.009455,1.570022,-0.027516,0.000336,0.000234,-0.000031,-0.002409,0.000006,0.005835,0.003173,0.186937,-0.034190,0.185999,0.185998,0.172155,0.733174,0.000000,0.000000,0.000000,0.000000,0.000000,0.000000,0.000000,0.000000,0.000000,0.000000,0.000000,0.000000,0.181167,3,0
760000,-0.003119,19.440866,-0.049390,-0.014232,25.427704,-0.026552,-0.000553,0.009874,1.570002,-0.028501,0.000353,0.000258,-0.000033,-0.002528,0.000006,0.005555,0.003219,0.185390,-0.004524,0.186593,0.186591,0.172299,0.725292,0.000000,0.000000,0.000000,0.000000,0.000000,0.000000,0.000000,0.000000,0.000000,0.000000,0.000000,0.000000,0.179652,3,0
770000,-0.003161,19.703375,-0.048567,-0.014240,25.443869,-0.025130,-0.000558,0.010455,1.569983,-0.029918,0.000370,0.000040,-0.000036,-0.002703,0.000007,0.011428,0.003263,0.263271,0.038093,0.187181,0.187179,0.172436,0.717432,0.000000,0.000000,0.000000,0.000000,0.000000,0.000000,0.000000,0.000000,0.000000,0.000000,0.000000,0.000000,0.255078,3,0
780000,-0.003202,19.960962,-0.049220,-0.014249,25.451246,-0.026209,-0.000560,0.010687,1.569975,-0.030462,0.000388,0.000119,-0.000038,-0.002771,0.000007,0.001647,0.003305,0.099995,-0.013751,0.187761,0.187760,0.172563,0.709601,0.000000,0.000000,0.000000,0.000000,0.000000,0.000000,0.000000,0.000000,0.000000,0.000000,0.000000,0.000000,0.096918,3,0
790000,-0.003241,20.221151,-0.048642,-0.014225,25.463058,-0.025366,-0.000563,0.011111,1.569957,-0.031455,0.000406,-0.000055,-0.000040,-0.002897,0.000007,0.005388,0.003346,0.180273,0.029432,0.188333,0.188332,0.172680,0.701804,0.000000,0.000000,0.000000,0.000000,0.000000,0.000000,0.000000,0.000000,0.000000,0.000000,0.000000,0.000000,0.174646,3,0
800000,-0.003280,20.482670,-0.048659,-0.014383,25.477079,-0.025413,-0.000555,0.011639,1.569953,-0.032670,0.000424,-0.000107,-0.000043,-0.003055,0.000007,0.007695,0.003387,0.218151,0.008488,0.188896,0.188895,0.172787,0.694048,0.000000,0.000000,0.000000,0.000000,0.000000,0.000000,0.000000,0.000000,0.000000,0.000000,0.000000,0.000000,0.211308,3,0
810000,-0.003317,20.743616,-0.047713,-0.014396,25.489735,-0.024038,-0.000554,0.012115,1.569932,-0.033768,0.000443,-0.000360,-0.000045,-0.003199,0.000008,0.006426,0.003426,0.195040,0.041923,0.189449,0.189447,0.172882,0.686337,0.000000,0.000000,0.000000,0.000000,0.000000,0.000000,0.000000,0.000000,0.000000,0.000000,0.000000,0.000000,0.188912,3,0
820000,-0.003353,21.004623,-0.046344,-0.014437,25.502432,-0.021871,-0.000563,0.012603,1.569915,-0.034862,0.000463,-0.000703,-0.000048,-0.003345,0.000008,0.006484,0.003464,0.192392,0.056023,0.189991,0.189989,0.172965,0.678677,0.000000,0.000000,0.000000,0.000000,0.000000,0.000000,0.000000,0.000000,0.000000,0.000000,0.000000,0.000000,0.186332,3,0
830000,-0.003389,21.262535,-0.046749,-0.014467,25.509504,-0.022607,-0.000566,0.012844,1.569910,-0.035380,0.000483,-0.000666,-0.000051,-0.003415,0.000008,0.001324,0.003500,0.090288,-0.006210,0.190521,0.190519,0.173035,0.671073,0.000000,0.000000,0.000000,0.000000,0.000000,0.000000,0.000000,0.000000,0.000000,0.000000,0.000000,0.000000,0.087487,3,0
840000,-0.003424,21.523071,-0.046926,-0.014534,25.521149,-0.022767,-0.000572,0.013298,1.569888,-0.036367,0.000503,-0.000680,-0.000053,-0.003552,0.000009,0.004679,0.003536,0.170246,0.001905,0.191040,0.191038,0.173092,0.663530,0.000000,0.000000,0.000000,0.000000,0.000000,0.000000,0.000000,0.000000,0.000000,0.000000,0.000000,0.000000,0.164861,3,0
850000,-0.003458,21.783035,-0.047820,-0.014603,25.531643,-0.023979,-0.000566,0.013693,1.569878,-0.037234,0.000523,-0.000537,-0.000056,-0.003674,0.000009,0.003628,0.003572,0.148140,-0.022903,0.191546,0.191543,0.173136,0.656051,0.000000,0.000000,0.000000,0.000000,0.000000,0.000000,0.000000,0.000000,0.000000,0.000000,0.000000,0.000000,0.143451,3,0
860000,-0.003492,22.044971,-0.048693,-0.014711,25.545416,-0.025221,-0.000574,0.014244,1.569866,-0.038450,0.000544,-0.000401,-0.000059,-0.003847,0.000009,0.006933,0.003607,0.206133,-0.021662,0.192039,0.192037,0.173166,0.648643,0.000000,0.000000,0.000000,0.000000,0.000000,0.000000,0.000000,0.000000,0.000000,0.000000,0.000000,0.000000,0.199566,3,0
870000,-0.003524,22.305031,-0.049919,-0.014714,25.555706,-0.026975,-0.000583,0.014640,1.569851,-0.039299,0.000565,-0.000186,-0.000062,-0.003971,0.000010,0.003476,0.003641,0.142849,-0.033529,0.192519,0.192517,0.173182,0.641307,0.000000,0.000000,0.000000,0.000000,0.000000,0.000000,0.000000,0.000000,0.000000,0.000000,0.000000,0.000000,0.138311,3,0
880000,-0.003557,22.563871,-0.050389,-0.014859,25.563814,-0.027693,-0.000588,0.014932,1.569847,-0.039907,0.000587,-0.000143,-0.000065,-0.004060,0.000010,0.001666,0.003675,0.101353,-0.006715,0.192986,0.192983,0.173184,0.634048,0.000000,0.000000,0.000000,0.000000,0.000000,0.000000,0.000000,0.000000,0.000000,0.000000,0.000000,0.000000,0.098157,3,0
890000,-0.003589,22.824707,-0.050427,-0.014989,25.575241,-0.027593,-0.000588,0.015397,1.569826,-0.040876,0.000609,-0.000202,-0.000069,-0.004205,0.000010,0.004169,0.003709,0.160496,0.008533,0.193439,0.193437,0.173172,0.626870,0.000000,0.000000,0.000000,0.000000,0.000000,0.000000,0.000000,0.000000,0.000000,0.000000,0.000000,0.000000,0.155363,3,0
900000,-0.003620,23.083660,-0.049289,-0.014962,25.583307,-0.025963,-0.000589,0.015689,1.569808,-0.041474,0.000632,-0.000533,-0.000072,-0.004295,0.000011,0.001954,0.003741,0.098331,0.049242,0.193879,0.193877,0.173145,0.619776,0.000000,0.000000,0.000000,0.000000,0.000000,0.000000,0.000000,0.000000,0.000000,0.000000,0.000000,0.000000,0.095225,3,0
910000,-0.003650,23.343327,-0.049625,-0.015081,25.592468,-0.026480,-0.000584,0.016058,1.569804,-0.042194,0.000655,-0.000519,-0.000076,-0.004407,0.000011,0.002234,0.003772,0.117603,-0.002423,0.194306,0.194303,0.173104,0.612768,0.000000,0.000000,0.000000,0.000000,0.000000,0.000000,0.000000,0.000000,0.000000,0.000000,0.000000,0.000000,0.113853,3,0
920000,-0.003679,23.603050,-0.048687,-0.015080,25.601652,-0.025001,-0.000581,0.016421,1.569796,-0.042910,0.000678,-0.000808,-0.000080,-0.004519,0.000011,0.002467,0.003803,0.116270,0.041940,0.194719,0.194716,0.173049,0.605849,0.000000,0.000000,0.000000,0.000000,0.000000,0.000000,0.000000,0.000000,0.000000,0.000000,0.000000,0.000000,0.112557,3,0
930000,-0.003708,23.863476,-0.049044,-0.015101,25.611916,-0.025565,-0.000586,0.016834,1.569790,-0.043745,0.000701,-0.000787,-0.000083,-0.004652,0.000011,0.002932,0.003833,0.134758,-0.003425,0.195119,0.195116,0.172980,0.599021,0.000000,0.000000,0.000000,0.000000,0.000000,0.000000,0.000000,0.000000,0.000000,0.000000,0.000000,0.000000,0.130428,3,0
940000,-0.003735,24.124592,-0.048939,-0.015077,25.623325,-0.025335,-0.000586,0.017315,1.569782,-0.044696,0.000725,-0.000879,-0.000087,-0.004805,0.000012,0.003780,0.003861,0.152534,0.012760,0.195506,0.195503,0.172898,0.592288,0.000000,0.000000,0.000000,0.000000,0.000000,0.000000,0.000000,0.000000,0.000000,0.000000,0.000000,0.000000,0.147611,3,0
950000,-0.003762,24.385088,-0.048053,-0.015196,25.633331,-0.024113,-0.000575,0.017741,1.569764,-0.045510,0.000749,-0.001162,-0.000091,-0.004938,0.000012,0.002978,0.003889,0.129854,0.039850,0.195880,0.195876,0.172801,0.585650,0.000000,0.000000,0.000000,0.000000,0.000000,0.000000,0.000000,0.000000,0.000000,0.000000,0.000000,0.000000,0.125672,3,0
960000,-0.003789,24.645622,-0.047243,-0.015299,25.643291,-0.023133,-0.000577,0.018165,1.569761,-0.046314,0.000773,-0.001427,-0.000095,-0.005072,0.000013,0.002851,0.003917,0.127684,0.036849,0.196241,0.196237,0.172691,0.579110,0.000000,0.000000,0.000000,0.000000,0.000000,0.000000,0.000000,0.000000,0.000000,0.000000,0.000000,0.000000,0.123567,3,0
970000,-0.003816,24.904892,-0.047211,-0.015417,25.651052,-0.023090,-0.000564,0.018457,1.569748,-0.046857,0.000798,-0.001496,-0.000100,-0.005164,0.000013,0.001201,0.003945,0.085714,0.009380,0.196589,0.196585,0.172568,0.572669,0.000000,0.000000,0.000000,0.000000,0.000000,0.000000,0.000000,0.000000,0.000000,0.000000,0.000000,0.000000,0.082994,3,0
980000,-0.003843,25.165520,-0.048247,-0.015479,25.660980,-0.024627,-0.000567,0.018878,1.569743,-0.047650,0.000823,-0.001299,-0.000104,-0.005300,0.000013,0.002627,0.003973,0.124552,-0.027701,0.196926,0.196922,0.172431,0.566328,0.000000,0.000000,0.000000,0.000000,0.000000,0.000000,0.000000,0.000000,0.000000,0.000000,0.000000,0.000000,0.120524,3,0
990000,-0.003867,25.429441,-0.046949,-0.015410,25.676620,-0.022865,-0.000555,0.019611,1.569721,-0.049066,0.000848,-0.001701,-0.000108,-0.005547,0.000014,0.008397,0.003999,0.221643,0.054209,0.197251,0.197246,0.172282,0.560089,0.000000,0.000000,0.000000,0.000000,0.000000,0.000000,0.000000,0.000000,0.000000,0.000000,0.000000,0.000000,0.214394,3,0
1000000,-0.003891,25.688765,-0.046968,-0.015401,25.683880,-0.022783,-0.000549,0.019906,1.569719,-0.049558,0.000874,-0.001758,-0.000113,-0.005634,0.000014,0.000963,0.004023,0.076839,0.007521,0.197564,0.197559,0.172121,0.553953,0.000000,0.000000,0.000000,0.000000,0.000000,0.000000,0.000000,0.000000,0.000000,0.000000,0.000000,0.000000,0.074412,3,0
1010000,-0.003914,25.949448,-0.047941,-0.015439,25.693571,-0.024121,-0.000553,0.020316,1.569702,-0.050303,0.000899,-0.001571,-0.000118,-0.005768,0.000014,0.002265,0.004047,0.115625,-0.025762,0.197866,0.197861,0.171948,0.547921,0.000000,0.000000,0.000000,0.000000,0.000000,0.000000,0.000000,0.000000,0.000000,0.000000,0.000000,0.000000,0.111879,3,0
1020000,-0.003936,26.212126,-0.049028,-0.015395,25.706636,-0.025605,-0.000547,0.020924,1.569683,-0.051421,0.000925,-0.001357,-0.000122,-0.005973,0.000015,0.004959,0.004071,0.172907,-0.029164,0.198157,0.198152,0.171763,0.541993,0.000000,0.000000,0.000000,0.000000,0.000000,0.000000,0.000000,0.000000,0.000000,0.000000,0.000000,0.000000,0.167241,3,0
1030000,-0.003958,26.475454,-0.049501,-0.015467,25.720728,-0.026196,-0.000545,0.021601,1.569676,-0.052643,0.000951,-0.001309,-0.000127,-0.006199,0.000015,0.005731,0.004093,0.188404,-0.007201,0.198439,0.198433,0.171566,0.536170,0.000000,0.000000,0.000000,0.000000,0.000000,0.000000,0.000000,0.000000,0.000000,0.000000,0.000000,0.000000,0.182216,3,0
1040000,-0.003979,26.736792,-0.050377,-0.015452,25.731016,-0.027425,-0.000543,0.022074,1.569656,-0.053448,0.000978,-0.001152,-0.000132,-0.006351,0.000016,0.002542,0.004115,0.123724,-0.021154,0.198710,0.198704,0.171359,0.530452,0.000000,0.000000,0.000000,0.000000,0.000000,0.000000,0.000000,0.000000,0.000000,0.000000,0.000000,0.000000,0.119691,3,0
1050000,-0.003999,26.999454,-0.050267,-0.015508,25.743599,-0.027350,-0.000542,0.022671,1.569641,-0.054494,0.001004,-0.001265,-0.000137,-0.006550,0.000016,0.004183,0.004136,0.160465,0.013902,0.198972,0.198966,0.171141,0.524840,0.000000,0.000000,0.000000,0.000000,0.000000,0.000000,0.000000,0.000000,0.000000,0.000000,0.000000,0.000000,0.155197,3,0
1060000,-0.004018,27.262104,-0.049383,-0.015526,25.756050,-0.025958,-0.000525,0.023258,1.569633,-0.055514,0.001031,-0.001588,-0.000142,-0.006747,0.000017,0.004201,0.004157,0.156101,0.040990,0.199225,0.199218,0.170913,0.519333,0.000000,0.000000,0.000000,0.000000,0.000000,0.000000,0.000000,0.000000,0.000000,0.000000,0.000000,0.000000,0.150974,3,0
1070000,-0.004036,27.523420,-0.049222,-0.015462,25.765921,-0.025814,-0.000511,0.023696,1.569628,-0.056248,0.001058,-0.001710,-0.000148,-0.006891,0.000017,0.002061,0.004175,0.111996,0.015140,0.199470,0.199463,0.170676,0.513931,0.000000,0.000000,0.000000,0.000000,0.000000,0.000000,0.000000,0.000000,0.000000,0.000000,0.000000,0.000000,0.108348,3,0
1080000,-0.004054,27.782097,-0.050603,-0.015403,25.770931,-0.027878,-0.000508,0.023857,1.569616,-0.056442,0.001085,-0.001403,-0.000153,-0.006931,0.000017,0.000393,0.004193,0.029493,-0.039309,0.199706,0.199699,0.170429,0.508634,0.000000,0.000000,0.000000,0.000000,0.000000,0.000000,0.000000,0.000000,0.000000,0.000000,0.000000,0.000000,0.028796,3,0
1090000,-0.004070,28.046112,-0.051062,-0.015445,25.785429,-0.028599,-0.000498,0.024578,1.569605,-0.057680,0.001112,-0.001365,-0.000159,-0.007182,0.000018,0.005716,0.004211,0.188221,-0.005809,0.199935,0.199927,0.170172,0.503443,0.000000,0.000000,0.000000,0.000000,0.000000,0.000000,0.000000,0.000000,0.000000,0.000000,0.000000,0.000000,0.181995,3,0
1100000,-0.004085,28.308096,-0.049787,-0.015429,25.796154,-0.026780,-0.000483,0.025070,1.569598,-0.058489,0.001140,-0.001813,-0.000164,-0.007347,0.000018,0.002933,0.004227,0.122850,0.055482,0.200156,0.200148,0.169908,0.498356,0.000000,0.000000,0.000000,0.000000,0.000000,0.000000,0.000000,0.000000,0.000000,0.000000,0.000000,0.000000,0.118826,3,0
1110000,-0.004099,28.570068,-0.049003,-0.015358,25.806589,-0.025698,-0.000475,0.025574,1.569593,-0.059274,0.001167,-0.002120,-0.000170,-0.007510,0.000019,0.002520,0.004241,0.119184,0.037580,0.200371,0.200363,0.169635,0.493373,0.000000,0.000000,0.000000,0.000000,0.000000,0.000000,0.000000,0.000000,0.000000,0.000000,0.000000,0.000000,0.115281,3,0
1120000,-0.004113,28.829374,-0.049794,-0.015366,25.812239,-0.026953,-0.000472,0.025773,1.569581,-0.059513,0.001195,-0.001971,-0.000176,-0.007561,0.000019,0.000268,0.004255,0.036016,-0.018646,0.200580,0.200571,0.169355,0.488493,0.000000,0.000000,0.000000,0.000000,0.000000,0.000000,0.000000,0.000000,0.000000,0.000000,0.000000,0.000000,0.035053,3,0
1130000,-0.004126,29.088707,-0.050141,-0.015293,25.817858,-0.027422,-0.000468,0.025976,1.569568,-0.059745,0.001223,-0.001952,-0.000182,-0.007611,0.000019,0.000202,0.004269,0.035080,-0.002535,0.200782,0.200773,0.169067,0.483716,0.000000,0.000000,0.000000,0.000000,0.000000,0.000000,0.000000,0.000000,0.000000,0.000000,0.000000,0.000000,0.034155,3,0
1140000,-0.004138,29.352724,-0.049497,-0.015315,25.831610,-0.026500,-0.000458,0.026692,1.569559,-0.060890,0.001251,-0.002233,-0.000188,-0.007860,0.000020,0.005017,0.004282,0.173267,0.033148,0.200980,0.200970,0.168772,0.479040,0.000000,0.000000,0.000000,0.000000,0.000000,0.000000,0.000000,0.000000,0.000000,0.000000,0.000000,0.000000,0.167516,3,0
1150000,-0.004150,29.611362,-0.049304,-0.015346,25.835867,-0.026181,-0.000445,0.026799,1.569559,-0.060946,0.001279,-0.002369,-0.000195,-0.007872,0.000020,0.000059,0.004294,0.008507,0.016465,0.201172,0.201162,0.168471,0.474466,0.000000,0.000000,0.000000,0.000000,0.000000,0.000000,0.000000,0.000000,0.000000,0.000000,0.000000,0.000000,0.009210,3,0
1160000,-0.004161,29.870699,-0.047940,-0.015380,25.841318,-0.024488,-0.000444,0.026967,1.569541,-0.061131,0.001308,-0.002855,-0.000201,-0.007912,0.000020,0.000680,0.004306,0.028133,0.058228,0.201360,0.201349,0.168164,0.469993,0.000000,0.000000,0.000000,0.000000,0.000000,0.000000,0.000000,0.000000,0.000000,0.000000,0.000000,0.000000,0.027510,3,0
1170000,-0.004172,30.133398,-0.047543,-0.015456,25.852451,-0.024164,-0.000442,0.027526,1.569534,-0.061969,0.001336,-0.003058,-0.000208,-0.008102,0.000021,0.002672,0.004318,0.126562,0.023480,0.201544,0.201532,0.167850,0.465618,0.000000,0.000000,0.000000,0.000000,0.000000,0.000000,0.000000,0.000000,0.000000,0.000000,0.000000,0.000000,0.122384,3,0
1180000,-0.004184,30.394064,-0.048519,-0.015385,25.859928,-0.025508,-0.000434,0.027842,1.569513,-0.062383,0.001364,-0.002843,-0.000214,-0.008198,0.000021,0.000743,0.004329,0.062538,-0.026018,0.201723,0.201712,0.167532,0.461341,0.000000,0.000000,0.000000,0.000000,0.000000,0.000000,0.000000,0.000000,0.000000,0.000000,0.000000,0.000000,0.060579,3,0
1190000,-0.004194,30.653389,-0.048784,-0.015435,25.864908,-0.025680,-0.000427,0.027994,1.569501,-0.062519,0.001393,-0.002842,-0.000221,-0.008230,0.000021,0.000071,0.004340,0.020468,-0.000238,0.201900,0.201888,0.167208,0.457162,0.000000,0.000000,0.000000,0.000000,0.000000,0.000000,0.000000,0.000000,0.000000,0.000000,0.000000,0.000000,0.020219,3,0
1200000,-0.004203,30.914738,-0.048081,-0.015342,25.873350,-0.024861,-0.000415,0.028386,1.569490,-0.063042,0.001421,-0.003145,-0.000228,-0.008353,0.000021,0.001210,0.004350,0.079155,0.034900,0.202074,0.202061,0.166880,0.453078,0.000000,0.000000,0.000000,0.000000,0.000000,0.000000,0.000000,0.000000,0.000000,0.000000,0.000000,0.000000,0.076608,3,0
1210000,-0.004211,31.176743,-0.047243,-0.015220,25.882961,-0.023660,-0.000411,0.028851,1.569480,-0.063675,0.001450,-0.003491,-0.000235,-0.008505,0.000022,0.001742,0.004358,0.096024,0.039546,0.202245,0.202231,0.166548,0.449089,0.000000,0.000000,0.000000,0.000000,0.000000,0.000000,0.000000,0.000000,0.000000,0.000000,0.000000,0.000000,0.092886,3,0
1220000,-0.004217,31.439392,-0.046051,-0.015237,25.893589,-0.022375,-0.000396,0.029387,1.569470,-0.064415,0.001478,-0.003949,-0.000242,-0.008685,0.000022,0.002472,0.004366,0.112228,0.052134,0.202414,0.202399,0.166212,0.445195,0.000000,0.000000,0.000000,0.000000,0.000000,0.000000,0.000000,0.000000,0.000000,0.000000,0.000000,0.000000,0.108530,3,0
1230000,-0.004224,31.697985,-0.046253,-0.015116,25.896868,-0.022494,-0.000392,0.029414,1.569452,-0.064340,0.001507,-0.003955,-0.000250,-0.008666,0.000022,0.000024,0.004371,-0.011377,0.000806,0.202581,0.202566,0.165872,0.441392,0.000000,0.000000,0.000000,0.000000,0.000000,0.000000,0.000000,0.000000,0.000000,0.000000,0.000000,0.000000,0.011777,3,0
1240000,-0.004230,31.961308,-0.047493,-0.015099,25.908539,-0.024233,-0.000377,0.030030,1.569447,-0.065182,0.001535,-0.003648,-0.000257,-0.008879,0.000023,0.002837,0.004377,0.127579,-0.036218,0.202746,0.202731,0.165529,0.437680,0.000000,0.000000,0.000000,0.000000,0.000000,0.000000,0.000000,0.000000,0.000000,0.000000,0.000000,0.000000,0.123337,3,0
1250000,-0.004235,32.220543,-0.047578,-0.015043,25.912806,-0.024468,-0.000365,0.030120,1.569442,-0.065203,0.001564,-0.003700,-0.000264,-0.008885,0.000023,0.000010,0.004383,0.003288,0.005896,0.202910,0.202894,0.165183,0.434058,0.000000,0.000000,0.000000,0.000000,0.000000,0.000000,0.000000,0.000000,0.000000,0.000000,0.000000,0.000000,0.005294,3,0
1260000,-0.004239,32.482487,-0.048623,-0.014967,25.921730,-0.025871,-0.000344,0.030559,1.569432,-0.065743,0.001592,-0.003453,-0.000271,-0.009025,0.000023,0.001218,0.004387,0.081955,-0.028732,0.203074,0.203057,0.164834,0.430524,0.000000,0.000000,0.000000,0.000000,0.000000,0.000000,0.000000,0.000000,0.000000,0.000000,0.000000,0.000000,0.079291,3,0
1270000,-0.004241,32.741032,-0.048366,-0.014857,25.924549,-0.025626,-0.000322,0.030545,1.569431,-0.065604,0.001621,-0.003619,-0.000279,-0.008988,0.000023,0.000132,0.004390,-0.021046,0.018899,0.203236,0.203219,0.164484,0.427077,0.000000,0.000000,0.000000,0.000000,0.000000,0.000000,0.000000,0.000000,0.000000,0.000000,0.000000,0.000000,0.020770,3,0
1280000,-0.004243,33.004314,-0.047776,-0.014835,25.935791,-0.024987,-0.000311,0.031129,1.569422,-0.066375,0.001649,-0.003912,-0.000287,-0.009193,0.000024,0.002405,0.004392,0.117954,0.031574,0.203399,0.203380,0.164131,0.423716,0.000000,0.000000,0.000000,0.000000,0.000000,0.000000,0.000000,0.000000,0.000000,0.000000,0.000000,0.000000,0.114039,3,0
1290000,-0.004243,33.266193,-0.046759,-0.014762,25.944317,-0.023616,-0.000287,0.031528,1.569418,-0.066851,0.001678,-0.004339,-0.000294,-0.009320,0.000024,0.001222,0.004393,0.073231,0.046793,0.203561,0.203541,0.163777,0.420438,0.000000,0.000000,0.000000,0.000000,0.000000,0.000000,0.000000,0.000000,0.000000,0.000000,0.000000,0.000000,0.070878,3,0
1300000,-0.004244,33.526695,-0.046523,-0.014774,25.950445,-0.023495,-0.000283,0.031744,1.569406,-0.067046,0.001706,-0.004501,-0.000302,-0.009373,0.000024,0.000198,0.004393,0.029930,0.017610,0.203723,0.203703,0.163421,0.417245,0.000000,0.000000,0.000000,0.000000,0.000000,0.000000,0.000000,0.000000,0.000000,0.000000,0.000000,0.000000,0.029225,3,0
1310000,-0.004245,33.787193,-0.047681,-0.014670,25.956408,-0.024933,-0.000265,0.031956,1.569390,-0.067227,0.001735,-0.004197,-0.000310,-0.009425,0.000025,0.000312,0.004393,0.027794,-0.033745,0.203885,0.203864,0.163065,0.414132,0.000000,0.000000,0.000000,0.000000,0.000000,0.000000,0.000000,0.000000,0.000000,0.000000,0.000000,0.000000,0.027178,3,0
1320000,-0.004244,34.049702,-0.047401,-0.014688,25.965918,-0.024818,-0.000252,0.032433,1.569375,-0.067779,0.001762,-0.004389,-0.000318,-0.009580,0.000025,0.001240,0.004394,0.085297,0.020130,0.204049,0.204027,0.162707,0.411099,0.000000,0.000000,0.000000,0.000000,0.000000,0.000000,0.000000,0.000000,0.000000,0.000000,0.000000,0.000000,0.082507,3,0
1330000,-0.004244,34.309460,-0.047734,-0.014667,25.970440,-0.025188,-0.000238,0.032527,1.569363,-0.067789,0.001791,-0.004362,-0.000326,-0.009583,0.000025,0.000005,0.004394,0.001602,-0.003050,0.204212,0.204190,0.162349,0.408145,0.000000,0.000000,0.000000,0.000000,0.000000,0.000000,0.000000,0.000000,0.000000,0.000000,0.000000,0.000000,0.004518,3,0
1340000,-0.004242,34.573269,-0.046572,-0.014571,25.982046,-0.023907,-0.000221,0.033166,1.569342,-0.068557,0.001818,-0.004865,-0.000335,-0.009804,0.000026,0.002760,0.004393,0.119503,0.053130,0.204377,0.204353,0.161991,0.405268,0.000000,0.000000,0.000000,0.000000,0.000000,0.000000,0.000000,0.000000,0.000000,0.000000,0.000000,0.000000,0.115518,3,0
1350000,-0.004240,34.832954,-0.046804,-0.014470,25.986212,-0.024208,-0.000205,0.033221,1.569335,-0.068523,0.001847,-0.004868,-0.000343,-0.009794,0.000026,0.000008,0.004389,-0.005272,0.000329,0.204543,0.204518,0.161632,0.402466,0.000000,0.000000,0.000000,0.000000,0.000000,0.000000,0.000000,0.000000,0.000000,0.000000,0.000000,0.000000,0.006626,3,0
1360000,-0.004235,35.093987,-0.045788,-0.014359,25.992586,-0.023158,-0.000181,0.033462,1.569333,-0.068733,0.001874,-0.005312,-0.000352,-0.009855,0.000026,0.000541,0.004386,0.033184,0.047170,0.204710,0.204684,0.161274,0.399738,0.000000,0.000000,0.000000,0.000000,0.000000,0.000000,0.000000,0.000000,0.000000,0.000000,0.000000,0.000000,0.032337,3,0
1370000,-0.004231,35.357033,-0.045130,-0.014329,26.002529,-0.022370,-0.000159,0.033979,1.569324,-0.069306,0.001902,-0.005639,-0.000360,-0.010028,0.000027,0.001496,0.004381,0.090149,0.033760,0.204878,0.204852,0.160916,0.397082,0.000000,0.000000,0.000000,0.000000,0.000000,0.000000,0.000000,0.000000,0.000000,0.000000,0.000000,0.000000,0.087177,3,0
1380000,-0.004228,35.615269,-0.045198,-0.014349,26.003796,-0.022420,-0.000152,0.033805,1.569307,-0.068965,0.001930,-0.005686,-0.000369,-0.009923,0.000026,0.000473,0.004377,-0.053722,0.005623,0.205048,0.205021,0.160559,0.394498,0.000000,0.000000,0.000000,0.000000,0.000000,0.000000,0.000000,0.000000,0.000000,0.000000,0.000000,0.000000,0.052059,3,0
1390000,-0.004223,35.878281,-0.045460,-0.014283,26.013567,-0.022989,-0.000136,0.034317,1.569289,-0.069506,0.001957,-0.005689,-0.000377,-0.010092,0.000027,0.001183,0.004373,0.085609,-0.000757,0.205220,0.205191,0.160203,0.391984,0.000000,0.000000,0.000000,0.000000,0.000000,0.000000,0.000000,0.000000,0.000000,0.000000,0.000000,0.000000,0.082788,3,0
1400000,-0.004219,36.139874,-0.046257,-0.014221,26.020721,-0.024229,-0.000128,0.034620,1.569273,-0.069765,0.001984,-0.005496,-0.000386,-0.010175,0.000027,0.000346,0.004368,0.041164,-0.020827,0.205393,0.205363,0.159847,0.389537,0.000000,0.000000,0.000000,0.000000,0.000000,0.000000,0.000000,0.000000,0.000000,0.000000,0.000000,0.000000,0.039976,3,0
1410000,-0.004215,36.401428,-0.046651,-0.014241,26.027620,-0.024699,-0.000119,0.034897,1.569270,-0.070002,0.002011,-0.005449,-0.000395,-0.010251,0.000027,0.000239,0.004364,0.037926,-0.005404,0.205568,0.205537,0.159493,0.387158,0.000000,0.000000,0.000000,0.000000,0.000000,0.000000,0.000000,0.000000,0.000000,0.000000,0.000000,0.000000,0.036867,3,0
1420000,-0.004210,36.662937,-0.045942,-0.014261,26.034382,-0.024012,-0.000112,0.035151,1.569255,-0.070217,0.002038,-0.005804,-0.000404,-0.010320,0.000028,0.000413,0.004360,0.034729,0.036438,0.205745,0.205713,0.159141,0.384844,0.000000,0.000000,0.000000,0.000000,0.000000,0.000000,0.000000,0.000000,0.000000,0.000000,0.000000,0.000000,0.033806,3,0
1430000,-0.004205,36.923046,-0.045989,-0.014160,26.038427,-0.024015,-0.000103,0.035207,1.569245,-0.070166,0.002065,-0.005874,-0.000413,-0.010303,0.000028,0.000023,0.004354,-0.008183,0.007356,0.205923,0.205890,0.158790,0.382593,0.000000,0.000000,0.000000,0.000000,0.000000,0.000000,0.000000,0.000000,0.000000,0.000000,0.000000,0.000000,0.008949,3,0
1440000,-0.004200,37.184509,-0.047167,-0.014177,26.044994,-0.025722,-0.000078,0.035452,1.569233,-0.070351,0.002092,-0.005536,-0.000421,-0.010366,0.000028,0.000347,0.004349,0.029854,-0.035131,0.206104,0.206070,0.158441,0.380405,0.000000,0.000000,0.000000,0.000000,0.000000,0.000000,0.000000,0.000000,0.000000,0.000000,0.000000,0.000000,0.029128,3,0
1450000,-0.004195,37.443882,-0.048222,-0.014025,26.047707,-0.026941,-0.000066,0.035381,1.569224,-0.070151,0.002119,-0.005234,-0.000430,-0.010300,0.000028,0.000327,0.004343,-0.032887,-0.030405,0.206286,0.206251,0.158093,0.378279,0.000000,0.000000,0.000000,0.000000,0.000000,0.000000,0.000000,0.000000,0.000000,0.000000,0.000000,0.000000,0.032037,3,0
1460000,-0.004187,37.705982,-0.049035,-0.013878,26.055243,-0.027805,-0.000056,0.035711,1.569205,-0.070430,0.002145,-0.005042,-0.000439,-0.010397,0.000028,0.000405,0.004336,0.045654,-0.020285,0.206471,0.206434,0.157748,0.376211,0.000000,0.000000,0.000000,0.000000,0.000000,0.000000,0.000000,0.000000,0.000000,0.000000,0.000000,0.000000,0.044277,3,0
1470000,-0.004180,37.963924,-0.050050,-0.013883,26.055244,-0.028854,-0.000030,0.035418,1.569192,-0.069962,0.002172,-0.004748,-0.000448,-0.010234,0.000028,0.001099,0.004329,-0.077370,-0.028590,0.206657,0.206619,0.157405,0.374203,0.000000,0.000000,0.000000,0.000000,0.000000,0.000000,0.000000,0.000000,0.000000,0.000000,0.000000,0.000000,0.074828,3,0
1480000,-0.004172,38.225300,-0.050241,-0.013863,26.061390,-0.029163,-0.000022,0.035617,1.569173,-0.070097,0.002198,-0.004792,-0.000458,-0.010282,0.000028,0.000087,0.004322,0.022511,0.004046,0.206846,0.206807,0.157065,0.372251,0.000000,0.000000,0.000000,0.000000,0.000000,0.000000,0.000000,0.000000,0.000000,0.000000,0.000000,0.000000,0.022133,3,0
1490000,-0.004164,38.485256,-0.049566,-0.013788,26.064745,-0.028267,-0.000012,0.035599,1.569170,-0.069975,0.002223,-0.005157,-0.000467,-0.010236,0.000028,0.000291,0.004313,-0.020256,0.036972,0.207037,0.206996,0.156727,0.370354,0.000000,0.000000,0.000000,0.000000,0.000000,0.000000,0.000000,0.000000,0.000000,0.000000,0.000000,0.000000,0.019989,3,0
1500000,-0.004155,38.744507,-0.049411,-0.013741,26.066780,-0.028206,0.000012,0.035469,1.569154,-0.069727,0.002249,-0.005316,-0.000477,-0.010144,0.000028,0.000328,0.004304,-0.041698,0.016643,0.207229,0.207187,0.156391,0.368510,0.000000,0.000000,0.000000,0.000000,0.000000,0.000000,0.000000,0.000000,0.000000,0.000000,0.000000,0.000000,0.040470,3,0
1510000,-0.004147,39.007195,-0.050774,-0.013739,26.075054,-0.029777,0.000030,0.035875,1.569152,-0.070064,0.002274,-0.004914,-0.000486,-0.010272,0.000028,0.000796,0.004295,0.056850,-0.040991,0.207423,0.207380,0.156058,0.366720,0.000000,0.000000,0.000000,0.000000,0.000000,0.000000,0.000000,0.000000,0.000000,0.000000,0.000000,0.000000,0.055035,3,0
1520000,-0.004137,39.264992,-0.050776,-0.013571,26.074240,-0.029560,0.000054,0.035491,1.569148,-0.069556,0.002300,-0.005008,-0.000496,-0.010079,0.000028,0.001230,0.004285,-0.086647,0.010765,0.207619,0.207575,0.155729,0.364980,0.000000,0.000000,0.000000,0.000000,0.000000,0.000000,0.000000,0.000000,0.000000,0.000000,0.000000,0.000000,0.083751,3,0
1530000,-0.004128,39.522808,-0.051970,-0.013540,26.073496,-0.030950,0.000076,0.035128,1.569138,-0.069056,0.002325,-0.004635,-0.000505,-0.009890,0.000028,0.001396,0.004275,-0.086010,-0.035287,0.207817,0.207771,0.155402,0.363291,0.000000,0.000000,0.000000,0.000000,0.000000,0.000000,0.000000,0.000000,0.000000,0.000000,0.000000,0.000000,0.083141,3,0
1540000,-0.004118,39.782009,-0.052537,-0.013475,26.075207,-0.031433,0.000098,0.034968,1.569122,-0.068793,0.002350,-0.004523,-0.000515,-0.009788,0.000028,0.000355,0.004265,-0.045635,-0.010265,0.208017,0.207970,0.155078,0.361650,0.000000,0.000000,0.000000,0.000000,0.000000,0.000000,0.000000,0.000000,0.000000,0.000000,0.000000,0.000000,0.044248,3,0
1550000,-0.004107,40.042568,-0.051929,-0.013461,26.079405,-0.030761,0.000110,0.035016,1.569111,-0.068754,0.002374,-0.004888,-0.000524,-0.009770,0.000028,0.000219,0.004255,-0.006672,0.035863,0.208218,0.208169,0.154757,0.360057,0.000000,0.000000,0.000000,0.000000,0.000000,0.000000,0.000000,0.000000,0.000000,0.000000,0.000000,0.000000,0.007631,3,0
1560000,-0.004095,40.301022,-0.051588,-0.013349,26.079575,-0.030226,0.000137,0.034730,1.569101,-0.068364,0.002399,-0.005129,-0.000534,-0.009612,0.000027,0.000856,0.004243,-0.068478,0.024686,0.208421,0.208371,0.154440,0.358509,0.000000,0.000000,0.000000,0.000000,0.000000,0.000000,0.000000,0.000000,0.000000,0.000000,0.000000,0.000000,0.066220,3,0
1570000,-0.004084,40.562943,-0.052657,-0.013289,26.086119,-0.031544,0.000161,0.034982,1.569083,-0.068539,0.002423,-0.004831,-0.000544,-0.009685,0.000028,0.000297,0.004230,0.030884,-0.029421,0.208625,0.208574,0.154126,0.357007,0.000000,0.000000,0.000000,0.000000,0.000000,0.000000,0.000000,0.000000,0.000000,0.000000,0.000000,0.000000,0.030083,3,0
1580000,-0.004070,40.826176,-0.052129,-0.013142,26.094870,-0.031042,0.000185,0.035437,1.569077,-0.068913,0.002446,-0.005194,-0.000554,-0.009838,0.000028,0.000912,0.004218,0.067081,0.033720,0.208831,0.208778,0.153815,0.355547,0.000000,0.000000,0.000000,0.000000,0.000000,0.000000,0.000000,0.000000,0.000000,0.000000,0.000000,0.000000,0.064882,3,0
1590000,-0.004057,41.084488,-0.052342,-0.013015,26.094664,-0.031014,0.000212,0.035102,1.569064,-0.068486,0.002469,-0.005211,-0.000564,-0.009659,0.000028,0.000957,0.004203,-0.076965,0.003102,0.209038,0.208983,0.153508,0.354132,0.000000,0.000000,0.000000,0.000000,0.000000,0.000000,0.000000,0.000000,0.000000,0.000000,0.000000,0.000000,0.074394,3,0
1600000,-0.004042,41.342796,-0.052035,-0.012938,26.094299,-0.030685,0.000242,0.034754,1.569061,-0.068063,0.002493,-0.005442,-0.000574,-0.009477,0.000028,0.001043,0.004189,-0.076851,0.023617,0.209245,0.209189,0.153205,0.352757,0.000000,0.000000,0.000000,0.000000,0.000000,0.000000,0.000000,0.000000,0.000000,0.000000,0.000000,0.000000,0.074275,3,0
1610000,-0.004028,41.603191,-0.052785,-0.012820,26.097717,-0.031648,0.000258,0.034744,1.569058,-0.067970,0.002516,-0.005256,-0.000583,-0.009438,0.000028,0.000099,0.004173,-0.017090,-0.017391,0.209454,0.209397,0.152905,0.351422,0.000000,0.000000,0.000000,0.000000,0.000000,0.000000,0.000000,0.000000,0.000000,0.000000,0.000000,0.000000,0.016983,3,0
1620000,-0.004013,41.860771,-0.053247,-0.012740,26.096067,-0.031924,0.000281,0.034257,1.569054,-0.067438,0.002539,-0.005165,-0.000593,-0.009204,0.000027,0.001574,0.004158,-0.098614,-0.006671,0.209664,0.209605,0.152609,0.350127,0.000000,0.000000,0.000000,0.000000,0.000000,0.000000,0.000000,0.000000,0.000000,0.000000,0.000000,0.000000,0.095254,3,0
1630000,-0.003996,42.123211,-0.052239,-0.012702,26.103146,-0.030709,0.000307,0.034560,1.569043,-0.067659,0.002560,-0.005733,-0.000604,-0.009299,0.000027,0.000732,0.004143,0.041405,0.052822,0.209874,0.209813,0.152316,0.348868,0.000000,0.000000,0.000000,0.000000,0.000000,0.000000,0.000000,0.000000,0.000000,0.000000,0.000000,0.000000,0.040170,3,0
1640000,-0.003980,42.383503,-0.051990,-0.012597,26.106249,-0.030190,0.000319,0.034508,1.569025,-0.067540,0.002582,-0.005959,-0.000614,-0.009244,0.000027,0.000160,0.004125,-0.022320,0.021754,0.210085,0.210023,0.152027,0.347647,0.000000,0.000000,0.000000,0.000000,0.000000,0.000000,0.000000,0.000000,0.000000,0.000000,0.000000,0.000000,0.021899,3,0
1650000,-0.003963,42.644455,-0.051790,-0.012431,26.110470,-0.030013,0.000333,0.034554,1.569015,-0.067517,0.002603,-0.006170,-0.000624,-0.009232,0.000028,0.000071,0.004107,-0.004333,0.019969,0.210296,0.210233,0.151742,0.346461,0.000000,0.000000,0.000000,0.000000,0.000000,0.000000,0.000000,0.000000,0.000000,0.000000,0.000000,0.000000,0.005758,3,0
1660000,-0.003944,42.905350,-0.050743,-0.012287,26.114487,-0.028665,0.000354,0.034586,1.569007,-0.067480,0.002624,-0.006740,-0.000634,-0.009210,0.000028,0.000474,0.004088,-0.006905,0.053408,0.210508,0.210443,0.151461,0.345309,0.000000,0.000000,0.000000,0.000000,0.000000,0.000000,0.000000,0.000000,0.000000,0.000000,0.000000,0.000000,0.007731,3,0
1670000,-0.003924,43.162704,-0.049809,-0.012167,26.111847,-0.027509,0.000386,0.034022,1.568998,-0.066921,0.002645,-0.007223,-0.000644,-0.008941,0.000027,0.002270,0.004068,-0.108803,0.047329,0.210720,0.210653,0.151184,0.344191,0.000000,0.000000,0.000000,0.000000,0.000000,0.000000,0.000000,0.000000,0.000000,0.000000,0.000000,0.000000,0.105042,3,0
1680000,-0.003905,43.422173,-0.049543,-0.012073,26.113272,-0.027066,0.000414,0.033814,1.568994,-0.066677,0.002666,-0.007439,-0.000654,-0.008821,0.000027,0.000446,0.004047,-0.048077,0.021038,0.210932,0.210864,0.150911,0.343106,0.000000,0.000000,0.000000,0.000000,0.000000,0.000000,0.000000,0.000000,0.000000,0.000000,0.000000,0.000000,0.046543,3,0
1690000,-0.003886,43.683723,-0.050286,-0.012040,26.118511,-0.028032,0.000429,0.033967,1.568991,-0.066730,0.002686,-0.007241,-0.000664,-0.008849,0.000027,0.000076,0.004028,0.010506,-0.018510,0.211143,0.211074,0.150641,0.342052,0.000000,0.000000,0.000000,0.000000,0.000000,0.000000,0.000000,0.000000,0.000000,0.000000,0.000000,0.000000,0.010852,3,0
1700000,-0.003865,43.943092,-0.049095,-0.011884,26.119614,-0.026390,0.000459,0.033714,1.568973,-0.066470,0.002706,-0.007859,-0.000675,-0.008714,0.000027,0.000991,0.004008,-0.052307,0.058113,0.211354,0.211284,0.150376,0.341029,0.000000,0.000000,0.000000,0.000000,0.000000,0.000000,0.000000,0.000000,0.000000,0.000000,0.000000,0.000000,0.050593,3,0
1710000,-0.003844,44.203838,-0.047915,-0.011786,26.123108,-0.025000,0.000490,0.033698,1.568955,-0.066403,0.002725,-0.008484,-0.000685,-0.008675,0.000027,0.000572,0.003986,-0.013504,0.057679,0.211565,0.211493,0.150115,0.340033,0.000000,0.000000,0.000000,0.000000,0.000000,0.000000,0.000000,0.000000,0.000000,0.000000,0.000000,0.000000,0.013564,3,0
