time_us,pos_x,pos_y,pos_z,vel_x,vel_y,vel_z,roll,pitch,yaw,bias_ax,bias_ay,bias_az,bias_gx,bias_gy,bias_gz,nis,innov_x,innov_y,innov_z,cov_pos_x,cov_pos_y,cov_pos_z,cov_yaw,des_speed,des_heading,des_climb,pid_speed,pid_yaw,pid_alt,speed_meas,yaw_meas,climb_meas,fwd_accel,yaw_rate,vert_accel,drift_m,nav_mode,mission_state
0,-0.000004,0.150003,-0.000001,-0.000738,25.000450,-0.000231,0.000002,0.000008,1.570786,0.000000,0.000000,0.000000,0.000000,0.000000,0.000000,0.006250,0.000007,-0.250007,0.000002,2.400038,2.400038,3.600017,1.000518,0.000000,0.000000,0.000000,0.000000,0.000000,0.000000,0.000000,0.000000,0.000000,0.000000,0.000000,0.000000,0.150003,1,0
10000,-0.000014,0.342516,0.000454,-0.001489,25.000587,-0.000072,0.000008,0.000001,1.570782,0.000001,0.000000,-0.000000,0.000000,0.000000,0.000000,0.004820,0.000019,-0.201223,0.001216,1.714420,1.714420,2.250079,1.001073,0.000000,0.000000,0.000000,0.000000,0.000000,0.000000,0.000000,0.000000,0.000000,0.000000,0.000000,0.000000,0.143726,3,0
20000,-0.000028,0.562452,-0.003095,-0.002217,25.000858,-0.000153,0.000008,-0.000011,1.570787,0.000002,0.000000,0.000000,0.000000,0.000000,-0.000000,0.002394,0.000036,-0.135313,-0.013006,1.333616,1.333616,1.636554,1.001655,0.000000,0.000000,0.000000,0.000000,0.000000,0.000000,0.000000,0.000000,0.000000,0.000000,0.000000,0.000000,0.105237,3,0
30000,-0.000047,0.816550,-0.017350,-0.002934,25.001587,-0.000347,0.000017,-0.000006,1.570774,0.000001,0.000000,0.000001,0.000000,0.000000,-0.000000,0.000648,0.000057,0.022447,-0.066502,1.091392,1.091392,1.286065,1.002257,0.000000,0.000000,0.000000,0.000000,0.000000,0.000000,0.000000,0.000000,0.000000,0.000000,0.000000,0.000000,0.018364,3,0
40000,-0.000071,1.049269,-0.024021,-0.003661,25.001705,-0.000714,0.000035,-0.000002,1.570775,0.000005,0.000000,0.000002,0.000000,0.000000,-0.000000,0.001976,0.000084,-0.112384,-0.037747,0.923811,0.923811,1.059385,1.002869,0.000000,0.000000,0.000000,0.000000,0.000000,0.000000,0.000000,0.000000,0.000000,0.000000,0.000000,0.000000,0.095081,3,0
50000,-0.000099,1.287720,-0.027882,-0.004360,25.001858,-0.000683,0.000040,0.000001,1.570769,0.000008,0.000000,0.000003,0.000000,0.000000,-0.000000,0.001178,0.000114,-0.086678,-0.025681,0.801036,0.801036,0.900822,1.003484,0.000000,0.000000,0.000000,0.000000,0.000000,0.000000,0.000000,0.000000,0.000000,0.000000,0.000000,0.000000,0.075106,3,0
60000,-0.000133,1.534568,-0.032329,-0.005210,25.002258,-0.001039,0.000040,-0.000011,1.570775,0.000010,0.000000,0.000005,0.000000,0.000000,-0.000000,0.000274,0.000151,-0.026947,-0.033978,0.707270,0.707270,0.783741,1.004094,0.000000,0.000000,0.000000,0.000000,0.000000,0.000000,0.000000,0.000000,0.000000,0.000000,0.000000,0.000000,0.023771,3,0
70000,-0.000173,1.793467,-0.028973,-0.006053,25.003521,-0.000841,0.000041,-0.000002,1.570768,0.000003,0.000000,0.000003,-0.000000,-0.000000,0.000000,0.001177,0.000194,0.084021,0.029108,0.633370,0.633370,0.693801,1.004688,0.000000,0.000000,0.000000,0.000000,0.000000,0.000000,0.000000,0.000000,0.000000,0.000000,0.000000,0.000000,0.075152,3,0
80000,-0.000218,2.045793,-0.027420,-0.006805,25.004354,-0.000697,0.000054,-0.000001,1.570767,0.000001,0.000000,0.000001,-0.000000,-0.000000,0.000000,0.000120,0.000241,0.023899,0.015045,0.573673,0.573673,0.622594,1.005260,0.000000,0.000000,0.000000,0.000000,0.000000,0.000000,0.000000,0.000000,0.000000,0.000000,0.000000,0.000000,0.021615,3,0
90000,-0.000269,2.303677,-0.032751,-0.007645,25.005695,-0.001284,0.000062,-0.000009,1.570764,-0.000011,0.000000,0.000008,-0.000000,-0.000000,0.000000,0.001704,0.000295,0.089628,-0.056540,0.524488,0.524488,0.564865,1.005801,0.000000,0.000000,0.000000,0.000000,0.000000,0.000000,0.000000,0.000000,0.000000,0.000000,0.000000,0.000000,0.081793,3,0
100000,-0.000325,2.557800,-0.030853,-0.008429,25.006802,-0.001040,0.000079,-0.000016,1.570755,-0.000018,0.000000,0.000005,-0.000000,-0.000000,0.000000,0.000464,0.000353,0.050398,0.022167,0.483304,0.483304,0.517162,1.006301,0.000000,0.000000,0.000000,0.000000,0.000000,0.000000,0.000000,0.000000,0.000000,0.000000,0.000000,0.000000,0.046339,3,0
110000,-0.000387,2.807505,-0.032113,-0.009296,25.007435,-0.001175,0.000094,-0.000022,1.570753,-0.000018,0.000000,0.000008,-0.000000,-0.000000,0.000000,0.000042,0.000418,-0.004948,-0.015719,0.448354,0.448354,0.477121,1.006754,0.000000,0.000000,0.000000,0.000000,0.000000,0.000000,0.000000,0.000000,0.000000,0.000000,0.000000,0.000000,0.004594,3,0
120000,-0.000454,3.059233,-0.029470,-0.010154,25.008236,-0.000883,0.000099,-0.000014,1.570742,-0.000023,0.000000,0.000000,-0.000000,-0.000000,0.000000,0.000286,0.000488,0.023648,0.035965,0.418359,0.418359,0.443071,1.007150,0.000000,0.000000,0.000000,0.000000,0.000000,0.000000,0.000000,0.000000,0.000000,0.000000,0.000000,0.000000,0.022003,3,0
130000,-0.000527,3.316506,-0.031156,-0.010915,25.010189,-0.001199,0.000103,-0.000003,1.570730,-0.000051,0.000000,0.000006,-0.000000,-0.000001,0.000000,0.001972,0.000563,0.109852,-0.024316,0.392369,0.392369,0.413797,1.007482,0.000000,0.000000,0.000000,0.000000,0.000000,0.000000,0.000000,0.000000,0.000000,0.000000,0.000000,0.000000,0.102669,3,0
140000,-0.000605,3.568552,-0.034696,-0.011784,25.011122,-0.001997,0.000120,-0.000008,1.570721,-0.000060,0.000001,0.000022,-0.000000,-0.000001,0.000000,0.000617,0.000645,0.031471,-0.054471,0.369666,0.369666,0.388393,1.007740,0.000000,0.000000,0.000000,0.000000,0.000000,0.000000,0.000000,0.000000,0.000000,0.000000,0.000000,0.000000,0.029538,3,0
150000,-0.000687,3.826667,-0.037229,-0.012466,25.013622,-0.002755,0.000125,0.000002,1.570725,-0.000106,0.000001,0.000035,-0.000000,-0.000002,0.000000,0.003221,0.000730,0.137236,-0.041153,0.349695,0.349695,0.366172,1.007916,0.000000,0.000000,0.000000,0.000000,0.000000,0.000000,0.000000,0.000000,0.000000,0.000000,0.000000,0.000000,0.129239,3,0
160000,-0.000775,4.078919,-0.037016,-0.013288,25.014713,-0.002781,0.000128,-0.000001,1.570725,-0.000121,0.000001,0.000034,-0.000000,-0.000002,0.000000,0.000232,0.000820,0.038127,0.004188,0.332021,0.332021,0.346600,1.008003,0.000000,0.000000,0.000000,0.000000,0.000000,0.000000,0.000000,0.000000,0.000000,0.000000,0.000000,0.000000,0.036025,3,0
170000,-0.000867,4.328262,-0.035146,-0.014019,25.015015,-0.002299,0.000131,-0.000001,1.570712,-0.000114,0.000002,0.000019,-0.000000,-0.000002,0.000000,0.000226,0.000915,-0.015347,0.034580,0.316297,0.316297,0.329260,1.007993,0.000000,0.000000,0.000000,0.000000,0.000000,0.000000,0.000000,0.000000,0.000000,0.000000,0.000000,0.000000,0.014564,3,0
180000,-0.000963,4.579103,-0.037419,-0.014717,25.015770,-0.002826,0.000144,-0.000003,1.570706,-0.000121,0.000002,0.000040,-0.000000,-0.000002,0.000000,0.000322,0.001014,0.013612,-0.043036,0.302246,0.302246,0.313817,1.007877,0.000000,0.000000,0.000000,0.000000,0.000000,0.000000,0.000000,0.000000,0.000000,0.000000,0.000000,0.000000,0.012962,3,0
190000,-0.001064,4.831250,-0.038993,-0.015428,25.017134,-0.003473,0.000156,-0.000005,1.570709,-0.000142,0.000003,0.000056,-0.000000,-0.000003,0.000000,0.000419,0.001118,0.041067,-0.030895,0.289641,0.289641,0.300003,1.007647,0.000000,0.000000,0.000000,0.000000,0.000000,0.000000,0.000000,0.000000,0.000000,0.000000,0.000000,0.000000,0.039099,3,0
200000,-0.001169,5.084546,-0.036632,-0.016211,25.019047,-0.002768,0.000161,0.000001,1.570701,-0.000182,0.000003,0.000027,-0.000000,-0.000004,0.000000,0.001115,0.001226,0.067211,0.050022,0.278295,0.278296,0.287598,1.007298,0.000000,0.000000,0.000000,0.000000,0.000000,0.000000,0.000000,0.000000,0.000000,0.000000,0.000000,0.000000,0.064104,3,0
210000,-0.001278,5.338862,-0.036489,-0.016895,25.021505,-0.002620,0.000178,0.000021,1.570699,-0.000241,0.000004,0.000025,-0.000000,-0.000006,0.000000,0.001356,0.001338,0.092201,0.003682,0.268054,0.268054,0.276421,1.006819,0.000000,0.000000,0.000000,0.000000,0.000000,0.000000,0.000000,0.000000,0.000000,0.000000,0.000000,0.000000,0.088091,3,0
220000,-0.001393,5.590664,-0.037209,-0.017680,25.022850,-0.002967,0.000190,0.000037,1.570690,-0.000266,0.000005,0.000035,-0.000000,-0.000006,0.000000,0.000253,0.001456,0.036650,-0.015616,0.258787,0.258787,0.266321,1.006206,0.000000,0.000000,0.000000,0.000000,0.000000,0.000000,0.000000,0.000000,0.000000,0.000000,0.000000,0.000000,0.035097,3,0
230000,-0.001512,5.847682,-0.036851,-0.018453,25.026894,-0.002898,0.000201,0.000074,1.570676,-0.000390,0.000006,0.000029,-0.000000,-0.000010,0.000000,0.004233,0.001578,0.162533,0.009076,0.250386,0.250386,0.257172,1.005450,0.000000,0.000000,0.000000,0.000000,0.000000,0.000000,0.000000,0.000000,0.000000,0.000000,0.000000,0.000000,0.155758,3,0
240000,-0.001635,6.105394,-0.038648,-0.019215,25.031580,-0.003828,0.000216,0.000117,1.570671,-0.000541,0.000008,0.000063,-0.000000,-0.000016,0.000000,0.005692,0.001704,0.183779,-0.042630,0.242756,0.242756,0.248866,1.004546,0.000000,0.000000,0.000000,0.000000,0.000000,0.000000,0.000000,0.000000,0.000000,0.000000,0.000000,0.000000,0.176351,3,0
250000,-0.001763,6.357497,-0.039868,-0.019976,25.033283,-0.004666,0.000218,0.000137,1.570676,-0.000582,0.000010,0.000089,-0.000000,-0.000017,0.000000,0.000467,0.001836,0.045295,-0.029317,0.235819,0.235819,0.241314,1.003486,0.000000,0.000000,0.000000,0.000000,0.000000,0.000000,0.000000,0.000000,0.000000,0.000000,0.000000,0.000000,0.043550,3,0
260000,-0.001896,6.615132,-0.038612,-0.020794,25.038387,-0.003936,0.000237,0.000202,1.570677,-0.000765,0.000011,0.000057,-0.000000,-0.000024,0.000000,0.006011,0.001972,0.190753,0.033329,0.229505,0.229505,0.234436,1.002264,0.000000,0.000000,0.000000,0.000000,0.000000,0.000000,0.000000,0.000000,0.000000,0.000000,0.000000,0.000000,0.183467,3,0
270000,-0.002034,6.868957,-0.037327,-0.021599,25.041239,-0.003037,0.000250,0.000239,1.570673,-0.000860,0.000014,0.000022,-0.000000,-0.000027,0.000000,0.001556,0.002113,0.092098,0.034811,0.223755,0.223755,0.228165,1.000875,0.000000,0.000000,0.000000,0.000000,0.000000,0.000000,0.000000,0.000000,0.000000,0.000000,0.000000,0.000000,0.088687,3,0
280000,-0.002176,7.124344,-0.038752,-0.022359,25.045271,-0.003818,0.000264,0.000278,1.570672,-0.001011,0.000016,0.000063,-0.000001,-0.000033,0.000000,0.003217,0.002258,0.136429,-0.037640,0.218517,0.218517,0.222443,0.999313,0.000000,0.000000,0.000000,0.000000,0.000000,0.000000,0.000000,0.000000,0.000000,0.000000,0.000000,0.000000,0.131478,3,0
290000,-0.002321,7.379770,-0.037929,-0.023066,25.049456,-0.003469,0.000273,0.000330,1.570672,-0.001175,0.000019,0.000035,-0.000001,-0.000040,0.000000,0.003217,0.002407,0.139428,0.023847,0.213746,0.213746,0.217219,0.997574,0.000000,0.000000,0.000000,0.000000,0.000000,0.000000,0.000000,0.000000,0.000000,0.000000,0.000000,0.000000,0.134480,3,0
300000,-0.002470,7.637321,-0.037188,-0.023682,25.055544,-0.002977,0.000285,0.000412,1.570657,-0.001429,0.000022,0.000008,-0.000001,-0.000051,0.000000,0.006643,0.002559,0.202022,0.021914,0.209400,0.209400,0.212446,0.995652,0.000000,0.000000,0.000000,0.000000,0.000000,0.000000,0.000000,0.000000,0.000000,0.000000,0.000000,0.000000,0.194987,3,0
310000,-0.002622,7.890744,-0.035997,-0.024437,25.058430,-0.002177,0.000292,0.000447,1.570644,-0.001540,0.000026,-0.000039,-0.000001,-0.000056,0.000000,0.001325,0.002715,0.083563,0.035243,0.205446,0.205446,0.208087,0.993544,0.000000,0.000000,0.000000,0.000000,0.000000,0.000000,0.000000,0.000000,0.000000,0.000000,0.000000,0.000000,0.080744,3,0
320000,-0.002777,8.147656,-0.035779,-0.025125,25.064398,-0.002057,0.000303,0.000534,1.570640,-0.001806,0.000030,-0.000049,-0.000001,-0.000068,0.000001,0.005698,0.002874,0.187931,0.007085,0.201850,0.201850,0.204105,0.991245,0.000000,0.000000,0.000000,0.000000,0.000000,0.000000,0.000000,0.000000,0.000000,0.000000,0.000000,0.000000,0.181630,3,0
330000,-0.002935,8.403917,-0.035997,-0.025788,25.070040,-0.002154,0.000304,0.000609,1.570625,-0.002060,0.000034,-0.000040,-0.000001,-0.000080,0.000001,0.004637,0.003036,0.169506,-0.005939,0.198585,0.198585,0.200469,0.988752,0.000000,0.000000,0.000000,0.000000,0.000000,0.000000,0.000000,0.000000,0.000000,0.000000,0.000000,0.000000,0.163922,3,0
340000,-0.003096,8.659573,-0.035921,-0.026405,25.075298,-0.002207,0.000316,0.000677,1.570623,-0.002300,0.000039,-0.000044,-0.000002,-0.000092,0.000001,0.003715,0.003200,0.151735,0.003020,0.195625,0.195625,0.197151,0.986062,0.000000,0.000000,0.000000,0.000000,0.000000,0.000000,0.000000,0.000000,0.000000,0.000000,0.000000,0.000000,0.146820,3,0
350000,-0.003259,8.914021,-0.036921,-0.027047,25.079599,-0.003286,0.000321,0.000739,1.570614,-0.002492,0.000045,0.000005,-0.000002,-0.000102,0.000001,0.002270,0.003368,0.114696,-0.030150,0.192947,0.192947,0.194125,0.983173,0.000000,0.000000,0.000000,0.000000,0.000000,0.000000,0.000000,0.000000,0.000000,0.000000,0.000000,0.000000,0.111055,3,0
360000,-0.003426,9.169855,-0.037729,-0.027737,25.085443,-0.004163,0.000331,0.000819,1.570599,-0.002770,0.000051,0.000048,-0.000002,-0.000116,0.000001,0.004145,0.003538,0.158386,-0.024237,0.190531,0.190531,0.191370,0.980082,0.000000,0.000000,0.000000,0.000000,0.000000,0.000000,0.000000,0.000000,0.000000,0.000000,0.000000,0.000000,0.153395,3,0
370000,-0.003594,9.425769,-0.036378,-0.028403,25.091503,-0.002713,0.000333,0.000909,1.570590,-0.003066,0.000058,-0.000033,-0.000003,-0.000132,0.000001,0.004498,0.003711,0.160920,0.044202,0.188357,0.188357,0.188863,0.976789,0.000000,0.000000,0.000000,0.000000,0.000000,0.000000,0.000000,0.000000,0.000000,0.000000,0.000000,0.000000,0.155910,3,0
380000,-0.003765,9.682385,-0.037105,-0.029063,25.098452,-0.003264,0.000335,0.001031,1.570584,-0.003421,0.000065,0.000010,-0.000003,-0.000151,0.000001,0.005508,0.003886,0.183250,-0.022562,0.186409,0.186409,0.186586,0.973293,0.000000,0.000000,0.000000,0.000000,0.000000,0.000000,0.000000,0.000000,0.000000,0.000000,0.000000,0.000000,0.177597,3,0
390000,-0.003939,9.937848,-0.035643,-0.029771,25.104233,-0.001722,0.000344,0.001133,1.570586,-0.003715,0.000074,-0.000088,-0.000003,-0.000168,0.000001,0.003792,0.004065,0.145232,0.048608,0.184670,0.184670,0.184523,0.969592,0.000000,0.000000,0.000000,0.000000,0.000000,0.000000,0.000000,0.000000,0.000000,0.000000,0.000000,0.000000,0.140817,3,0
400000,-0.004115,10.195239,-0.034853,-0.030418,25.112293,-0.000972,0.000347,0.001280,1.570575,-0.004154,0.000083,-0.000144,-0.000004,-0.000194,0.000002,0.007092,0.004245,0.207775,0.026560,0.183126,0.183126,0.182656,0.965687,0.000000,0.000000,0.000000,0.000000,0.000000,0.000000,0.000000,0.000000,0.000000,0.000000,0.000000,0.000000,0.201476,3,0
410000,-0.004293,10.452090,-0.036170,-0.031044,25.119802,-0.002247,0.000367,0.001409,1.570572,-0.004572,0.000092,-0.000049,-0.000005,-0.000219,0.000002,0.006071,0.004427,0.188850,-0.043375,0.181763,0.181763,0.180971,0.961579,0.000000,0.000000,0.000000,0.000000,0.000000,0.000000,0.000000,0.000000,0.000000,0.000000,0.000000,0.000000,0.183180,3,0
420000,-0.004472,10.709025,-0.035637,-0.031614,25.127604,-0.001811,0.000376,0.001550,1.570569,-0.005010,0.000103,-0.000091,-0.000005,-0.000245,0.000002,0.005917,0.004611,0.190350,0.018667,0.180569,0.180570,0.179456,0.957268,0.000000,0.000000,0.000000,0.000000,0.000000,0.000000,0.000000,0.000000,0.000000,0.000000,0.000000,0.000000,0.184675,3,0
430000,-0.004652,10.963668,-0.035452,-0.032110,25.132555,-0.001662,0.000397,0.001640,1.570562,-0.005279,0.000114,-0.000108,-0.000006,-0.000262,0.000002,0.002048,0.004795,0.112247,0.006864,0.179533,0.179533,0.178097,0.952756,0.000000,0.000000,0.000000,0.000000,0.000000,0.000000,0.000000,0.000000,0.000000,0.000000,0.000000,0.000000,0.108988,3,0
440000,-0.004831,11.220822,-0.034511,-0.032591,25.140892,-0.000637,0.000406,0.001813,1.570563,-0.005767,0.000127,-0.000189,-0.000007,-0.000294,0.000002,0.006355,0.004980,0.195496,0.032528,0.178643,0.178643,0.176883,0.948047,0.000000,0.000000,0.000000,0.000000,0.000000,0.000000,0.000000,0.000000,0.000000,0.000000,0.000000,0.000000,0.189737,3,0
450000,-0.005012,11.475713,-0.033325,-0.033175,25.146296,0.000639,0.000425,0.001924,1.570562,-0.006071,0.000140,-0.000295,-0.000008,-0.000314,0.000003,0.002493,0.005165,0.117168,0.040768,0.177890,0.177890,0.175803,0.943141,0.000000,0.000000,0.000000,0.000000,0.000000,0.000000,0.000000,0.000000,0.000000,0.000000,0.000000,0.000000,0.113806,3,0
460000,-0.005193,11.733099,-0.032722,-0.033791,25.155115,0.001349,0.000436,0.002111,1.570545,-0.006608,0.000154,-0.000350,-0.000009,-0.000350,0.000003,0.006553,0.005352,0.200165,0.020485,0.177264,0.177264,0.174847,0.938042,0.000000,0.000000,0.000000,0.000000,0.000000,0.000000,0.000000,0.000000,0.000000,0.000000,0.000000,0.000000,0.194320,3,0
470000,-0.005375,11.988240,-0.032684,-0.034231,25.160837,0.001307,0.000456,0.002235,1.570541,-0.006947,0.000170,-0.000353,-0.000010,-0.000374,0.000003,0.002397,0.005538,0.121602,0.000893,0.176755,0.176756,0.174007,0.932755,0.000000,0.000000,0.000000,0.000000,0.000000,0.000000,0.000000,0.000000,0.000000,0.000000,0.000000,0.000000,0.118142,3,0
480000,-0.005557,12.245279,-0.033554,-0.034833,25.169239,0.000319,0.000480,0.002420,1.570537,-0.007478,0.000186,-0.000264,-0.000011,-0.000411,0.000003,0.005661,0.005725,0.184466,-0.030602,0.176357,0.176357,0.173272,0.927282,0.000000,0.000000,0.000000,0.000000,0.000000,0.000000,0.000000,0.000000,0.000000,0.000000,0.000000,0.000000,0.179130,3,0
490000,-0.005739,12.503016,-0.034851,-0.035254,25.178688,-0.001412,0.000494,0.002627,1.570518,-0.008090,0.000204,-0.000130,-0.000012,-0.000456,0.000004,0.007177,0.005912,0.205647,-0.045124,0.176060,0.176061,0.172634,0.921629,0.000000,0.000000,0.000000,0.000000,0.000000,0.000000,0.000000,0.000000,0.000000,0.000000,0.000000,0.000000,0.199695,3,0
500000,-0.005920,12.758527,-0.033832,-0.035753,25.185032,-0.000202,0.000519,0.002761,1.570507,-0.008480,0.000223,-0.000241,-0.000014,-0.000485,0.000004,0.002815,0.006099,0.126725,0.036097,0.175858,0.175859,0.172087,0.915801,0.000000,0.000000,0.000000,0.000000,0.000000,0.000000,0.000000,0.000000,0.000000,0.000000,0.000000,0.000000,0.123153,3,0
510000,-0.006100,13.015347,-0.034699,-0.036133,25.193281,-0.001454,0.000542,0.002941,1.570498,-0.009017,0.000242,-0.000145,-0.000015,-0.000525,0.000004,0.004793,0.006284,0.169334,-0.030189,0.175744,0.175744,0.171623,0.909802,0.000000,0.000000,0.000000,0.000000,0.000000,0.000000,0.000000,0.000000,0.000000,0.000000,0.000000,0.000000,0.164488,3,0
520000,-0.006280,13.270547,-0.035964,-0.036629,25.199064,-0.003248,0.000557,0.003081,1.570493,-0.009381,0.000264,-0.000001,-0.000017,-0.000554,0.000005,0.002318,0.006469,0.111222,-0.043747,0.175710,0.175710,0.171234,0.903639,0.000000,0.000000,0.000000,0.000000,0.000000,0.000000,0.000000,0.000000,0.000000,0.000000,0.000000,0.000000,0.108147,3,0
530000,-0.006459,13.528228,-0.037254,-0.037063,25.208624,-0.005151,0.000576,0.003310,1.570478,-0.010033,0.000286,0.000148,-0.000018,-0.000605,0.000005,0.006404,0.006654,0.193904,-0.044051,0.175750,0.175750,0.170915,0.897318,0.000000,0.000000,0.000000,0.000000,0.000000,0.000000,0.000000,0.000000,0.000000,0.000000,0.000000,0.000000,0.188335,3,0
540000,-0.006638,13.784862,-0.038664,-0.037589,25.216553,-0.007078,0.000596,0.003493,1.570469,-0.010569,0.000310,0.000315,-0.000020,-0.000649,0.000005,0.004253,0.006838,0.154797,-0.047729,0.175859,0.175859,0.170659,0.890845,0.000000,0.000000,0.000000,0.000000,0.000000,0.000000,0.000000,0.000000,0.000000,0.000000,0.000000,0.000000,0.150406,3,0
550000,-0.006816,14.039881,-0.038792,-0.038091,25.222101,-0.007229,0.000618,0.003621,1.570464,-0.010914,0.000335,0.000322,-0.000022,-0.000677,0.000006,0.001527,0.007022,0.096870,-0.001942,0.176030,0.176031,0.170460,0.884226,0.000000,0.000000,0.000000,0.000000,0.000000,0.000000,0.000000,0.000000,0.000000,0.000000,0.000000,0.000000,0.094275,3,0
560000,-0.006993,14.299146,-0.038802,-0.038550,25.234245,-0.007197,0.000646,0.003946,1.570444,-0.011788,0.000361,0.000313,-0.000024,-0.000751,0.000006,0.009279,0.007205,0.239375,0.002240,0.176259,0.176259,0.170314,0.877470,0.000000,0.000000,0.000000,0.000000,0.000000,0.000000,0.000000,0.000000,0.000000,0.000000,0.000000,0.000000,0.232448,3,0
570000,-0.007168,14.554419,-0.038286,-0.038914,25.239889,-0.006549,0.000661,0.004075,1.570428,-0.012160,0.000388,0.000234,-0.000027,-0.000783,0.000007,0.001673,0.007386,0.099262,0.020818,0.176540,0.176540,0.170215,0.870583,0.000000,0.000000,0.000000,0.000000,0.000000,0.000000,0.000000,0.000000,0.000000,0.000000,0.000000,0.000000,0.096608,3,0
580000,-0.007342,14.812777,-0.038554,-0.039370,25.250572,-0.006781,0.000687,0.004356,1.570411,-0.012935,0.000417,0.000261,-0.000029,-0.000851,0.000007,0.006601,0.007565,0.201752,-0.007106,0.176868,0.176869,0.170158,0.863573,0.000000,0.000000,0.000000,0.000000,0.000000,0.000000,0.000000,0.000000,0.000000,0.000000,0.000000,0.000000,0.195942,3,0
590000,-0.007515,15.071253,-0.039822,-0.039749,25.261402,-0.008730,0.000703,0.004645,1.570391,-0.013729,0.000448,0.000429,-0.000032,-0.000922,0.000008,0.006879,0.007744,0.201715,-0.042181,0.177239,0.177240,0.170139,0.856446,0.000000,0.000000,0.000000,0.000000,0.000000,0.000000,0.000000,0.000000,0.000000,0.000000,0.000000,0.000000,0.195900,3,0
600000,-0.007686,15.330437,-0.040923,-0.040100,25.273367,-0.010408,0.000731,0.004983,1.570376,-0.014620,0.000480,0.000574,-0.000035,-0.001003,0.000008,0.008145,0.007920,0.221432,-0.035601,0.177649,0.177649,0.170153,0.849212,0.000000,0.000000,0.000000,0.000000,0.000000,0.000000,0.000000,0.000000,0.000000,0.000000,0.000000,0.000000,0.215013,3,0
610000,-0.007853,15.590910,-0.039784,-0.040348,25.287359,-0.008606,0.000743,0.005392,1.570358,-0.015692,0.000513,0.000389,-0.000038,-0.001103,0.000009,0.011281,0.008093,0.260312,0.043906,0.178092,0.178093,0.170196,0.841878,0.000000,0.000000,0.000000,0.000000,0.000000,0.000000,0.000000,0.000000,0.000000,0.000000,0.000000,0.000000,0.252707,3,0
620000,-0.008018,15.851480,-0.040513,-0.040714,25.301332,-0.009437,0.000762,0.005796,1.570346,-0.016777,0.000547,0.000486,-0.000041,-0.001206,0.000010,0.010868,0.008264,0.258126,-0.022612,0.178566,0.178567,0.170265,0.834452,0.000000,0.000000,0.000000,0.000000,0.000000,0.000000,0.000000,0.000000,0.000000,0.000000,0.000000,0.000000,0.250572,3,0
630000,-0.008180,16.109175,-0.040535,-0.040999,25.310354,-0.009558,0.000794,0.006057,1.570335,-0.017449,0.000584,0.000473,-0.000045,-0.001270,0.000011,0.003970,0.008432,0.156446,0.002675,0.179067,0.179067,0.170356,0.826942,0.000000,0.000000,0.000000,0.000000,0.000000,0.000000,0.000000,0.000000,0.000000,0.000000,0.000000,0.000000,0.151998,3,0
640000,-0.008340,16.367588,-0.041669,-0.041211,25.320614,-0.011181,0.000809,0.006361,1.570325,-0.018225,0.000621,0.000637,-0.000048,-0.001347,0.000011,0.005290,0.008597,0.176968,-0.036452,0.179591,0.179591,0.170466,0.819357,0.000000,0.000000,0.000000,0.000000,0.000000,0.000000,0.000000,0.000000,0.000000,0.000000,0.000000,0.000000,0.171873,3,0
650000,-0.008495,16.626118,-0.041069,-0.041413,25.330982,-0.010290,0.000824,0.006675,1.570307,-0.019015,0.000660,0.000520,-0.000052,-0.001426,0.000012,0.005172,0.008758,0.176876,0.025149,0.180134,0.180135,0.170592,0.811704,0.000000,0.000000,0.000000,0.000000,0.000000,0.000000,0.000000,0.000000,0.000000,0.000000,0.000000,0.000000,0.171776,3,0
660000,-0.008648,16.883566,-0.041432,-0.041638,25.339489,-0.010874,0.000849,0.006919,1.570300,-0.019638,0.000701,0.000562,-0.000056,-0.001490,0.000012,0.003056,0.008916,0.136909,-0.009014,0.180694,0.180695,0.170730,0.803991,0.000000,0.000000,0.000000,0.000000,0.000000,0.000000,0.000000,0.000000,0.000000,0.000000,0.000000,0.000000,0.133067,3,0
670000,-0.008796,17.142340,-0.040584,-0.041785,25.350061,-0.009700,0.000870,0.007252,1.570294,-0.020461,0.000742,0.000400,-0.000061,-0.001575,0.000013,0.005293,0.009070,0.177559,0.033732,0.181268,0.181269,0.170878,0.796227,0.000000,0.000000,0.000000,0.000000,0.000000,0.000000,0.000000,0.000000,0.000000,0.000000,0.000000,0.000000,0.172420,3,0
680000,-0.008940,17.400621,-0.039324,-0.041978,25.359768,-0.007714,0.000895,0.007553,1.570287,-0.021203,0.000786,0.000167,-0.000066,-0.001653,0.000014,0.004378,0.009220,0.157227,0.047717,0.181853,0.181854,0.171034,0.788420,0.000000,0.000000,0.000000,0.000000,0.000000,0.000000,0.000000,0.000000,0.000000,0.000000,0.000000,0.000000,0.152724,3,0
690000,-0.009082,17.660830,-0.040555,-0.042112,25.372540,-0.009351,0.000920,0.007966,1.570273,-0.022244,0.000831,0.000366,-0.000070,-0.001765,0.000015,0.007882,0.009366,0.216913,-0.040401,0.182447,0.182447,0.171195,0.780577,0.000000,0.000000,0.000000,0.000000,0.000000,0.000000,0.000000,0.000000,0.000000,0.000000,0.000000,0.000000,0.210514,3,0
700000,-0.009220,17.921129,-0.041206,-0.042274,25.385347,-0.010229,0.000939,0.008382,1.570266,-0.023292,0.000877,0.000463,-0.000075,-0.001880,0.000016,0.007545,0.009509,0.215002,-0.019395,0.183046,0.183047,0.171358,0.772706,0.000000,0.000000,0.000000,0.000000,0.000000,0.000000,0.000000,0.000000,0.000000,0.000000,0.000000,0.000000,0.208646,3,0
710000,-0.009354,18.181519,-0.040905,-0.042472,25.398302,-0.009663,0.000972,0.008812,1.570249,-0.024347,0.000924,0.000389,-0.000081,-0.001998,0.000017,0.007378,0.009649,0.212999,0.014215,0.183650,0.183651,0.171523,0.764816,0.000000,0.000000,0.000000,0.000000,0.000000,0.000000,0.000000,0.000000,0.000000,0.000000,0.000000,0.000000,0.206692,3,0
720000,-0.009485,18.439552,-0.040119,-0.042734,25.406998,-0.008461,0.001003,0.009098,1.570233,-0.025008,0.000973,0.000225,-0.000086,-0.002073,0.000017,0.002960,0.009786,0.131390,0.030986,0.184256,0.184256,0.171687,0.756913,0.000000,0.000000,0.000000,0.000000,0.000000,0.000000,0.000000,0.000000,0.000000,0.000000,0.000000,0.000000,0.127708,3,0
730000,-0.009613,18.698923,-0.040933,-0.042824,25.417973,-0.009788,0.001040,0.009470,1.570212,-0.025883,0.001024,0.000359,-0.000092,-0.002174,0.000018,0.004868,0.009919,0.171452,-0.025296,0.184861,0.184862,0.171848,0.749005,0.000000,0.000000,0.000000,0.000000,0.000000,0.000000,0.000000,0.000000,0.000000,0.000000,0.000000,0.000000,0.166446,3,0
740000,-0.009739,18.960232,-0.041953,-0.043039,25.432213,-0.011432,0.001076,0.009974,1.570190,-0.027073,0.001076,0.000530,-0.000098,-0.002314,0.000019,0.008728,0.010049,0.230032,-0.031951,0.185465,0.185466,0.172005,0.741100,0.000000,0.000000,0.000000,0.000000,0.000000,0.000000,0.000000,0.000000,0.000000,0.000000,0.000000,0.000000,0.223134,3,0
750000,-0.009861,19.221613,-0.042303,-0.043220,25.446402,-0.011972,0.001100,0.010483,1.570170,-0.028264,0.001129,0.000572,-0.000104,-0.002456,0.000020,0.008350,0.010177,0.227009,-0.008016,0.186066,0.186066,0.172156,0.733203,0.000000,0.000000,0.000000,0.000000,0.000000,0.000000,0.000000,0.000000,0.000000,0.000000,0.000000,0.000000,0.220190,3,0
760000,-0.009980,19.481825,-0.042010,-0.043349,25.458237,-0.011417,0.001125,0.010909,1.570156,-0.029242,0.001184,0.000490,-0.000111,-0.002575,0.000021,0.005527,0.010300,0.184153,0.014509,0.186661,0.186662,0.172301,0.725322,0.000000,0.000000,0.000000,0.000000,0.000000,0.000000,0.000000,0.000000,0.000000,0.000000,0.000000,0.000000,0.178702,3,0
770000,-0.010094,19.740875,-0.042334,-0.043415,25.467922,-0.011723,0.001164,0.011237,1.570139,-0.030008,0.001240,0.000529,-0.000118,-0.002670,0.000022,0.003304,0.010419,0.142488,-0.007231,0.187251,0.187251,0.172437,0.717462,0.000000,0.000000,0.000000,0.000000,0.000000,0.000000,0.000000,0.000000,0.000000,0.000000,0.000000,0.000000,0.138409,3,0
780000,-0.010206,20.000633,-0.042899,-0.043590,25.478718,-0.012319,0.001203,0.011628,1.570134,-0.030889,0.001297,0.000617,-0.000125,-0.002780,0.000023,0.004275,0.010536,0.161648,-0.015458,0.187834,0.187834,0.172564,0.709632,0.000000,0.000000,0.000000,0.000000,0.000000,0.000000,0.000000,0.000000,0.000000,0.000000,0.000000,0.000000,0.156920,3,0
790000,-0.010314,20.258600,-0.042685,-0.043678,25.486355,-0.012059,0.001244,0.011889,1.570117,-0.031442,0.001355,0.000546,-0.000132,-0.002851,0.000024,0.001674,0.010649,0.100569,0.011841,0.188408,0.188408,0.172682,0.701836,0.000000,0.000000,0.000000,0.000000,0.000000,0.000000,0.000000,0.000000,0.000000,0.000000,0.000000,0.000000,0.097955,3,0
800000,-0.010419,20.516039,-0.043098,-0.043745,25.492956,-0.012396,0.001276,0.012100,1.570115,-0.031894,0.001415,0.000606,-0.000140,-0.002910,0.000024,0.001096,0.010758,0.081072,-0.010126,0.188972,0.188973,0.172788,0.694080,0.000000,0.000000,0.000000,0.000000,0.000000,0.000000,0.000000,0.000000,0.000000,0.000000,0.000000,0.000000,0.079206,3,0
810000,-0.010520,20.777348,-0.042348,-0.043841,25.506239,-0.011197,0.001312,0.012604,1.570094,-0.033026,0.001476,0.000420,-0.000148,-0.003059,0.000026,0.006708,0.010863,0.201265,0.030539,0.189527,0.189527,0.172883,0.686370,0.000000,0.000000,0.000000,0.000000,0.000000,0.000000,0.000000,0.000000,0.000000,0.000000,0.000000,0.000000,0.195192,3,0
820000,-0.010617,21.037453,-0.041213,-0.043962,25.517221,-0.009484,0.001352,0.013018,1.570077,-0.033927,0.001538,0.000153,-0.000157,-0.003179,0.000027,0.004378,0.010965,0.158493,0.043405,0.190071,0.190071,0.172966,0.678710,0.000000,0.000000,0.000000,0.000000,0.000000,0.000000,0.000000,0.000000,0.000000,0.000000,0.000000,0.000000,0.153840,3,0
830000,-0.010711,21.296995,-0.041635,-0.043919,25.527193,-0.009939,0.001385,0.013387,1.570060,-0.034712,0.001601,0.000221,-0.000166,-0.003286,0.000027,0.003061,0.011062,0.136824,-0.011232,0.190603,0.190603,0.173037,0.671107,0.000000,0.000000,0.000000,0.000000,0.000000,0.000000,0.000000,0.000000,0.000000,0.000000,0.000000,0.000000,0.132909,3,0
840000,-0.010803,21.557877,-0.042999,-0.044003,25.539217,-0.011870,0.001414,0.013854,1.570051,-0.035729,0.001666,0.000491,-0.000174,-0.003428,0.000029,0.005291,0.011157,0.175365,-0.043685,0.191124,0.191124,0.173094,0.663564,0.000000,0.000000,0.000000,0.000000,0.000000,0.000000,0.000000,0.000000,0.000000,0.000000,0.000000,0.000000,0.170122,3,0
850000,-0.010890,21.817541,-0.042757,-0.044049,25.549072,-0.011605,0.001456,0.014225,1.570043,-0.036507,0.001731,0.000408,-0.000184,-0.003537,0.000030,0.002902,0.011250,0.133030,0.012729,0.191632,0.191631,0.173138,0.656087,0.000000,0.000000,0.000000,0.000000,0.000000,0.000000,0.000000,0.000000,0.000000,0.000000,0.000000,0.000000,0.129242,3,0
860000,-0.010972,22.080454,-0.041659,-0.044016,25.564409,-0.009940,0.001495,0.014849,1.570033,-0.037869,0.001798,0.000134,-0.000193,-0.003731,0.000031,0.008926,0.011337,0.231089,0.042305,0.192127,0.192126,0.173168,0.648679,0.000000,0.000000,0.000000,0.000000,0.000000,0.000000,0.000000,0.000000,0.000000,0.000000,0.000000,0.000000,0.223959,3,0
870000,-0.011054,22.342115,-0.042471,-0.044086,25.577429,-0.011226,0.001536,0.015383,1.570021,-0.038979,0.001865,0.000289,-0.000203,-0.003893,0.000033,0.005740,0.011420,0.186689,-0.024422,0.192609,0.192608,0.173184,0.641344,0.000000,0.000000,0.000000,0.000000,0.000000,0.000000,0.000000,0.000000,0.000000,0.000000,0.000000,0.000000,0.181034,3,0
880000,-0.011132,22.605093,-0.043645,-0.044106,25.592499,-0.013026,0.001585,0.016022,1.570012,-0.040316,0.001934,0.000523,-0.000213,-0.004091,0.000034,0.008264,0.011501,0.223082,-0.036454,0.193077,0.193077,0.173186,0.634086,0.000000,0.000000,0.000000,0.000000,0.000000,0.000000,0.000000,0.000000,0.000000,0.000000,0.000000,0.000000,0.216189,3,0
890000,-0.011205,22.866163,-0.043035,-0.044136,25.604065,-0.012108,0.001628,0.016485,1.569999,-0.041273,0.002004,0.000349,-0.000224,-0.004234,0.000035,0.004194,0.011580,0.158741,0.025886,0.193533,0.193532,0.173173,0.626908,0.000000,0.000000,0.000000,0.000000,0.000000,0.000000,0.000000,0.000000,0.000000,0.000000,0.000000,0.000000,0.154030,3,0
900000,-0.011276,23.125345,-0.043685,-0.044065,25.612120,-0.012989,0.001671,0.016798,1.569997,-0.041859,0.002074,0.000469,-0.000234,-0.004323,0.000036,0.001572,0.011653,0.096344,-0.018198,0.193974,0.193974,0.173147,0.619815,0.000000,0.000000,0.000000,0.000000,0.000000,0.000000,0.000000,0.000000,0.000000,0.000000,0.000000,0.000000,0.093909,3,0
910000,-0.011342,23.385878,-0.043725,-0.043931,25.622599,-0.013048,0.001708,0.017219,1.569983,-0.042687,0.002146,0.000443,-0.000245,-0.004452,0.000037,0.002975,0.011722,0.135263,0.003332,0.194403,0.194402,0.173106,0.612807,0.000000,0.000000,0.000000,0.000000,0.000000,0.000000,0.000000,0.000000,0.000000,0.000000,0.000000,0.000000,0.131371,3,0
920000,-0.011406,23.648388,-0.044616,-0.043894,25.636293,-0.014241,0.001745,0.017818,1.569976,-0.043874,0.002218,0.000617,-0.000256,-0.004638,0.000039,0.006120,0.011788,0.192690,-0.026124,0.194818,0.194816,0.173051,0.605889,0.000000,0.000000,0.000000,0.000000,0.000000,0.000000,0.000000,0.000000,0.000000,0.000000,0.000000,0.000000,0.186780,3,0
930000,-0.011464,23.908321,-0.044365,-0.043724,25.645294,-0.013804,0.001795,0.018174,1.569958,-0.044549,0.002292,0.000519,-0.000268,-0.004746,0.000040,0.001968,0.011850,0.108953,0.013822,0.195219,0.195218,0.172982,0.599062,0.000000,0.000000,0.000000,0.000000,0.000000,0.000000,0.000000,0.000000,0.000000,0.000000,0.000000,0.000000,0.106031,3,0
940000,-0.011517,24.168949,-0.043119,-0.043538,25.655447,-0.011993,0.001848,0.018594,1.569944,-0.045341,0.002365,0.000180,-0.000281,-0.004874,0.000041,0.003010,0.011906,0.127232,0.048255,0.195608,0.195606,0.172900,0.592330,0.000000,0.000000,0.000000,0.000000,0.000000,0.000000,0.000000,0.000000,0.000000,0.000000,0.000000,0.000000,0.123623,3,0
950000,-0.011568,24.429613,-0.043752,-0.043510,25.665489,-0.012985,0.001903,0.019017,1.569929,-0.046125,0.002440,0.000300,-0.000293,-0.005003,0.000042,0.002589,0.011959,0.124931,-0.017556,0.195983,0.195981,0.172803,0.585693,0.000000,0.000000,0.000000,0.000000,0.000000,0.000000,0.000000,0.000000,0.000000,0.000000,0.000000,0.000000,0.121402,3,0
960000,-0.011615,24.690958,-0.042817,-0.043425,25.676701,-0.011605,0.001941,0.019493,1.569910,-0.047021,0.002515,0.000031,-0.000306,-0.005152,0.000043,0.003520,0.012010,0.142467,0.037236,0.196346,0.196343,0.172693,0.579154,0.000000,0.000000,0.000000,0.000000,0.000000,0.000000,0.000000,0.000000,0.000000,0.000000,0.000000,0.000000,0.138296,3,0
970000,-0.011661,24.951675,-0.043601,-0.043338,25.686678,-0.012628,0.001983,0.019913,1.569889,-0.047779,0.002591,0.000193,-0.000318,-0.005281,0.000044,0.002414,0.012056,0.119558,-0.023042,0.196696,0.196693,0.172570,0.572714,0.000000,0.000000,0.000000,0.000000,0.000000,0.000000,0.000000,0.000000,0.000000,0.000000,0.000000,0.000000,0.116225,3,0
980000,-0.011701,25.214376,-0.043103,-0.043146,25.699862,-0.011891,0.002029,0.020506,1.569881,-0.048902,0.002668,0.000028,-0.000332,-0.005474,0.000046,0.005141,0.012100,0.176804,0.022050,0.197034,0.197031,0.172434,0.566374,0.000000,0.000000,0.000000,0.000000,0.000000,0.000000,0.000000,0.000000,0.000000,0.000000,0.000000,0.000000,0.171399,3,0
990000,-0.011738,25.473152,-0.041962,-0.042985,25.706074,-0.010119,0.002088,0.020732,1.569879,-0.049241,0.002745,-0.000294,-0.000346,-0.005533,0.000047,0.000791,0.012138,0.053120,0.043936,0.197360,0.197357,0.172285,0.560137,0.000000,0.000000,0.000000,0.000000,0.000000,0.000000,0.000000,0.000000,0.000000,0.000000,0.000000,0.000000,0.052698,3,0
1000000,-0.011773,25.735256,-0.042937,-0.042823,25.718006,-0.011346,0.002138,0.021267,1.569862,-0.050217,0.002823,-0.000077,-0.000359,-0.005707,0.000048,0.003901,0.012173,0.152105,-0.030225,0.197675,0.197672,0.172124,0.554002,0.000000,0.000000,0.000000,0.000000,0.000000,0.000000,0.000000,0.000000,0.000000,0.000000,0.000000,0.000000,0.147563,3,0
1010000,-0.011806,25.998022,-0.044253,-0.042750,25.731073,-0.013158,0.002194,0.021860,1.569845,-0.051300,0.002901,0.000226,-0.000373,-0.005903,0.000050,0.004863,0.012207,0.168182,-0.041608,0.197978,0.197975,0.171950,0.547971,0.000000,0.000000,0.000000,0.000000,0.000000,0.000000,0.000000,0.000000,0.000000,0.000000,0.000000,0.000000,0.163058,3,0
1020000,-0.011833,26.260115,-0.042867,-0.042642,25.742720,-0.011188,0.002257,0.022377,1.569831,-0.052228,0.002979,-0.000178,-0.000388,-0.006072,0.000051,0.003818,0.012239,0.143835,0.053294,0.198272,0.198268,0.171765,0.542044,0.000000,0.000000,0.000000,0.000000,0.000000,0.000000,0.000000,0.000000,0.000000,0.000000,0.000000,0.000000,0.139588,3,0
1030000,-0.011860,26.523527,-0.044170,-0.042427,25.756517,-0.013141,0.002310,0.023030,1.569817,-0.053394,0.003059,0.000126,-0.000402,-0.006289,0.000053,0.005510,0.012264,0.179810,-0.041233,0.198554,0.198550,0.171569,0.536222,0.000000,0.000000,0.000000,0.000000,0.000000,0.000000,0.000000,0.000000,0.000000,0.000000,0.000000,0.000000,0.174261,3,0
1040000,-0.011882,26.785597,-0.044642,-0.042264,25.767832,-0.013832,0.002365,0.023546,1.569806,-0.054271,0.003139,0.000209,-0.000417,-0.006454,0.000054,0.002980,0.012289,0.134926,-0.011584,0.198827,0.198823,0.171362,0.530506,0.000000,0.000000,0.000000,0.000000,0.000000,0.000000,0.000000,0.000000,0.000000,0.000000,0.000000,0.000000,0.130995,3,0
1050000,-0.011902,27.046345,-0.045241,-0.042006,25.776609,-0.014398,0.002423,0.023913,1.569787,-0.054867,0.003219,0.000328,-0.000432,-0.006569,0.000055,0.001412,0.012310,0.091410,-0.016028,0.199090,0.199086,0.171144,0.524894,0.000000,0.000000,0.000000,0.000000,0.000000,0.000000,0.000000,0.000000,0.000000,0.000000,0.000000,0.000000,0.089173,3,0
1060000,-0.011915,27.305779,-0.044221,-0.041758,25.783033,-0.012856,0.002480,0.024153,1.569778,-0.055188,0.003299,0.000009,-0.000448,-0.006630,0.000056,0.000687,0.012327,0.049244,0.040978,0.199345,0.199340,0.170916,0.519388,0.000000,0.000000,0.000000,0.000000,0.000000,0.000000,0.000000,0.000000,0.000000,0.000000,0.000000,0.000000,0.049080,3,0
1070000,-0.011929,27.564587,-0.044914,-0.041572,25.788166,-0.013588,0.002527,0.024324,1.569771,-0.055373,0.003380,0.000163,-0.000464,-0.006667,0.000056,0.000217,0.012338,0.028292,-0.019828,0.199591,0.199585,0.170679,0.513988,0.000000,0.000000,0.000000,0.000000,0.000000,0.000000,0.000000,0.000000,0.000000,0.000000,0.000000,0.000000,0.029838,3,0
1080000,-0.011937,27.827402,-0.044502,-0.041352,25.800314,-0.012892,0.002587,0.024908,1.569755,-0.056338,0.003460,0.000002,-0.000480,-0.006860,0.000058,0.003575,0.012349,0.147131,0.019627,0.199829,0.199823,0.170431,0.508692,0.000000,0.000000,0.000000,0.000000,0.000000,0.000000,0.000000,0.000000,0.000000,0.000000,0.000000,0.000000,0.142733,3,0
1090000,-0.011944,28.085558,-0.045068,-0.041104,25.804064,-0.013647,0.002636,0.024994,1.569758,-0.056361,0.003542,0.000123,-0.000497,-0.006865,0.000058,0.000065,0.012356,0.003468,-0.015340,0.200059,0.200052,0.170176,0.503501,0.000000,0.000000,0.000000,0.000000,0.000000,0.000000,0.000000,0.000000,0.000000,0.000000,0.000000,0.000000,0.012405,3,0
1100000,-0.011947,28.347076,-0.044891,-0.040917,25.813795,-0.013293,0.002701,0.025437,1.569749,-0.057040,0.003622,0.000027,-0.000513,-0.007004,0.000060,0.001758,0.012361,0.103092,0.011314,0.200282,0.200275,0.169911,0.498415,0.000000,0.000000,0.000000,0.000000,0.000000,0.000000,0.000000,0.000000,0.000000,0.000000,0.000000,0.000000,0.100365,3,0
1110000,-0.011948,28.606592,-0.044244,-0.040763,25.819748,-0.012273,0.002751,0.025641,1.569745,-0.057305,0.003703,-0.000197,-0.000531,-0.007059,0.000060,0.000410,0.012362,0.040270,0.027685,0.200498,0.200491,0.169638,0.493433,0.000000,0.000000,0.000000,0.000000,0.000000,0.000000,0.000000,0.000000,0.000000,0.000000,0.000000,0.000000,0.040719,3,0
1120000,-0.011948,28.866138,-0.045511,-0.040483,25.825806,-0.014040,0.002818,0.025849,1.569747,-0.057564,0.003785,0.000128,-0.000548,-0.007115,0.000061,0.000535,0.012360,0.039118,-0.040391,0.200708,0.200700,0.169358,0.488554,0.000000,0.000000,0.000000,0.000000,0.000000,0.000000,0.000000,0.000000,0.000000,0.000000,0.000000,0.000000,0.039649,3,0
1130000,-0.011942,29.127033,-0.045141,-0.040134,25.834133,-0.013418,0.002880,0.026205,1.569731,-0.058076,0.003867,-0.000026,-0.000565,-0.007225,0.000062,0.001051,0.012357,0.077694,0.018335,0.200912,0.200904,0.169070,0.483778,0.000000,0.000000,0.000000,0.000000,0.000000,0.000000,0.000000,0.000000,0.000000,0.000000,0.000000,0.000000,0.076038,3,0
1140000,-0.011933,29.385263,-0.044581,-0.039832,25.837654,-0.012461,0.002943,0.026258,1.569732,-0.058047,0.003948,-0.000228,-0.000583,-0.007218,0.000062,0.000126,0.012348,-0.004374,0.024652,0.201111,0.201102,0.168776,0.479104,0.000000,0.000000,0.000000,0.000000,0.000000,0.000000,0.000000,0.000000,0.000000,0.000000,0.000000,0.000000,0.012659,3,0
1150000,-0.011923,29.648872,-0.045017,-0.039639,25.850567,-0.012835,0.002994,0.026911,1.569724,-0.059071,0.004029,-0.000149,-0.000601,-0.007445,0.000064,0.003904,0.012337,0.154819,-0.010704,0.201305,0.201296,0.168474,0.474530,0.000000,0.000000,0.000000,0.000000,0.000000,0.000000,0.000000,0.000000,0.000000,0.000000,0.000000,0.000000,0.150098,3,0
1160000,-0.011909,29.911100,-0.044818,-0.039344,25.860809,-0.012718,0.003056,0.027406,1.569714,-0.059797,0.004110,-0.000257,-0.000620,-0.007608,0.000065,0.001988,0.012324,0.109747,0.012133,0.201494,0.201484,0.168167,0.470057,0.000000,0.000000,0.000000,0.000000,0.000000,0.000000,0.000000,0.000000,0.000000,0.000000,0.000000,0.000000,0.106728,3,0
1170000,-0.011893,30.171970,-0.044996,-0.039012,25.868666,-0.013107,0.003110,0.027738,1.569702,-0.060234,0.004191,-0.000248,-0.000638,-0.007708,0.000066,0.000728,0.012307,0.066082,-0.001545,0.201680,0.201669,0.167854,0.465684,0.000000,0.000000,0.000000,0.000000,0.000000,0.000000,0.000000,0.000000,0.000000,0.000000,0.000000,0.000000,0.064958,3,0
1180000,-0.011875,30.430828,-0.045531,-0.038714,25.872747,-0.013890,0.003171,0.027827,1.569700,-0.060260,0.004273,-0.000127,-0.000657,-0.007715,0.000066,0.000060,0.012288,0.003925,-0.014381,0.201861,0.201850,0.167535,0.461408,0.000000,0.000000,0.000000,0.000000,0.000000,0.000000,0.000000,0.000000,0.000000,0.000000,0.000000,0.000000,0.012465,3,0
1190000,-0.011852,30.692387,-0.044532,-0.038502,25.881685,-0.012490,0.003235,0.028239,1.569691,-0.060808,0.004353,-0.000482,-0.000676,-0.007842,0.000067,0.001407,0.012267,0.082966,0.041132,0.202039,0.202027,0.167212,0.457230,0.000000,0.000000,0.000000,0.000000,0.000000,0.000000,0.000000,0.000000,0.000000,0.000000,0.000000,0.000000,0.081047,3,0
1200000,-0.011831,30.951256,-0.045800,-0.038212,25.885769,-0.014236,0.003293,0.028311,1.569679,-0.060810,0.004435,-0.000132,-0.000695,-0.007844,0.000068,0.000297,0.012242,0.000229,-0.041026,0.202214,0.202201,0.166884,0.453148,0.000000,0.000000,0.000000,0.000000,0.000000,0.000000,0.000000,0.000000,0.000000,0.000000,0.000000,0.000000,0.011833,3,0
1210000,-0.011807,31.210150,-0.046994,-0.037988,25.889713,-0.015700,0.003367,0.028391,1.569684,-0.060810,0.004516,0.000193,-0.000714,-0.007845,0.000068,0.000256,0.012218,-0.000256,-0.037854,0.202386,0.202373,0.166552,0.449160,0.000000,0.000000,0.000000,0.000000,0.000000,0.000000,0.000000,0.000000,0.000000,0.000000,0.000000,0.000000,0.011810,3,0
1220000,-0.011779,31.470404,-0.047163,-0.037620,25.896040,-0.015790,0.003427,0.028633,1.569677,-0.061067,0.004596,0.000193,-0.000734,-0.007908,0.000069,0.000269,0.012191,0.038994,-0.000316,0.202556,0.202542,0.166216,0.445265,0.000000,0.000000,0.000000,0.000000,0.000000,0.000000,0.000000,0.000000,0.000000,0.000000,0.000000,0.000000,0.039476,3,0
1230000,-0.011751,31.732677,-0.048383,-0.037384,25.905853,-0.017499,0.003501,0.029123,1.569672,-0.061706,0.004677,0.000515,-0.000754,-0.008068,0.000070,0.001764,0.012160,0.096741,-0.037950,0.202724,0.202710,0.165876,0.441463,0.000000,0.000000,0.000000,0.000000,0.000000,0.000000,0.000000,0.000000,0.000000,0.000000,0.000000,0.000000,0.094203,3,0
1240000,-0.011717,31.990877,-0.047865,-0.037004,25.908253,-0.016619,0.003574,0.029080,1.569669,-0.061531,0.004756,0.000298,-0.000774,-0.008023,0.000070,0.000238,0.012128,-0.026478,0.025034,0.202891,0.202875,0.165533,0.437751,0.000000,0.000000,0.000000,0.000000,0.000000,0.000000,0.000000,0.000000,0.000000,0.000000,0.000000,0.000000,0.028135,3,0
1250000,-0.011681,32.253147,-0.047762,-0.036664,25.917974,-0.016423,0.003643,0.029561,1.569664,-0.062141,0.004835,0.000201,-0.000794,-0.008179,0.000071,0.001433,0.012091,0.092995,0.010179,0.203056,0.203040,0.165187,0.434130,0.000000,0.000000,0.000000,0.000000,0.000000,0.000000,0.000000,0.000000,0.000000,0.000000,0.000000,0.000000,0.090604,3,0
1260000,-0.011642,32.515377,-0.046777,-0.036347,25.927502,-0.015204,0.003719,0.030013,1.569660,-0.062724,0.004913,-0.000181,-0.000815,-0.008329,0.000073,0.001590,0.012052,0.089058,0.042271,0.203221,0.203203,0.164839,0.430597,0.000000,0.000000,0.000000,0.000000,0.000000,0.000000,0.000000,0.000000,0.000000,0.000000,0.000000,0.000000,0.086832,3,0
1270000,-0.011601,32.774208,-0.046919,-0.035930,25.930779,-0.015138,0.003796,0.030042,1.569663,-0.062631,0.004991,-0.000182,-0.000836,-0.008305,0.000073,0.000056,0.012008,-0.014240,0.000263,0.203384,0.203366,0.164488,0.427151,0.000000,0.000000,0.000000,0.000000,0.000000,0.000000,0.000000,0.000000,0.000000,0.000000,0.000000,0.000000,0.017995,3,0
1280000,-0.011560,33.032391,-0.047725,-0.035644,25.932804,-0.016038,0.003872,0.029979,1.569660,-0.062406,0.005070,0.000037,-0.000857,-0.008245,0.000072,0.000309,0.011965,-0.034557,-0.024081,0.203548,0.203529,0.164136,0.423789,0.000000,0.000000,0.000000,0.000000,0.000000,0.000000,0.000000,0.000000,0.000000,0.000000,0.000000,0.000000,0.035335,3,0
1290000,-0.011516,33.293293,-0.048124,-0.035313,25.939680,-0.016668,0.003942,0.030266,1.569658,-0.062701,0.005148,0.000108,-0.000878,-0.008326,0.000073,0.000363,0.011920,0.045185,-0.008422,0.203711,0.203691,0.163781,0.420512,0.000000,0.000000,0.000000,0.000000,0.000000,0.000000,0.000000,0.000000,0.000000,0.000000,0.000000,0.000000,0.045145,3,0
1300000,-0.011471,33.556885,-0.048940,-0.035036,25.951210,-0.017573,0.004003,0.030901,1.569654,-0.063496,0.005225,0.000307,-0.000899,-0.008545,0.000075,0.002513,0.011873,0.122154,-0.023275,0.203874,0.203853,0.163426,0.417318,0.000000,0.000000,0.000000,0.000000,0.000000,0.000000,0.000000,0.000000,0.000000,0.000000,0.000000,0.000000,0.118556,3,0
1310000,-0.011421,33.817032,-0.048451,-0.034629,25.956524,-0.017031,0.004077,0.031052,1.569638,-0.063608,0.005301,0.000081,-0.000920,-0.008576,0.000076,0.000170,0.011824,0.017475,0.024621,0.204037,0.204016,0.163069,0.414205,0.000000,0.000000,0.000000,0.000000,0.000000,0.000000,0.000000,0.000000,0.000000,0.000000,0.000000,0.000000,0.020384,3,0
1320000,-0.011367,34.076492,-0.047232,-0.034149,25.960516,-0.015559,0.004140,0.031119,1.569629,-0.063580,0.005376,-0.000388,-0.000942,-0.008566,0.000076,0.000452,0.011770,-0.004177,0.051293,0.204201,0.204179,0.162712,0.411172,0.000000,0.000000,0.000000,0.000000,0.000000,0.000000,0.000000,0.000000,0.000000,0.000000,0.000000,0.000000,0.012059,3,0
1330000,-0.011310,34.340015,-0.046209,-0.033743,25.971792,-0.014413,0.004211,0.031729,1.569610,-0.064313,0.005450,-0.000807,-0.000965,-0.008775,0.000078,0.002433,0.011711,0.114021,0.044256,0.204366,0.204342,0.162354,0.408217,0.000000,0.000000,0.000000,0.000000,0.000000,0.000000,0.000000,0.000000,0.000000,0.000000,0.000000,0.000000,0.110725,3,0
1340000,-0.011255,34.600780,-0.047276,-0.033315,25.977894,-0.015552,0.004291,0.031963,1.569596,-0.064503,0.005525,-0.000495,-0.000986,-0.008831,0.000078,0.000348,0.011650,0.029293,-0.034049,0.204531,0.204507,0.161995,0.405339,0.000000,0.000000,0.000000,0.000000,0.000000,0.000000,0.000000,0.000000,0.000000,0.000000,0.000000,0.000000,0.030446,3,0
1350000,-0.011194,34.861511,-0.045891,-0.033007,25.983881,-0.013824,0.004364,0.032166,1.569597,-0.064673,0.005598,-0.001032,-0.001009,-0.008880,0.000079,0.000672,0.011592,0.026894,0.057393,0.204698,0.204672,0.161637,0.402537,0.000000,0.000000,0.000000,0.000000,0.000000,0.000000,0.000000,0.000000,0.000000,0.000000,0.000000,0.000000,0.028294,3,0
1360000,-0.011133,35.123589,-0.045752,-0.032598,25.992207,-0.013612,0.004446,0.032548,1.569582,-0.065083,0.005671,-0.001139,-0.001031,-0.009002,0.000080,0.000705,0.011527,0.064285,0.010674,0.204866,0.204839,0.161279,0.399809,0.000000,0.000000,0.000000,0.000000,0.000000,0.000000,0.000000,0.000000,0.000000,0.000000,0.000000,0.000000,0.063082,3,0
1370000,-0.011070,35.382233,-0.046206,-0.032123,25.994360,-0.014174,0.004510,0.032461,1.569587,-0.064836,0.005744,-0.001022,-0.001053,-0.008928,0.000080,0.000287,0.011461,-0.038845,-0.012008,0.205035,0.205007,0.160921,0.397153,0.000000,0.000000,0.000000,0.000000,0.000000,0.000000,0.000000,0.000000,0.000000,0.000000,0.000000,0.000000,0.039120,3,0
1380000,-0.011006,35.642929,-0.047208,-0.031706,26.000036,-0.015343,0.004577,0.032645,1.569580,-0.064967,0.005817,-0.000722,-0.001075,-0.008969,0.000080,0.000255,0.011394,0.020554,-0.032020,0.205205,0.205176,0.160564,0.394568,0.000000,0.000000,0.000000,0.000000,0.000000,0.000000,0.000000,0.000000,0.000000,0.000000,0.000000,0.000000,0.022692,3,0
1390000,-0.010937,35.906319,-0.047341,-0.031193,26.010424,-0.015512,0.004642,0.033210,1.569567,-0.065583,0.005888,-0.000748,-0.001097,-0.009162,0.000082,0.001559,0.011325,0.097744,0.001402,0.205377,0.205347,0.160208,0.392052,0.000000,0.000000,0.000000,0.000000,0.000000,0.000000,0.000000,0.000000,0.000000,0.000000,0.000000,0.000000,0.095030,3,0
1400000,-0.010866,36.166924,-0.047772,-0.030684,26.015854,-0.015892,0.004715,0.033370,1.569553,-0.065666,0.005959,-0.000651,-0.001119,-0.009189,0.000082,0.000065,0.011250,0.013157,-0.010255,0.205551,0.205520,0.159853,0.389606,0.000000,0.000000,0.000000,0.000000,0.000000,0.000000,0.000000,0.000000,0.000000,0.000000,0.000000,0.000000,0.016716,3,0
1410000,-0.010793,36.425461,-0.048602,-0.030279,26.017393,-0.016695,0.004779,0.033232,1.569547,-0.065363,0.006030,-0.000399,-0.001141,-0.009092,0.000082,0.000509,0.011175,-0.048710,-0.025620,0.205727,0.205694,0.159499,0.387225,0.000000,0.000000,0.000000,0.000000,0.000000,0.000000,0.000000,0.000000,0.000000,0.000000,0.000000,0.000000,0.048265,3,0
1420000,-0.010714,36.688087,-0.047305,-0.029767,26.026199,-0.014871,0.004857,0.033658,1.569541,-0.065799,0.006096,-0.000945,-0.001165,-0.009232,0.000083,0.001321,0.011098,0.070435,0.055658,0.205904,0.205871,0.159146,0.384910,0.000000,0.000000,0.000000,0.000000,0.000000,0.000000,0.000000,0.000000,0.000000,0.000000,0.000000,0.000000,0.068866,3,0
1430000,-0.010636,36.947937,-0.047855,-0.029244,26.030041,-0.015437,0.004941,0.033686,1.569528,-0.065716,0.006165,-0.000795,-0.001187,-0.009206,0.000083,0.000086,0.011013,-0.013371,-0.015261,0.206084,0.206049,0.158795,0.382659,0.000000,0.000000,0.000000,0.000000,0.000000,0.000000,0.000000,0.000000,0.000000,0.000000,0.000000,0.000000,0.016729,3,0
1440000,-0.010555,37.206406,-0.047694,-0.028870,26.031256,-0.015133,0.005009,0.033503,1.569533,-0.065381,0.006232,-0.000899,-0.001210,-0.009092,0.000083,0.000521,0.010931,-0.054588,0.011577,0.206265,0.206229,0.158446,0.380470,0.000000,0.000000,0.000000,0.000000,0.000000,0.000000,0.000000,0.000000,0.000000,0.000000,0.000000,0.000000,0.053758,3,0
1450000,-0.010473,37.464886,-0.048149,-0.028350,26.032425,-0.015489,0.005076,0.033317,1.569526,-0.065047,0.006299,-0.000774,-0.001232,-0.008979,0.000082,0.000523,0.010845,-0.054642,-0.011923,0.206448,0.206411,0.158099,0.378342,0.000000,0.000000,0.000000,0.000000,0.000000,0.000000,0.000000,0.000000,0.000000,0.000000,0.000000,0.000000,0.053794,3,0
1460000,-0.010387,37.725422,-0.047512,-0.027959,26.037317,-0.014670,0.005156,0.033417,1.569520,-0.065076,0.006363,-0.001071,-0.001256,-0.008987,0.000082,0.000170,0.010759,0.004925,0.030166,0.206634,0.206595,0.157754,0.376274,0.000000,0.000000,0.000000,0.000000,0.000000,0.000000,0.000000,0.000000,0.000000,0.000000,0.000000,0.000000,0.011426,3,0
1470000,-0.010298,37.986610,-0.046408,-0.027442,26.043152,-0.013311,0.005236,0.033610,1.569505,-0.065211,0.006426,-0.001547,-0.001279,-0.009032,0.000083,0.000473,0.010668,0.022648,0.047905,0.206821,0.206781,0.157411,0.374262,0.000000,0.000000,0.000000,0.000000,0.000000,0.000000,0.000000,0.000000,0.000000,0.000000,0.000000,0.000000,0.024180,3,0
1480000,-0.010209,38.247772,-0.046536,-0.026975,26.049025,-0.013383,0.005310,0.033807,1.569496,-0.065331,0.006489,-0.001554,-0.001301,-0.009075,0.000084,0.000081,0.010574,0.019825,0.000332,0.207010,0.206969,0.157070,0.372309,0.000000,0.000000,0.000000,0.000000,0.000000,0.000000,0.000000,0.000000,0.000000,0.000000,0.000000,0.000000,0.021695,3,0
1490000,-0.010120,38.506840,-0.046958,-0.026519,26.050938,-0.013765,0.005394,0.033676,1.569501,-0.065077,0.006552,-0.001434,-0.001324,-0.008984,0.000083,0.000331,0.010481,-0.042603,-0.011343,0.207201,0.207158,0.156732,0.370410,0.000000,0.000000,0.000000,0.000000,0.000000,0.000000,0.000000,0.000000,0.000000,0.000000,0.000000,0.000000,0.042360,3,0
1500000,-0.010025,38.764515,-0.045607,-0.026075,26.050261,-0.011869,0.005477,0.033312,1.569493,-0.064583,0.006612,-0.001983,-0.001348,-0.008799,0.000082,0.001642,0.010387,-0.083027,0.056374,0.207394,0.207350,0.156397,0.368565,0.000000,0.000000,0.000000,0.000000,0.000000,0.000000,0.000000,0.000000,0.000000,0.000000,0.000000,0.000000,0.080771,3,0
1510000,-0.009930,39.024956,-0.044430,-0.025674,26.054556,-0.010571,0.005555,0.033375,1.569482,-0.064565,0.006671,-0.002484,-0.001371,-0.008789,0.000082,0.000422,0.010289,-0.002750,0.049883,0.207589,0.207544,0.156064,0.366773,0.000000,0.000000,0.000000,0.000000,0.000000,0.000000,0.000000,0.000000,0.000000,0.000000,0.000000,0.000000,0.010276,3,0
1520000,-0.009837,39.284698,-0.045354,-0.025191,26.057592,-0.011714,0.005640,0.033332,1.569474,-0.064422,0.006732,-0.002159,-0.001393,-0.008737,0.000082,0.000278,0.010188,-0.024685,-0.031718,0.207785,0.207739,0.155734,0.365032,0.000000,0.000000,0.000000,0.000000,0.000000,0.000000,0.000000,0.000000,0.000000,0.000000,0.000000,0.000000,0.025788,3,0
1530000,-0.009740,39.545105,-0.045351,-0.024667,26.061684,-0.011512,0.005709,0.033382,1.569462,-0.064386,0.006790,-0.002204,-0.001416,-0.008723,0.000083,0.000026,0.010090,-0.006153,0.004561,0.207983,0.207935,0.155407,0.363341,0.000000,0.000000,0.000000,0.000000,0.000000,0.000000,0.000000,0.000000,0.000000,0.000000,0.000000,0.000000,0.011408,3,0
1540000,-0.009642,39.804104,-0.045390,-0.024236,26.063274,-0.011581,0.005779,0.033204,1.569453,-0.064110,0.006848,-0.002221,-0.001438,-0.008615,0.000082,0.000387,0.009989,-0.047935,0.002552,0.208183,0.208134,0.155084,0.361700,0.000000,0.000000,0.000000,0.000000,0.000000,0.000000,0.000000,0.000000,0.000000,0.000000,0.000000,0.000000,0.047266,3,0
1550000,-0.009545,40.066555,-0.046352,-0.023782,26.071032,-0.012600,0.005862,0.033573,1.569439,-0.064401,0.006906,-0.001900,-0.001460,-0.008732,0.000083,0.000602,0.009886,0.050873,-0.032351,0.208385,0.208334,0.154763,0.360105,0.000000,0.000000,0.000000,0.000000,0.000000,0.000000,0.000000,0.000000,0.000000,0.000000,0.000000,0.000000,0.050018,3,0
1560000,-0.009442,40.325478,-0.046030,-0.023225,26.072256,-0.012230,0.005939,0.033360,1.569445,-0.064103,0.006961,-0.002064,-0.001483,-0.008611,0.000083,0.000508,0.009783,-0.052628,0.016967,0.208588,0.208536,0.154446,0.358557,0.000000,0.000000,0.000000,0.000000,0.000000,0.000000,0.000000,0.000000,0.000000,0.000000,0.000000,0.000000,0.051663,3,0
1570000,-0.009340,40.587868,-0.047175,-0.022652,26.079792,-0.013795,0.006024,0.033703,1.569440,-0.064364,0.007017,-0.001668,-0.001505,-0.008720,0.000084,0.000609,0.009675,0.046261,-0.039260,0.208792,0.208739,0.154132,0.357053,0.000000,0.000000,0.000000,0.000000,0.000000,0.000000,0.000000,0.000000,0.000000,0.000000,0.000000,0.000000,0.045606,3,0
1580000,-0.009234,40.849487,-0.047336,-0.022074,26.085703,-0.014095,0.006097,0.033906,1.569438,-0.064488,0.007070,-0.001666,-0.001527,-0.008772,0.000084,0.000095,0.009567,0.022343,-0.000597,0.208998,0.208943,0.153821,0.355593,0.000000,0.000000,0.000000,0.000000,0.000000,0.000000,0.000000,0.000000,0.000000,0.000000,0.000000,0.000000,0.023458,3,0
1590000,-0.009128,41.111061,-0.048062,-0.021664,26.091484,-0.014738,0.006167,0.034098,1.569436,-0.064595,0.007123,-0.001433,-0.001548,-0.008818,0.000085,0.000157,0.009456,0.019089,-0.022739,0.209205,0.209148,0.153514,0.354176,0.000000,0.000000,0.000000,0.000000,0.000000,0.000000,0.000000,0.000000,0.000000,0.000000,0.000000,0.000000,0.020555,3,0
1600000,-0.009016,41.371868,-0.046697,-0.021179,26.095856,-0.012937,0.006236,0.034144,1.569439,-0.064572,0.007172,-0.002050,-0.001571,-0.008804,0.000085,0.000585,0.009346,-0.003998,0.059172,0.209413,0.209354,0.153211,0.352801,0.000000,0.000000,0.000000,0.000000,0.000000,0.000000,0.000000,0.000000,0.000000,0.000000,0.000000,0.000000,0.009801,3,0
1610000,-0.008905,41.632645,-0.046332,-0.020607,26.100052,-0.012509,0.006317,0.034184,1.569444,-0.064536,0.007221,-0.002252,-0.001593,-0.008788,0.000085,0.000081,0.009228,-0.006424,0.019398,0.209621,0.209562,0.152911,0.351466,0.000000,0.000000,0.000000,0.000000,0.000000,0.000000,0.000000,0.000000,0.000000,0.000000,0.000000,0.000000,0.010848,3,0
1620000,-0.008792,41.894764,-0.045634,-0.020156,26.106577,-0.011817,0.006402,0.034444,1.569436,-0.064702,0.007268,-0.002604,-0.001615,-0.008859,0.000086,0.000342,0.009113,0.030941,0.032768,0.209831,0.209770,0.152614,0.350169,0.000000,0.000000,0.000000,0.000000,0.000000,0.000000,0.000000,0.000000,0.000000,0.000000,0.000000,0.000000,0.031136,3,0
1630000,-0.008679,42.151947,-0.044870,-0.019721,26.104052,-0.010811,0.006472,0.033877,1.569436,-0.064105,0.007315,-0.002933,-0.001637,-0.008588,0.000085,0.002212,0.008995,-0.111969,0.033554,0.210041,0.209979,0.152322,0.348912,0.000000,0.000000,0.000000,0.000000,0.000000,0.000000,0.000000,0.000000,0.000000,0.000000,0.000000,0.000000,0.108388,3,0
1640000,-0.008567,42.409859,-0.045793,-0.019224,26.102819,-0.011749,0.006543,0.033443,1.569432,-0.063626,0.007364,-0.002560,-0.001658,-0.008373,0.000083,0.001519,0.008877,-0.090820,-0.033198,0.210252,0.210188,0.152033,0.347690,0.000000,0.000000,0.000000,0.000000,0.000000,0.000000,0.000000,0.000000,0.000000,0.000000,0.000000,0.000000,0.088064,3,0
1650000,-0.008454,42.667072,-0.046164,-0.018706,26.100245,-0.012021,0.006627,0.032895,1.569432,-0.063050,0.007411,-0.002415,-0.001679,-0.008107,0.000082,0.001985,0.008760,-0.110172,-0.011267,0.210463,0.210397,0.151748,0.346503,0.000000,0.000000,0.000000,0.000000,0.000000,0.000000,0.000000,0.000000,0.000000,0.000000,0.000000,0.000000,0.106647,3,0
1660000,-0.008338,42.927086,-0.046262,-0.018215,26.102762,-0.012071,0.006705,0.032800,1.569433,-0.062898,0.007456,-0.002413,-0.001701,-0.008036,0.000082,0.000151,0.008641,-0.029419,0.000526,0.210674,0.210607,0.151467,0.345350,0.000000,0.000000,0.000000,0.000000,0.000000,0.000000,0.000000,0.000000,0.000000,0.000000,0.000000,0.000000,0.029584,3,0
1670000,-0.008222,43.188469,-0.046660,-0.017747,26.107878,-0.012676,0.006788,0.032941,1.569423,-0.062943,0.007500,-0.002299,-0.001721,-0.008058,0.000082,0.000043,0.008521,0.008724,-0.010782,0.210886,0.210817,0.151190,0.344231,0.000000,0.000000,0.000000,0.000000,0.000000,0.000000,0.000000,0.000000,0.000000,0.000000,0.000000,0.000000,0.011765,3,0
1680000,-0.008103,43.449089,-0.046438,-0.017194,26.111444,-0.012340,0.006860,0.032937,1.569414,-0.062871,0.007542,-0.002443,-0.001742,-0.008022,0.000082,0.000074,0.008399,-0.014160,0.013690,0.211097,0.211027,0.150916,0.343145,0.000000,0.000000,0.000000,0.000000,0.000000,0.000000,0.000000,0.000000,0.000000,0.000000,0.000000,0.000000,0.015880,3,0
1690000,-0.007986,43.707584,-0.047249,-0.016681,26.111097,-0.013046,0.006927,0.032570,1.569405,-0.062490,0.007585,-0.002118,-0.001762,-0.007837,0.000081,0.001071,0.008275,-0.076031,-0.028344,0.211309,0.211237,0.150647,0.342090,0.000000,0.000000,0.000000,0.000000,0.000000,0.000000,0.000000,0.000000,0.000000,0.000000,0.000000,0.000000,0.073798,3,0
1700000,-0.007867,43.966068,-0.048245,-0.016136,26.110546,-0.013922,0.007010,0.032198,1.569403,-0.062114,0.007628,-0.001713,-0.001782,-0.007651,0.000080,0.001147,0.008152,-0.076092,-0.035558,0.211520,0.211446,0.150382,0.341064,0.000000,0.000000,0.000000,0.000000,0.000000,0.000000,0.000000,0.000000,0.000000,0.000000,0.000000,0.000000,0.073842,3,0
1710000,-0.007746,44.228745,-0.048781,-0.015698,26.117805,-0.014531,0.007091,0.032536,1.569390,-0.062325,0.007668,-0.001557,-0.001802,-0.007760,0.000081,0.000347,0.008029,0.043129,-0.015278,0.211730,0.211655,0.150120,0.340068,0.000000,0.000000,0.000000,0.000000,0.000000,0.000000,0.000000,0.000000,0.000000,0.000000,0.000000,0.000000,0.042318,3,0
