time_us,pos_x,pos_y,pos_z,vel_x,vel_y,vel_z,roll,pitch,yaw,bias_ax,bias_ay,bias_az,bias_gx,bias_gy,bias_gz,nis,innov_x,innov_y,innov_z,cov_pos_x,cov_pos_y,cov_pos_z,cov_yaw,des_speed,des_heading,des_climb,pid_speed,pid_yaw,pid_alt,speed_meas,yaw_meas,climb_meas,fwd_accel,yaw_rate,vert_accel,drift_m,nav_mode,mission_state
0,0.000003,0.149997,0.000005,0.000534,24.999441,0.001273,0.000000,0.000015,1.570809,0.000000,0.000000,0.000000,0.000000,0.000000,0.000000,0.006250,-0.000005,-0.249997,-0.000013,2.400038,2.400038,3.600017,1.000518,0.000000,0.000000,0.000000,0.000000,0.000000,0.000000,0.000000,0.000000,0.000000,0.000000,0.000000,0.000000,0.149997,1,0
10000,0.000010,0.382258,-0.018147,0.001042,24.998936,0.002652,-0.000002,0.000023,1.570819,0.000000,-0.000000,0.000000,0.000000,0.000000,0.000000,0.000703,-0.000014,-0.062046,-0.048477,1.714420,1.714420,2.250079,1.001073,0.000000,0.000000,0.000000,0.000000,0.000000,0.000000,0.000000,0.000000,0.000000,0.000000,0.000000,0.000000,0.044317,3,0
20000,0.000019,0.641944,-0.028026,0.001416,24.998741,0.003712,-0.000002,0.000033,1.570833,-0.000000,-0.000000,0.000000,-0.000000,-0.000000,-0.000000,0.000407,-0.000024,0.043639,-0.036357,1.333616,1.333616,1.636554,1.001655,0.000000,0.000000,0.000000,0.000000,0.000000,0.000000,0.000000,0.000000,0.000000,0.000000,0.000000,0.000000,0.033939,3,0
30000,0.000030,0.885173,-0.020371,0.001827,24.998224,0.005009,-0.000001,0.000044,1.570846,0.000000,-0.000000,-0.000000,0.000000,0.000000,0.000000,0.000353,-0.000037,-0.037134,0.035486,1.091392,1.091392,1.286065,1.002257,0.000000,0.000000,0.000000,0.000000,0.000000,0.000000,0.000000,0.000000,0.000000,0.000000,0.000000,0.000000,0.030380,3,0
40000,0.000045,1.140958,-0.013764,0.002297,24.998123,0.006480,-0.000008,0.000059,1.570850,-0.000001,-0.000000,-0.000001,0.000000,-0.000000,-0.000000,0.000389,-0.000053,0.037703,0.037057,0.923811,0.923811,1.059385,1.002869,0.000000,0.000000,0.000000,0.000000,0.000000,0.000000,0.000000,0.000000,0.000000,0.000000,0.000000,0.000000,0.031898,3,0
50000,0.000063,1.398975,-0.021329,0.002741,24.998049,0.007611,-0.000001,0.000059,1.570852,-0.000003,-0.000000,0.000001,-0.000000,-0.000000,-0.000000,0.000891,-0.000072,0.060226,-0.050905,0.801036,0.801036,0.900822,1.003484,0.000000,0.000000,0.000000,0.000000,0.000000,0.000000,0.000000,0.000000,0.000000,0.000000,0.000000,0.000000,0.052185,3,0
60000,0.000084,1.653756,-0.027225,0.003260,24.997860,0.008525,-0.000005,0.000062,1.570855,-0.000006,-0.000000,0.000004,-0.000000,-0.000000,-0.000000,0.000548,-0.000095,0.040756,-0.045812,0.707270,0.707270,0.783741,1.004094,0.000000,0.000000,0.000000,0.000000,0.000000,0.000000,0.000000,0.000000,0.000000,0.000000,0.000000,0.000000,0.035952,3,0
70000,0.000109,1.895827,-0.030160,0.003787,24.996983,0.009588,0.000002,0.000068,1.570866,0.000000,-0.000000,0.000006,-0.000000,0.000000,0.000000,0.000937,-0.000122,-0.074870,-0.026222,0.633370,0.633370,0.693801,1.004688,0.000000,0.000000,0.000000,0.000000,0.000000,0.000000,0.000000,0.000000,0.000000,0.000000,0.000000,0.000000,0.066967,3,0
80000,0.000137,2.149703,-0.034337,0.004261,24.996895,0.010629,-0.000007,0.000067,1.570868,-0.000004,-0.000000,0.000010,-0.000000,-0.000000,-0.000000,0.000507,-0.000152,0.040888,-0.041313,0.573673,0.573673,0.622594,1.005260,0.000000,0.000000,0.000000,0.000000,0.000000,0.000000,0.000000,0.000000,0.000000,0.000000,0.000000,0.000000,0.036979,3,0
90000,0.000167,2.394951,-0.034830,0.004598,24.996035,0.012061,-0.000011,0.000081,1.570875,0.000003,-0.000000,0.000010,0.000000,0.000000,0.000000,0.000449,-0.000183,-0.053956,-0.006523,0.524488,0.524488,0.564865,1.005801,0.000000,0.000000,0.000000,0.000000,0.000000,0.000000,0.000000,0.000000,0.000000,0.000000,0.000000,0.000000,0.049239,3,0
100000,0.000201,2.648029,-0.035603,0.005118,24.996113,0.013241,-0.000011,0.000092,1.570887,-0.000003,-0.000000,0.000012,0.000000,-0.000000,-0.000000,0.000247,-0.000218,0.038745,-0.010509,0.483304,0.483304,0.517162,1.006301,0.000000,0.000000,0.000000,0.000000,0.000000,0.000000,0.000000,0.000000,0.000000,0.000000,0.000000,0.000000,0.035625,3,0
110000,0.000237,2.895340,-0.038920,0.005548,24.995378,0.013965,-0.000008,0.000099,1.570886,0.000004,-0.000000,0.000020,0.000000,0.000000,0.000000,0.000484,-0.000256,-0.035423,-0.043522,0.448354,0.448354,0.477121,1.006754,0.000000,0.000000,0.000000,0.000000,0.000000,0.000000,0.000000,0.000000,0.000000,0.000000,0.000000,0.000000,0.032777,3,0
120000,0.000277,3.150526,-0.036911,0.006036,24.995832,0.015372,-0.000003,0.000106,1.570885,-0.000013,-0.000000,0.000014,0.000000,-0.000000,-0.000000,0.000972,-0.000298,0.075094,0.025159,0.418359,0.418359,0.443071,1.007150,0.000000,0.000000,0.000000,0.000000,0.000000,0.000000,0.000000,0.000000,0.000000,0.000000,0.000000,0.000000,0.069859,3,0
130000,0.000320,3.405603,-0.033140,0.006558,24.996368,0.017315,-0.000008,0.000128,1.570892,-0.000033,-0.000000,0.000001,0.000000,-0.000001,-0.000000,0.001379,-0.000342,0.078330,0.052256,0.392370,0.392370,0.413797,1.007481,0.000000,0.000000,0.000000,0.000000,0.000000,0.000000,0.000000,0.000000,0.000000,0.000000,0.000000,0.000000,0.073208,3,0
140000,0.000367,3.656920,-0.034949,0.007086,24.996223,0.018372,0.000001,0.000134,1.570900,-0.000039,-0.000000,0.000010,0.000000,-0.000001,-0.000000,0.000224,-0.000391,0.022037,-0.030849,0.369667,0.369667,0.388393,1.007739,0.000000,0.000000,0.000000,0.000000,0.000000,0.000000,0.000000,0.000000,0.000000,0.000000,0.000000,0.000000,0.020683,3,0
150000,0.000416,3.907419,-0.032688,0.007531,24.995968,0.020251,0.000005,0.000136,1.570899,-0.000043,-0.000001,-0.000001,0.000000,-0.000001,-0.000000,0.000192,-0.000442,0.009268,0.033808,0.349697,0.349697,0.366172,1.007915,0.000000,0.000000,0.000000,0.000000,0.000000,0.000000,0.000000,0.000000,0.000000,0.000000,0.000000,0.000000,0.008738,3,0
160000,0.000469,4.163827,-0.030201,0.007947,24.997423,0.022042,0.000007,0.000164,1.570899,-0.000087,-0.000001,-0.000015,0.000000,-0.000002,-0.000000,0.002383,-0.000496,0.116591,0.039334,0.332023,0.332023,0.346600,1.008002,0.000000,0.000000,0.000000,0.000000,0.000000,0.000000,0.000000,0.000000,0.000000,0.000000,0.000000,0.000000,0.110140,3,0
170000,0.000523,4.419002,-0.028185,0.008363,24.998526,0.023760,0.000004,0.000181,1.570899,-0.000129,-0.000001,-0.000029,0.000000,-0.000003,-0.000000,0.001705,-0.000552,0.098717,0.032481,0.316299,0.316299,0.329260,1.007991,0.000000,0.000000,0.000000,0.000000,0.000000,0.000000,0.000000,0.000000,0.000000,0.000000,0.000000,0.000000,0.093514,3,0
180000,0.000580,4.672117,-0.028666,0.008766,24.999197,0.024899,-0.000005,0.000205,1.570910,-0.000159,-0.000001,-0.000022,0.000000,-0.000003,-0.000000,0.000643,-0.000611,0.062199,-0.013993,0.302249,0.302249,0.313817,1.007875,0.000000,0.000000,0.000000,0.000000,0.000000,0.000000,0.000000,0.000000,0.000000,0.000000,0.000000,0.000000,0.059068,3,0
190000,0.000641,4.925364,-0.029998,0.009287,25.000074,0.025789,0.000002,0.000219,1.570922,-0.000194,-0.000002,-0.000006,0.000000,-0.000004,-0.000000,0.000884,-0.000673,0.067502,-0.031901,0.289644,0.289644,0.300003,1.007645,0.000000,0.000000,0.000000,0.000000,0.000000,0.000000,0.000000,0.000000,0.000000,0.000000,0.000000,0.000000,0.064247,3,0
200000,0.000704,5.179655,-0.029362,0.009794,25.001387,0.027396,-0.000004,0.000248,1.570930,-0.000248,-0.000002,-0.000010,0.000000,-0.000006,-0.000000,0.001371,-0.000739,0.092551,0.007585,0.278299,0.278299,0.287598,1.007295,0.000000,0.000000,0.000000,0.000000,0.000000,0.000000,0.000000,0.000000,0.000000,0.000000,0.000000,0.000000,0.088261,3,0
210000,0.000770,5.434873,-0.028942,0.010157,25.003345,0.028870,-0.000007,0.000277,1.570944,-0.000323,-0.000003,-0.000012,0.000000,-0.000008,-0.000000,0.002164,-0.000806,0.116551,0.002853,0.268059,0.268059,0.276421,1.006816,0.000000,0.000000,0.000000,0.000000,0.000000,0.000000,0.000000,0.000000,0.000000,0.000000,0.000000,0.000000,0.111347,3,0
220000,0.000839,5.684923,-0.029241,0.010633,25.002985,0.029931,0.000001,0.000275,1.570960,-0.000323,-0.000003,-0.000003,0.000000,-0.000008,-0.000000,0.000029,-0.000877,0.000467,-0.013539,0.258793,0.258793,0.266321,1.006202,0.000000,0.000000,0.000000,0.000000,0.000000,0.000000,0.000000,0.000000,0.000000,0.000000,0.000000,0.000000,0.000951,3,0
230000,0.000911,5.941955,-0.029087,0.011135,25.006184,0.031105,-0.000004,0.000319,1.570975,-0.000451,-0.000004,-0.000000,0.000000,-0.000012,-0.000000,0.004503,-0.000950,0.167878,-0.003686,0.250393,0.250393,0.257172,1.005446,0.000000,0.000000,0.000000,0.000000,0.000000,0.000000,0.000000,0.000000,0.000000,0.000000,0.000000,0.000000,0.160875,3,0
240000,0.000985,6.197253,-0.030915,0.011594,25.008718,0.031347,-0.000000,0.000357,1.570979,-0.000558,-0.000005,0.000042,0.000000,-0.000016,-0.000000,0.003111,-0.001027,0.129481,-0.051877,0.242764,0.242764,0.248866,1.004541,0.000000,0.000000,0.000000,0.000000,0.000000,0.000000,0.000000,0.000000,0.000000,0.000000,0.000000,0.000000,0.124246,3,0
250000,0.001062,6.449422,-0.030585,0.012020,25.009544,0.032648,-0.000000,0.000370,1.570993,-0.000605,-0.000006,0.000042,0.000000,-0.000018,-0.000000,0.000451,-0.001106,0.053069,0.000100,0.235828,0.235828,0.241314,1.003481,0.000000,0.000000,0.000000,0.000000,0.000000,0.000000,0.000000,0.000000,0.000000,0.000000,0.000000,0.000000,0.050994,3,0
260000,0.001141,6.702544,-0.031469,0.012413,25.011112,0.033448,-0.000010,0.000394,1.571010,-0.000681,-0.000007,0.000072,0.000000,-0.000021,-0.000000,0.001163,-0.001187,0.079195,-0.031374,0.229516,0.229516,0.234436,1.002258,0.000000,0.000000,0.000000,0.000000,0.000000,0.000000,0.000000,0.000000,0.000000,0.000000,0.000000,0.000000,0.076175,3,0
270000,0.001223,6.955803,-0.029416,0.012859,25.012861,0.035760,-0.000015,0.000424,1.571019,-0.000768,-0.000008,0.000026,0.000000,-0.000024,-0.000000,0.001468,-0.001270,0.084484,0.044849,0.223768,0.223768,0.228165,1.000869,0.000000,0.000000,0.000000,0.000000,0.000000,0.000000,0.000000,0.000000,0.000000,0.000000,0.000000,0.000000,0.081342,3,0
280000,0.001306,7.209918,-0.027560,0.013223,25.015371,0.037953,-0.000021,0.000477,1.571017,-0.000889,-0.000010,-0.000018,0.000000,-0.000029,-0.000000,0.002184,-0.001355,0.109512,0.040071,0.218532,0.218532,0.222443,0.999307,0.000000,0.000000,0.000000,0.000000,0.000000,0.000000,0.000000,0.000000,0.000000,0.000000,0.000000,0.000000,0.105531,3,0
290000,0.001392,7.461290,-0.025664,0.013689,25.015936,0.040420,-0.000030,0.000502,1.571021,-0.000930,-0.000011,-0.000066,0.000000,-0.000031,-0.000000,0.000466,-0.001443,0.034282,0.041499,0.213762,0.213762,0.217219,0.997567,0.000000,0.000000,0.000000,0.000000,0.000000,0.000000,0.000000,0.000000,0.000000,0.000000,0.000000,0.000000,0.033090,3,0
300000,0.001479,7.718440,-0.024742,0.014002,25.020967,0.042086,-0.000022,0.000588,1.571026,-0.001181,-0.000013,-0.000084,0.000000,-0.000041,-0.000000,0.006490,-0.001532,0.200363,0.014247,0.209419,0.209419,0.212446,0.995645,0.000000,0.000000,0.000000,0.000000,0.000000,0.000000,0.000000,0.000000,0.000000,0.000000,0.000000,0.000000,0.193375,3,0
310000,0.001567,7.974869,-0.025190,0.014334,25.025694,0.042741,-0.000026,0.000679,1.571036,-0.001424,-0.000015,-0.000050,0.000001,-0.000052,-0.000000,0.005419,-0.001623,0.181710,-0.025417,0.205467,0.205467,0.208087,0.993536,0.000000,0.000000,0.000000,0.000000,0.000000,0.000000,0.000000,0.000000,0.000000,0.000000,0.000000,0.000000,0.175495,3,0
320000,0.001657,8.229296,-0.025991,0.014680,25.028967,0.042958,-0.000033,0.000746,1.571049,-0.001599,-0.000018,0.000001,0.000001,-0.000061,-0.000000,0.002692,-0.001714,0.124022,-0.036485,0.201874,0.201874,0.204105,0.991237,0.000000,0.000000,0.000000,0.000000,0.000000,0.000000,0.000000,0.000000,0.000000,0.000000,0.000000,0.000000,0.119861,3,0
330000,0.001748,8.484476,-0.026845,0.015020,25.032957,0.043131,-0.000040,0.000828,1.571060,-0.001821,-0.000020,0.000059,0.000001,-0.000071,-0.000000,0.003766,-0.001807,0.147867,-0.038777,0.198612,0.198612,0.200469,0.988744,0.000000,0.000000,0.000000,0.000000,0.000000,0.000000,0.000000,0.000000,0.000000,0.000000,0.000000,0.000000,0.142984,3,0
340000,0.001840,8.740377,-0.026128,0.015424,25.037895,0.044724,-0.000050,0.000933,1.571074,-0.002091,-0.000023,0.000046,0.000001,-0.000085,-0.000000,0.004724,-0.001902,0.170952,0.008279,0.195655,0.195655,0.197151,0.986053,0.000000,0.000000,0.000000,0.000000,0.000000,0.000000,0.000000,0.000000,0.000000,0.000000,0.000000,0.000000,0.165388,3,0
350000,0.001934,8.994414,-0.025104,0.015693,25.041201,0.046710,-0.000059,0.001005,1.571080,-0.002281,-0.000027,0.000017,0.000001,-0.000094,-0.000000,0.002138,-0.001998,0.113790,0.017369,0.192981,0.192981,0.194125,0.983164,0.000000,0.000000,0.000000,0.000000,0.000000,0.000000,0.000000,0.000000,0.000000,0.000000,0.000000,0.000000,0.110146,3,0
360000,0.002028,9.249840,-0.025600,0.016040,25.046026,0.047142,-0.000066,0.001096,1.571090,-0.002558,-0.000030,0.000070,0.000001,-0.000109,-0.000001,0.004176,-0.002095,0.157904,-0.030633,0.190568,0.190568,0.191370,0.980073,0.000000,0.000000,0.000000,0.000000,0.000000,0.000000,0.000000,0.000000,0.000000,0.000000,0.000000,0.000000,0.152902,3,0
370000,0.002124,9.502229,-0.026886,0.016390,25.047867,0.046794,-0.000070,0.001148,1.571090,-0.002672,-0.000034,0.000173,0.000002,-0.000115,-0.000001,0.001121,-0.002193,0.061460,-0.056247,0.188398,0.188399,0.188863,0.976779,0.000000,0.000000,0.000000,0.000000,0.000000,0.000000,0.000000,0.000000,0.000000,0.000000,0.000000,0.000000,0.059568,3,0
380000,0.002222,9.758509,-0.027420,0.016840,25.053970,0.046983,-0.000077,0.001268,1.571091,-0.003033,-0.000039,0.000236,0.000002,-0.000135,-0.000001,0.005805,-0.002293,0.186752,-0.032622,0.186454,0.186454,0.186586,0.973282,0.000000,0.000000,0.000000,0.000000,0.000000,0.000000,0.000000,0.000000,0.000000,0.000000,0.000000,0.000000,0.180963,3,0
390000,0.002320,10.014859,-0.026216,0.017138,25.060133,0.048885,-0.000087,0.001395,1.571097,-0.003415,-0.000044,0.000188,0.000002,-0.000157,-0.000001,0.005850,-0.002394,0.188838,0.023486,0.184720,0.184720,0.184522,0.969581,0.000000,0.000000,0.000000,0.000000,0.000000,0.000000,0.000000,0.000000,0.000000,0.000000,0.000000,0.000000,0.183039,3,0
400000,0.002420,10.269464,-0.026618,0.017483,25.064451,0.049367,-0.000088,0.001500,1.571103,-0.003693,-0.000049,0.000251,0.000002,-0.000174,-0.000001,0.002926,-0.002496,0.131215,-0.029727,0.183181,0.183181,0.182656,0.965676,0.000000,0.000000,0.000000,0.000000,0.000000,0.000000,0.000000,0.000000,0.000000,0.000000,0.000000,0.000000,0.127232,3,0
410000,0.002521,10.524198,-0.026295,0.017897,25.069138,0.050333,-0.000087,0.001599,1.571118,-0.003991,-0.000055,0.000264,0.000003,-0.000192,-0.000001,0.002952,-0.002600,0.134992,-0.006038,0.181823,0.181823,0.180971,0.961567,0.000000,0.000000,0.000000,0.000000,0.000000,0.000000,0.000000,0.000000,0.000000,0.000000,0.000000,0.000000,0.130926,3,0
420000,0.002623,10.779062,-0.025539,0.018270,25.074114,0.051992,-0.000095,0.001710,1.571117,-0.004310,-0.000061,0.000246,0.000003,-0.000211,-0.000001,0.003118,-0.002705,0.138638,0.007961,0.180634,0.180635,0.179456,0.957255,0.000000,0.000000,0.000000,0.000000,0.000000,0.000000,0.000000,0.000000,0.000000,0.000000,0.000000,0.000000,0.134489,3,0
430000,0.002727,11.035842,-0.024198,0.018640,25.081476,0.054368,-0.000103,0.001873,1.571131,-0.004794,-0.000067,0.000181,0.000003,-0.000242,-0.000001,0.006704,-0.002811,0.201787,0.027175,0.179604,0.179604,0.178097,0.952744,0.000000,0.000000,0.000000,0.000000,0.000000,0.000000,0.000000,0.000000,0.000000,0.000000,0.000000,0.000000,0.195765,3,0
440000,0.002830,11.292121,-0.024337,0.018924,25.088373,0.054784,-0.000099,0.002036,1.571148,-0.005252,-0.000075,0.000239,0.000004,-0.000272,-0.000001,0.005535,-0.002917,0.183479,-0.023593,0.178720,0.178720,0.176883,0.948033,0.000000,0.000000,0.000000,0.000000,0.000000,0.000000,0.000000,0.000000,0.000000,0.000000,0.000000,0.000000,0.178036,3,0
450000,0.002933,11.548508,-0.022670,0.019164,25.095522,0.057294,-0.000101,0.002208,1.571152,-0.005732,-0.000082,0.000141,0.000004,-0.000304,-0.000001,0.005801,-0.003023,0.185556,0.037785,0.177973,0.177973,0.175803,0.943127,0.000000,0.000000,0.000000,0.000000,0.000000,0.000000,0.000000,0.000000,0.000000,0.000000,0.000000,0.000000,0.180077,3,0
460000,0.003037,11.804418,-0.023704,0.019450,25.102089,0.056655,-0.000108,0.002363,1.571164,-0.006183,-0.000091,0.000291,0.000005,-0.000335,-0.000002,0.005048,-0.003129,0.167645,-0.055633,0.177353,0.177353,0.174847,0.938028,0.000000,0.000000,0.000000,0.000000,0.000000,0.000000,0.000000,0.000000,0.000000,0.000000,0.000000,0.000000,0.162718,3,0
470000,0.003139,12.061624,-0.022756,0.019648,25.110550,0.058466,-0.000107,0.002583,1.571164,-0.006767,-0.000100,0.000255,0.000006,-0.000376,-0.000002,0.007151,-0.003234,0.209853,0.012704,0.176851,0.176852,0.174006,0.932739,0.000000,0.000000,0.000000,0.000000,0.000000,0.000000,0.000000,0.000000,0.000000,0.000000,0.000000,0.000000,0.203692,3,0
480000,0.003241,12.316595,-0.023741,0.019906,25.115961,0.057650,-0.000110,0.002733,1.571168,-0.007145,-0.000109,0.000414,0.000006,-0.000403,-0.000002,0.003284,-0.003339,0.131474,-0.054797,0.176460,0.176460,0.173271,0.927266,0.000000,0.000000,0.000000,0.000000,0.000000,0.000000,0.000000,0.000000,0.000000,0.000000,0.000000,0.000000,0.127649,3,0
490000,0.003343,12.573465,-0.022245,0.020184,25.124027,0.059975,-0.000111,0.002950,1.571171,-0.007724,-0.000119,0.000319,0.000007,-0.000446,-0.000002,0.006284,-0.003445,0.194510,0.031564,0.176171,0.176171,0.172634,0.921613,0.000000,0.000000,0.000000,0.000000,0.000000,0.000000,0.000000,0.000000,0.000000,0.000000,0.000000,0.000000,0.188828,3,0
500000,0.003445,12.828121,-0.021541,0.020462,25.128923,0.061549,-0.000106,0.003084,1.571188,-0.008082,-0.000130,0.000309,0.000008,-0.000473,-0.000002,0.002198,-0.003550,0.116469,0.003091,0.175976,0.175976,0.172087,0.915783,0.000000,0.000000,0.000000,0.000000,0.000000,0.000000,0.000000,0.000000,0.000000,0.000000,0.000000,0.000000,0.113106,3,0
510000,0.003546,13.082351,-0.020630,0.020652,25.133265,0.063155,-0.000103,0.003214,1.571189,-0.008400,-0.000142,0.000278,0.000009,-0.000497,-0.000002,0.001646,-0.003654,0.100310,0.009895,0.175869,0.175869,0.171622,0.909784,0.000000,0.000000,0.000000,0.000000,0.000000,0.000000,0.000000,0.000000,0.000000,0.000000,0.000000,0.000000,0.097435,3,0
520000,0.003647,13.337327,-0.018955,0.020964,25.138662,0.065960,-0.000116,0.003362,1.571191,-0.008807,-0.000154,0.000159,0.000010,-0.000529,-0.000002,0.002714,-0.003758,0.124343,0.036078,0.175843,0.175844,0.171234,0.903620,0.000000,0.000000,0.000000,0.000000,0.000000,0.000000,0.000000,0.000000,0.000000,0.000000,0.000000,0.000000,0.120754,3,0
530000,0.003748,13.594208,-0.018989,0.021155,25.147057,0.066241,-0.000124,0.003589,1.571195,-0.009437,-0.000167,0.000243,0.000011,-0.000580,-0.000003,0.005782,-0.003861,0.187374,-0.024817,0.175892,0.175892,0.170914,0.897298,0.000000,0.000000,0.000000,0.000000,0.000000,0.000000,0.000000,0.000000,0.000000,0.000000,0.000000,0.000000,0.181920,3,0
540000,0.003847,13.850635,-0.019052,0.021397,25.154665,0.066381,-0.000130,0.003820,1.571195,-0.010022,-0.000181,0.000333,0.000012,-0.000628,-0.000003,0.004730,-0.003963,0.168957,-0.025941,0.176009,0.176010,0.170658,0.890824,0.000000,0.000000,0.000000,0.000000,0.000000,0.000000,0.000000,0.000000,0.000000,0.000000,0.000000,0.000000,0.164046,3,0
550000,0.003947,14.107202,-0.018900,0.021725,25.162655,0.067021,-0.000143,0.004056,1.571196,-0.010630,-0.000195,0.000399,0.000013,-0.000679,-0.000003,0.004782,-0.004066,0.170879,-0.018496,0.176190,0.176190,0.170460,0.884205,0.000000,0.000000,0.000000,0.000000,0.000000,0.000000,0.000000,0.000000,0.000000,0.000000,0.000000,0.000000,0.165908,3,0
560000,0.004046,14.363908,-0.018230,0.021996,25.170828,0.068423,-0.000142,0.004288,1.571208,-0.011260,-0.000210,0.000401,0.000014,-0.000733,-0.000003,0.004825,-0.004169,0.172658,-0.000520,0.176428,0.176428,0.170314,0.877448,0.000000,0.000000,0.000000,0.000000,0.000000,0.000000,0.000000,0.000000,0.000000,0.000000,0.000000,0.000000,0.167629,3,0
570000,0.004145,14.622507,-0.019143,0.022211,25.181847,0.067532,-0.000145,0.004620,1.571220,-0.012136,-0.000226,0.000616,0.000016,-0.000809,-0.000004,0.009378,-0.004270,0.233932,-0.056845,0.176718,0.176718,0.170214,0.870560,0.000000,0.000000,0.000000,0.000000,0.000000,0.000000,0.000000,0.000000,0.000000,0.000000,0.000000,0.000000,0.227080,3,0
580000,0.004243,14.878876,-0.019781,0.022467,25.189327,0.067097,-0.000160,0.004850,1.571232,-0.012728,-0.000243,0.000798,0.000017,-0.000861,-0.000004,0.004201,-0.004372,0.154133,-0.046824,0.177056,0.177056,0.170157,0.863549,0.000000,0.000000,0.000000,0.000000,0.000000,0.000000,0.000000,0.000000,0.000000,0.000000,0.000000,0.000000,0.149645,3,0
590000,0.004340,15.138328,-0.018112,0.022688,25.201786,0.069801,-0.000175,0.005243,1.571244,-0.013733,-0.000260,0.000659,0.000019,-0.000953,-0.000004,0.010757,-0.004472,0.255509,0.034702,0.177437,0.177437,0.170138,0.856422,0.000000,0.000000,0.000000,0.000000,0.000000,0.000000,0.000000,0.000000,0.000000,0.000000,0.000000,0.000000,0.247991,3,0
600000,0.004435,15.394942,-0.018233,0.022880,25.209551,0.069917,-0.000187,0.005491,1.571262,-0.014356,-0.000278,0.000779,0.000020,-0.001010,-0.000004,0.004027,-0.004571,0.154963,-0.029378,0.177856,0.177856,0.170152,0.849187,0.000000,0.000000,0.000000,0.000000,0.000000,0.000000,0.000000,0.000000,0.000000,0.000000,0.000000,0.000000,0.150435,3,0
610000,0.004529,15.651107,-0.017975,0.022985,25.216530,0.070476,-0.000204,0.005708,1.571263,-0.014919,-0.000297,0.000846,0.000022,-0.001063,-0.000005,0.003072,-0.004667,0.136820,-0.015988,0.178310,0.178310,0.170195,0.841851,0.000000,0.000000,0.000000,0.000000,0.000000,0.000000,0.000000,0.000000,0.000000,0.000000,0.000000,0.000000,0.132831,3,0
620000,0.004621,15.909195,-0.018431,0.023184,25.226665,0.070274,-0.000207,0.006046,1.571277,-0.015755,-0.000317,0.001023,0.000024,-0.001143,-0.000005,0.006663,-0.004763,0.198647,-0.041481,0.178794,0.178795,0.170264,0.834424,0.000000,0.000000,0.000000,0.000000,0.000000,0.000000,0.000000,0.000000,0.000000,0.000000,0.000000,0.000000,0.192783,3,0
630000,0.004712,16.166817,-0.016804,0.023365,25.236027,0.072976,-0.000217,0.006353,1.571292,-0.016523,-0.000338,0.000882,0.000026,-0.001219,-0.000005,0.005351,-0.004857,0.179003,0.032050,0.179305,0.179306,0.170355,0.826913,0.000000,0.000000,0.000000,0.000000,0.000000,0.000000,0.000000,0.000000,0.000000,0.000000,0.000000,0.000000,0.173717,3,0
640000,0.004802,16.423374,-0.015998,0.023568,25.243427,0.074359,-0.000220,0.006606,1.571296,-0.017136,-0.000360,0.000872,0.000028,-0.001280,-0.000006,0.003172,-0.004950,0.139957,0.002202,0.179840,0.179840,0.170465,0.819327,0.000000,0.000000,0.000000,0.000000,0.000000,0.000000,0.000000,0.000000,0.000000,0.000000,0.000000,0.000000,0.135848,3,0
650000,0.004889,16.682467,-0.014890,0.023666,25.255199,0.076153,-0.000229,0.006998,1.571311,-0.018123,-0.000382,0.000814,0.000031,-0.001380,-0.000006,0.007943,-0.005041,0.221264,0.012340,0.180394,0.180394,0.170591,0.811672,0.000000,0.000000,0.000000,0.000000,0.000000,0.000000,0.000000,0.000000,0.000000,0.000000,0.000000,0.000000,0.214667,3,0
660000,0.004975,16.942274,-0.014836,0.023747,25.268044,0.076589,-0.000244,0.007441,1.571333,-0.019217,-0.000405,0.000932,0.000033,-0.001493,-0.000007,0.009447,-0.005129,0.240360,-0.025415,0.180965,0.180965,0.170729,0.803958,0.000000,0.000000,0.000000,0.000000,0.000000,0.000000,0.000000,0.000000,0.000000,0.000000,0.000000,0.000000,0.233164,3,0
670000,0.005058,17.199781,-0.013869,0.023822,25.276787,0.078320,-0.000255,0.007746,1.571350,-0.019955,-0.000429,0.000901,0.000035,-0.001571,-0.000007,0.004114,-0.005216,0.159334,0.006519,0.181550,0.181550,0.170877,0.796193,0.000000,0.000000,0.000000,0.000000,0.000000,0.000000,0.000000,0.000000,0.000000,0.000000,0.000000,0.000000,0.154595,3,0
680000,0.005139,17.460434,-0.014591,0.023857,25.290785,0.077576,-0.000261,0.008235,1.571357,-0.021179,-0.000454,0.001160,0.000038,-0.001702,-0.000007,0.011354,-0.005299,0.259560,-0.053396,0.182146,0.182147,0.171033,0.788384,0.000000,0.000000,0.000000,0.000000,0.000000,0.000000,0.000000,0.000000,0.000000,0.000000,0.000000,0.000000,0.251733,3,0
690000,0.005219,17.718760,-0.015396,0.024060,25.300812,0.076439,-0.000262,0.008598,1.571378,-0.022031,-0.000479,0.001436,0.000041,-0.001795,-0.000008,0.005611,-0.005382,0.177675,-0.055838,0.182751,0.182751,0.171193,0.780540,0.000000,0.000000,0.000000,0.000000,0.000000,0.000000,0.000000,0.000000,0.000000,0.000000,0.000000,0.000000,0.172343,3,0
700000,0.005296,17.975990,-0.013947,0.024146,25.308842,0.078662,-0.000282,0.008894,1.571393,-0.022702,-0.000506,0.001316,0.000044,-0.001870,-0.000008,0.003168,-0.005463,0.137918,0.023504,0.183362,0.183363,0.171357,0.772668,0.000000,0.000000,0.000000,0.000000,0.000000,0.000000,0.000000,0.000000,0.000000,0.000000,0.000000,0.000000,0.133808,3,0
710000,0.005371,18.233349,-0.013260,0.024191,25.317022,0.079788,-0.000298,0.009183,1.571398,-0.023390,-0.000533,0.001336,0.000047,-0.001948,-0.000008,0.003130,-0.005541,0.139032,-0.003963,0.183977,0.183978,0.171522,0.764776,0.000000,0.000000,0.000000,0.000000,0.000000,0.000000,0.000000,0.000000,0.000000,0.000000,0.000000,0.000000,0.134876,3,0
720000,0.005445,18.490835,-0.012559,0.024325,25.325359,0.081059,-0.000314,0.009480,1.571405,-0.024094,-0.000561,0.001356,0.000050,-0.002029,-0.000009,0.003174,-0.005617,0.140017,-0.003896,0.184594,0.184595,0.171685,0.756872,0.000000,0.000000,0.000000,0.000000,0.000000,0.000000,0.000000,0.000000,0.000000,0.000000,0.000000,0.000000,0.135819,3,0
730000,0.005516,18.752741,-0.011090,0.024455,25.341215,0.083493,-0.000319,0.010075,1.571425,-0.025521,-0.000590,0.001234,0.000053,-0.002196,-0.000010,0.012752,-0.005692,0.280027,0.022423,0.185211,0.185212,0.171846,0.748962,0.000000,0.000000,0.000000,0.000000,0.000000,0.000000,0.000000,0.000000,0.000000,0.000000,0.000000,0.000000,0.271439,3,0
740000,0.005587,19.012259,-0.011222,0.024621,25.352640,0.083450,-0.000338,0.010506,1.571441,-0.026538,-0.000619,0.001419,0.000057,-0.002317,-0.000010,0.006455,-0.005766,0.196873,-0.034255,0.185827,0.185827,0.172003,0.741054,0.000000,0.000000,0.000000,0.000000,0.000000,0.000000,0.000000,0.000000,0.000000,0.000000,0.000000,0.000000,0.190857,3,0
750000,0.005656,19.272491,-0.010433,0.024697,25.365288,0.084806,-0.000347,0.010992,1.571445,-0.027667,-0.000650,0.001429,0.000060,-0.002454,-0.000011,0.007509,-0.005838,0.215544,-0.002112,0.186439,0.186439,0.172154,0.733156,0.000000,0.000000,0.000000,0.000000,0.000000,0.000000,0.000000,0.000000,0.000000,0.000000,0.000000,0.000000,0.208924,3,0
760000,0.005724,19.533434,-0.010576,0.024867,25.379086,0.084800,-0.000359,0.011526,1.571458,-0.028906,-0.000681,0.001623,0.000064,-0.002606,-0.000011,0.009008,-0.005908,0.233486,-0.035104,0.187046,0.187047,0.172299,0.725272,0.000000,0.000000,0.000000,0.000000,0.000000,0.000000,0.000000,0.000000,0.000000,0.000000,0.000000,0.000000,0.226280,3,0
770000,0.005790,19.793213,-0.009791,0.024944,25.390717,0.086077,-0.000377,0.011990,1.571479,-0.029933,-0.000713,0.001637,0.000068,-0.002735,-0.000012,0.005901,-0.005977,0.191072,-0.002679,0.187648,0.187648,0.172435,0.717411,0.000000,0.000000,0.000000,0.000000,0.000000,0.000000,0.000000,0.000000,0.000000,0.000000,0.000000,0.000000,0.185187,3,0
780000,0.005855,20.054327,-0.010761,0.025059,25.404402,0.084715,-0.000388,0.012551,1.571487,-0.031180,-0.000745,0.002004,0.000072,-0.002894,-0.000013,0.009165,-0.006044,0.229364,-0.064169,0.188242,0.188242,0.172563,0.709579,0.000000,0.000000,0.000000,0.000000,0.000000,0.000000,0.000000,0.000000,0.000000,0.000000,0.000000,0.000000,0.222245,3,0
790000,0.005917,20.313011,-0.010418,0.025094,25.413738,0.085097,-0.000397,0.012926,1.571495,-0.031988,-0.000779,0.002108,0.000076,-0.002999,-0.000013,0.003547,-0.006109,0.147020,-0.017973,0.188828,0.188828,0.172680,0.701780,0.000000,0.000000,0.000000,0.000000,0.000000,0.000000,0.000000,0.000000,0.000000,0.000000,0.000000,0.000000,0.142516,3,0
800000,0.005978,20.574928,-0.010254,0.025139,25.428642,0.085334,-0.000413,0.013536,1.571513,-0.033357,-0.000813,0.002250,0.000081,-0.003179,-0.000014,0.009875,-0.006172,0.246063,-0.024319,0.189404,0.189404,0.172786,0.694022,0.000000,0.000000,0.000000,0.000000,0.000000,0.000000,0.000000,0.000000,0.000000,0.000000,0.000000,0.000000,0.238371,3,0
810000,0.006036,20.836273,-0.009099,0.025233,25.442286,0.086947,-0.000420,0.014108,1.571521,-0.034607,-0.000848,0.002187,0.000086,-0.003346,-0.000014,0.008016,-0.006234,0.222546,0.010038,0.189970,0.189971,0.172881,0.686309,0.000000,0.000000,0.000000,0.000000,0.000000,0.000000,0.000000,0.000000,0.000000,0.000000,0.000000,0.000000,0.215584,3,0
820000,0.006093,21.098310,-0.008884,0.025271,25.457130,0.087142,-0.000427,0.014736,1.571536,-0.035965,-0.000883,0.002326,0.000090,-0.003531,-0.000015,0.009339,-0.006292,0.239367,-0.023147,0.190525,0.190526,0.172964,0.678648,0.000000,0.000000,0.000000,0.000000,0.000000,0.000000,0.000000,0.000000,0.000000,0.000000,0.000000,0.000000,0.231846,3,0
830000,0.006146,21.359133,-0.007695,0.025244,25.469532,0.088709,-0.000437,0.015265,1.571552,-0.037087,-0.000919,0.002258,0.000095,-0.003686,-0.000016,0.006214,-0.006349,0.195848,0.010612,0.191069,0.191070,0.173034,0.671042,0.000000,0.000000,0.000000,0.000000,0.000000,0.000000,0.000000,0.000000,0.000000,0.000000,0.000000,0.000000,0.189711,3,0
840000,0.006200,21.621286,-0.007369,0.025362,25.484282,0.089233,-0.000447,0.015895,1.571571,-0.038435,-0.000956,0.002380,0.000100,-0.003876,-0.000017,0.008837,-0.006404,0.233084,-0.019956,0.191601,0.191601,0.173092,0.663497,0.000000,0.000000,0.000000,0.000000,0.000000,0.000000,0.000000,0.000000,0.000000,0.000000,0.000000,0.000000,0.225726,3,0
850000,0.006250,21.884121,-0.007886,0.025283,25.499939,0.088524,-0.000456,0.016586,1.571583,-0.039889,-0.000993,0.002689,0.000106,-0.004084,-0.000018,0.010411,-0.006456,0.249090,-0.049346,0.192120,0.192120,0.173135,0.656017,0.000000,0.000000,0.000000,0.000000,0.000000,0.000000,0.000000,0.000000,0.000000,0.000000,0.000000,0.000000,0.241195,3,0
860000,0.006298,22.146349,-0.008957,0.025210,25.514454,0.086872,-0.000482,0.017216,1.571596,-0.041212,-0.001031,0.003122,0.000111,-0.004275,-0.000018,0.008901,-0.006506,0.224644,-0.068226,0.192626,0.192626,0.173165,0.648606,0.000000,0.000000,0.000000,0.000000,0.000000,0.000000,0.000000,0.000000,0.000000,0.000000,0.000000,0.000000,0.217523,3,0
870000,0.006342,22.404776,-0.008563,0.025131,25.522041,0.087307,-0.000497,0.017530,1.571601,-0.041814,-0.001070,0.003229,0.000116,-0.004364,-0.000019,0.001712,-0.006553,0.101421,-0.016843,0.193119,0.193119,0.173181,0.641268,0.000000,0.000000,0.000000,0.000000,0.000000,0.000000,0.000000,0.000000,0.000000,0.000000,0.000000,0.000000,0.098363,3,0
880000,0.006385,22.664566,-0.008540,0.025116,25.531897,0.087460,-0.000505,0.017964,1.571621,-0.042658,-0.001109,0.003423,0.000122,-0.004491,-0.000019,0.003364,-0.006597,0.141104,-0.029950,0.193598,0.193599,0.173183,0.634008,0.000000,0.000000,0.000000,0.000000,0.000000,0.000000,0.000000,0.000000,0.000000,0.000000,0.000000,0.000000,0.136700,3,0
890000,0.006426,22.926991,-0.009054,0.025193,25.546230,0.086881,-0.000531,0.018606,1.571645,-0.043978,-0.001149,0.003742,0.000128,-0.004692,-0.000020,0.008136,-0.006640,0.219156,-0.048660,0.194064,0.194065,0.173170,0.626827,0.000000,0.000000,0.000000,0.000000,0.000000,0.000000,0.000000,0.000000,0.000000,0.000000,0.000000,0.000000,0.212166,3,0
900000,0.006465,23.186220,-0.008321,0.025112,25.554806,0.088031,-0.000548,0.018990,1.571662,-0.044679,-0.001189,0.003775,0.000134,-0.004800,-0.000021,0.002167,-0.006681,0.115618,-0.005169,0.194517,0.194517,0.173144,0.619730,0.000000,0.000000,0.000000,0.000000,0.000000,0.000000,0.000000,0.000000,0.000000,0.000000,0.000000,0.000000,0.112056,3,0
910000,0.006502,23.445515,-0.007883,0.025117,25.563402,0.088687,-0.000560,0.019366,1.571665,-0.045380,-0.001230,0.003879,0.000141,-0.004910,-0.000021,0.002170,-0.006720,0.114729,-0.015776,0.194956,0.194956,0.173103,0.612720,0.000000,0.000000,0.000000,0.000000,0.000000,0.000000,0.000000,0.000000,0.000000,0.000000,0.000000,0.000000,0.111192,3,0
920000,0.006537,23.706818,-0.007476,0.025141,25.575491,0.089122,-0.000581,0.019923,1.571679,-0.046445,-0.001271,0.003992,0.000147,-0.005080,-0.000022,0.004903,-0.006757,0.173409,-0.017027,0.195381,0.195381,0.173048,0.605799,0.000000,0.000000,0.000000,0.000000,0.000000,0.000000,0.000000,0.000000,0.000000,0.000000,0.000000,0.000000,0.167888,3,0
930000,0.006571,23.968155,-0.007277,0.025141,25.587450,0.089494,-0.000606,0.020474,1.571696,-0.047498,-0.001313,0.004158,0.000154,-0.005251,-0.000023,0.004787,-0.006793,0.170412,-0.024493,0.195793,0.195793,0.172979,0.598969,0.000000,0.000000,0.000000,0.000000,0.000000,0.000000,0.000000,0.000000,0.000000,0.000000,0.000000,0.000000,0.164981,3,0
940000,0.006604,24.226923,-0.008352,0.025078,25.594603,0.087928,-0.000631,0.020789,1.571703,-0.048046,-0.001356,0.004636,0.000160,-0.005341,-0.000023,0.002019,-0.006826,0.087864,-0.068819,0.196192,0.196192,0.172896,0.592233,0.000000,0.000000,0.000000,0.000000,0.000000,0.000000,0.000000,0.000000,0.000000,0.000000,0.000000,0.000000,0.085248,3,0
950000,0.006635,24.486408,-0.009343,0.025047,25.603001,0.086660,-0.000657,0.021165,1.571722,-0.048718,-0.001398,0.005094,0.000167,-0.005453,-0.000023,0.002557,-0.006858,0.107327,-0.065410,0.196577,0.196577,0.172799,0.585593,0.000000,0.000000,0.000000,0.000000,0.000000,0.000000,0.000000,0.000000,0.000000,0.000000,0.000000,0.000000,0.104021,3,0
960000,0.006664,24.745947,-0.009753,0.025011,25.611454,0.086156,-0.000676,0.021555,1.571724,-0.049386,-0.001442,0.005410,0.000174,-0.005566,-0.000024,0.002150,-0.006889,0.106186,-0.044807,0.196950,0.196950,0.172689,0.579051,0.000000,0.000000,0.000000,0.000000,0.000000,0.000000,0.000000,0.000000,0.000000,0.000000,0.000000,0.000000,0.102915,3,0
970000,0.006689,25.006844,-0.008105,0.024940,25.622221,0.088602,-0.000695,0.022068,1.571740,-0.050298,-0.001485,0.005214,0.000182,-0.005723,-0.000025,0.003502,-0.006917,0.144745,0.026888,0.197310,0.197310,0.172566,0.572608,0.000000,0.000000,0.000000,0.000000,0.000000,0.000000,0.000000,0.000000,0.000000,0.000000,0.000000,0.000000,0.140146,3,0
980000,0.006713,25.266464,-0.006874,0.024838,25.630543,0.090304,-0.000709,0.022444,1.571742,-0.050947,-0.001529,0.005127,0.000190,-0.005837,-0.000025,0.001720,-0.006942,0.102407,0.011585,0.197658,0.197658,0.172430,0.566265,0.000000,0.000000,0.000000,0.000000,0.000000,0.000000,0.000000,0.000000,0.000000,0.000000,0.000000,0.000000,0.099261,3,0
990000,0.006735,25.530067,-0.007911,0.024704,25.645830,0.088961,-0.000736,0.023202,1.571748,-0.052351,-0.001573,0.005618,0.000197,-0.006086,-0.000026,0.008585,-0.006964,0.220400,-0.067997,0.197994,0.197994,0.172281,0.560024,0.000000,0.000000,0.000000,0.000000,0.000000,0.000000,0.000000,0.000000,0.000000,0.000000,0.000000,0.000000,0.213234,3,0
1000000,0.006755,25.788403,-0.009033,0.024585,25.651657,0.087454,-0.000753,0.023445,1.571763,-0.052711,-0.001618,0.006137,0.000205,-0.006151,-0.000026,0.001320,-0.006985,0.056040,-0.070570,0.198319,0.198319,0.172119,0.553886,0.000000,0.000000,0.000000,0.000000,0.000000,0.000000,0.000000,0.000000,0.000000,0.000000,0.000000,0.000000,0.054607,3,0
1010000,0.006774,26.048775,-0.008428,0.024605,25.660906,0.088372,-0.000773,0.023893,1.571782,-0.053453,-0.001662,0.006206,0.000213,-0.006287,-0.000027,0.002181,-0.007006,0.115707,-0.009826,0.198632,0.198632,0.171946,0.547851,0.000000,0.000000,0.000000,0.000000,0.000000,0.000000,0.000000,0.000000,0.000000,0.000000,0.000000,0.000000,0.112082,3,0
1020000,0.006790,26.311155,-0.006931,0.024479,25.673639,0.090622,-0.000794,0.024535,1.571797,-0.054567,-0.001707,0.006044,0.000222,-0.006494,-0.000028,0.004919,-0.007023,0.173306,0.020970,0.198934,0.198934,0.171761,0.541920,0.000000,0.000000,0.000000,0.000000,0.000000,0.000000,0.000000,0.000000,0.000000,0.000000,0.000000,0.000000,0.167698,3,0
1030000,0.006804,26.573536,-0.005429,0.024396,25.686161,0.092632,-0.000814,0.025172,1.571807,-0.055659,-0.001752,0.005884,0.000230,-0.006700,-0.000029,0.004690,-0.007038,0.169226,0.020505,0.199226,0.199226,0.171564,0.536094,0.000000,0.000000,0.000000,0.000000,0.000000,0.000000,0.000000,0.000000,0.000000,0.000000,0.000000,0.000000,0.163748,3,0
1040000,0.006817,26.833273,-0.005701,0.024321,25.693897,0.091990,-0.000836,0.025529,1.571812,-0.056214,-0.001798,0.006203,0.000239,-0.006807,-0.000029,0.001479,-0.007051,0.085627,-0.042286,0.199508,0.199508,0.171357,0.530374,0.000000,0.000000,0.000000,0.000000,0.000000,0.000000,0.000000,0.000000,0.000000,0.000000,0.000000,0.000000,0.083059,3,0
1050000,0.006829,27.093046,-0.006242,0.024153,25.701681,0.091310,-0.000863,0.025896,1.571818,-0.056763,-0.001843,0.006597,0.000247,-0.006913,-0.000030,0.001584,-0.007063,0.084238,-0.051681,0.199781,0.199780,0.171139,0.524759,0.000000,0.000000,0.000000,0.000000,0.000000,0.000000,0.000000,0.000000,0.000000,0.000000,0.000000,0.000000,0.081718,3,0
1060000,0.006839,27.353516,-0.006664,0.024120,25.710598,0.090737,-0.000897,0.026331,1.571834,-0.057432,-0.001890,0.006959,0.000256,-0.007045,-0.000030,0.002068,-0.007074,0.102692,-0.047245,0.200044,0.200043,0.170911,0.519249,0.000000,0.000000,0.000000,0.000000,0.000000,0.000000,0.000000,0.000000,0.000000,0.000000,0.000000,0.000000,0.099503,3,0
1070000,0.006848,27.616661,-0.005107,0.024105,25.724092,0.092841,-0.000931,0.027049,1.571839,-0.058605,-0.001935,0.006776,0.000265,-0.007280,-0.000031,0.005314,-0.007085,0.180075,0.022521,0.200298,0.200297,0.170673,0.513844,0.000000,0.000000,0.000000,0.000000,0.000000,0.000000,0.000000,0.000000,0.000000,0.000000,0.000000,0.000000,0.174199,3,0
1080000,0.006856,27.876467,-0.006346,0.023943,25.731459,0.091108,-0.000955,0.027391,1.571857,-0.059103,-0.001982,0.007376,0.000274,-0.007382,-0.000032,0.001887,-0.007091,0.075825,-0.076716,0.200545,0.200543,0.170425,0.508545,0.000000,0.000000,0.000000,0.000000,0.000000,0.000000,0.000000,0.000000,0.000000,0.000000,0.000000,0.000000,0.073608,3,0
1090000,0.006861,28.134968,-0.004795,0.023893,25.736372,0.093295,-0.000986,0.027594,1.571865,-0.059328,-0.002028,0.007200,0.000284,-0.007428,-0.000032,0.000280,-0.007099,0.034615,0.022117,0.200783,0.200782,0.170169,0.503350,0.000000,0.000000,0.000000,0.000000,0.000000,0.000000,0.000000,0.000000,0.000000,0.000000,0.000000,0.000000,0.034153,3,0
1100000,0.006867,28.398846,-0.006011,0.023802,25.750717,0.091368,-0.001010,0.028384,1.571873,-0.060599,-0.002074,0.007798,0.000293,-0.007694,-0.000033,0.006978,-0.007103,0.193520,-0.076090,0.201014,0.201013,0.169905,0.498260,0.000000,0.000000,0.000000,0.000000,0.000000,0.000000,0.000000,0.000000,0.000000,0.000000,0.000000,0.000000,0.187161,3,0
1110000,0.006870,28.660021,-0.006147,0.023682,25.760130,0.091031,-0.001038,0.028870,1.571891,-0.061311,-0.002121,0.008094,0.000303,-0.007846,-0.000033,0.002128,-0.007108,0.108408,-0.037438,0.201239,0.201237,0.169632,0.493273,0.000000,0.000000,0.000000,0.000000,0.000000,0.000000,0.000000,0.000000,0.000000,0.000000,0.000000,0.000000,0.104996,3,0
1120000,0.006873,28.921865,-0.005922,0.023639,25.770668,0.091266,-0.001067,0.029430,1.571899,-0.062136,-0.002168,0.008287,0.000313,-0.008024,-0.000034,0.002641,-0.007111,0.125444,-0.024574,0.201456,0.201454,0.169351,0.488391,0.000000,0.000000,0.000000,0.000000,0.000000,0.000000,0.000000,0.000000,0.000000,0.000000,0.000000,0.000000,0.121426,3,0
1130000,0.006873,29.182365,-0.004880,0.023547,25.778694,0.092464,-0.001102,0.029828,1.571906,-0.062675,-0.002214,0.008248,0.000323,-0.008142,-0.000035,0.001098,-0.007112,0.082163,0.004296,0.201668,0.201665,0.169063,0.483610,0.000000,0.000000,0.000000,0.000000,0.000000,0.000000,0.000000,0.000000,0.000000,0.000000,0.000000,0.000000,0.079698,3,0
1140000,0.006873,29.444881,-0.003478,0.023495,25.790201,0.094401,-0.001132,0.030447,1.571921,-0.063593,-0.002260,0.008105,0.000333,-0.008345,-0.000036,0.003194,-0.007112,0.139645,0.016650,0.201874,0.201871,0.168768,0.478932,0.000000,0.000000,0.000000,0.000000,0.000000,0.000000,0.000000,0.000000,0.000000,0.000000,0.000000,0.000000,0.135122,3,0
1150000,0.006873,29.704700,-0.003765,0.023421,25.796814,0.093963,-0.001162,0.030753,1.571937,-0.063962,-0.002307,0.008467,0.000344,-0.008429,-0.000036,0.000829,-0.007111,0.055922,-0.044229,0.202075,0.202072,0.168467,0.474355,0.000000,0.000000,0.000000,0.000000,0.000000,0.000000,0.000000,0.000000,0.000000,0.000000,0.000000,0.000000,0.054472,3,0
1160000,0.006872,29.964539,-0.004143,0.023371,25.803383,0.093214,-0.001200,0.031049,1.571944,-0.064323,-0.002354,0.008857,0.000354,-0.008511,-0.000036,0.000848,-0.007110,0.054461,-0.047314,0.202271,0.202268,0.168159,0.469878,0.000000,0.000000,0.000000,0.000000,0.000000,0.000000,0.000000,0.000000,0.000000,0.000000,0.000000,0.000000,0.053071,3,0
1170000,0.006868,30.225065,-0.003309,0.023162,25.811117,0.094233,-0.001221,0.031426,1.571946,-0.064802,-0.002401,0.008886,0.000365,-0.008623,-0.000037,0.000866,-0.007108,0.072863,-0.003860,0.202463,0.202459,0.167846,0.465501,0.000000,0.000000,0.000000,0.000000,0.000000,0.000000,0.000000,0.000000,0.000000,0.000000,0.000000,0.000000,0.070738,3,0
1180000,0.006863,30.488285,-0.002484,0.023038,25.823586,0.095014,-0.001248,0.032115,1.571949,-0.065789,-0.002447,0.008913,0.000376,-0.008855,-0.000038,0.003644,-0.007103,0.150200,-0.004316,0.202651,0.202647,0.167527,0.461222,0.000000,0.000000,0.000000,0.000000,0.000000,0.000000,0.000000,0.000000,0.000000,0.000000,0.000000,0.000000,0.145289,3,0
1190000,0.006856,30.751467,-0.002185,0.022809,25.835712,0.095116,-0.001277,0.032790,1.571970,-0.066745,-0.002493,0.009104,0.000387,-0.009083,-0.000039,0.003497,-0.007095,0.145281,-0.023536,0.202835,0.202831,0.167203,0.457039,0.000000,0.000000,0.000000,0.000000,0.000000,0.000000,0.000000,0.000000,0.000000,0.000000,0.000000,0.000000,0.140537,3,0
1200000,0.006847,31.013939,-0.000910,0.022736,25.846552,0.096756,-0.001308,0.033385,1.571991,-0.067536,-0.002539,0.008999,0.000398,-0.009275,-0.000040,0.002368,-0.007087,0.120523,0.011411,0.203016,0.203011,0.166875,0.452953,0.000000,0.000000,0.000000,0.000000,0.000000,0.000000,0.000000,0.000000,0.000000,0.000000,0.000000,0.000000,0.116647,3,0
1210000,0.006839,31.276384,-0.001166,0.022657,25.857212,0.096170,-0.001340,0.033962,1.571997,-0.068301,-0.002586,0.009372,0.000409,-0.009463,-0.000040,0.002506,-0.007078,0.116365,-0.044282,0.203195,0.203189,0.166542,0.448962,0.000000,0.000000,0.000000,0.000000,0.000000,0.000000,0.000000,0.000000,0.000000,0.000000,0.000000,0.000000,0.112631,3,0
1220000,0.006830,31.538803,-0.002218,0.022448,25.867655,0.094692,-0.001364,0.034530,1.572017,-0.069040,-0.002632,0.009994,0.000420,-0.009648,-0.000041,0.002898,-0.007068,0.112242,-0.072933,0.203371,0.203365,0.166206,0.445065,0.000000,0.000000,0.000000,0.000000,0.000000,0.000000,0.000000,0.000000,0.000000,0.000000,0.000000,0.000000,0.108648,3,0
1230000,0.006819,31.797813,-0.001512,0.022321,25.871878,0.095681,-0.001399,0.034667,1.572023,-0.069098,-0.002679,0.010073,0.000431,-0.009663,-0.000041,0.000034,-0.007058,0.008749,-0.009170,0.203544,0.203538,0.165866,0.441259,0.000000,0.000000,0.000000,0.000000,0.000000,0.000000,0.000000,0.000000,0.000000,0.000000,0.000000,0.000000,0.010859,3,0
1240000,0.006805,32.059544,-0.000519,0.022118,25.880896,0.097039,-0.001424,0.035139,1.572034,-0.069671,-0.002724,0.010059,0.000443,-0.009810,-0.000042,0.001245,-0.007044,0.087639,0.000978,0.203716,0.203710,0.165523,0.437545,0.000000,0.000000,0.000000,0.000000,0.000000,0.000000,0.000000,0.000000,0.000000,0.000000,0.000000,0.000000,0.084936,3,0
1250000,0.006790,32.319229,-0.000300,0.021890,25.886274,0.097205,-0.001457,0.035358,1.572032,-0.069833,-0.002771,0.010300,0.000455,-0.009852,-0.000042,0.000229,-0.007028,0.024605,-0.027658,0.203887,0.203880,0.165177,0.433920,0.000000,0.000000,0.000000,0.000000,0.000000,0.000000,0.000000,0.000000,0.000000,0.000000,0.000000,0.000000,0.024716,3,0
1260000,0.006775,32.578247,-0.001014,0.021827,25.890295,0.096023,-0.001501,0.035473,1.572030,-0.069859,-0.002817,0.010846,0.000467,-0.009860,-0.000042,0.000627,-0.007012,0.003414,-0.061716,0.204057,0.204049,0.164828,0.430384,0.000000,0.000000,0.000000,0.000000,0.000000,0.000000,0.000000,0.000000,0.000000,0.000000,0.000000,0.000000,0.007535,3,0
1270000,0.006759,32.837963,-0.001212,0.021600,25.895435,0.095482,-0.001531,0.035687,1.572037,-0.070008,-0.002863,0.011222,0.000479,-0.009900,-0.000042,0.000384,-0.006996,0.022659,-0.042557,0.204226,0.204217,0.164477,0.426934,0.000000,0.000000,0.000000,0.000000,0.000000,0.000000,0.000000,0.000000,0.000000,0.000000,0.000000,0.000000,0.022905,3,0
1280000,0.006740,33.101749,-0.001598,0.021366,25.907890,0.094801,-0.001570,0.036421,1.572057,-0.070923,-0.002908,0.011650,0.000490,-0.010149,-0.000043,0.003580,-0.006976,0.140591,-0.049076,0.204394,0.204385,0.164124,0.423571,0.000000,0.000000,0.000000,0.000000,0.000000,0.000000,0.000000,0.000000,0.000000,0.000000,0.000000,0.000000,0.135967,3,0
1290000,0.006720,33.364120,-0.001065,0.021268,25.917711,0.095538,-0.001598,0.036955,1.572073,-0.071540,-0.002953,0.011781,0.000503,-0.010320,-0.000044,0.001510,-0.006957,0.095348,-0.015452,0.204561,0.204552,0.163770,0.420291,0.000000,0.000000,0.000000,0.000000,0.000000,0.000000,0.000000,0.000000,0.000000,0.000000,0.000000,0.000000,0.092343,3,0
1300000,0.006701,33.623070,-0.002000,0.021140,25.921349,0.094130,-0.001625,0.037032,1.572087,-0.071492,-0.002999,0.012413,0.000515,-0.010307,-0.000044,0.000808,-0.006936,-0.008095,-0.069799,0.204729,0.204719,0.163414,0.417095,0.000000,0.000000,0.000000,0.000000,0.000000,0.000000,0.000000,0.000000,0.000000,0.000000,0.000000,0.000000,0.010301,3,0
1310000,0.006680,33.882710,-0.001374,0.021036,25.926126,0.094877,-0.001666,0.037196,1.572102,-0.071565,-0.003043,0.012522,0.000527,-0.010328,-0.000044,0.000051,-0.006916,0.011227,-0.012034,0.204897,0.204886,0.163057,0.413980,0.000000,0.000000,0.000000,0.000000,0.000000,0.000000,0.000000,0.000000,0.000000,0.000000,0.000000,0.000000,0.012734,3,0
1320000,0.006656,34.145065,0.000005,0.020810,25.935593,0.096681,-0.001710,0.037723,1.572121,-0.072138,-0.003087,0.012371,0.000540,-0.010493,-0.000045,0.001336,-0.006892,0.089485,0.015666,0.205065,0.205053,0.162699,0.410945,0.000000,0.000000,0.000000,0.000000,0.000000,0.000000,0.000000,0.000000,0.000000,0.000000,0.000000,0.000000,0.086686,3,0
1330000,0.006632,34.403309,0.000059,0.020592,25.937580,0.096811,-0.001751,0.037678,1.572131,-0.071924,-0.003131,0.012689,0.000553,-0.010431,-0.000045,0.000383,-0.006866,-0.033813,-0.034315,0.205234,0.205221,0.162341,0.407987,0.000000,0.000000,0.000000,0.000000,0.000000,0.000000,0.000000,0.000000,0.000000,0.000000,0.000000,0.000000,0.033328,3,0
1340000,0.006607,34.662258,-0.000051,0.020358,25.940931,0.096772,-0.001792,0.037725,1.572141,-0.071839,-0.003175,0.013065,0.000565,-0.010406,-0.000044,0.000304,-0.006840,-0.013775,-0.040479,0.205403,0.205390,0.161982,0.405108,0.000000,0.000000,0.000000,0.000000,0.000000,0.000000,0.000000,0.000000,0.000000,0.000000,0.000000,0.000000,0.014856,3,0
1350000,0.006579,34.923939,0.001211,0.020169,25.949057,0.098222,-0.001836,0.038136,1.572159,-0.072252,-0.003218,0.012959,0.000578,-0.010530,-0.000045,0.000710,-0.006813,0.065186,0.010705,0.205574,0.205560,0.161624,0.402303,0.000000,0.000000,0.000000,0.000000,0.000000,0.000000,0.000000,0.000000,0.000000,0.000000,0.000000,0.000000,0.063297,3,0
1360000,0.006552,35.184914,0.001002,0.020026,25.955717,0.097733,-0.001865,0.038441,1.572177,-0.072520,-0.003262,0.013371,0.000591,-0.010613,-0.000045,0.000613,-0.006783,0.041969,-0.044549,0.205745,0.205731,0.161265,0.399572,0.000000,0.000000,0.000000,0.000000,0.000000,0.000000,0.000000,0.000000,0.000000,0.000000,0.000000,0.000000,0.041054,3,0
1370000,0.006523,35.447914,0.000837,0.019770,25.965971,0.097398,-0.001899,0.039036,1.572187,-0.073146,-0.003304,0.013762,0.000604,-0.010808,-0.000046,0.001879,-0.006754,0.098991,-0.042653,0.205918,0.205903,0.160907,0.396914,0.000000,0.000000,0.000000,0.000000,0.000000,0.000000,0.000000,0.000000,0.000000,0.000000,0.000000,0.000000,0.095811,3,0
1380000,0.006494,35.708126,0.000834,0.019605,25.971088,0.097319,-0.001936,0.039235,1.572196,-0.073241,-0.003347,0.014108,0.000617,-0.010838,-0.000046,0.000263,-0.006724,0.014797,-0.036899,0.206092,0.206076,0.160550,0.394327,0.000000,0.000000,0.000000,0.000000,0.000000,0.000000,0.000000,0.000000,0.000000,0.000000,0.000000,0.000000,0.015693,3,0
1390000,0.006463,35.968330,0.001129,0.019449,25.976202,0.097743,-0.001981,0.039406,1.572201,-0.073323,-0.003389,0.014352,0.000630,-0.010865,-0.000047,0.000143,-0.006692,0.012959,-0.025837,0.206267,0.206250,0.160193,0.391810,0.000000,0.000000,0.000000,0.000000,0.000000,0.000000,0.000000,0.000000,0.000000,0.000000,0.000000,0.000000,0.014079,3,0
1400000,0.006430,36.231251,0.002155,0.019164,25.986153,0.098649,-0.002020,0.039963,1.572214,-0.073886,-0.003430,0.014324,0.000643,-0.011047,-0.000047,0.001330,-0.006659,0.090645,0.001849,0.206444,0.206426,0.159838,0.389361,0.000000,0.000000,0.000000,0.000000,0.000000,0.000000,0.000000,0.000000,0.000000,0.000000,0.000000,0.000000,0.087764,3,0
1410000,0.006394,36.493435,0.003398,0.018913,25.994642,0.100095,-0.002061,0.040400,1.572225,-0.074294,-0.003471,0.014226,0.000657,-0.011181,-0.000048,0.000726,-0.006623,0.066170,0.009469,0.206622,0.206604,0.159483,0.386980,0.000000,0.000000,0.000000,0.000000,0.000000,0.000000,0.000000,0.000000,0.000000,0.000000,0.000000,0.000000,0.064212,3,0
1420000,0.006359,36.754890,0.004156,0.018747,26.001629,0.100804,-0.002095,0.040740,1.572240,-0.074556,-0.003511,0.014311,0.000670,-0.011268,-0.000048,0.000311,-0.006586,0.042450,-0.009350,0.206802,0.206783,0.159131,0.384663,0.000000,0.000000,0.000000,0.000000,0.000000,0.000000,0.000000,0.000000,0.000000,0.000000,0.000000,0.000000,0.041476,3,0
1430000,0.006323,37.017681,0.004835,0.018548,26.011000,0.101269,-0.002143,0.041255,1.572245,-0.075040,-0.003551,0.014421,0.000683,-0.011432,-0.000049,0.001039,-0.006549,0.079109,-0.012419,0.206984,0.206963,0.158779,0.382411,0.000000,0.000000,0.000000,0.000000,0.000000,0.000000,0.000000,0.000000,0.000000,0.000000,0.000000,0.000000,0.076639,3,0
1440000,0.006287,37.281105,0.004732,0.018376,26.021467,0.101078,-0.002184,0.041865,1.572248,-0.075618,-0.003591,0.014821,0.000697,-0.011631,-0.000050,0.001734,-0.006511,0.094528,-0.042272,0.207167,0.207146,0.158430,0.380221,0.000000,0.000000,0.000000,0.000000,0.000000,0.000000,0.000000,0.000000,0.000000,0.000000,0.000000,0.000000,0.091475,3,0
1450000,0.006248,37.542397,0.005670,0.018055,26.027826,0.101927,-0.002230,0.042143,1.572264,-0.075799,-0.003630,0.014846,0.000710,-0.011694,-0.000050,0.000151,-0.006472,0.029785,-0.002993,0.207352,0.207330,0.158082,0.378092,0.000000,0.000000,0.000000,0.000000,0.000000,0.000000,0.000000,0.000000,0.000000,0.000000,0.000000,0.000000,0.029426,3,0
1460000,0.006210,37.802277,0.006003,0.017922,26.031616,0.102297,-0.002274,0.042207,1.572271,-0.075723,-0.003669,0.015109,0.000724,-0.011668,-0.000050,0.000148,-0.006432,-0.012897,-0.026623,0.207539,0.207515,0.157737,0.376024,0.000000,0.000000,0.000000,0.000000,0.000000,0.000000,0.000000,0.000000,0.000000,0.000000,0.000000,0.000000,0.013917,3,0
1470000,0.006172,38.061466,0.004977,0.017666,26.034155,0.100800,-0.002311,0.042161,1.572273,-0.075524,-0.003709,0.015891,0.000737,-0.011598,-0.000050,0.001201,-0.006391,-0.034275,-0.078710,0.207727,0.207703,0.157394,0.374014,0.000000,0.000000,0.000000,0.000000,0.000000,0.000000,0.000000,0.000000,0.000000,0.000000,0.000000,0.000000,0.033671,3,0
1480000,0.006131,38.323395,0.005690,0.017496,26.041540,0.101409,-0.002350,0.042512,1.572289,-0.075789,-0.003747,0.015998,0.000750,-0.011695,-0.000050,0.000345,-0.006351,0.044453,-0.011396,0.207917,0.207892,0.157053,0.372060,0.000000,0.000000,0.000000,0.000000,0.000000,0.000000,0.000000,0.000000,0.000000,0.000000,0.000000,0.000000,0.043347,3,0
1490000,0.006090,38.583900,0.006162,0.017309,26.046326,0.101743,-0.002382,0.042645,1.572289,-0.075797,-0.003784,0.016208,0.000764,-0.011698,-0.000050,0.000079,-0.006308,0.001118,-0.021153,0.208109,0.208083,0.156715,0.370163,0.000000,0.000000,0.000000,0.000000,0.000000,0.000000,0.000000,0.000000,0.000000,0.000000,0.000000,0.000000,0.006184,3,0
1500000,0.006047,38.845066,0.006979,0.017071,26.052223,0.102468,-0.002416,0.042865,1.572294,-0.075908,-0.003821,0.016285,0.000778,-0.011740,-0.000051,0.000074,-0.006265,0.018871,-0.007939,0.208303,0.208275,0.156379,0.368320,0.000000,0.000000,0.000000,0.000000,0.000000,0.000000,0.000000,0.000000,0.000000,0.000000,0.000000,0.000000,0.019193,3,0
1510000,0.006005,39.106197,0.006982,0.016897,26.057846,0.102211,-0.002453,0.043082,1.572293,-0.076005,-0.003858,0.016681,0.000791,-0.011778,-0.000051,0.000302,-0.006220,0.016075,-0.039606,0.208498,0.208469,0.156046,0.366528,0.000000,0.000000,0.000000,0.000000,0.000000,0.000000,0.000000,0.000000,0.000000,0.000000,0.000000,0.000000,0.016633,3,0
1520000,0.005963,39.369366,0.007040,0.016720,26.067120,0.101956,-0.002490,0.043606,1.572310,-0.076429,-0.003894,0.017044,0.000805,-0.011943,-0.000052,0.001085,-0.006176,0.072948,-0.037038,0.208694,0.208664,0.155716,0.364789,0.000000,0.000000,0.000000,0.000000,0.000000,0.000000,0.000000,0.000000,0.000000,0.000000,0.000000,0.000000,0.070656,3,0
1530000,0.005918,39.628998,0.007885,0.016432,26.069778,0.102658,-0.002540,0.043566,1.572308,-0.076250,-0.003930,0.017123,0.000818,-0.011873,-0.000051,0.000172,-0.006131,-0.031284,-0.007304,0.208893,0.208861,0.155389,0.363099,0.000000,0.000000,0.000000,0.000000,0.000000,0.000000,0.000000,0.000000,0.000000,0.000000,0.000000,0.000000,0.030772,3,0
1540000,0.005873,39.891388,0.008075,0.016215,26.077610,0.102653,-0.002572,0.043943,1.572325,-0.076520,-0.003965,0.017446,0.000832,-0.011981,-0.000052,0.000532,-0.006084,0.046997,-0.032476,0.209092,0.209060,0.155065,0.361460,0.000000,0.000000,0.000000,0.000000,0.000000,0.000000,0.000000,0.000000,0.000000,0.000000,0.000000,0.000000,0.045732,3,0
1550000,0.005826,40.148857,0.008772,0.015956,26.076241,0.103432,-0.002604,0.043548,1.572332,-0.075978,-0.003999,0.017604,0.000846,-0.011763,-0.000051,0.001526,-0.006036,-0.096195,-0.013897,0.209293,0.209259,0.154744,0.359868,0.000000,0.000000,0.000000,0.000000,0.000000,0.000000,0.000000,0.000000,0.000000,0.000000,0.000000,0.000000,0.093025,3,0
1560000,0.005779,40.407734,0.009333,0.015725,26.077421,0.103878,-0.002640,0.043378,1.572343,-0.075669,-0.004034,0.017811,0.000859,-0.011636,-0.000051,0.000561,-0.005987,-0.055470,-0.019188,0.209495,0.209460,0.154426,0.358322,0.000000,0.000000,0.000000,0.000000,0.000000,0.000000,0.000000,0.000000,0.000000,0.000000,0.000000,0.000000,0.053846,3,0
1570000,0.005731,40.670086,0.008688,0.015390,26.085012,0.102735,-0.002680,0.043750,1.572351,-0.075915,-0.004068,0.018480,0.000872,-0.011741,-0.000051,0.001007,-0.005936,0.043465,-0.065562,0.209698,0.209662,0.154112,0.356821,0.000000,0.000000,0.000000,0.000000,0.000000,0.000000,0.000000,0.000000,0.000000,0.000000,0.000000,0.000000,0.042325,3,0
1580000,0.005683,40.930988,0.007526,0.015194,26.089685,0.100968,-0.002712,0.043893,1.572360,-0.075920,-0.004102,0.019369,0.000886,-0.011746,-0.000051,0.001200,-0.005886,-0.000290,-0.085768,0.209903,0.209865,0.153801,0.355363,0.000000,0.000000,0.000000,0.000000,0.000000,0.000000,0.000000,0.000000,0.000000,0.000000,0.000000,0.000000,0.005691,3,0
1590000,0.005634,41.190449,0.007492,0.015002,26.091681,0.100677,-0.002759,0.043790,1.572367,-0.075691,-0.004135,0.019808,0.000899,-0.011648,-0.000051,0.000577,-0.005837,-0.042576,-0.041511,0.210108,0.210069,0.153494,0.353949,0.000000,0.000000,0.000000,0.000000,0.000000,0.000000,0.000000,0.000000,0.000000,0.000000,0.000000,0.000000,0.041476,3,0
1600000,0.005584,41.451294,0.006359,0.014679,26.096313,0.099130,-0.002796,0.043900,1.572377,-0.075677,-0.004169,0.020689,0.000912,-0.011645,-0.000051,0.001160,-0.005784,-0.003872,-0.084233,0.210314,0.210274,0.153190,0.352576,0.000000,0.000000,0.000000,0.000000,0.000000,0.000000,0.000000,0.000000,0.000000,0.000000,0.000000,0.000000,0.006729,3,0
1610000,0.005532,41.712086,0.006893,0.014495,26.100637,0.099511,-0.002831,0.043984,1.572377,-0.075644,-0.004200,0.020883,0.000925,-0.011631,-0.000051,0.000067,-0.005733,-0.006340,-0.018370,0.210521,0.210479,0.152890,0.351244,0.000000,0.000000,0.000000,0.000000,0.000000,0.000000,0.000000,0.000000,0.000000,0.000000,0.000000,0.000000,0.008252,3,0
1620000,0.005480,41.974239,0.006657,0.014182,26.107544,0.099166,-0.002876,0.044296,1.572392,-0.075812,-0.004231,0.021389,0.000939,-0.011708,-0.000051,0.000544,-0.005678,0.031010,-0.048616,0.210728,0.210685,0.152594,0.349951,0.000000,0.000000,0.000000,0.000000,0.000000,0.000000,0.000000,0.000000,0.000000,0.000000,0.000000,0.000000,0.030409,3,0
1630000,0.005426,42.232830,0.007207,0.013887,26.107580,0.099672,-0.002911,0.044011,1.572393,-0.075435,-0.004262,0.021599,0.000952,-0.011536,-0.000051,0.000898,-0.005623,-0.072182,-0.018420,0.210936,0.210892,0.152301,0.348695,0.000000,0.000000,0.000000,0.000000,0.000000,0.000000,0.000000,0.000000,0.000000,0.000000,0.000000,0.000000,0.069860,3,0
1640000,0.005370,42.494213,0.007624,0.013634,26.112812,0.099945,-0.002951,0.044185,1.572400,-0.075474,-0.004291,0.021844,0.000965,-0.011555,-0.000051,0.000101,-0.005565,0.007168,-0.023235,0.211145,0.211099,0.152012,0.347476,0.000000,0.000000,0.000000,0.000000,0.000000,0.000000,0.000000,0.000000,0.000000,0.000000,0.000000,0.000000,0.008750,3,0
1650000,0.005317,42.752758,0.006477,0.013420,26.112728,0.098412,-0.002991,0.043880,1.572407,-0.075092,-0.004322,0.022775,0.000978,-0.011378,-0.000050,0.002118,-0.005508,-0.075356,-0.085938,0.211353,0.211306,0.151727,0.346293,0.000000,0.000000,0.000000,0.000000,0.000000,0.000000,0.000000,0.000000,0.000000,0.000000,0.000000,0.000000,0.072917,3,0
1660000,0.005260,43.010574,0.006886,0.013065,26.111244,0.098664,-0.003030,0.043438,1.572402,-0.074609,-0.004351,0.023053,0.000992,-0.011147,-0.000049,0.001561,-0.005451,-0.095352,-0.024062,0.211562,0.211513,0.151446,0.345144,0.000000,0.000000,0.000000,0.000000,0.000000,0.000000,0.000000,0.000000,0.000000,0.000000,0.000000,0.000000,0.092145,3,0
1670000,0.005203,43.269810,0.006145,0.012750,26.112392,0.097772,-0.003072,0.043246,1.572412,-0.074337,-0.004380,0.023811,0.001004,-0.011017,-0.000049,0.001277,-0.005391,-0.054970,-0.069558,0.211770,0.211720,0.151169,0.344029,0.000000,0.000000,0.000000,0.000000,0.000000,0.000000,0.000000,0.000000,0.000000,0.000000,0.000000,0.000000,0.053302,3,0
1680000,0.005145,43.529030,0.005337,0.012513,26.113546,0.096716,-0.003103,0.043043,1.572424,-0.074064,-0.004409,0.024599,0.001017,-0.010885,-0.000048,0.001347,-0.005331,-0.055790,-0.071959,0.211978,0.211926,0.150895,0.342946,0.000000,0.000000,0.000000,0.000000,0.000000,0.000000,0.000000,0.000000,0.000000,0.000000,0.000000,0.000000,0.054082,3,0
1690000,0.005086,43.786114,0.005010,0.012230,26.110519,0.096192,-0.003136,0.042468,1.572428,-0.073496,-0.004437,0.025200,0.001030,-0.010601,-0.000047,0.002635,-0.005271,-0.116230,-0.053120,0.212186,0.212133,0.150626,0.341894,0.000000,0.000000,0.000000,0.000000,0.000000,0.000000,0.000000,0.000000,0.000000,0.000000,0.000000,0.000000,0.112248,3,0
1700000,0.005027,44.048843,0.004412,0.012009,26.118103,0.095104,-0.003170,0.042855,1.572426,-0.073715,-0.004464,0.025864,0.001042,-0.010716,-0.000048,0.000945,-0.005210,0.044174,-0.062110,0.212394,0.212339,0.150360,0.340872,0.000000,0.000000,0.000000,0.000000,0.000000,0.000000,0.000000,0.000000,0.000000,0.000000,0.000000,0.000000,0.042891,3,0
1710000,0.004967,44.310078,0.004814,0.011738,26.122776,0.095276,-0.003215,0.042977,1.572433,-0.073717,-0.004490,0.026107,0.001055,-0.010718,-0.000048,0.000085,-0.005148,0.000034,-0.022274,0.212600,0.212544,0.150099,0.339880,0.000000,0.000000,0.000000,0.000000,0.000000,0.000000,0.000000,0.000000,0.000000,0.000000,0.000000,0.000000,0.004967,3,0
1720000,0.004905,44.569851,0.004859,0.011454,26.124584,0.095152,-0.003257,0.042831,1.572441,-0.073517,-0.004515,0.026524,0.001068,-0.010614,-0.000048,0.000521,-0.005084,-0.042580,-0.037205,0.212806,0.212748,0.149841,0.338916,0.000000,0.000000,0.000000,0.000000,0.000000,0.000000,0.000000,0.000000,0.000000,0.000000,0.000000,0.000000,0.041372,3,0
