time_us,pos_x,pos_y,pos_z,vel_x,vel_y,vel_z,roll,pitch,yaw,bias_ax,bias_ay,bias_az,bias_gx,bias_gy,bias_gz,nis,innov_x,innov_y,innov_z,cov_pos_x,cov_pos_y,cov_pos_z,cov_yaw,des_speed,des_heading,des_climb,pid_speed,pid_yaw,pid_alt,speed_meas,yaw_meas,climb_meas,fwd_accel,yaw_rate,vert_accel,drift_m,nav_mode,mission_state
0,0.000000,0.150004,-0.000002,0.000064,25.000652,-0.000423,-0.000009,0.000004,1.570779,0.000000,0.000000,0.000000,0.000000,0.000000,0.000000,0.006250,-0.000001,-0.250009,0.000004,2.400038,2.400038,3.600017,1.000518,0.000000,0.000000,0.000000,0.000000,0.000000,0.000000,0.000000,0.000000,0.000000,0.000000,0.000000,0.000000,0.150004,1,0
10000,0.000002,0.353881,0.010677,0.000217,25.001217,-0.000977,-0.000016,0.000009,1.570772,0.000000,0.000000,-0.000000,0.000000,0.000000,0.000000,0.003188,-0.000003,-0.161472,0.028503,1.714420,1.714420,2.250079,1.001073,0.000000,0.000000,0.000000,0.000000,0.000000,0.000000,0.000000,0.000000,0.000000,0.000000,0.000000,0.000000,0.115334,3,0
20000,0.000004,0.580135,0.010948,0.000282,25.001810,-0.001484,-0.000014,0.000022,1.570762,0.000001,-0.000000,-0.000000,0.000000,0.000000,0.000000,0.001482,-0.000005,-0.106929,0.001049,1.333616,1.333616,1.636554,1.001655,0.000000,0.000000,0.000000,0.000000,0.000000,0.000000,0.000000,0.000000,0.000000,0.000000,0.000000,0.000000,0.083162,3,0
30000,0.000007,0.834642,-0.003113,0.000475,25.002794,-0.002111,-0.000012,0.000020,1.570758,0.000001,-0.000000,0.000001,-0.000000,0.000000,0.000000,0.000645,-0.000008,0.024632,-0.065515,1.091392,1.091392,1.286065,1.002257,0.000000,0.000000,0.000000,0.000000,0.000000,0.000000,0.000000,0.000000,0.000000,0.000000,0.000000,0.000000,0.020151,3,0
40000,0.000011,1.082951,-0.012370,0.000610,25.003504,-0.002683,-0.000022,0.000026,1.570736,0.000001,-0.000000,0.000002,-0.000000,0.000000,0.000000,0.000393,-0.000013,-0.011216,-0.052284,0.923811,0.923811,1.059385,1.002869,0.000000,0.000000,0.000000,0.000000,0.000000,0.000000,0.000000,0.000000,0.000000,0.000000,0.000000,0.000000,0.009489,3,0
50000,0.000015,1.316923,-0.012750,0.000632,25.003757,-0.003152,-0.000016,0.000021,1.570725,0.000006,-0.000000,0.000002,-0.000000,0.000000,0.000000,0.002094,-0.000017,-0.120381,-0.002326,0.801036,0.801036,0.900822,1.003484,0.000000,0.000000,0.000000,0.000000,0.000000,0.000000,0.000000,0.000000,0.000000,0.000000,0.000000,0.000000,0.104310,3,0
60000,0.000020,1.558004,-0.016992,0.000732,25.004072,-0.003675,-0.000014,0.000029,1.570715,0.000011,-0.000000,0.000004,-0.000000,0.000000,0.000000,0.001001,-0.000022,-0.076050,-0.032205,0.707270,0.707270,0.783741,1.004094,0.000000,0.000000,0.000000,0.000000,0.000000,0.000000,0.000000,0.000000,0.000000,0.000000,0.000000,0.000000,0.067085,3,0
70000,0.000026,1.801856,-0.011826,0.000903,25.004547,-0.003923,-0.000021,0.000027,1.570695,0.000016,-0.000000,0.000001,0.000000,0.000000,0.000000,0.000813,-0.000029,-0.058709,0.045037,0.633370,0.633370,0.693801,1.004688,0.000000,0.000000,0.000000,0.000000,0.000000,0.000000,0.000000,0.000000,0.000000,0.000000,0.000000,0.000000,0.052512,3,0
80000,0.000033,2.049590,-0.014225,0.001082,25.005178,-0.004702,-0.000025,0.000035,1.570677,0.000018,-0.000000,0.000003,0.000000,0.000000,0.000000,0.000166,-0.000036,-0.024261,-0.022676,0.573673,0.573673,0.622594,1.005260,0.000000,0.000000,0.000000,0.000000,0.000000,0.000000,0.000000,0.000000,0.000000,0.000000,0.000000,0.000000,0.021941,3,0
90000,0.000041,2.307153,-0.010541,0.001243,25.006784,-0.004783,-0.000036,0.000040,1.570667,0.000007,-0.000000,-0.000002,0.000000,0.000000,0.000000,0.001358,-0.000045,0.085819,0.039675,0.524488,0.524488,0.564865,1.005801,0.000000,0.000000,0.000000,0.000000,0.000000,0.000000,0.000000,0.000000,0.000000,0.000000,0.000000,0.000000,0.078317,3,0
100000,0.000051,2.561008,-0.014921,0.001372,25.008192,-0.005812,-0.000031,0.000054,1.570655,-0.000000,-0.000000,0.000006,0.000000,-0.000000,-0.000000,0.000721,-0.000055,0.046908,-0.050198,0.483303,0.483303,0.517162,1.006302,0.000000,0.000000,0.000000,0.000000,0.000000,0.000000,0.000000,0.000000,0.000000,0.000000,0.000000,0.000000,0.043130,3,0
110000,0.000061,2.817915,-0.017164,0.001522,25.009974,-0.006591,-0.000035,0.000054,1.570647,-0.000017,-0.000000,0.000011,0.000000,-0.000000,-0.000000,0.001399,-0.000066,0.091223,-0.027409,0.448353,0.448353,0.477121,1.006754,0.000000,0.000000,0.000000,0.000000,0.000000,0.000000,0.000000,0.000000,0.000000,0.000000,0.000000,0.000000,0.084407,3,0
120000,0.000072,3.070331,-0.016936,0.001605,25.011286,-0.006976,-0.000030,0.000055,1.570626,-0.000024,-0.000000,0.000010,0.000000,-0.000000,-0.000000,0.000172,-0.000077,0.033087,0.004033,0.418358,0.418358,0.443071,1.007151,0.000000,0.000000,0.000000,0.000000,0.000000,0.000000,0.000000,0.000000,0.000000,0.000000,0.000000,0.000000,0.030780,3,0
130000,0.000083,3.325609,-0.019887,0.001682,25.013109,-0.007862,-0.000027,0.000070,1.570624,-0.000044,-0.000000,0.000020,0.000000,-0.000001,-0.000000,0.001238,-0.000089,0.078842,-0.041715,0.392369,0.392369,0.413797,1.007482,0.000000,0.000000,0.000000,0.000000,0.000000,0.000000,0.000000,0.000000,0.000000,0.000000,0.000000,0.000000,0.073686,3,0
140000,0.000095,3.580799,-0.020307,0.001795,25.015081,-0.008438,-0.000023,0.000072,1.570609,-0.000069,-0.000000,0.000022,0.000000,-0.000001,-0.000000,0.001055,-0.000101,0.081972,-0.005205,0.369666,0.369666,0.388393,1.007740,0.000000,0.000000,0.000000,0.000000,0.000000,0.000000,0.000000,0.000000,0.000000,0.000000,0.000000,0.000000,0.076922,3,0
150000,0.000106,3.833606,-0.018562,0.001812,25.016537,-0.008523,-0.000023,0.000077,1.570589,-0.000084,-0.000000,0.000012,0.000000,-0.000002,-0.000000,0.000465,-0.000113,0.045430,0.030064,0.349695,0.349695,0.366172,1.007917,0.000000,0.000000,0.000000,0.000000,0.000000,0.000000,0.000000,0.000000,0.000000,0.000000,0.000000,0.000000,0.042783,3,0
160000,0.000119,4.088804,-0.020993,0.002000,25.018675,-0.009749,-0.000019,0.000097,1.570570,-0.000118,-0.000000,0.000027,0.000000,-0.000002,-0.000000,0.001555,-0.000126,0.090793,-0.040488,0.332020,0.332020,0.346600,1.008004,0.000000,0.000000,0.000000,0.000000,0.000000,0.000000,0.000000,0.000000,0.000000,0.000000,0.000000,0.000000,0.085769,3,0
170000,0.000133,4.345004,-0.018530,0.002161,25.021406,-0.009616,-0.000021,0.000111,1.570552,-0.000167,-0.000000,0.000007,0.000000,-0.000003,-0.000000,0.002392,-0.000141,0.113877,0.046755,0.316297,0.316297,0.329260,1.007993,0.000000,0.000000,0.000000,0.000000,0.000000,0.000000,0.000000,0.000000,0.000000,0.000000,0.000000,0.000000,0.107874,3,0
180000,0.000148,4.601073,-0.020296,0.002202,25.024088,-0.010437,-0.000026,0.000123,1.570539,-0.000222,-0.000000,0.000022,0.000000,-0.000005,-0.000000,0.002293,-0.000155,0.116078,-0.031857,0.302245,0.302245,0.313817,1.007877,0.000000,0.000000,0.000000,0.000000,0.000000,0.000000,0.000000,0.000000,0.000000,0.000000,0.000000,0.000000,0.110231,3,0
190000,0.000163,4.854159,-0.020790,0.002353,25.025932,-0.011072,-0.000026,0.000133,1.570527,-0.000253,-0.000000,0.000026,0.000000,-0.000006,-0.000000,0.000557,-0.000171,0.058770,-0.007694,0.289640,0.289640,0.300003,1.007648,0.000000,0.000000,0.000000,0.000000,0.000000,0.000000,0.000000,0.000000,0.000000,0.000000,0.000000,0.000000,0.055933,3,0
200000,0.000179,5.110167,-0.019774,0.002463,25.029133,-0.011219,-0.000023,0.000151,1.570506,-0.000326,-0.000001,0.000013,0.000000,-0.000008,-0.000000,0.002522,-0.000188,0.123726,0.023623,0.278294,0.278294,0.287598,1.007298,0.000000,0.000000,0.000000,0.000000,0.000000,0.000000,0.000000,0.000000,0.000000,0.000000,0.000000,0.000000,0.117988,3,0
210000,0.000195,5.360774,-0.021721,0.002564,25.030216,-0.012483,-0.000030,0.000151,1.570488,-0.000330,-0.000001,0.000038,0.000000,-0.000008,-0.000000,0.000258,-0.000205,0.006840,-0.039725,0.268052,0.268052,0.276421,1.006819,0.000000,0.000000,0.000000,0.000000,0.000000,0.000000,0.000000,0.000000,0.000000,0.000000,0.000000,0.000000,0.006537,3,0
220000,0.000213,5.615145,-0.019846,0.002750,25.032936,-0.011924,-0.000043,0.000169,1.570481,-0.000396,-0.000001,0.000007,0.000000,-0.000010,-0.000000,0.001738,-0.000223,0.094165,0.045130,0.258785,0.258785,0.266321,1.006206,0.000000,0.000000,0.000000,0.000000,0.000000,0.000000,0.000000,0.000000,0.000000,0.000000,0.000000,0.000000,0.090104,3,0
230000,0.000232,5.868751,-0.021903,0.002889,25.035341,-0.013369,-0.000052,0.000191,1.570472,-0.000455,-0.000001,0.000040,0.000000,-0.000012,-0.000000,0.001304,-0.000242,0.078313,-0.045081,0.250384,0.250384,0.257172,1.005450,0.000000,0.000000,0.000000,0.000000,0.000000,0.000000,0.000000,0.000000,0.000000,0.000000,0.000000,0.000000,0.075045,3,0
240000,0.000252,6.125692,-0.023854,0.003014,25.039680,-0.014639,-0.000058,0.000240,1.570469,-0.000590,-0.000001,0.000076,0.000000,-0.000016,-0.000000,0.004535,-0.000262,0.162625,-0.043721,0.242754,0.242754,0.248866,1.004545,0.000000,0.000000,0.000000,0.000000,0.000000,0.000000,0.000000,0.000000,0.000000,0.000000,0.000000,0.000000,0.156046,3,0
250000,0.000271,6.381765,-0.022475,0.003056,25.043913,-0.014194,-0.000058,0.000285,1.570462,-0.000718,-0.000002,0.000043,0.000000,-0.000021,-0.000000,0.003560,-0.000282,0.144186,0.038021,0.235816,0.235816,0.241314,1.003484,0.000000,0.000000,0.000000,0.000000,0.000000,0.000000,0.000000,0.000000,0.000000,0.000000,0.000000,0.000000,0.138520,3,0
260000,0.000292,6.637818,-0.024035,0.003203,25.048319,-0.015440,-0.000070,0.000325,1.570443,-0.000859,-0.000002,0.000077,0.000000,-0.000026,-0.000000,0.003650,-0.000303,0.146496,-0.036183,0.229502,0.229502,0.234436,1.002263,0.000000,0.000000,0.000000,0.000000,0.000000,0.000000,0.000000,0.000000,0.000000,0.000000,0.000000,0.000000,0.140893,3,0
270000,0.000312,6.891635,-0.024214,0.003219,25.051348,-0.016078,-0.000079,0.000356,1.570428,-0.000951,-0.000002,0.000077,0.000000,-0.000029,-0.000000,0.001276,-0.000324,0.089190,-0.000482,0.223751,0.223751,0.228165,1.000873,0.000000,0.000000,0.000000,0.000000,0.000000,0.000000,0.000000,0.000000,0.000000,0.000000,0.000000,0.000000,0.085865,3,0
280000,0.000332,7.144125,-0.022465,0.003269,25.053673,-0.015427,-0.000081,0.000388,1.570423,-0.001010,-0.000003,0.000021,0.000000,-0.000032,-0.000000,0.000897,-0.000345,0.054009,0.051682,0.218513,0.218513,0.222443,0.999312,0.000000,0.000000,0.000000,0.000000,0.000000,0.000000,0.000000,0.000000,0.000000,0.000000,0.000000,0.000000,0.052043,3,0
290000,0.000352,7.398930,-0.021742,0.003252,25.057652,-0.015116,-0.000082,0.000442,1.570419,-0.001151,-0.000003,-0.000007,0.000000,-0.000038,-0.000000,0.002392,-0.000365,0.119559,0.024298,0.213741,0.213740,0.217219,0.997572,0.000000,0.000000,0.000000,0.000000,0.000000,0.000000,0.000000,0.000000,0.000000,0.000000,0.000000,0.000000,0.115301,3,0
300000,0.000372,7.653814,-0.022829,0.003386,25.061951,-0.016151,-0.000092,0.000497,1.570413,-0.001306,-0.000004,0.000025,0.000000,-0.000044,-0.000000,0.002550,-0.000386,0.123139,-0.026301,0.209394,0.209394,0.212446,0.995651,0.000000,0.000000,0.000000,0.000000,0.000000,0.000000,0.000000,0.000000,0.000000,0.000000,0.000000,0.000000,0.118843,3,0
310000,0.000393,7.906737,-0.021735,0.003418,25.064749,-0.015857,-0.000094,0.000529,1.570411,-0.001395,-0.000004,-0.000023,0.000000,-0.000048,-0.000000,0.000935,-0.000407,0.067003,0.036363,0.205439,0.205439,0.208087,0.993542,0.000000,0.000000,0.000000,0.000000,0.000000,0.000000,0.000000,0.000000,0.000000,0.000000,0.000000,0.000000,0.064710,3,0
320000,0.000413,8.161839,-0.020772,0.003448,25.069483,-0.015387,-0.000094,0.000601,1.570406,-0.001582,-0.000005,-0.000069,0.000000,-0.000057,-0.000000,0.002988,-0.000427,0.132113,0.033099,0.201842,0.201842,0.204105,0.991243,0.000000,0.000000,0.000000,0.000000,0.000000,0.000000,0.000000,0.000000,0.000000,0.000000,0.000000,0.000000,0.127670,3,0
330000,0.000433,8.417682,-0.022372,0.003454,25.075003,-0.017091,-0.000103,0.000686,1.570403,-0.001815,-0.000005,-0.000005,0.000000,-0.000068,-0.000000,0.004185,-0.000448,0.155270,-0.043108,0.198576,0.198576,0.200469,0.988750,0.000000,0.000000,0.000000,0.000000,0.000000,0.000000,0.000000,0.000000,0.000000,0.000000,0.000000,0.000000,0.150132,3,0
340000,0.000453,8.672290,-0.022517,0.003552,25.079559,-0.017497,-0.000101,0.000756,1.570396,-0.002002,-0.000006,-0.000007,0.000000,-0.000077,-0.000000,0.002247,-0.000468,0.118039,0.000926,0.195615,0.195615,0.197151,0.986060,0.000000,0.000000,0.000000,0.000000,0.000000,0.000000,0.000000,0.000000,0.000000,0.000000,0.000000,0.000000,0.114192,3,0
350000,0.000473,8.925094,-0.023455,0.003590,25.082390,-0.018667,-0.000109,0.000792,1.570374,-0.002106,-0.000007,0.000032,0.000000,-0.000082,-0.000000,0.000712,-0.000489,0.062176,-0.023421,0.192937,0.192936,0.194125,0.983171,0.000000,0.000000,0.000000,0.000000,0.000000,0.000000,0.000000,0.000000,0.000000,0.000000,0.000000,0.000000,0.060179,3,0
360000,0.000494,9.182498,-0.022800,0.003713,25.090004,-0.018360,-0.000107,0.000905,1.570364,-0.002469,-0.000008,-0.000014,0.000000,-0.000101,-0.000000,0.007023,-0.000511,0.206920,0.026535,0.190519,0.190519,0.191370,0.980080,0.000000,0.000000,0.000000,0.000000,0.000000,0.000000,0.000000,0.000000,0.000000,0.000000,0.000000,0.000000,0.200350,3,0
370000,0.000516,9.439309,-0.021669,0.003822,25.097082,-0.017574,-0.000112,0.001017,1.570360,-0.002815,-0.000009,-0.000091,0.000000,-0.000119,-0.000000,0.005989,-0.000533,0.187987,0.041920,0.188344,0.188344,0.188863,0.976787,0.000000,0.000000,0.000000,0.000000,0.000000,0.000000,0.000000,0.000000,0.000000,0.000000,0.000000,0.000000,0.182087,3,0
380000,0.000538,9.696795,-0.023007,0.003917,25.105051,-0.019065,-0.000112,0.001163,1.570339,-0.003220,-0.000010,-0.000020,0.000000,-0.000141,-0.000000,0.007306,-0.000555,0.209411,-0.037238,0.186395,0.186394,0.186586,0.973290,0.000000,0.000000,0.000000,0.000000,0.000000,0.000000,0.000000,0.000000,0.000000,0.000000,0.000000,0.000000,0.202905,3,0
390000,0.000561,9.950046,-0.022690,0.004074,25.108559,-0.019201,-0.000114,0.001216,1.570325,-0.003364,-0.000011,-0.000053,0.000001,-0.000150,-0.000000,0.000862,-0.000579,0.071116,0.016725,0.184654,0.184654,0.184523,0.969589,0.000000,0.000000,0.000000,0.000000,0.000000,0.000000,0.000000,0.000000,0.000000,0.000000,0.000000,0.000000,0.068930,3,0
400000,0.000585,10.207108,-0.023218,0.004162,25.116432,-0.020022,-0.000127,0.001361,1.570311,-0.003778,-0.000013,-0.000030,0.000001,-0.000173,-0.000000,0.006197,-0.000603,0.195532,-0.010867,0.183109,0.183108,0.182656,0.965684,0.000000,0.000000,0.000000,0.000000,0.000000,0.000000,0.000000,0.000000,0.000000,0.000000,0.000000,0.000000,0.189566,3,0
410000,0.000608,10.463644,-0.023976,0.004205,25.123882,-0.021019,-0.000136,0.001498,1.570309,-0.004169,-0.000014,0.000010,0.000001,-0.000197,-0.000000,0.005114,-0.000627,0.176935,-0.018340,0.181745,0.181744,0.180971,0.961576,0.000000,0.000000,0.000000,0.000000,0.000000,0.000000,0.000000,0.000000,0.000000,0.000000,0.000000,0.000000,0.171577,3,0
420000,0.000631,10.718478,-0.022674,0.004191,25.129339,-0.019733,-0.000141,0.001596,1.570297,-0.004443,-0.000016,-0.000107,0.000001,-0.000213,-0.000000,0.002710,-0.000650,0.119115,0.050718,0.180549,0.180549,0.179456,0.957265,0.000000,0.000000,0.000000,0.000000,0.000000,0.000000,0.000000,0.000000,0.000000,0.000000,0.000000,0.000000,0.115533,3,0
430000,0.000654,10.975237,-0.022869,0.004283,25.137249,-0.020393,-0.000139,0.001752,1.570280,-0.004881,-0.000018,-0.000108,0.000001,-0.000241,-0.000000,0.005373,-0.000674,0.182289,0.000335,0.179511,0.179510,0.178097,0.952754,0.000000,0.000000,0.000000,0.000000,0.000000,0.000000,0.000000,0.000000,0.000000,0.000000,0.000000,0.000000,0.176836,3,0
440000,0.000677,11.231501,-0.022730,0.004349,25.144468,-0.020458,-0.000150,0.001891,1.570262,-0.005290,-0.000019,-0.000137,0.000001,-0.000267,-0.000000,0.004372,-0.000697,0.164001,0.011809,0.178620,0.178619,0.176883,0.948044,0.000000,0.000000,0.000000,0.000000,0.000000,0.000000,0.000000,0.000000,0.000000,0.000000,0.000000,0.000000,0.159120,3,0
450000,0.000700,11.486702,-0.024287,0.004454,25.150547,-0.022680,-0.000157,0.002009,1.570259,-0.005617,-0.000021,-0.000018,0.000001,-0.000289,-0.000000,0.002922,-0.000721,0.126330,-0.045925,0.177865,0.177864,0.175803,0.943138,0.000000,0.000000,0.000000,0.000000,0.000000,0.000000,0.000000,0.000000,0.000000,0.000000,0.000000,0.000000,0.122587,3,0
460000,0.000724,11.743218,-0.025230,0.004566,25.158335,-0.024104,-0.000153,0.002176,1.570244,-0.006072,-0.000023,0.000047,0.000001,-0.000319,-0.000000,0.004730,-0.000746,0.169252,-0.024387,0.177236,0.177235,0.174847,0.938039,0.000000,0.000000,0.000000,0.000000,0.000000,0.000000,0.000000,0.000000,0.000000,0.000000,0.000000,0.000000,0.164254,3,0
470000,0.000748,11.998682,-0.024299,0.004633,25.164780,-0.022941,-0.000150,0.002296,1.570238,-0.006437,-0.000026,-0.000066,0.000001,-0.000344,-0.000000,0.003056,-0.000771,0.131326,0.040553,0.176726,0.176725,0.174007,0.932752,0.000000,0.000000,0.000000,0.000000,0.000000,0.000000,0.000000,0.000000,0.000000,0.000000,0.000000,0.000000,0.127460,3,0
480000,0.000772,12.254869,-0.022954,0.004704,25.172213,-0.021437,-0.000151,0.002449,1.570228,-0.006881,-0.000028,-0.000224,0.000002,-0.000376,-0.000000,0.004326,-0.000795,0.154102,0.054725,0.176325,0.176324,0.173272,0.927279,0.000000,0.000000,0.000000,0.000000,0.000000,0.000000,0.000000,0.000000,0.000000,0.000000,0.000000,0.000000,0.149576,3,0
490000,0.000796,12.510022,-0.023361,0.004746,25.178289,-0.021983,-0.000155,0.002576,1.570217,-0.007228,-0.000031,-0.000205,0.000002,-0.000401,-0.000000,0.002203,-0.000820,0.116508,-0.006564,0.176026,0.176025,0.172634,0.921626,0.000000,0.000000,0.000000,0.000000,0.000000,0.000000,0.000000,0.000000,0.000000,0.000000,0.000000,0.000000,0.113092,3,0
500000,0.000819,12.765326,-0.023044,0.004818,25.184544,-0.021640,-0.000156,0.002716,1.570199,-0.007596,-0.000033,-0.000263,0.000002,-0.000428,-0.000000,0.002377,-0.000844,0.119720,0.018867,0.175822,0.175821,0.172087,0.915798,0.000000,0.000000,0.000000,0.000000,0.000000,0.000000,0.000000,0.000000,0.000000,0.000000,0.000000,0.000000,0.116215,3,0
510000,0.000842,13.021361,-0.023861,0.004806,25.191877,-0.022800,-0.000153,0.002873,1.570179,-0.008049,-0.000036,-0.000197,0.000002,-0.000462,-0.000001,0.003363,-0.000868,0.142659,-0.020836,0.175705,0.175703,0.171623,0.909799,0.000000,0.000000,0.000000,0.000000,0.000000,0.000000,0.000000,0.000000,0.000000,0.000000,0.000000,0.000000,0.138484,3,0
520000,0.000865,13.279284,-0.025049,0.004831,25.202007,-0.024643,-0.000165,0.003118,1.570173,-0.008718,-0.000039,-0.000087,0.000002,-0.000514,-0.000001,0.006954,-0.000891,0.204613,-0.033390,0.175668,0.175667,0.171234,0.903636,0.000000,0.000000,0.000000,0.000000,0.000000,0.000000,0.000000,0.000000,0.000000,0.000000,0.000000,0.000000,0.198624,3,0
530000,0.000886,13.534410,-0.025428,0.004774,25.207981,-0.025462,-0.000171,0.003256,1.570152,-0.009073,-0.000042,-0.000073,0.000003,-0.000542,-0.000001,0.001808,-0.000913,0.105620,-0.004390,0.175706,0.175705,0.170915,0.897315,0.000000,0.000000,0.000000,0.000000,0.000000,0.000000,0.000000,0.000000,0.000000,0.000000,0.000000,0.000000,0.102531,3,0
540000,0.000908,13.790855,-0.024388,0.004860,25.215820,-0.024282,-0.000169,0.003452,1.570135,-0.009588,-0.000046,-0.000233,0.000003,-0.000583,-0.000001,0.003912,-0.000935,0.148620,0.045741,0.175812,0.175811,0.170659,0.890841,0.000000,0.000000,0.000000,0.000000,0.000000,0.000000,0.000000,0.000000,0.000000,0.000000,0.000000,0.000000,0.144268,3,0
550000,0.000929,14.048023,-0.024261,0.004859,25.224749,-0.024121,-0.000174,0.003679,1.570122,-0.010194,-0.000049,-0.000281,0.000003,-0.000633,-0.000001,0.004726,-0.000957,0.170400,0.013214,0.175981,0.175979,0.170460,0.884223,0.000000,0.000000,0.000000,0.000000,0.000000,0.000000,0.000000,0.000000,0.000000,0.000000,0.000000,0.000000,0.165405,3,0
560000,0.000950,14.304739,-0.023766,0.004953,25.233105,-0.023589,-0.000183,0.003881,1.570120,-0.010748,-0.000053,-0.000378,0.000004,-0.000679,-0.000001,0.003833,-0.000979,0.151688,0.026166,0.176207,0.176205,0.170314,0.877467,0.000000,0.000000,0.000000,0.000000,0.000000,0.000000,0.000000,0.000000,0.000000,0.000000,0.000000,0.000000,0.147236,3,0
570000,0.000970,14.559839,-0.023569,0.004930,25.238855,-0.023250,-0.000182,0.004024,1.570108,-0.011099,-0.000057,-0.000436,0.000004,-0.000709,-0.000001,0.001458,-0.001000,0.093677,0.015387,0.176486,0.176483,0.170215,0.870580,0.000000,0.000000,0.000000,0.000000,0.000000,0.000000,0.000000,0.000000,0.000000,0.000000,0.000000,0.000000,0.090927,3,0
580000,0.000990,14.819198,-0.023064,0.004932,25.251245,-0.022653,-0.000193,0.004369,1.570106,-0.012006,-0.000061,-0.000539,0.000004,-0.000788,-0.000001,0.009128,-0.001020,0.236099,0.026250,0.176811,0.176809,0.170158,0.863569,0.000000,0.000000,0.000000,0.000000,0.000000,0.000000,0.000000,0.000000,0.000000,0.000000,0.000000,0.000000,0.229144,3,0
590000,0.001009,15.075144,-0.023946,0.004912,25.258213,-0.024069,-0.000203,0.004548,1.570090,-0.012462,-0.000065,-0.000448,0.000005,-0.000829,-0.000001,0.002253,-0.001040,0.115767,-0.022900,0.177179,0.177177,0.170139,0.856443,0.000000,0.000000,0.000000,0.000000,0.000000,0.000000,0.000000,0.000000,0.000000,0.000000,0.000000,0.000000,0.112353,3,0
600000,0.001028,15.331238,-0.022876,0.005022,25.265324,-0.022477,-0.000212,0.004731,1.570083,-0.012937,-0.000070,-0.000638,0.000005,-0.000872,-0.000001,0.002607,-0.001060,0.118177,0.046366,0.177586,0.177583,0.170153,0.849209,0.000000,0.000000,0.000000,0.000000,0.000000,0.000000,0.000000,0.000000,0.000000,0.000000,0.000000,0.000000,0.114685,3,0
610000,0.001048,15.587480,-0.023648,0.005143,25.272690,-0.023602,-0.000215,0.004930,1.570076,-0.013433,-0.000074,-0.000558,0.000005,-0.000918,-0.000001,0.002405,-0.001080,0.120438,-0.019131,0.178026,0.178024,0.170196,0.841875,0.000000,0.000000,0.000000,0.000000,0.000000,0.000000,0.000000,0.000000,0.000000,0.000000,0.000000,0.000000,0.116869,3,0
620000,0.001068,15.846826,-0.024534,0.005181,25.285135,-0.024903,-0.000222,0.005278,1.570057,-0.014367,-0.000079,-0.000462,0.000006,-0.001006,-0.000001,0.008049,-0.001101,0.221942,-0.022673,0.178497,0.178495,0.170265,0.834449,0.000000,0.000000,0.000000,0.000000,0.000000,0.000000,0.000000,0.000000,0.000000,0.000000,0.000000,0.000000,0.215341,3,0
630000,0.001088,16.105688,-0.024642,0.005249,25.296524,-0.025087,-0.000236,0.005602,1.570053,-0.015230,-0.000084,-0.000485,0.000006,-0.001089,-0.000001,0.006539,-0.001121,0.201021,0.005203,0.178995,0.178992,0.170356,0.826939,0.000000,0.000000,0.000000,0.000000,0.000000,0.000000,0.000000,0.000000,0.000000,0.000000,0.000000,0.000000,0.195028,3,0
640000,0.001107,16.366451,-0.023778,0.005279,25.311064,-0.023796,-0.000236,0.006044,1.570045,-0.016370,-0.000090,-0.000664,0.000007,-0.001201,-0.000001,0.011191,-0.001141,0.260105,0.039499,0.179516,0.179513,0.170466,0.819354,0.000000,0.000000,0.000000,0.000000,0.000000,0.000000,0.000000,0.000000,0.000000,0.000000,0.000000,0.000000,0.252326,3,0
650000,0.001126,16.623133,-0.022615,0.005322,25.318556,-0.022241,-0.000246,0.006264,1.570029,-0.016900,-0.000095,-0.000891,0.000007,-0.001253,-0.000001,0.002666,-0.001160,0.118469,0.049520,0.180056,0.180053,0.170592,0.811701,0.000000,0.000000,0.000000,0.000000,0.000000,0.000000,0.000000,0.000000,0.000000,0.000000,0.000000,0.000000,0.114919,3,0
660000,0.001144,16.881147,-0.022290,0.005321,25.328287,-0.022094,-0.000256,0.006562,1.570019,-0.017628,-0.000101,-0.000984,0.000008,-0.001327,-0.000001,0.004195,-0.001179,0.159897,0.019580,0.180613,0.180610,0.170730,0.803988,0.000000,0.000000,0.000000,0.000000,0.000000,0.000000,0.000000,0.000000,0.000000,0.000000,0.000000,0.000000,0.155089,3,0
670000,0.001161,17.138084,-0.023467,0.005272,25.336185,-0.024044,-0.000253,0.006794,1.570012,-0.018186,-0.000106,-0.000825,0.000009,-0.001385,-0.000002,0.002525,-0.001197,0.120451,-0.033328,0.181184,0.181181,0.170878,0.796224,0.000000,0.000000,0.000000,0.000000,0.000000,0.000000,0.000000,0.000000,0.000000,0.000000,0.000000,0.000000,0.116819,3,0
680000,0.001178,17.395756,-0.023164,0.005332,25.345131,-0.023696,-0.000256,0.007065,1.570006,-0.018855,-0.000112,-0.000920,0.000009,-0.001455,-0.000002,0.003308,-0.001215,0.141741,0.019339,0.181766,0.181763,0.171034,0.788417,0.000000,0.000000,0.000000,0.000000,0.000000,0.000000,0.000000,0.000000,0.000000,0.000000,0.000000,0.000000,0.137452,3,0
690000,0.001194,17.657179,-0.024280,0.005257,25.360518,-0.025479,-0.000267,0.007571,1.569989,-0.020111,-0.000119,-0.000771,0.000010,-0.001590,-0.000002,0.011216,-0.001231,0.261679,-0.030475,0.182357,0.182353,0.171194,0.780575,0.000000,0.000000,0.000000,0.000000,0.000000,0.000000,0.000000,0.000000,0.000000,0.000000,0.000000,0.000000,0.253728,3,0
700000,0.001209,17.915655,-0.024912,0.005228,25.370722,-0.026621,-0.000269,0.007899,1.569978,-0.020887,-0.000125,-0.000706,0.000011,-0.001675,-0.000002,0.004119,-0.001247,0.159132,-0.012930,0.182953,0.182949,0.171358,0.772704,0.000000,0.000000,0.000000,0.000000,0.000000,0.000000,0.000000,0.000000,0.000000,0.000000,0.000000,0.000000,0.154284,3,0
710000,0.001223,18.172421,-0.024238,0.005248,25.377859,-0.025828,-0.000274,0.008106,1.569957,-0.021379,-0.000131,-0.000878,0.000011,-0.001729,-0.000002,0.001773,-0.001262,0.099342,0.033189,0.183554,0.183550,0.171523,0.764814,0.000000,0.000000,0.000000,0.000000,0.000000,0.000000,0.000000,0.000000,0.000000,0.000000,0.000000,0.000000,0.096312,3,0
720000,0.001237,18.432365,-0.022932,0.005266,25.390331,-0.023988,-0.000284,0.008517,1.569945,-0.022387,-0.000138,-0.001167,0.000012,-0.001843,-0.000002,0.006973,-0.001277,0.200327,0.054980,0.184156,0.184152,0.171687,0.756912,0.000000,0.000000,0.000000,0.000000,0.000000,0.000000,0.000000,0.000000,0.000000,0.000000,0.000000,0.000000,0.194183,3,0
730000,0.001251,18.693630,-0.023267,0.005292,25.404964,-0.024808,-0.000295,0.009021,1.569926,-0.023604,-0.000145,-0.001154,0.000013,-0.001983,-0.000002,0.009185,-0.001291,0.238440,-0.002887,0.184759,0.184754,0.171848,0.749004,0.000000,0.000000,0.000000,0.000000,0.000000,0.000000,0.000000,0.000000,0.000000,0.000000,0.000000,0.000000,0.231102,3,0
740000,0.001264,18.955587,-0.023976,0.005224,25.420576,-0.026116,-0.000296,0.009569,1.569913,-0.024926,-0.000152,-0.001071,0.000014,-0.002138,-0.000002,0.010570,-0.001304,0.255335,-0.015660,0.185359,0.185355,0.172005,0.741098,0.000000,0.000000,0.000000,0.000000,0.000000,0.000000,0.000000,0.000000,0.000000,0.000000,0.000000,0.000000,0.247449,3,0
750000,0.001276,19.213917,-0.025466,0.005174,25.429813,-0.028264,-0.000312,0.009865,1.569892,-0.025620,-0.000160,-0.000838,0.000015,-0.002220,-0.000002,0.003124,-0.001316,0.132370,-0.042593,0.185957,0.185952,0.172156,0.733202,0.000000,0.000000,0.000000,0.000000,0.000000,0.000000,0.000000,0.000000,0.000000,0.000000,0.000000,0.000000,0.128274,3,0
760000,0.001286,19.472351,-0.026156,0.005136,25.439014,-0.029404,-0.000313,0.010183,1.569872,-0.026324,-0.000167,-0.000762,0.000015,-0.002306,-0.000003,0.002861,-0.001328,0.132376,-0.013886,0.186549,0.186544,0.172300,0.725321,0.000000,0.000000,0.000000,0.000000,0.000000,0.000000,0.000000,0.000000,0.000000,0.000000,0.000000,0.000000,0.128266,3,0
770000,0.001298,19.732128,-0.027552,0.005202,25.450424,-0.031448,-0.000321,0.010577,1.569868,-0.027250,-0.000175,-0.000548,0.000016,-0.002420,-0.000003,0.005014,-0.001339,0.172035,-0.038065,0.187136,0.187131,0.172437,0.717462,0.000000,0.000000,0.000000,0.000000,0.000000,0.000000,0.000000,0.000000,0.000000,0.000000,0.000000,0.000000,0.166673,3,0
780000,0.001308,19.991369,-0.028859,0.005172,25.460791,-0.033359,-0.000326,0.010945,1.569865,-0.028071,-0.000182,-0.000352,0.000017,-0.002523,-0.000003,0.003856,-0.001350,0.150688,-0.034230,0.187715,0.187710,0.172564,0.709631,0.000000,0.000000,0.000000,0.000000,0.000000,0.000000,0.000000,0.000000,0.000000,0.000000,0.000000,0.000000,0.145979,3,0
790000,0.001318,20.248829,-0.030059,0.005226,25.467978,-0.035215,-0.000341,0.011186,1.569862,-0.028568,-0.000190,-0.000179,0.000018,-0.002586,-0.000003,0.001455,-0.001361,0.090130,-0.029795,0.188286,0.188280,0.172682,0.701835,0.000000,0.000000,0.000000,0.000000,0.000000,0.000000,0.000000,0.000000,0.000000,0.000000,0.000000,0.000000,0.087311,3,0
800000,0.001328,20.508896,-0.028995,0.005279,25.479624,-0.033678,-0.000340,0.011608,1.569858,-0.029517,-0.000198,-0.000475,0.000019,-0.002709,-0.000003,0.005093,-0.001372,0.170542,0.049544,0.188848,0.188842,0.172788,0.694080,0.000000,0.000000,0.000000,0.000000,0.000000,0.000000,0.000000,0.000000,0.000000,0.000000,0.000000,0.000000,0.165182,3,0
810000,0.001339,20.770926,-0.029618,0.005304,25.494564,-0.034545,-0.000356,0.012177,1.569843,-0.030803,-0.000206,-0.000421,0.000020,-0.002878,-0.000003,0.008437,-0.001382,0.228420,-0.009567,0.189399,0.189393,0.172883,0.686370,0.000000,0.000000,0.000000,0.000000,0.000000,0.000000,0.000000,0.000000,0.000000,0.000000,0.000000,0.000000,0.221215,3,0
820000,0.001348,21.031748,-0.030835,0.005255,25.507231,-0.036417,-0.000372,0.012654,1.569825,-0.031855,-0.000215,-0.000242,0.000021,-0.003018,-0.000003,0.005662,-0.001392,0.184910,-0.029812,0.189940,0.189934,0.172966,0.678711,0.000000,0.000000,0.000000,0.000000,0.000000,0.000000,0.000000,0.000000,0.000000,0.000000,0.000000,0.000000,0.179061,3,0
830000,0.001358,21.290741,-0.031915,0.005329,25.516575,-0.037944,-0.000379,0.012983,1.569816,-0.032561,-0.000223,-0.000092,0.000022,-0.003114,-0.000003,0.002529,-0.001402,0.122749,-0.024532,0.190469,0.190463,0.173037,0.671108,0.000000,0.000000,0.000000,0.000000,0.000000,0.000000,0.000000,0.000000,0.000000,0.000000,0.000000,0.000000,0.118860,3,0
840000,0.001367,21.549183,-0.031608,0.005367,25.524738,-0.037472,-0.000391,0.013279,1.569805,-0.033153,-0.000231,-0.000244,0.000024,-0.003196,-0.000003,0.001780,-0.001412,0.102209,0.024104,0.190986,0.190980,0.173094,0.663566,0.000000,0.000000,0.000000,0.000000,0.000000,0.000000,0.000000,0.000000,0.000000,0.000000,0.000000,0.000000,0.098967,3,0
850000,0.001375,21.810886,-0.032606,0.005286,25.538542,-0.038825,-0.000399,0.013814,1.569791,-0.034332,-0.000240,-0.000114,0.000025,-0.003361,-0.000004,0.006625,-0.001421,0.201506,-0.021210,0.191491,0.191484,0.173138,0.656089,0.000000,0.000000,0.000000,0.000000,0.000000,0.000000,0.000000,0.000000,0.000000,0.000000,0.000000,0.000000,0.195079,3,0
860000,0.001383,22.068819,-0.033373,0.005301,25.545538,-0.039922,-0.000408,0.014053,1.569784,-0.034797,-0.000249,-0.000033,0.000026,-0.003428,-0.000004,0.001029,-0.001429,0.078815,-0.012844,0.191983,0.191976,0.173167,0.648681,0.000000,0.000000,0.000000,0.000000,0.000000,0.000000,0.000000,0.000000,0.000000,0.000000,0.000000,0.000000,0.076306,3,0
870000,0.001390,22.328754,-0.033814,0.005212,25.555998,-0.040647,-0.000420,0.014444,1.569773,-0.035623,-0.000258,-0.000029,0.000027,-0.003547,-0.000004,0.003112,-0.001436,0.138876,-0.001016,0.192462,0.192455,0.173184,0.641347,0.000000,0.000000,0.000000,0.000000,0.000000,0.000000,0.000000,0.000000,0.000000,0.000000,0.000000,0.000000,0.134429,3,0
880000,0.001397,22.590029,-0.033178,0.005273,25.568565,-0.039829,-0.000433,0.014955,1.569755,-0.036684,-0.000267,-0.000272,0.000029,-0.003703,-0.000004,0.005272,-0.001444,0.177021,0.036595,0.192928,0.192920,0.173185,0.634089,0.000000,0.000000,0.000000,0.000000,0.000000,0.000000,0.000000,0.000000,0.000000,0.000000,0.000000,0.000000,0.171337,3,0
890000,0.001403,22.851349,-0.032663,0.005192,25.581129,-0.038934,-0.000443,0.015468,1.569748,-0.037735,-0.000276,-0.000488,0.000030,-0.003859,-0.000004,0.005052,-0.001450,0.174044,0.032031,0.193380,0.193372,0.173173,0.626912,0.000000,0.000000,0.000000,0.000000,0.000000,0.000000,0.000000,0.000000,0.000000,0.000000,0.000000,0.000000,0.168442,3,0
900000,0.001409,23.110144,-0.032973,0.005226,25.589029,-0.039381,-0.000447,0.015770,1.569728,-0.038292,-0.000285,-0.000510,0.000031,-0.003944,-0.000004,0.001352,-0.001456,0.091509,0.003073,0.193819,0.193811,0.173147,0.619819,0.000000,0.000000,0.000000,0.000000,0.000000,0.000000,0.000000,0.000000,0.000000,0.000000,0.000000,0.000000,0.088564,3,0
910000,0.001415,23.369007,-0.032042,0.005229,25.596991,-0.037843,-0.000460,0.016068,1.569719,-0.038849,-0.000294,-0.000825,0.000033,-0.004029,-0.000004,0.001683,-0.001462,0.091059,0.046182,0.194244,0.194236,0.173106,0.612812,0.000000,0.000000,0.000000,0.000000,0.000000,0.000000,0.000000,0.000000,0.000000,0.000000,0.000000,0.000000,0.088125,3,0
920000,0.001419,23.629877,-0.031550,0.005110,25.608444,-0.037132,-0.000468,0.016530,1.569707,-0.039774,-0.000304,-0.001037,0.000034,-0.004174,-0.000005,0.003789,-0.001467,0.150177,0.030608,0.194656,0.194648,0.173051,0.605894,0.000000,0.000000,0.000000,0.000000,0.000000,0.000000,0.000000,0.000000,0.000000,0.000000,0.000000,0.000000,0.145313,3,0
930000,0.001423,23.891434,-0.030694,0.005067,25.620829,-0.035862,-0.000484,0.017045,1.569693,-0.040813,-0.000313,-0.001339,0.000036,-0.004338,-0.000005,0.004824,-0.001471,0.167500,0.043014,0.195055,0.195046,0.172982,0.599068,0.000000,0.000000,0.000000,0.000000,0.000000,0.000000,0.000000,0.000000,0.000000,0.000000,0.000000,0.000000,0.162062,3,0
940000,0.001425,24.151724,-0.030182,0.005002,25.630861,-0.035250,-0.000487,0.017459,1.569674,-0.041589,-0.000323,-0.001555,0.000037,-0.004463,-0.000005,0.002651,-0.001473,0.124485,0.030626,0.195441,0.195431,0.172900,0.592336,0.000000,0.000000,0.000000,0.000000,0.000000,0.000000,0.000000,0.000000,0.000000,0.000000,0.000000,0.000000,0.120440,3,0
950000,0.001428,24.411411,-0.030580,0.004961,25.639748,-0.035899,-0.000490,0.017813,1.569658,-0.042233,-0.000333,-0.001550,0.000039,-0.004568,-0.000005,0.001699,-0.001476,0.102642,-0.001182,0.195813,0.195804,0.172803,0.585699,0.000000,0.000000,0.000000,0.000000,0.000000,0.000000,0.000000,0.000000,0.000000,0.000000,0.000000,0.000000,0.099303,3,0
960000,0.001430,24.674402,-0.031990,0.004943,25.654274,-0.037848,-0.000508,0.018468,1.569654,-0.043499,-0.000343,-0.001300,0.000041,-0.004780,-0.000005,0.006703,-0.001478,0.200686,-0.036024,0.196173,0.196163,0.172693,0.579160,0.000000,0.000000,0.000000,0.000000,0.000000,0.000000,0.000000,0.000000,0.000000,0.000000,0.000000,0.000000,0.194128,3,0
970000,0.001431,24.938044,-0.032179,0.004917,25.669771,-0.038164,-0.000517,0.019174,1.569649,-0.044866,-0.000353,-0.001358,0.000042,-0.005010,-0.000005,0.007520,-0.001480,0.215855,0.007194,0.196521,0.196510,0.172570,0.572721,0.000000,0.000000,0.000000,0.000000,0.000000,0.000000,0.000000,0.000000,0.000000,0.000000,0.000000,0.000000,0.208791,3,0
980000,0.001432,25.197115,-0.032673,0.004854,25.677158,-0.038799,-0.000520,0.019441,1.569644,-0.045320,-0.000362,-0.001334,0.000044,-0.005088,-0.000006,0.000823,-0.001481,0.071327,-0.003613,0.196856,0.196846,0.172434,0.566382,0.000000,0.000000,0.000000,0.000000,0.000000,0.000000,0.000000,0.000000,0.000000,0.000000,0.000000,0.000000,0.069002,3,0
990000,0.001432,25.458200,-0.032816,0.004767,25.687975,-0.038798,-0.000523,0.019907,1.569639,-0.046153,-0.000372,-0.001404,0.000046,-0.005233,-0.000006,0.002748,-0.001481,0.130245,0.008930,0.197180,0.197169,0.172285,0.560146,0.000000,0.000000,0.000000,0.000000,0.000000,0.000000,0.000000,0.000000,0.000000,0.000000,0.000000,0.000000,0.125973,3,0
1000000,0.001431,25.719307,-0.032180,0.004711,25.698656,-0.038027,-0.000536,0.020358,1.569635,-0.046970,-0.000382,-0.001675,0.000047,-0.005377,-0.000006,0.002832,-0.001480,0.127478,0.036179,0.197492,0.197481,0.172124,0.554012,0.000000,0.000000,0.000000,0.000000,0.000000,0.000000,0.000000,0.000000,0.000000,0.000000,0.000000,0.000000,0.123292,3,0
1010000,0.001430,25.981747,-0.032745,0.004707,25.711504,-0.038996,-0.000540,0.020948,1.569615,-0.048030,-0.000392,-0.001637,0.000049,-0.005568,-0.000006,0.004365,-0.001479,0.164450,-0.005871,0.197793,0.197781,0.171950,0.547981,0.000000,0.000000,0.000000,0.000000,0.000000,0.000000,0.000000,0.000000,0.000000,0.000000,0.000000,0.000000,0.159035,3,0
1020000,0.001429,26.243532,-0.033753,0.004629,25.722946,-0.040234,-0.000546,0.021469,1.569612,-0.048938,-0.000402,-0.001484,0.000051,-0.005733,-0.000006,0.003251,-0.001477,0.140425,-0.021144,0.198084,0.198071,0.171765,0.542055,0.000000,0.000000,0.000000,0.000000,0.000000,0.000000,0.000000,0.000000,0.000000,0.000000,0.000000,0.000000,0.135795,3,0
1030000,0.001426,26.506641,-0.035152,0.004505,25.736752,-0.042167,-0.000550,0.022122,1.569611,-0.050085,-0.000413,-0.001233,0.000053,-0.005946,-0.000006,0.005222,-0.001474,0.176706,-0.034261,0.198364,0.198351,0.171569,0.536234,0.000000,0.000000,0.000000,0.000000,0.000000,0.000000,0.000000,0.000000,0.000000,0.000000,0.000000,0.000000,0.170868,3,0
1040000,0.001423,26.769733,-0.035436,0.004499,25.750271,-0.042410,-0.000568,0.022762,1.569600,-0.051203,-0.000423,-0.001281,0.000055,-0.006156,-0.000007,0.004766,-0.001472,0.171888,0.005358,0.198634,0.198621,0.171362,0.530518,0.000000,0.000000,0.000000,0.000000,0.000000,0.000000,0.000000,0.000000,0.000000,0.000000,0.000000,0.000000,0.166205,3,0
1050000,0.001419,27.031490,-0.034378,0.004387,25.761299,-0.041044,-0.000573,0.023259,1.569596,-0.052033,-0.000433,-0.001689,0.000057,-0.006313,-0.000007,0.003060,-0.001468,0.127327,0.052516,0.198895,0.198882,0.171144,0.524907,0.000000,0.000000,0.000000,0.000000,0.000000,0.000000,0.000000,0.000000,0.000000,0.000000,0.000000,0.000000,0.123118,3,0
1060000,0.001414,27.290615,-0.035214,0.004334,25.767572,-0.042070,-0.000591,0.023485,1.569580,-0.052324,-0.000442,-0.001578,0.000058,-0.006369,-0.000007,0.000353,-0.001463,0.044369,-0.014695,0.199147,0.199133,0.170916,0.519402,0.000000,0.000000,0.000000,0.000000,0.000000,0.000000,0.000000,0.000000,0.000000,0.000000,0.000000,0.000000,0.042918,3,0
1070000,0.001409,27.552416,-0.035236,0.004236,25.778357,-0.042236,-0.000602,0.023971,1.569575,-0.053131,-0.000452,-0.001697,0.000060,-0.006528,-0.000007,0.002477,-0.001458,0.123125,0.014580,0.199391,0.199376,0.170679,0.514002,0.000000,0.000000,0.000000,0.000000,0.000000,0.000000,0.000000,0.000000,0.000000,0.000000,0.000000,0.000000,0.119044,3,0
1080000,0.001404,27.814878,-0.036283,0.004264,25.790237,-0.043588,-0.000617,0.024531,1.569565,-0.054048,-0.000463,-0.001536,0.000062,-0.006711,-0.000007,0.003211,-0.001453,0.139519,-0.021464,0.199626,0.199611,0.170432,0.508707,0.000000,0.000000,0.000000,0.000000,0.000000,0.000000,0.000000,0.000000,0.000000,0.000000,0.000000,0.000000,0.134884,3,0
1090000,0.001399,28.076004,-0.037314,0.004152,25.799568,-0.045067,-0.000618,0.024939,1.569559,-0.054677,-0.000473,-0.001378,0.000064,-0.006838,-0.000007,0.001541,-0.001447,0.095606,-0.020478,0.199854,0.199839,0.170176,0.503518,0.000000,0.000000,0.000000,0.000000,0.000000,0.000000,0.000000,0.000000,0.000000,0.000000,0.000000,0.000000,0.092431,3,0
1100000,0.001392,28.337128,-0.035913,0.004084,25.808800,-0.043125,-0.000618,0.025349,1.569554,-0.055288,-0.000482,-0.001908,0.000066,-0.006962,-0.000007,0.002091,-0.001440,0.092813,0.065852,0.200075,0.200059,0.169911,0.498432,0.000000,0.000000,0.000000,0.000000,0.000000,0.000000,0.000000,0.000000,0.000000,0.000000,0.000000,0.000000,0.089734,3,0
1110000,0.001386,28.596268,-0.035590,0.004083,25.814453,-0.042720,-0.000629,0.025539,1.569544,-0.055488,-0.000492,-0.002127,0.000068,-0.007003,-0.000008,0.000267,-0.001434,0.030386,0.026970,0.200289,0.200272,0.169639,0.493451,0.000000,0.000000,0.000000,0.000000,0.000000,0.000000,0.000000,0.000000,0.000000,0.000000,0.000000,0.000000,0.029406,3,0
1120000,0.001378,28.855434,-0.034201,0.003942,25.820034,-0.040603,-0.000645,0.025720,1.569532,-0.055683,-0.000501,-0.002650,0.000070,-0.007043,-0.000008,0.000817,-0.001426,0.029613,0.064550,0.200496,0.200479,0.169358,0.488574,0.000000,0.000000,0.000000,0.000000,0.000000,0.000000,0.000000,0.000000,0.000000,0.000000,0.000000,0.000000,0.028662,3,0
1130000,0.001370,29.117294,-0.033495,0.003860,25.830305,-0.039814,-0.000662,0.026195,1.569529,-0.056399,-0.000511,-0.002983,0.000073,-0.007195,-0.000008,0.002151,-0.001417,0.108332,0.040046,0.200698,0.200680,0.169071,0.483799,0.000000,0.000000,0.000000,0.000000,0.000000,0.000000,0.000000,0.000000,0.000000,0.000000,0.000000,0.000000,0.104720,3,0
1140000,0.001362,29.379143,-0.032912,0.003909,25.840425,-0.038870,-0.000665,0.026665,1.569519,-0.057092,-0.000521,-0.003279,0.000075,-0.007345,-0.000008,0.001972,-0.001410,0.104797,0.035347,0.200895,0.200876,0.168776,0.479126,0.000000,0.000000,0.000000,0.000000,0.000000,0.000000,0.000000,0.000000,0.000000,0.000000,0.000000,0.000000,0.101301,3,0
1150000,0.001355,29.638309,-0.031696,0.003911,25.845694,-0.037377,-0.000675,0.026828,1.569508,-0.057235,-0.000530,-0.003755,0.000077,-0.007375,-0.000008,0.000611,-0.001402,0.021757,0.057450,0.201086,0.201067,0.168475,0.474554,0.000000,0.000000,0.000000,0.000000,0.000000,0.000000,0.000000,0.000000,0.000000,0.000000,0.000000,0.000000,0.021078,3,0
1160000,0.001348,29.901512,-0.032758,0.003902,25.857986,-0.038921,-0.000681,0.027457,1.569502,-0.058165,-0.000540,-0.003566,0.000079,-0.007584,-0.000008,0.003260,-0.001395,0.140236,-0.023834,0.201273,0.201253,0.168168,0.470082,0.000000,0.000000,0.000000,0.000000,0.000000,0.000000,0.000000,0.000000,0.000000,0.000000,0.000000,0.000000,0.135537,3,0
1170000,0.001341,30.162678,-0.033910,0.003826,25.866545,-0.040292,-0.000691,0.027834,1.569486,-0.058667,-0.000549,-0.003347,0.000081,-0.007698,-0.000008,0.001040,-0.001387,0.075697,-0.026863,0.201456,0.201435,0.167855,0.465709,0.000000,0.000000,0.000000,0.000000,0.000000,0.000000,0.000000,0.000000,0.000000,0.000000,0.000000,0.000000,0.073165,3,0
1180000,0.001333,30.423830,-0.033583,0.003743,25.875046,-0.039961,-0.000692,0.028206,1.569484,-0.059149,-0.000559,-0.003576,0.000083,-0.007809,-0.000008,0.000970,-0.001379,0.072872,0.026617,0.201635,0.201614,0.167536,0.461436,0.000000,0.000000,0.000000,0.000000,0.000000,0.000000,0.000000,0.000000,0.000000,0.000000,0.000000,0.000000,0.070440,3,0
1190000,0.001324,30.683641,-0.033931,0.003722,25.881079,-0.040298,-0.000692,0.028406,1.569477,-0.059350,-0.000568,-0.003596,0.000085,-0.007856,-0.000008,0.000149,-0.001371,0.030304,0.002098,0.201811,0.201789,0.167213,0.457259,0.000000,0.000000,0.000000,0.000000,0.000000,0.000000,0.000000,0.000000,0.000000,0.000000,0.000000,0.000000,0.029315,3,0
1200000,0.001316,30.945471,-0.033444,0.003722,25.890598,-0.039834,-0.000697,0.028844,1.569465,-0.059935,-0.000577,-0.003881,0.000088,-0.007994,-0.000009,0.001434,-0.001363,0.088493,0.032595,0.201984,0.201961,0.166885,0.453178,0.000000,0.000000,0.000000,0.000000,0.000000,0.000000,0.000000,0.000000,0.000000,0.000000,0.000000,0.000000,0.085528,3,0
1210000,0.001309,31.208624,-0.034215,0.003717,25.902325,-0.040795,-0.000713,0.029432,1.569454,-0.060761,-0.000587,-0.003781,0.000090,-0.008193,-0.000009,0.002533,-0.001354,0.124752,-0.012755,0.202155,0.202131,0.166553,0.449192,0.000000,0.000000,0.000000,0.000000,0.000000,0.000000,0.000000,0.000000,0.000000,0.000000,0.000000,0.000000,0.120555,3,0
1220000,0.001301,31.469053,-0.035044,0.003716,25.909025,-0.041831,-0.000715,0.029678,1.569433,-0.061028,-0.000596,-0.003656,0.000092,-0.008258,-0.000009,0.000299,-0.001347,0.040392,-0.014862,0.202323,0.202298,0.166217,0.445300,0.000000,0.000000,0.000000,0.000000,0.000000,0.000000,0.000000,0.000000,0.000000,0.000000,0.000000,0.000000,0.039050,3,0
1230000,0.001294,31.730820,-0.034981,0.003716,25.918015,-0.041649,-0.000731,0.030091,1.569417,-0.061543,-0.000605,-0.003818,0.000094,-0.008385,-0.000009,0.001034,-0.001339,0.078077,0.017896,0.202489,0.202464,0.165877,0.441499,0.000000,0.000000,0.000000,0.000000,0.000000,0.000000,0.000000,0.000000,0.000000,0.000000,0.000000,0.000000,0.075456,3,0
1240000,0.001287,31.989201,-0.033694,0.003754,25.920862,-0.039876,-0.000732,0.030061,1.569398,-0.061379,-0.000614,-0.004356,0.000097,-0.008342,-0.000009,0.000718,-0.001332,-0.024746,0.061805,0.202654,0.202628,0.165534,0.437790,0.000000,0.000000,0.000000,0.000000,0.000000,0.000000,0.000000,0.000000,0.000000,0.000000,0.000000,0.000000,0.023938,3,0
1250000,0.001280,32.252316,-0.032513,0.003746,25.932089,-0.038425,-0.000746,0.030628,1.569391,-0.062131,-0.000623,-0.004877,0.000099,-0.008532,-0.000009,0.002656,-0.001325,0.114422,0.058088,0.202818,0.202791,0.165188,0.434171,0.000000,0.000000,0.000000,0.000000,0.000000,0.000000,0.000000,0.000000,0.000000,0.000000,0.000000,0.000000,0.110569,3,0
1260000,0.001274,32.511356,-0.033751,0.003741,25.935942,-0.040135,-0.000747,0.030684,1.569385,-0.062068,-0.000631,-0.004603,0.000101,-0.008517,-0.000009,0.000170,-0.001319,-0.009651,-0.030895,0.202981,0.202953,0.164840,0.430639,0.000000,0.000000,0.000000,0.000000,0.000000,0.000000,0.000000,0.000000,0.000000,0.000000,0.000000,0.000000,0.009414,3,0
1270000,0.001267,32.771076,-0.032978,0.003662,25.940981,-0.039196,-0.000767,0.030805,1.569368,-0.062130,-0.000640,-0.004987,0.000103,-0.008531,-0.000009,0.000316,-0.001311,0.009575,0.043104,0.203143,0.203114,0.164489,0.427195,0.000000,0.000000,0.000000,0.000000,0.000000,0.000000,0.000000,0.000000,0.000000,0.000000,0.000000,0.000000,0.009345,3,0
1280000,0.001260,33.030125,-0.031744,0.003679,25.944736,-0.037427,-0.000777,0.030841,1.569356,-0.062052,-0.000648,-0.005518,0.000106,-0.008508,-0.000009,0.000595,-0.001304,-0.011650,0.059468,0.203304,0.203274,0.164137,0.423836,0.000000,0.000000,0.000000,0.000000,0.000000,0.000000,0.000000,0.000000,0.000000,0.000000,0.000000,0.000000,0.011316,3,0
1290000,0.001252,33.292561,-0.030927,0.003545,25.954386,-0.036390,-0.000798,0.031313,1.569341,-0.062620,-0.000657,-0.005925,0.000108,-0.008660,-0.000009,0.001539,-0.001296,0.087086,0.044258,0.203466,0.203435,0.163783,0.420561,0.000000,0.000000,0.000000,0.000000,0.000000,0.000000,0.000000,0.000000,0.000000,0.000000,0.000000,0.000000,0.084150,3,0
1300000,0.001243,33.550911,-0.029975,0.003438,25.956650,-0.035266,-0.000812,0.031229,1.569325,-0.062382,-0.000665,-0.006358,0.000110,-0.008593,-0.000009,0.000591,-0.001287,-0.036297,0.048337,0.203628,0.203596,0.163427,0.417369,0.000000,0.000000,0.000000,0.000000,0.000000,0.000000,0.000000,0.000000,0.000000,0.000000,0.000000,0.000000,0.035079,3,0
1310000,0.001234,33.811993,-0.030487,0.003286,25.963844,-0.035793,-0.000827,0.031518,1.569304,-0.062664,-0.000673,-0.006313,0.000113,-0.008671,-0.000010,0.000307,-0.001277,0.043270,-0.005524,0.203790,0.203757,0.163071,0.414258,0.000000,0.000000,0.000000,0.000000,0.000000,0.000000,0.000000,0.000000,0.000000,0.000000,0.000000,0.000000,0.041820,3,0
1320000,0.001224,34.073723,-0.029214,0.003291,25.972090,-0.034444,-0.000832,0.031869,1.569291,-0.063054,-0.000682,-0.006875,0.000115,-0.008779,-0.000010,0.001187,-0.001267,0.060421,0.060747,0.203953,0.203919,0.162713,0.411228,0.000000,0.000000,0.000000,0.000000,0.000000,0.000000,0.000000,0.000000,0.000000,0.000000,0.000000,0.000000,0.058389,3,0
1330000,0.001214,34.336777,-0.029077,0.003253,25.982470,-0.034551,-0.000853,0.032394,1.569270,-0.063679,-0.000690,-0.007057,0.000118,-0.008957,-0.000010,0.001565,-0.001257,0.096794,0.018590,0.204116,0.204081,0.162356,0.408275,0.000000,0.000000,0.000000,0.000000,0.000000,0.000000,0.000000,0.000000,0.000000,0.000000,0.000000,0.000000,0.093514,3,0
1340000,0.001205,34.596394,-0.028555,0.003277,25.986761,-0.033994,-0.000862,0.032456,1.569267,-0.063631,-0.000698,-0.007355,0.000120,-0.008941,-0.000010,0.000178,-0.001248,-0.007336,0.032306,0.204281,0.204244,0.161997,0.405400,0.000000,0.000000,0.000000,0.000000,0.000000,0.000000,0.000000,0.000000,0.000000,0.000000,0.000000,0.000000,0.007182,3,0
1350000,0.001195,34.859406,-0.029412,0.003167,25.996965,-0.035007,-0.000881,0.032981,1.569265,-0.064214,-0.000706,-0.007194,0.000122,-0.009114,-0.000010,0.001384,-0.001238,0.090828,-0.018536,0.204446,0.204409,0.161639,0.402600,0.000000,0.000000,0.000000,0.000000,0.000000,0.000000,0.000000,0.000000,0.000000,0.000000,0.000000,0.000000,0.087739,3,0
1360000,0.001184,35.118286,-0.028568,0.003016,25.999729,-0.033956,-0.000902,0.032910,1.569249,-0.064001,-0.000714,-0.007605,0.000125,-0.009048,-0.000010,0.000497,-0.001226,-0.033134,0.044406,0.204613,0.204574,0.161281,0.399875,0.000000,0.000000,0.000000,0.000000,0.000000,0.000000,0.000000,0.000000,0.000000,0.000000,0.000000,0.000000,0.032020,3,0
1370000,0.001172,35.377178,-0.028205,0.002861,26.002432,-0.033554,-0.000906,0.032845,1.569231,-0.063786,-0.000721,-0.007846,0.000127,-0.008982,-0.000010,0.000293,-0.001214,-0.033619,0.026156,0.204781,0.204741,0.160923,0.397222,0.000000,0.000000,0.000000,0.000000,0.000000,0.000000,0.000000,0.000000,0.000000,0.000000,0.000000,0.000000,0.032488,3,0
1380000,0.001160,35.636753,-0.027073,0.002869,26.006226,-0.032057,-0.000918,0.032857,1.569226,-0.063695,-0.000729,-0.008362,0.000130,-0.008951,-0.000010,0.000521,-0.001202,-0.014229,0.054857,0.204951,0.204910,0.160566,0.394639,0.000000,0.000000,0.000000,0.000000,0.000000,0.000000,0.000000,0.000000,0.000000,0.000000,0.000000,0.000000,0.013782,3,0
1390000,0.001148,35.899734,-0.027697,0.002778,26.016098,-0.032826,-0.000939,0.033365,1.569207,-0.064226,-0.000737,-0.008273,0.000132,-0.009117,-0.000010,0.001154,-0.001189,0.083977,-0.010641,0.205123,0.205080,0.160210,0.392126,0.000000,0.000000,0.000000,0.000000,0.000000,0.000000,0.000000,0.000000,0.000000,0.000000,0.000000,0.000000,0.081112,3,0
1400000,0.001137,36.157894,-0.027553,0.002808,26.017208,-0.032623,-0.000943,0.033158,1.569199,-0.063849,-0.000744,-0.008431,0.000134,-0.008997,-0.000010,0.000626,-0.001177,-0.059830,0.017460,0.205296,0.205252,0.159855,0.389682,0.000000,0.000000,0.000000,0.000000,0.000000,0.000000,0.000000,0.000000,0.000000,0.000000,0.000000,0.000000,0.057792,3,0
1410000,0.001124,36.420834,-0.027390,0.002653,26.026834,-0.032455,-0.000946,0.033646,1.569180,-0.064347,-0.000751,-0.008626,0.000137,-0.009156,-0.000010,0.001079,-0.001164,0.079575,0.019140,0.205471,0.205426,0.159501,0.387303,0.000000,0.000000,0.000000,0.000000,0.000000,0.000000,0.000000,0.000000,0.000000,0.000000,0.000000,0.000000,0.076863,3,0
1420000,0.001112,36.683044,-0.028708,0.002639,26.035000,-0.034089,-0.000955,0.034020,1.569159,-0.064691,-0.000759,-0.008278,0.000139,-0.009270,-0.000010,0.000710,-0.001151,0.055088,-0.036913,0.205648,0.205602,0.159149,0.384990,0.000000,0.000000,0.000000,0.000000,0.000000,0.000000,0.000000,0.000000,0.000000,0.000000,0.000000,0.000000,0.053204,3,0
1430000,0.001098,36.943836,-0.028805,0.002477,26.040531,-0.034332,-0.000960,0.034178,1.569156,-0.064762,-0.000766,-0.008372,0.000141,-0.009293,-0.000010,0.000036,-0.001137,0.011463,0.009504,0.205827,0.205779,0.158798,0.382741,0.000000,0.000000,0.000000,0.000000,0.000000,0.000000,0.000000,0.000000,0.000000,0.000000,0.000000,0.000000,0.011125,3,0
1440000,0.001085,37.201862,-0.028248,0.002505,26.040987,-0.033690,-0.000973,0.033911,1.569147,-0.064326,-0.000772,-0.008689,0.000144,-0.009145,-0.000010,0.000984,-0.001124,-0.070473,0.033723,0.206008,0.205959,0.158449,0.380555,0.000000,0.000000,0.000000,0.000000,0.000000,0.000000,0.000000,0.000000,0.000000,0.000000,0.000000,0.000000,0.068055,3,0
1450000,0.001072,37.461285,-0.029543,0.002395,26.043884,-0.035187,-0.000980,0.033866,1.569143,-0.064141,-0.000779,-0.008328,0.000146,-0.009084,-0.000010,0.000364,-0.001110,-0.030319,-0.036462,0.206191,0.206141,0.158102,0.378428,0.000000,0.000000,0.000000,0.000000,0.000000,0.000000,0.000000,0.000000,0.000000,0.000000,0.000000,0.000000,0.029305,3,0
1460000,0.001057,37.719997,-0.028507,0.002285,26.045561,-0.033751,-0.000986,0.033690,1.569124,-0.063828,-0.000785,-0.008835,0.000148,-0.008973,-0.000010,0.000869,-0.001095,-0.051224,0.052493,0.206376,0.206324,0.157757,0.376362,0.000000,0.000000,0.000000,0.000000,0.000000,0.000000,0.000000,0.000000,0.000000,0.000000,0.000000,0.000000,0.049461,3,0
1470000,0.001043,37.980782,-0.028666,0.002252,26.050947,-0.033875,-0.000992,0.033831,1.569118,-0.063877,-0.000792,-0.008906,0.000151,-0.008989,-0.000010,0.000019,-0.001081,0.008106,0.006998,0.206563,0.206510,0.157414,0.374355,0.000000,0.000000,0.000000,0.000000,0.000000,0.000000,0.000000,0.000000,0.000000,0.000000,0.000000,0.000000,0.007897,3,0
1480000,0.001029,38.238792,-0.028789,0.002143,26.051088,-0.034122,-0.001003,0.033536,1.569096,-0.063432,-0.000798,-0.008971,0.000153,-0.008831,-0.000010,0.000887,-0.001065,-0.073818,0.007833,0.206752,0.206697,0.157074,0.372402,0.000000,0.000000,0.000000,0.000000,0.000000,0.000000,0.000000,0.000000,0.000000,0.000000,0.000000,0.000000,0.071281,3,0
1490000,0.001014,38.500237,-0.027913,0.002104,26.057480,-0.033310,-0.001014,0.033752,1.569077,-0.063586,-0.000804,-0.009444,0.000155,-0.008884,-0.000010,0.000469,-0.001050,0.025990,0.047068,0.206943,0.206887,0.156736,0.370506,0.000000,0.000000,0.000000,0.000000,0.000000,0.000000,0.000000,0.000000,0.000000,0.000000,0.000000,0.000000,0.025125,3,0
1500000,0.001000,38.761654,-0.028760,0.002101,26.063795,-0.034545,-0.001034,0.033968,1.569073,-0.063723,-0.000810,-0.009255,0.000157,-0.008935,-0.000010,0.000145,-0.001036,0.022903,-0.019305,0.207136,0.207078,0.156401,0.368664,0.000000,0.000000,0.000000,0.000000,0.000000,0.000000,0.000000,0.000000,0.000000,0.000000,0.000000,0.000000,0.022133,3,0
1510000,0.000986,39.024387,-0.027792,0.002107,26.072369,-0.033359,-0.001047,0.034362,1.569070,-0.064075,-0.000816,-0.009780,0.000160,-0.009062,-0.000011,0.000998,-0.001022,0.059612,0.051186,0.207330,0.207271,0.156068,0.366875,0.000000,0.000000,0.000000,0.000000,0.000000,0.000000,0.000000,0.000000,0.000000,0.000000,0.000000,0.000000,0.057572,3,0
1520000,0.000973,39.284325,-0.028605,0.002057,26.075769,-0.034427,-0.001052,0.034333,1.569064,-0.063932,-0.000822,-0.009589,0.000162,-0.009010,-0.000011,0.000151,-0.001007,-0.024300,-0.018476,0.207527,0.207466,0.155739,0.365137,0.000000,0.000000,0.000000,0.000000,0.000000,0.000000,0.000000,0.000000,0.000000,0.000000,0.000000,0.000000,0.023484,3,0
1530000,0.000958,39.543541,-0.027953,0.001979,26.077744,-0.033807,-0.001072,0.034173,1.569048,-0.063665,-0.000828,-0.009968,0.000164,-0.008905,-0.000010,0.000574,-0.000993,-0.045723,0.038251,0.207725,0.207663,0.155412,0.363449,0.000000,0.000000,0.000000,0.000000,0.000000,0.000000,0.000000,0.000000,0.000000,0.000000,0.000000,0.000000,0.044143,3,0
1540000,0.000943,39.805508,-0.028248,0.001828,26.084747,-0.034384,-0.001080,0.034437,1.569031,-0.063856,-0.000833,-0.009997,0.000166,-0.008979,-0.000011,0.000176,-0.000977,0.032982,0.002214,0.207925,0.207861,0.155088,0.361811,0.000000,0.000000,0.000000,0.000000,0.000000,0.000000,0.000000,0.000000,0.000000,0.000000,0.000000,0.000000,0.031855,3,0
1550000,0.000929,40.067432,-0.029310,0.001806,26.091576,-0.035619,-0.001084,0.034700,1.569014,-0.064025,-0.000839,-0.009723,0.000169,-0.009047,-0.000011,0.000261,-0.000962,0.029369,-0.027408,0.208126,0.208061,0.154768,0.360220,0.000000,0.000000,0.000000,0.000000,0.000000,0.000000,0.000000,0.000000,0.000000,0.000000,0.000000,0.000000,0.028358,3,0
1560000,0.000914,40.326538,-0.030234,0.001783,26.093060,-0.036587,-0.001090,0.034510,1.568993,-0.063719,-0.000844,-0.009481,0.000171,-0.008927,-0.000011,0.000546,-0.000947,-0.053711,-0.022479,0.208329,0.208263,0.154451,0.358674,0.000000,0.000000,0.000000,0.000000,0.000000,0.000000,0.000000,0.000000,0.000000,0.000000,0.000000,0.000000,0.051861,3,0
1570000,0.000900,40.589069,-0.029691,0.001732,26.100666,-0.035969,-0.001098,0.034855,1.568979,-0.063973,-0.000850,-0.009862,0.000173,-0.009027,-0.000011,0.000537,-0.000932,0.044991,0.036025,0.208534,0.208466,0.154137,0.357173,0.000000,0.000000,0.000000,0.000000,0.000000,0.000000,0.000000,0.000000,0.000000,0.000000,0.000000,0.000000,0.043447,3,0
1580000,0.000885,40.850151,-0.029311,0.001631,26.105585,-0.035473,-0.001102,0.034946,1.568958,-0.063979,-0.000855,-0.010163,0.000175,-0.009027,-0.000011,0.000137,-0.000917,0.001049,0.029020,0.208740,0.208670,0.153826,0.355716,0.000000,0.000000,0.000000,0.000000,0.000000,0.000000,0.000000,0.000000,0.000000,0.000000,0.000000,0.000000,0.001352,3,0
1590000,0.000870,41.111889,-0.029636,0.001649,26.111677,-0.035951,-0.001115,0.035137,1.568939,-0.064080,-0.000860,-0.010183,0.000177,-0.009069,-0.000011,0.000054,-0.000902,0.018223,0.001556,0.208947,0.208876,0.153520,0.354302,0.000000,0.000000,0.000000,0.000000,0.000000,0.000000,0.000000,0.000000,0.000000,0.000000,0.000000,0.000000,0.017611,3,0
1600000,0.000855,41.374268,-0.030403,0.001502,26.118933,-0.036870,-0.001134,0.035438,1.568936,-0.064271,-0.000865,-0.010030,0.000179,-0.009152,-0.000011,0.000233,-0.000886,0.034729,-0.015386,0.209155,0.209083,0.153216,0.352930,0.000000,0.000000,0.000000,0.000000,0.000000,0.000000,0.000000,0.000000,0.000000,0.000000,0.000000,0.000000,0.033527,3,0
1610000,0.000840,41.631706,-0.029309,0.001506,26.116964,-0.035369,-0.001137,0.034906,1.568923,-0.063679,-0.000869,-0.010596,0.000181,-0.008892,-0.000011,0.002405,-0.000871,-0.108452,0.056258,0.209365,0.209290,0.152916,0.351599,0.000000,0.000000,0.000000,0.000000,0.000000,0.000000,0.000000,0.000000,0.000000,0.000000,0.000000,0.000000,0.104656,3,0
1620000,0.000826,41.891949,-0.029571,0.001499,26.120054,-0.035780,-0.001156,0.034839,1.568903,-0.063528,-0.000873,-0.010626,0.000183,-0.008825,-0.000011,0.000128,-0.000856,-0.027927,0.003509,0.209575,0.209499,0.152620,0.350305,0.000000,0.000000,0.000000,0.000000,0.000000,0.000000,0.000000,0.000000,0.000000,0.000000,0.000000,0.000000,0.026963,3,0
1630000,0.000811,42.150761,-0.029304,0.001462,26.120468,-0.035410,-0.001157,0.034532,1.568901,-0.063155,-0.000877,-0.010863,0.000185,-0.008657,-0.000011,0.000871,-0.000841,-0.069530,0.023957,0.209786,0.209708,0.152328,0.349049,0.000000,0.000000,0.000000,0.000000,0.000000,0.000000,0.000000,0.000000,0.000000,0.000000,0.000000,0.000000,0.067098,3,0
1640000,0.000796,42.410267,-0.029989,0.001338,26.122162,-0.036029,-0.001174,0.034327,1.568884,-0.062890,-0.000881,-0.010708,0.000187,-0.008538,-0.000011,0.000433,-0.000825,-0.050045,-0.013563,0.209997,0.209918,0.152039,0.347830,0.000000,0.000000,0.000000,0.000000,0.000000,0.000000,0.000000,0.000000,0.000000,0.000000,0.000000,0.000000,0.048304,3,0
1650000,0.000781,42.672520,-0.029201,0.001236,26.128851,-0.035089,-0.001186,0.034573,1.568863,-0.063039,-0.000885,-0.011204,0.000189,-0.008603,-0.000011,0.000472,-0.000809,0.028374,0.045914,0.210209,0.210128,0.151755,0.346646,0.000000,0.000000,0.000000,0.000000,0.000000,0.000000,0.000000,0.000000,0.000000,0.000000,0.000000,0.000000,0.027404,3,0
1660000,0.000764,42.931923,-0.029138,0.001104,26.130102,-0.035093,-0.001187,0.034328,1.568859,-0.062753,-0.000889,-0.011360,0.000191,-0.008468,-0.000011,0.000528,-0.000792,-0.055035,0.015898,0.210422,0.210339,0.151474,0.345496,0.000000,0.000000,0.000000,0.000000,0.000000,0.000000,0.000000,0.000000,0.000000,0.000000,0.000000,0.000000,0.053106,3,0
1670000,0.000749,43.193398,-0.029404,0.001083,26.135096,-0.035581,-0.001192,0.034438,1.568856,-0.062772,-0.000893,-0.011400,0.000193,-0.008476,-0.000011,0.000004,-0.000776,0.003613,0.003676,0.210634,0.210550,0.151197,0.344379,0.000000,0.000000,0.000000,0.000000,0.000000,0.000000,0.000000,0.000000,0.000000,0.000000,0.000000,0.000000,0.003566,3,0
1680000,0.000732,43.452702,-0.028252,0.001006,26.136148,-0.033997,-0.001197,0.034168,1.568849,-0.062471,-0.000896,-0.012024,0.000195,-0.008326,-0.000011,0.001132,-0.000759,-0.059128,0.059257,0.210847,0.210761,0.150924,0.343297,0.000000,0.000000,0.000000,0.000000,0.000000,0.000000,0.000000,0.000000,0.000000,0.000000,0.000000,0.000000,0.057034,3,0
1690000,0.000716,43.713402,-0.028923,0.000914,26.139576,-0.034759,-0.001201,0.034130,1.568840,-0.062369,-0.000900,-0.011875,0.000196,-0.008277,-0.000011,0.000095,-0.000742,-0.020256,-0.013274,0.211059,0.210971,0.150654,0.342243,0.000000,0.000000,0.000000,0.000000,0.000000,0.000000,0.000000,0.000000,0.000000,0.000000,0.000000,0.000000,0.019560,3,0
1700000,0.000700,43.973335,-0.028009,0.000924,26.141651,-0.033552,-0.001213,0.033953,1.568834,-0.062158,-0.000903,-0.012405,0.000198,-0.008167,-0.000010,0.000693,-0.000725,-0.042442,0.049861,0.211271,0.211182,0.150389,0.341221,0.000000,0.000000,0.000000,0.000000,0.000000,0.000000,0.000000,0.000000,0.000000,0.000000,0.000000,0.000000,0.040938,3,0
1710000,0.000684,44.230438,-0.027574,0.000871,26.138363,-0.032921,-0.001217,0.033302,1.568818,-0.061551,-0.000905,-0.012691,0.000200,-0.007857,-0.000010,0.002591,-0.000709,-0.123486,0.029264,0.211483,0.211392,0.150128,0.340228,0.000000,0.000000,0.000000,0.000000,0.000000,0.000000,0.000000,0.000000,0.000000,0.000000,0.000000,0.000000,0.119127,3,0
