time_us,pos_x,pos_y,pos_z,vel_x,vel_y,vel_z,roll,pitch,yaw,bias_ax,bias_ay,bias_az,bias_gx,bias_gy,bias_gz,nis,innov_x,innov_y,innov_z,cov_pos_x,cov_pos_y,cov_pos_z,cov_yaw,des_speed,des_heading,des_climb,pid_speed,pid_yaw,pid_alt,speed_meas,yaw_meas,climb_meas,fwd_accel,yaw_rate,vert_accel,drift_m,nav_mode,mission_state
0,0.000002,0.149997,-0.000002,0.000260,24.999462,-0.000490,-0.000036,-0.000001,1.570793,0.000000,0.000000,0.000000,0.000000,0.000000,0.000000,0.006250,-0.000003,-0.249997,0.000005,2.400038,2.400038,3.600017,1.000518,0.000000,0.000000,0.000000,0.000000,0.000000,0.000000,0.000000,0.000000,0.000000,0.000000,0.000000,0.000000,0.149997,1,0
10000,0.000004,0.353859,-0.011826,0.000364,24.998854,-0.000766,-0.000058,-0.000000,1.570787,0.000000,-0.000000,0.000000,0.000000,0.000000,0.000000,0.003206,-0.000005,-0.161441,-0.031512,1.714420,1.714420,2.250079,1.001073,0.000000,0.000000,0.000000,0.000000,0.000000,0.000000,0.000000,0.000000,0.000000,0.000000,0.000000,0.000000,0.115312,3,0
20000,0.000007,0.580090,-0.009716,0.000565,24.998304,-0.001073,-0.000090,0.000003,1.570794,0.000001,-0.000000,0.000000,0.000000,0.000000,0.000000,0.001488,-0.000009,-0.106872,0.007778,1.333616,1.333616,1.636554,1.001655,0.000000,0.000000,0.000000,0.000000,0.000000,0.000000,0.000000,0.000000,0.000000,0.000000,0.000000,0.000000,0.083117,3,0
30000,0.000013,0.812872,-0.020037,0.000819,24.997704,-0.001763,-0.000114,0.000006,1.570795,0.000003,-0.000000,0.000001,-0.000000,0.000000,0.000000,0.001522,-0.000015,-0.094551,-0.048078,1.091392,1.091392,1.286065,1.002257,0.000000,0.000000,0.000000,0.000000,0.000000,0.000000,0.000000,0.000000,0.000000,0.000000,0.000000,0.000000,0.077352,3,0
40000,0.000020,1.052237,-0.026660,0.001070,24.997011,-0.002321,-0.000146,0.000001,1.570802,0.000005,-0.000000,0.000002,-0.000000,0.000000,0.000000,0.000861,-0.000023,-0.068900,-0.037386,0.923811,0.923811,1.059385,1.002869,0.000000,0.000000,0.000000,0.000000,0.000000,0.000000,0.000000,0.000000,0.000000,0.000000,0.000000,0.000000,0.058291,3,0
50000,0.000028,1.314129,-0.021339,0.001218,24.997234,-0.002565,-0.000179,-0.000005,1.570805,0.000001,-0.000000,0.000000,0.000000,-0.000000,-0.000000,0.001332,-0.000032,0.089319,0.035625,0.801036,0.801036,0.900822,1.003484,0.000000,0.000000,0.000000,0.000000,0.000000,0.000000,0.000000,0.000000,0.000000,0.000000,0.000000,0.000000,0.077395,3,0
60000,0.000037,1.567188,-0.025606,0.001414,24.997028,-0.003075,-0.000198,-0.000008,1.570809,-0.000000,-0.000000,0.000002,0.000000,-0.000000,-0.000000,0.000254,-0.000042,0.026215,-0.032445,0.707270,0.707270,0.783741,1.004094,0.000000,0.000000,0.000000,0.000000,0.000000,0.000000,0.000000,0.000000,0.000000,0.000000,0.000000,0.000000,0.023125,3,0
70000,0.000047,1.818391,-0.031364,0.001587,24.996803,-0.003670,-0.000230,-0.000018,1.570803,-0.000001,-0.000000,0.000006,-0.000000,-0.000000,-0.000000,0.000382,-0.000053,0.011705,-0.049509,0.633370,0.633370,0.693801,1.004688,0.000000,0.000000,0.000000,0.000000,0.000000,0.000000,0.000000,0.000000,0.000000,0.000000,0.000000,0.000000,0.010470,3,0
80000,0.000058,2.062563,-0.032795,0.001672,24.996029,-0.004179,-0.000260,-0.000027,1.570802,0.000005,-0.000000,0.000007,0.000000,0.000000,0.000000,0.000580,-0.000064,-0.060585,-0.013398,0.573673,0.573673,0.622594,1.005260,0.000000,0.000000,0.000000,0.000000,0.000000,0.000000,0.000000,0.000000,0.000000,0.000000,0.000000,0.000000,0.054793,3,0
90000,0.000070,2.310209,-0.035581,0.001872,24.995449,-0.004834,-0.000291,-0.000032,1.570809,0.000008,-0.000000,0.000011,0.000000,0.000000,0.000000,0.000234,-0.000077,-0.026445,-0.029101,0.524488,0.524488,0.564865,1.005801,0.000000,0.000000,0.000000,0.000000,0.000000,0.000000,0.000000,0.000000,0.000000,0.000000,0.000000,0.000000,0.024133,3,0
100000,0.000082,2.565305,-0.036029,0.001979,24.995846,-0.005385,-0.000319,-0.000039,1.570811,-0.000002,-0.000000,0.000012,0.000000,-0.000000,-0.000000,0.000628,-0.000090,0.063856,-0.004578,0.483303,0.483303,0.517162,1.006301,0.000000,0.000000,0.000000,0.000000,0.000000,0.000000,0.000000,0.000000,0.000000,0.000000,0.000000,0.000000,0.058713,3,0
110000,0.000096,2.818794,-0.039336,0.002104,24.996014,-0.006122,-0.000351,-0.000045,1.570818,-0.000010,-0.000000,0.000019,0.000000,-0.000000,-0.000000,0.000601,-0.000103,0.047304,-0.040872,0.448353,0.448353,0.477121,1.006754,0.000000,0.000000,0.000000,0.000000,0.000000,0.000000,0.000000,0.000000,0.000000,0.000000,0.000000,0.000000,0.043769,3,0
120000,0.000109,3.068235,-0.038628,0.002155,24.995594,-0.006244,-0.000387,-0.000043,1.570821,-0.000009,-0.000000,0.000017,0.000000,-0.000000,-0.000000,0.000025,-0.000117,-0.007398,0.010452,0.418358,0.418358,0.443071,1.007150,0.000000,0.000000,0.000000,0.000000,0.000000,0.000000,0.000000,0.000000,0.000000,0.000000,0.000000,0.000000,0.006883,3,0
130000,0.000123,3.320893,-0.038963,0.002265,24.995823,-0.006877,-0.000415,-0.000044,1.570820,-0.000019,-0.000000,0.000018,0.000000,-0.000000,-0.000000,0.000269,-0.000132,0.041348,-0.003861,0.392369,0.392369,0.413797,1.007481,0.000000,0.000000,0.000000,0.000000,0.000000,0.000000,0.000000,0.000000,0.000000,0.000000,0.000000,0.000000,0.038645,3,0
140000,0.000138,3.574975,-0.042003,0.002335,24.996294,-0.007945,-0.000442,-0.000036,1.570827,-0.000039,-0.000000,0.000031,0.000000,-0.000001,-0.000000,0.001029,-0.000147,0.066995,-0.045826,0.369666,0.369666,0.388393,1.007739,0.000000,0.000000,0.000000,0.000000,0.000000,0.000000,0.000000,0.000000,0.000000,0.000000,0.000000,0.000000,0.062867,3,0
150000,0.000153,3.830251,-0.042651,0.002468,24.997341,-0.008373,-0.000474,-0.000031,1.570828,-0.000070,-0.000000,0.000034,0.000000,-0.000001,-0.000000,0.001319,-0.000162,0.091211,-0.009271,0.349695,0.349695,0.366172,1.007915,0.000000,0.000000,0.000000,0.000000,0.000000,0.000000,0.000000,0.000000,0.000000,0.000000,0.000000,0.000000,0.085895,3,0
160000,0.000170,4.081042,-0.043259,0.002682,24.997179,-0.008744,-0.000510,-0.000027,1.570832,-0.000075,-0.000000,0.000037,0.000000,-0.000001,-0.000000,0.000047,-0.000180,0.014836,-0.009033,0.332020,0.332020,0.346600,1.008002,0.000000,0.000000,0.000000,0.000000,0.000000,0.000000,0.000000,0.000000,0.000000,0.000000,0.000000,0.000000,0.014016,3,0
170000,0.000186,4.333242,-0.045784,0.002697,24.997450,-0.009711,-0.000528,-0.000018,1.570840,-0.000094,-0.000000,0.000056,0.000000,-0.000002,-0.000000,0.000593,-0.000197,0.042352,-0.044351,0.316297,0.316297,0.329260,1.007991,0.000000,0.000000,0.000000,0.000000,0.000000,0.000000,0.000000,0.000000,0.000000,0.000000,0.000000,0.000000,0.040120,3,0
180000,0.000203,4.590669,-0.046900,0.002733,24.999659,-0.010554,-0.000561,-0.000005,1.570851,-0.000164,-0.000000,0.000065,0.000000,-0.000004,-0.000000,0.003525,-0.000214,0.147967,-0.019377,0.302246,0.302246,0.313817,1.007875,0.000000,0.000000,0.000000,0.000000,0.000000,0.000000,0.000000,0.000000,0.000000,0.000000,0.000000,0.000000,0.140514,3,0
190000,0.000220,4.846893,-0.047228,0.002780,25.001631,-0.011196,-0.000588,0.000004,1.570848,-0.000232,-0.000001,0.000067,0.000000,-0.000005,-0.000000,0.002645,-0.000231,0.129066,-0.004346,0.289640,0.289640,0.300003,1.007645,0.000000,0.000000,0.000000,0.000000,0.000000,0.000000,0.000000,0.000000,0.000000,0.000000,0.000000,0.000000,0.122836,3,0
200000,0.000236,5.103916,-0.044920,0.002801,25.004065,-0.010926,-0.000620,0.000026,1.570848,-0.000320,-0.000001,0.000038,0.000000,-0.000008,-0.000000,0.004037,-0.000248,0.151128,0.050620,0.278294,0.278294,0.287598,1.007295,0.000000,0.000000,0.000000,0.000000,0.000000,0.000000,0.000000,0.000000,0.000000,0.000000,0.000000,0.000000,0.144119,3,0
210000,0.000253,5.358102,-0.045848,0.002887,25.005541,-0.011513,-0.000639,0.000041,1.570840,-0.000380,-0.000001,0.000049,0.000000,-0.000010,-0.000000,0.001423,-0.000265,0.092870,-0.017718,0.268053,0.268053,0.276421,1.006816,0.000000,0.000000,0.000000,0.000000,0.000000,0.000000,0.000000,0.000000,0.000000,0.000000,0.000000,0.000000,0.088721,3,0
220000,0.000271,5.614915,-0.045953,0.002960,25.008425,-0.012031,-0.000663,0.000077,1.570839,-0.000489,-0.000001,0.000049,0.000000,-0.000013,-0.000000,0.003918,-0.000283,0.156730,0.000339,0.258786,0.258786,0.266321,1.006202,0.000000,0.000000,0.000000,0.000000,0.000000,0.000000,0.000000,0.000000,0.000000,0.000000,0.000000,0.000000,0.149970,3,0
230000,0.000288,5.866625,-0.045304,0.002967,25.008871,-0.012218,-0.000701,0.000082,1.570830,-0.000519,-0.000001,0.000035,0.000000,-0.000014,-0.000000,0.000296,-0.000300,0.039042,0.018088,0.250384,0.250384,0.257172,1.005446,0.000000,0.000000,0.000000,0.000000,0.000000,0.000000,0.000000,0.000000,0.000000,0.000000,0.000000,0.000000,0.037414,3,0
240000,0.000306,6.120172,-0.045390,0.003052,25.010509,-0.012715,-0.000731,0.000101,1.570821,-0.000590,-0.000002,0.000035,0.000000,-0.000016,-0.000000,0.001170,-0.000318,0.085510,0.000991,0.242754,0.242754,0.248866,1.004541,0.000000,0.000000,0.000000,0.000000,0.000000,0.000000,0.000000,0.000000,0.000000,0.000000,0.000000,0.000000,0.082051,3,0
250000,0.000323,6.376950,-0.044644,0.003094,25.013971,-0.012823,-0.000759,0.000140,1.570830,-0.000741,-0.000002,0.000015,0.000000,-0.000022,-0.000000,0.004698,-0.000337,0.169890,0.021845,0.235816,0.235816,0.241314,1.003481,0.000000,0.000000,0.000000,0.000000,0.000000,0.000000,0.000000,0.000000,0.000000,0.000000,0.000000,0.000000,0.163213,3,0
260000,0.000341,6.629085,-0.045424,0.003131,25.014906,-0.013520,-0.000796,0.000152,1.570840,-0.000791,-0.000002,0.000031,0.000000,-0.000024,-0.000000,0.000481,-0.000355,0.052229,-0.016578,0.229502,0.229502,0.234436,1.002258,0.000000,0.000000,0.000000,0.000000,0.000000,0.000000,0.000000,0.000000,0.000000,0.000000,0.000000,0.000000,0.050232,3,0
270000,0.000359,6.880672,-0.044517,0.003174,25.015541,-0.013375,-0.000816,0.000166,1.570847,-0.000831,-0.000003,0.000003,0.000000,-0.000025,-0.000000,0.000361,-0.000373,0.038632,0.027528,0.223752,0.223752,0.228165,1.000869,0.000000,0.000000,0.000000,0.000000,0.000000,0.000000,0.000000,0.000000,0.000000,0.000000,0.000000,0.000000,0.037193,3,0
280000,0.000378,7.133205,-0.042677,0.003294,25.016996,-0.012682,-0.000842,0.000190,1.570845,-0.000903,-0.000003,-0.000055,0.000000,-0.000028,-0.000000,0.001143,-0.000392,0.065342,0.053375,0.218513,0.218513,0.222443,0.999307,0.000000,0.000000,0.000000,0.000000,0.000000,0.000000,0.000000,0.000000,0.000000,0.000000,0.000000,0.000000,0.062964,3,0
290000,0.000398,7.388741,-0.041567,0.003430,25.020586,-0.012188,-0.000875,0.000234,1.570843,-0.001081,-0.000003,-0.000095,0.000000,-0.000035,-0.000000,0.003841,-0.000412,0.150737,0.034270,0.213741,0.213741,0.217219,0.997567,0.000000,0.000000,0.000000,0.000000,0.000000,0.000000,0.000000,0.000000,0.000000,0.000000,0.000000,0.000000,0.145368,3,0
300000,0.000417,7.644998,-0.040508,0.003457,25.024887,-0.011792,-0.000911,0.000290,1.570845,-0.001299,-0.000004,-0.000137,0.000000,-0.000045,-0.000000,0.005020,-0.000432,0.173470,0.033472,0.209395,0.209395,0.212446,0.995645,0.000000,0.000000,0.000000,0.000000,0.000000,0.000000,0.000000,0.000000,0.000000,0.000000,0.000000,0.000000,0.167417,3,0
310000,0.000438,7.901936,-0.039730,0.003582,25.029943,-0.011615,-0.000939,0.000367,1.570847,-0.001560,-0.000005,-0.000171,0.000000,-0.000056,-0.000000,0.006259,-0.000453,0.195476,0.025968,0.205440,0.205440,0.208087,0.993536,0.000000,0.000000,0.000000,0.000000,0.000000,0.000000,0.000000,0.000000,0.000000,0.000000,0.000000,0.000000,0.188784,3,0
320000,0.000458,8.156182,-0.039693,0.003652,25.033005,-0.011718,-0.000970,0.000414,1.570852,-0.001726,-0.000005,-0.000177,0.000000,-0.000064,-0.000000,0.002223,-0.000474,0.117396,0.004576,0.201843,0.201843,0.204105,0.991236,0.000000,0.000000,0.000000,0.000000,0.000000,0.000000,0.000000,0.000000,0.000000,0.000000,0.000000,0.000000,0.113448,3,0
330000,0.000479,8.409217,-0.039408,0.003717,25.035170,-0.011897,-0.001003,0.000456,1.570858,-0.001848,-0.000006,-0.000196,0.000000,-0.000069,-0.000000,0.001102,-0.000496,0.081787,0.012174,0.198577,0.198577,0.200469,0.988743,0.000000,0.000000,0.000000,0.000000,0.000000,0.000000,0.000000,0.000000,0.000000,0.000000,0.000000,0.000000,0.079082,3,0
340000,0.000500,8.661759,-0.040265,0.003756,25.036970,-0.013081,-0.001028,0.000496,1.570865,-0.001955,-0.000007,-0.000161,0.000000,-0.000075,-0.000000,0.000810,-0.000517,0.067279,-0.022281,0.195616,0.195616,0.197151,0.986053,0.000000,0.000000,0.000000,0.000000,0.000000,0.000000,0.000000,0.000000,0.000000,0.000000,0.000000,0.000000,0.065087,3,0
350000,0.000521,8.919593,-0.041363,0.003811,25.043972,-0.014313,-0.001048,0.000620,1.570860,-0.002342,-0.000008,-0.000111,0.000000,-0.000094,-0.000000,0.008838,-0.000538,0.232174,-0.029787,0.192938,0.192938,0.194125,0.983163,0.000000,0.000000,0.000000,0.000000,0.000000,0.000000,0.000000,0.000000,0.000000,0.000000,0.000000,0.000000,0.224709,3,0
360000,0.000543,9.173001,-0.042863,0.003955,25.046711,-0.016151,-0.001075,0.000666,1.570862,-0.002506,-0.000009,-0.000037,0.000000,-0.000103,-0.000000,0.001702,-0.000561,0.093544,-0.042365,0.190520,0.190520,0.191370,0.980072,0.000000,0.000000,0.000000,0.000000,0.000000,0.000000,0.000000,0.000000,0.000000,0.000000,0.000000,0.000000,0.090575,3,0
370000,0.000566,9.430928,-0.043765,0.004088,25.054268,-0.017258,-0.001113,0.000810,1.570863,-0.002945,-0.000010,0.000006,0.000000,-0.000126,-0.000000,0.009209,-0.000584,0.237687,-0.023396,0.188346,0.188346,0.188863,0.976778,0.000000,0.000000,0.000000,0.000000,0.000000,0.000000,0.000000,0.000000,0.000000,0.000000,0.000000,0.000000,0.230226,3,0
380000,0.000588,9.688250,-0.043902,0.004135,25.061453,-0.017619,-0.001145,0.000942,1.570854,-0.003367,-0.000011,0.000003,0.000000,-0.000149,-0.000000,0.007691,-0.000607,0.218230,0.001273,0.186396,0.186396,0.186586,0.973281,0.000000,0.000000,0.000000,0.000000,0.000000,0.000000,0.000000,0.000000,0.000000,0.000000,0.000000,0.000000,0.211451,3,0
390000,0.000611,9.941328,-0.043270,0.004169,25.064077,-0.017101,-0.001177,0.000998,1.570846,-0.003529,-0.000012,-0.000050,0.000001,-0.000158,-0.000000,0.001149,-0.000630,0.080111,0.026379,0.184656,0.184656,0.184522,0.969579,0.000000,0.000000,0.000000,0.000000,0.000000,0.000000,0.000000,0.000000,0.000000,0.000000,0.000000,0.000000,0.077648,3,0
400000,0.000634,10.198820,-0.044440,0.004279,25.071705,-0.018476,-0.001201,0.001161,1.570837,-0.004004,-0.000014,0.000019,0.000001,-0.000186,-0.000000,0.008323,-0.000654,0.224586,-0.032713,0.183111,0.183110,0.182655,0.965674,0.000000,0.000000,0.000000,0.000000,0.000000,0.000000,0.000000,0.000000,0.000000,0.000000,0.000000,0.000000,0.217733,3,0
410000,0.000657,10.455763,-0.043072,0.004317,25.078974,-0.017059,-0.001220,0.001310,1.570845,-0.004458,-0.000015,-0.000095,0.000001,-0.000213,-0.000000,0.007259,-0.000677,0.205563,0.051545,0.181746,0.181746,0.180971,0.961565,0.000000,0.000000,0.000000,0.000000,0.000000,0.000000,0.000000,0.000000,0.000000,0.000000,0.000000,0.000000,0.199337,3,0
420000,0.000680,10.711582,-0.044557,0.004378,25.084917,-0.019109,-0.001255,0.001429,1.570849,-0.004844,-0.000017,0.000006,0.000001,-0.000236,-0.000000,0.004829,-0.000701,0.167216,-0.043735,0.180551,0.180551,0.179456,0.957254,0.000000,0.000000,0.000000,0.000000,0.000000,0.000000,0.000000,0.000000,0.000000,0.000000,0.000000,0.000000,0.162186,3,0
430000,0.000702,10.969294,-0.044433,0.004343,25.093344,-0.019097,-0.001277,0.001603,1.570852,-0.005394,-0.000018,-0.000020,0.000001,-0.000271,-0.000000,0.008527,-0.000724,0.229400,0.010730,0.179513,0.179513,0.178097,0.952742,0.000000,0.000000,0.000000,0.000000,0.000000,0.000000,0.000000,0.000000,0.000000,0.000000,0.000000,0.000000,0.222537,3,0
440000,0.000724,11.227075,-0.044765,0.004446,25.101984,-0.019629,-0.001311,0.001797,1.570846,-0.005968,-0.000020,-0.000008,0.000001,-0.000308,-0.000000,0.008560,-0.000747,0.230029,-0.004670,0.178622,0.178622,0.176883,0.948031,0.000000,0.000000,0.000000,0.000000,0.000000,0.000000,0.000000,0.000000,0.000000,0.000000,0.000000,0.000000,0.223182,3,0
450000,0.000746,11.481393,-0.043687,0.004366,25.106169,-0.018545,-0.001330,0.001891,1.570840,-0.006256,-0.000022,-0.000121,0.000001,-0.000327,-0.000000,0.002312,-0.000768,0.111315,0.043637,0.177867,0.177867,0.175803,0.943125,0.000000,0.000000,0.000000,0.000000,0.000000,0.000000,0.000000,0.000000,0.000000,0.000000,0.000000,0.000000,0.108018,3,0
460000,0.000766,11.737036,-0.043596,0.004307,25.112158,-0.018569,-0.001362,0.002037,1.570838,-0.006673,-0.000024,-0.000147,0.000001,-0.000355,-0.000000,0.003908,-0.000789,0.155138,0.009607,0.177239,0.177239,0.174847,0.938025,0.000000,0.000000,0.000000,0.000000,0.000000,0.000000,0.000000,0.000000,0.000000,0.000000,0.000000,0.000000,0.150558,3,0
470000,0.000785,11.993392,-0.044381,0.004307,25.119213,-0.019734,-0.001392,0.002208,1.570835,-0.007167,-0.000027,-0.000090,0.000001,-0.000389,-0.000001,0.005179,-0.000809,0.177740,-0.020551,0.176729,0.176729,0.174006,0.932737,0.000000,0.000000,0.000000,0.000000,0.000000,0.000000,0.000000,0.000000,0.000000,0.000000,0.000000,0.000000,0.172506,3,0
480000,0.000804,12.248113,-0.043391,0.004298,25.124027,-0.018683,-0.001414,0.002322,1.570829,-0.007513,-0.000029,-0.000209,0.000002,-0.000413,-0.000001,0.002609,-0.000829,0.120103,0.041284,0.176328,0.176328,0.173271,0.927264,0.000000,0.000000,0.000000,0.000000,0.000000,0.000000,0.000000,0.000000,0.000000,0.000000,0.000000,0.000000,0.116576,3,0
490000,0.000822,12.507066,-0.044889,0.004275,25.134937,-0.020567,-0.001445,0.002598,1.570838,-0.008296,-0.000031,-0.000073,0.000002,-0.000470,-0.000001,0.011518,-0.000847,0.262911,-0.045526,0.176030,0.176030,0.172634,0.921610,0.000000,0.000000,0.000000,0.000000,0.000000,0.000000,0.000000,0.000000,0.000000,0.000000,0.000000,0.000000,0.255199,3,0
500000,0.000841,12.763188,-0.044298,0.004344,25.141779,-0.020100,-0.001465,0.002774,1.570833,-0.008797,-0.000034,-0.000160,0.000002,-0.000507,-0.000001,0.004419,-0.000866,0.162880,0.027969,0.175826,0.175825,0.172087,0.915781,0.000000,0.000000,0.000000,0.000000,0.000000,0.000000,0.000000,0.000000,0.000000,0.000000,0.000000,0.000000,0.158109,3,0
510000,0.000858,13.018277,-0.043748,0.004306,25.147234,-0.019570,-0.001498,0.002907,1.570841,-0.009195,-0.000037,-0.000244,0.000002,-0.000537,-0.000001,0.002655,-0.000884,0.125357,0.026403,0.175709,0.175708,0.171622,0.909781,0.000000,0.000000,0.000000,0.000000,0.000000,0.000000,0.000000,0.000000,0.000000,0.000000,0.000000,0.000000,0.121689,3,0
520000,0.000875,13.276426,-0.045126,0.004289,25.157221,-0.021725,-0.001526,0.003168,1.570835,-0.009940,-0.000040,-0.000109,0.000002,-0.000594,-0.000001,0.008688,-0.000902,0.228034,-0.041241,0.175672,0.175672,0.171234,0.903617,0.000000,0.000000,0.000000,0.000000,0.000000,0.000000,0.000000,0.000000,0.000000,0.000000,0.000000,0.000000,0.221359,3,0
530000,0.000891,13.534100,-0.045824,0.004175,25.166456,-0.022716,-0.001549,0.003408,1.570842,-0.010642,-0.000043,-0.000052,0.000003,-0.000650,-0.000001,0.007068,-0.000917,0.208332,-0.016763,0.175710,0.175710,0.170914,0.897295,0.000000,0.000000,0.000000,0.000000,0.000000,0.000000,0.000000,0.000000,0.000000,0.000000,0.000000,0.000000,0.202233,3,0
540000,0.000904,13.791889,-0.046490,0.004059,25.175854,-0.023861,-0.001581,0.003656,1.570840,-0.011365,-0.000046,0.000001,0.000003,-0.000708,-0.000001,0.007104,-0.000932,0.208993,-0.015264,0.175817,0.175817,0.170658,0.890821,0.000000,0.000000,0.000000,0.000000,0.000000,0.000000,0.000000,0.000000,0.000000,0.000000,0.000000,0.000000,0.202870,3,0
550000,0.000917,14.050961,-0.047847,0.003991,25.187281,-0.025632,-0.001610,0.003974,1.570839,-0.012252,-0.000050,0.000142,0.000003,-0.000781,-0.000001,0.010304,-0.000945,0.249291,-0.039300,0.175986,0.175986,0.170460,0.884202,0.000000,0.000000,0.000000,0.000000,0.000000,0.000000,0.000000,0.000000,0.000000,0.000000,0.000000,0.000000,0.241981,3,0
560000,0.000930,14.307799,-0.046619,0.004041,25.195238,-0.024091,-0.001644,0.004192,1.570839,-0.012869,-0.000053,-0.000052,0.000004,-0.000833,-0.000001,0.005067,-0.000958,0.169016,0.052470,0.176212,0.176212,0.170313,0.877445,0.000000,0.000000,0.000000,0.000000,0.000000,0.000000,0.000000,0.000000,0.000000,0.000000,0.000000,0.000000,0.164055,3,0
570000,0.000942,14.564185,-0.047226,0.004023,25.202505,-0.025142,-0.001670,0.004398,1.570844,-0.013434,-0.000057,-0.000004,0.000004,-0.000881,-0.000001,0.003697,-0.000970,0.150643,-0.012732,0.176491,0.176490,0.170214,0.870557,0.000000,0.000000,0.000000,0.000000,0.000000,0.000000,0.000000,0.000000,0.000000,0.000000,0.000000,0.000000,0.146216,3,0
580000,0.000953,14.820711,-0.046847,0.003993,25.210043,-0.024781,-0.001699,0.004609,1.570835,-0.014020,-0.000060,-0.000091,0.000004,-0.000932,-0.000001,0.003849,-0.000982,0.152610,0.022389,0.176816,0.176816,0.170157,0.863545,0.000000,0.000000,0.000000,0.000000,0.000000,0.000000,0.000000,0.000000,0.000000,0.000000,0.000000,0.000000,0.148115,3,0
590000,0.000963,15.077962,-0.047417,0.003882,25.218616,-0.025489,-0.001731,0.004857,1.570843,-0.014706,-0.000064,-0.000046,0.000005,-0.000993,-0.000001,0.004935,-0.000993,0.174314,-0.011268,0.177185,0.177184,0.170138,0.856418,0.000000,0.000000,0.000000,0.000000,0.000000,0.000000,0.000000,0.000000,0.000000,0.000000,0.000000,0.000000,0.169169,3,0
600000,0.000973,15.337109,-0.047835,0.003892,25.230291,-0.026124,-0.001766,0.005200,1.570850,-0.015652,-0.000068,-0.000024,0.000005,-0.001079,-0.000001,0.008940,-0.001003,0.235041,-0.005645,0.177591,0.177591,0.170152,0.849182,0.000000,0.000000,0.000000,0.000000,0.000000,0.000000,0.000000,0.000000,0.000000,0.000000,0.000000,0.000000,0.228086,3,0
610000,0.000982,15.594595,-0.047380,0.003888,25.239164,-0.025564,-0.001801,0.005474,1.570848,-0.016371,-0.000072,-0.000131,0.000005,-0.001146,-0.000001,0.005033,-0.001012,0.174565,0.025419,0.178032,0.178032,0.170195,0.841847,0.000000,0.000000,0.000000,0.000000,0.000000,0.000000,0.000000,0.000000,0.000000,0.000000,0.000000,0.000000,0.169389,3,0
620000,0.000991,15.851027,-0.046190,0.003905,25.246250,-0.023890,-0.001825,0.005693,1.570853,-0.016942,-0.000076,-0.000350,0.000006,-0.001200,-0.000002,0.003398,-0.001022,0.135658,0.051065,0.178503,0.178503,0.170264,0.834420,0.000000,0.000000,0.000000,0.000000,0.000000,0.000000,0.000000,0.000000,0.000000,0.000000,0.000000,0.000000,0.131626,3,0
630000,0.000999,16.108191,-0.047267,0.003804,25.254400,-0.025525,-0.001863,0.005943,1.570860,-0.017618,-0.000081,-0.000221,0.000006,-0.001265,-0.000002,0.004149,-0.001030,0.157459,-0.029394,0.179001,0.179001,0.170355,0.826909,0.000000,0.000000,0.000000,0.000000,0.000000,0.000000,0.000000,0.000000,0.000000,0.000000,0.000000,0.000000,0.152765,3,0
640000,0.001006,16.368460,-0.046715,0.003753,25.267771,-0.024718,-0.001891,0.006362,1.570855,-0.018749,-0.000085,-0.000350,0.000007,-0.001375,-0.000002,0.010897,-0.001037,0.258036,0.028527,0.179522,0.179521,0.170465,0.819322,0.000000,0.000000,0.000000,0.000000,0.000000,0.000000,0.000000,0.000000,0.000000,0.000000,0.000000,0.000000,0.250317,3,0
650000,0.001013,16.628826,-0.046306,0.003747,25.281107,-0.023998,-0.001913,0.006799,1.570853,-0.019893,-0.000090,-0.000457,0.000007,-0.001490,-0.000002,0.010687,-0.001044,0.256060,0.023120,0.180062,0.180062,0.170591,0.811668,0.000000,0.000000,0.000000,0.000000,0.000000,0.000000,0.000000,0.000000,0.000000,0.000000,0.000000,0.000000,0.248377,3,0
660000,0.001018,16.885696,-0.045182,0.003634,25.288462,-0.022444,-0.001939,0.007049,1.570852,-0.020506,-0.000094,-0.000682,0.000008,-0.001552,-0.000002,0.003308,-0.001050,0.134710,0.048097,0.180619,0.180619,0.170729,0.803954,0.000000,0.000000,0.000000,0.000000,0.000000,0.000000,0.000000,0.000000,0.000000,0.000000,0.000000,0.000000,0.130659,3,0
670000,0.001023,17.146303,-0.045589,0.003633,25.302240,-0.023072,-0.001965,0.007501,1.570848,-0.021691,-0.000099,-0.000653,0.000008,-0.001675,-0.000002,0.010555,-0.001055,0.255465,-0.006307,0.181191,0.181190,0.170877,0.796188,0.000000,0.000000,0.000000,0.000000,0.000000,0.000000,0.000000,0.000000,0.000000,0.000000,0.000000,0.000000,0.247751,3,0
680000,0.001026,17.407604,-0.045187,0.003471,25.316950,-0.022404,-0.002003,0.007998,1.570856,-0.022979,-0.000104,-0.000762,0.000009,-0.001810,-0.000002,0.012128,-0.001058,0.273024,0.022266,0.181773,0.181772,0.171032,0.788380,0.000000,0.000000,0.000000,0.000000,0.000000,0.000000,0.000000,0.000000,0.000000,0.000000,0.000000,0.000000,0.264753,3,0
690000,0.001028,17.668987,-0.044306,0.003396,25.331627,-0.021090,-0.002033,0.008504,1.570864,-0.024275,-0.000109,-0.000956,0.000009,-0.001949,-0.000002,0.012025,-0.001061,0.270002,0.038797,0.182363,0.182363,0.171193,0.780535,0.000000,0.000000,0.000000,0.000000,0.000000,0.000000,0.000000,0.000000,0.000000,0.000000,0.000000,0.000000,0.261797,3,0
700000,0.001030,17.929237,-0.045711,0.003317,25.344282,-0.023438,-0.002066,0.008956,1.570858,-0.025383,-0.000114,-0.000746,0.000010,-0.002070,-0.000003,0.008617,-0.001062,0.227139,-0.041645,0.182960,0.182960,0.171357,0.772663,0.000000,0.000000,0.000000,0.000000,0.000000,0.000000,0.000000,0.000000,0.000000,0.000000,0.000000,0.000000,0.220215,3,0
710000,0.001030,18.190187,-0.046818,0.003229,25.358097,-0.024952,-0.002102,0.009439,1.570860,-0.026597,-0.000120,-0.000591,0.000010,-0.002205,-0.000003,0.009854,-0.001063,0.245066,-0.030457,0.183561,0.183560,0.171521,0.764771,0.000000,0.000000,0.000000,0.000000,0.000000,0.000000,0.000000,0.000000,0.000000,0.000000,0.000000,0.000000,0.237570,3,0
720000,0.001029,18.449997,-0.046439,0.003067,25.369781,-0.024410,-0.002128,0.009863,1.570863,-0.027616,-0.000125,-0.000707,0.000011,-0.002320,-0.000003,0.006713,-0.001061,0.202646,0.022069,0.184163,0.184163,0.171685,0.756867,0.000000,0.000000,0.000000,0.000000,0.000000,0.000000,0.000000,0.000000,0.000000,0.000000,0.000000,0.000000,0.196429,3,0
730000,0.001027,18.707449,-0.045473,0.002987,25.377148,-0.023093,-0.002163,0.010134,1.570866,-0.028237,-0.000130,-0.000934,0.000011,-0.002392,-0.000003,0.002681,-0.001059,0.121630,0.042402,0.184766,0.184766,0.171846,0.748957,0.000000,0.000000,0.000000,0.000000,0.000000,0.000000,0.000000,0.000000,0.000000,0.000000,0.000000,0.000000,0.117888,3,0
740000,0.001024,18.966858,-0.045118,0.002937,25.387865,-0.022783,-0.002188,0.010534,1.570876,-0.029180,-0.000135,-0.001046,0.000012,-0.002502,-0.000003,0.005429,-0.001057,0.182167,0.020635,0.185367,0.185367,0.172003,0.741049,0.000000,0.000000,0.000000,0.000000,0.000000,0.000000,0.000000,0.000000,0.000000,0.000000,0.000000,0.000000,0.176541,3,0
750000,0.001019,19.227592,-0.044298,0.002748,25.400789,-0.021572,-0.002223,0.011010,1.570870,-0.030338,-0.000141,-0.001249,0.000013,-0.002640,-0.000003,0.008093,-0.001052,0.220835,0.036618,0.185965,0.185964,0.172154,0.733150,0.000000,0.000000,0.000000,0.000000,0.000000,0.000000,0.000000,0.000000,0.000000,0.000000,0.000000,0.000000,0.213992,3,0
760000,0.001013,19.485929,-0.045351,0.002568,25.409422,-0.023285,-0.002259,0.011338,1.570869,-0.031076,-0.000146,-0.001088,0.000013,-0.002729,-0.000003,0.003251,-0.001045,0.138880,-0.029035,0.186558,0.186557,0.172299,0.725267,0.000000,0.000000,0.000000,0.000000,0.000000,0.000000,0.000000,0.000000,0.000000,0.000000,0.000000,0.000000,0.134565,3,0
770000,0.001005,19.743126,-0.045340,0.002385,25.415865,-0.023359,-0.002285,0.011568,1.570866,-0.031610,-0.000152,-0.001138,0.000014,-0.002795,-0.000003,0.001599,-0.001037,0.099125,0.008648,0.187144,0.187144,0.172435,0.717406,0.000000,0.000000,0.000000,0.000000,0.000000,0.000000,0.000000,0.000000,0.000000,0.000000,0.000000,0.000000,0.096038,3,0
780000,0.000996,20.004787,-0.046451,0.002249,25.430075,-0.025038,-0.002307,0.012129,1.570871,-0.032914,-0.000158,-0.000964,0.000015,-0.002958,-0.000004,0.009406,-0.001028,0.239441,-0.030397,0.187724,0.187723,0.172562,0.709573,0.000000,0.000000,0.000000,0.000000,0.000000,0.000000,0.000000,0.000000,0.000000,0.000000,0.000000,0.000000,0.231951,3,0
790000,0.000986,20.266510,-0.047272,0.002094,25.444342,-0.026150,-0.002328,0.012687,1.570873,-0.034215,-0.000163,-0.000851,0.000015,-0.003124,-0.000004,0.009059,-0.001018,0.236061,-0.019772,0.188295,0.188294,0.172680,0.701775,0.000000,0.000000,0.000000,0.000000,0.000000,0.000000,0.000000,0.000000,0.000000,0.000000,0.000000,0.000000,0.228655,3,0
800000,0.000975,20.527037,-0.048369,0.002052,25.456244,-0.027869,-0.002360,0.013167,1.570881,-0.035289,-0.000169,-0.000681,0.000016,-0.003263,-0.000004,0.006139,-0.001007,0.192865,-0.028869,0.188857,0.188856,0.172786,0.694016,0.000000,0.000000,0.000000,0.000000,0.000000,0.000000,0.000000,0.000000,0.000000,0.000000,0.000000,0.000000,0.186797,3,0
810000,0.000964,20.787003,-0.047191,0.001942,25.467079,-0.025965,-0.002392,0.013593,1.570884,-0.036250,-0.000174,-0.000987,0.000017,-0.003389,-0.000004,0.005122,-0.000995,0.170767,0.050635,0.189409,0.189408,0.172881,0.686304,0.000000,0.000000,0.000000,0.000000,0.000000,0.000000,0.000000,0.000000,0.000000,0.000000,0.000000,0.000000,0.165379,3,0
820000,0.000952,21.048929,-0.046072,0.001891,25.481087,-0.024138,-0.002413,0.014171,1.570884,-0.037551,-0.000179,-0.001280,0.000018,-0.003563,-0.000004,0.008816,-0.000983,0.228752,0.047888,0.189950,0.189949,0.172964,0.678642,0.000000,0.000000,0.000000,0.000000,0.000000,0.000000,0.000000,0.000000,0.000000,0.000000,0.000000,0.000000,0.221512,3,0
830000,0.000939,21.309639,-0.044761,0.001741,25.492872,-0.022387,-0.002436,0.014650,1.570882,-0.038615,-0.000185,-0.001615,0.000018,-0.003707,-0.000004,0.006016,-0.000970,0.185354,0.054005,0.190479,0.190479,0.173034,0.671036,0.000000,0.000000,0.000000,0.000000,0.000000,0.000000,0.000000,0.000000,0.000000,0.000000,0.000000,0.000000,0.179473,3,0
840000,0.000925,21.570406,-0.045094,0.001603,25.504660,-0.022856,-0.002459,0.015146,1.570882,-0.039675,-0.000190,-0.001594,0.000019,-0.003854,-0.000005,0.005403,-0.000955,0.182951,-0.003659,0.190997,0.190996,0.173091,0.663491,0.000000,0.000000,0.000000,0.000000,0.000000,0.000000,0.000000,0.000000,0.000000,0.000000,0.000000,0.000000,0.177130,3,0
850000,0.000911,21.828056,-0.044044,0.001533,25.510782,-0.021416,-0.002499,0.015379,1.570879,-0.040149,-0.000195,-0.001876,0.000020,-0.003920,-0.000005,0.001381,-0.000941,0.081097,0.044440,0.191502,0.191501,0.173135,0.656011,0.000000,0.000000,0.000000,0.000000,0.000000,0.000000,0.000000,0.000000,0.000000,0.000000,0.000000,0.000000,0.078514,3,0
860000,0.000897,22.087706,-0.045330,0.001500,25.520285,-0.023311,-0.002523,0.015783,1.570874,-0.040984,-0.000201,-0.001641,0.000021,-0.004039,-0.000005,0.003450,-0.000926,0.141449,-0.037011,0.191995,0.191994,0.173165,0.648600,0.000000,0.000000,0.000000,0.000000,0.000000,0.000000,0.000000,0.000000,0.000000,0.000000,0.000000,0.000000,0.136926,3,0
870000,0.000882,22.347422,-0.045060,0.001367,25.529909,-0.022845,-0.002562,0.016184,1.570871,-0.041817,-0.000206,-0.001756,0.000022,-0.004160,-0.000005,0.003217,-0.000911,0.140127,0.017518,0.192474,0.192473,0.173181,0.641263,0.000000,0.000000,0.000000,0.000000,0.000000,0.000000,0.000000,0.000000,0.000000,0.000000,0.000000,0.000000,0.135634,3,0
880000,0.000866,22.609756,-0.043868,0.001247,25.543888,-0.021231,-0.002588,0.016811,1.570875,-0.043125,-0.000211,-0.002083,0.000022,-0.004352,-0.000005,0.008079,-0.000895,0.218258,0.049377,0.192940,0.192939,0.173182,0.634002,0.000000,0.000000,0.000000,0.000000,0.000000,0.000000,0.000000,0.000000,0.000000,0.000000,0.000000,0.000000,0.211241,3,0
890000,0.000850,22.868273,-0.044321,0.001154,25.551077,-0.021992,-0.002626,0.017099,1.570883,-0.043699,-0.000217,-0.002030,0.000023,-0.004438,-0.000005,0.001465,-0.000878,0.094934,-0.008205,0.193393,0.193392,0.173170,0.626822,0.000000,0.000000,0.000000,0.000000,0.000000,0.000000,0.000000,0.000000,0.000000,0.000000,0.000000,0.000000,0.091879,3,0
900000,0.000833,23.127506,-0.043264,0.001072,25.559443,-0.020394,-0.002647,0.017451,1.570890,-0.044395,-0.000221,-0.002328,0.000024,-0.004544,-0.000005,0.002438,-0.000861,0.114651,0.044337,0.193832,0.193831,0.173143,0.619725,0.000000,0.000000,0.000000,0.000000,0.000000,0.000000,0.000000,0.000000,0.000000,0.000000,0.000000,0.000000,0.110950,3,0
910000,0.000815,23.386160,-0.043719,0.000914,25.566622,-0.021226,-0.002673,0.017750,1.570894,-0.044970,-0.000227,-0.002272,0.000025,-0.004632,-0.000005,0.001433,-0.000843,0.093880,-0.008511,0.194258,0.194257,0.173103,0.612714,0.000000,0.000000,0.000000,0.000000,0.000000,0.000000,0.000000,0.000000,0.000000,0.000000,0.000000,0.000000,0.090843,3,0
920000,0.000796,23.648752,-0.043288,0.000741,25.580723,-0.020669,-0.002708,0.018399,1.570898,-0.046282,-0.000231,-0.002429,0.000026,-0.004838,-0.000006,0.007388,-0.000823,0.212854,0.022448,0.194671,0.194670,0.173048,0.605793,0.000000,0.000000,0.000000,0.000000,0.000000,0.000000,0.000000,0.000000,0.000000,0.000000,0.000000,0.000000,0.205949,3,0
930000,0.000777,23.908773,-0.044538,0.000633,25.590002,-0.022392,-0.002741,0.018816,1.570892,-0.047083,-0.000237,-0.002182,0.000026,-0.004965,-0.000006,0.002896,-0.000803,0.129032,-0.036120,0.195070,0.195069,0.172979,0.598963,0.000000,0.000000,0.000000,0.000000,0.000000,0.000000,0.000000,0.000000,0.000000,0.000000,0.000000,0.000000,0.124840,3,0
940000,0.000757,24.171432,-0.044204,0.000477,25.603867,-0.022039,-0.002778,0.019458,1.570888,-0.048372,-0.000241,-0.002323,0.000027,-0.005173,-0.000006,0.006962,-0.000782,0.206860,0.019578,0.195456,0.195455,0.172896,0.592227,0.000000,0.000000,0.000000,0.000000,0.000000,0.000000,0.000000,0.000000,0.000000,0.000000,0.000000,0.000000,0.200122,3,0
950000,0.000735,24.429560,-0.043037,0.000243,25.609541,-0.020472,-0.002801,0.019699,1.570887,-0.048769,-0.000246,-0.002664,0.000028,-0.005238,-0.000006,0.001025,-0.000760,0.063332,0.048318,0.195830,0.195828,0.172799,0.585587,0.000000,0.000000,0.000000,0.000000,0.000000,0.000000,0.000000,0.000000,0.000000,0.000000,0.000000,0.000000,0.061268,3,0
960000,0.000712,24.688406,-0.043439,0.000089,25.616537,-0.021007,-0.002835,0.019997,1.570887,-0.049295,-0.000250,-0.002618,0.000029,-0.005326,-0.000006,0.001130,-0.000736,0.083454,-0.006760,0.196190,0.196189,0.172689,0.579044,0.000000,0.000000,0.000000,0.000000,0.000000,0.000000,0.000000,0.000000,0.000000,0.000000,0.000000,0.000000,0.080728,3,0
970000,0.000689,24.947962,-0.043994,-0.000033,25.624613,-0.022035,-0.002867,0.020351,1.570893,-0.049947,-0.000255,-0.002536,0.000029,-0.005436,-0.000006,0.001727,-0.000712,0.102840,-0.011770,0.196539,0.196537,0.172566,0.572600,0.000000,0.000000,0.000000,0.000000,0.000000,0.000000,0.000000,0.000000,0.000000,0.000000,0.000000,0.000000,0.099474,3,0
980000,0.000665,25.208218,-0.044179,-0.000208,25.633890,-0.022452,-0.002897,0.020773,1.570897,-0.050720,-0.000259,-0.002549,0.000030,-0.005569,-0.000006,0.002380,-0.000687,0.121508,0.001426,0.196875,0.196873,0.172429,0.566257,0.000000,0.000000,0.000000,0.000000,0.000000,0.000000,0.000000,0.000000,0.000000,0.000000,0.000000,0.000000,0.117523,3,0
990000,0.000639,25.469816,-0.045325,-0.000410,25.645296,-0.024319,-0.002918,0.021327,1.570889,-0.051739,-0.000264,-0.002320,0.000031,-0.005746,-0.000006,0.004257,-0.000661,0.159346,-0.031860,0.197199,0.197197,0.172280,0.560016,0.000000,0.000000,0.000000,0.000000,0.000000,0.000000,0.000000,0.000000,0.000000,0.000000,0.000000,0.000000,0.154109,3,0
1000000,0.000614,25.728811,-0.045725,-0.000484,25.652014,-0.025071,-0.002939,0.021617,1.570898,-0.052231,-0.000268,-0.002284,0.000032,-0.005833,-0.000006,0.000949,-0.000635,0.076542,-0.005227,0.197512,0.197510,0.172119,0.553878,0.000000,0.000000,0.000000,0.000000,0.000000,0.000000,0.000000,0.000000,0.000000,0.000000,0.000000,0.000000,0.074025,3,0
1010000,0.000588,25.990479,-0.045643,-0.000580,25.663370,-0.024984,-0.002974,0.022180,1.570893,-0.053231,-0.000272,-0.002376,0.000032,-0.006013,-0.000007,0.003916,-0.000608,0.155420,0.011795,0.197813,0.197811,0.171945,0.547843,0.000000,0.000000,0.000000,0.000000,0.000000,0.000000,0.000000,0.000000,0.000000,0.000000,0.000000,0.000000,0.150298,3,0
1020000,0.000562,26.249531,-0.045415,-0.000748,25.669878,-0.024814,-0.003006,0.022481,1.570883,-0.053700,-0.000275,-0.002504,0.000033,-0.006099,-0.000007,0.000895,-0.000581,0.072550,0.016886,0.198104,0.198102,0.171760,0.541911,0.000000,0.000000,0.000000,0.000000,0.000000,0.000000,0.000000,0.000000,0.000000,0.000000,0.000000,0.000000,0.070156,3,0
1030000,0.000534,26.509943,-0.044235,-0.000992,25.678776,-0.023395,-0.003030,0.022898,1.570879,-0.054422,-0.000278,-0.002887,0.000034,-0.006232,-0.000007,0.002416,-0.000552,0.111614,0.050191,0.198385,0.198383,0.171564,0.536085,0.000000,0.000000,0.000000,0.000000,0.000000,0.000000,0.000000,0.000000,0.000000,0.000000,0.000000,0.000000,0.107927,3,0
1040000,0.000506,26.773672,-0.043453,-0.001149,25.693316,-0.022502,-0.003062,0.023658,1.570884,-0.055781,-0.000281,-0.003166,0.000034,-0.006487,-0.000007,0.007243,-0.000523,0.208937,0.035865,0.198656,0.198654,0.171356,0.530364,0.000000,0.000000,0.000000,0.000000,0.000000,0.000000,0.000000,0.000000,0.000000,0.000000,0.000000,0.000000,0.202019,3,0
1050000,0.000477,27.032106,-0.044769,-0.001225,25.698530,-0.024416,-0.003100,0.023867,1.570893,-0.056072,-0.000285,-0.002875,0.000035,-0.006543,-0.000007,0.000553,-0.000494,0.044453,-0.038069,0.198917,0.198915,0.171138,0.524748,0.000000,0.000000,0.000000,0.000000,0.000000,0.000000,0.000000,0.000000,0.000000,0.000000,0.000000,0.000000,0.042981,3,0
1060000,0.000448,27.294550,-0.043579,-0.001412,25.710703,-0.022756,-0.003139,0.024487,1.570892,-0.057141,-0.000287,-0.003272,0.000035,-0.006750,-0.000007,0.004730,-0.000463,0.163666,0.050527,0.199170,0.199167,0.170910,0.519238,0.000000,0.000000,0.000000,0.000000,0.000000,0.000000,0.000000,0.000000,0.000000,0.000000,0.000000,0.000000,0.158234,3,0
1070000,0.000418,27.553020,-0.043145,-0.001629,25.715687,-0.022204,-0.003179,0.024681,1.570895,-0.057404,-0.000290,-0.003456,0.000036,-0.006801,-0.000007,0.000350,-0.000432,0.040253,0.023415,0.199414,0.199411,0.170672,0.513833,0.000000,0.000000,0.000000,0.000000,0.000000,0.000000,0.000000,0.000000,0.000000,0.000000,0.000000,0.000000,0.038918,3,0
1080000,0.000387,27.812202,-0.043551,-0.001737,25.721947,-0.022978,-0.003206,0.024947,1.570886,-0.057798,-0.000292,-0.003409,0.000036,-0.006880,-0.000007,0.000587,-0.000400,0.060036,-0.006246,0.199649,0.199647,0.170425,0.508533,0.000000,0.000000,0.000000,0.000000,0.000000,0.000000,0.000000,0.000000,0.000000,0.000000,0.000000,0.000000,0.058040,3,0
1090000,0.000357,28.075394,-0.042760,-0.001815,25.735041,-0.022038,-0.003235,0.025646,1.570883,-0.058971,-0.000294,-0.003703,0.000037,-0.007117,-0.000008,0.005346,-0.000369,0.178490,0.036272,0.199878,0.199875,0.170169,0.503338,0.000000,0.000000,0.000000,0.000000,0.000000,0.000000,0.000000,0.000000,0.000000,0.000000,0.000000,0.000000,0.172545,3,0
1100000,0.000326,28.336573,-0.042944,-0.002026,25.744535,-0.022418,-0.003273,0.026117,1.570879,-0.059723,-0.000296,-0.003720,0.000037,-0.007271,-0.000008,0.002092,-0.000337,0.113955,0.001528,0.200099,0.200096,0.169904,0.498247,0.000000,0.000000,0.000000,0.000000,0.000000,0.000000,0.000000,0.000000,0.000000,0.000000,0.000000,0.000000,0.110156,3,0
1110000,0.000294,28.596430,-0.043184,-0.002109,25.751640,-0.022905,-0.003304,0.026453,1.570883,-0.060193,-0.000298,-0.003720,0.000038,-0.007369,-0.000008,0.000820,-0.000305,0.071348,-0.000313,0.200313,0.200310,0.169631,0.493260,0.000000,0.000000,0.000000,0.000000,0.000000,0.000000,0.000000,0.000000,0.000000,0.000000,0.000000,0.000000,0.068967,3,0
1120000,0.000263,28.854980,-0.042685,-0.002243,25.756250,-0.022147,-0.003336,0.026643,1.570879,-0.060391,-0.000300,-0.003931,0.000038,-0.007411,-0.000008,0.000254,-0.000272,0.030088,0.025893,0.200521,0.200518,0.169351,0.488377,0.000000,0.000000,0.000000,0.000000,0.000000,0.000000,0.000000,0.000000,0.000000,0.000000,0.000000,0.000000,0.029084,3,0
1130000,0.000232,29.117565,-0.043250,-0.002368,25.768023,-0.022935,-0.003367,0.027260,1.570880,-0.061378,-0.000301,-0.003840,0.000038,-0.007623,-0.000008,0.003609,-0.000240,0.149193,-0.011931,0.200724,0.200720,0.169063,0.483596,0.000000,0.000000,0.000000,0.000000,0.000000,0.000000,0.000000,0.000000,0.000000,0.000000,0.000000,0.000000,0.144201,3,0
1140000,0.000200,29.381458,-0.042722,-0.002472,25.781837,-0.022365,-0.003404,0.028021,1.570882,-0.062600,-0.000302,-0.004073,0.000039,-0.007888,-0.000008,0.005614,-0.000207,0.184675,0.027273,0.200921,0.200917,0.168768,0.478917,0.000000,0.000000,0.000000,0.000000,0.000000,0.000000,0.000000,0.000000,0.000000,0.000000,0.000000,0.000000,0.178492,3,0
1150000,0.000167,29.641312,-0.044067,-0.002684,25.788393,-0.024456,-0.003435,0.028328,1.570885,-0.062997,-0.000304,-0.003748,0.000039,-0.007976,-0.000008,0.000830,-0.000173,0.059792,-0.039639,0.201113,0.201108,0.168466,0.474339,0.000000,0.000000,0.000000,0.000000,0.000000,0.000000,0.000000,0.000000,0.000000,0.000000,0.000000,0.000000,0.057787,3,0
1160000,0.000134,29.903181,-0.042947,-0.002840,25.798515,-0.023271,-0.003463,0.028859,1.570885,-0.063776,-0.000304,-0.004162,0.000039,-0.008151,-0.000008,0.002630,-0.000139,0.117935,0.049038,0.201300,0.201296,0.168159,0.469862,0.000000,0.000000,0.000000,0.000000,0.000000,0.000000,0.000000,0.000000,0.000000,0.000000,0.000000,0.000000,0.113981,3,0
1170000,0.000101,30.164371,-0.043074,-0.003015,25.807169,-0.023510,-0.003499,0.029308,1.570883,-0.064402,-0.000305,-0.004201,0.000039,-0.008293,-0.000009,0.001441,-0.000104,0.094513,0.004028,0.201484,0.201479,0.167845,0.465483,0.000000,0.000000,0.000000,0.000000,0.000000,0.000000,0.000000,0.000000,0.000000,0.000000,0.000000,0.000000,0.091339,3,0
1180000,0.000066,30.426226,-0.044346,-0.003220,25.817049,-0.025454,-0.003538,0.029836,1.570885,-0.065143,-0.000306,-0.003897,0.000039,-0.008464,-0.000009,0.002223,-0.000069,0.111542,-0.036761,0.201663,0.201658,0.167527,0.461203,0.000000,0.000000,0.000000,0.000000,0.000000,0.000000,0.000000,0.000000,0.000000,0.000000,0.000000,0.000000,0.107792,3,0
1190000,0.000031,30.689402,-0.045724,-0.003444,25.829018,-0.027518,-0.003566,0.030504,1.570885,-0.066123,-0.000306,-0.003567,0.000039,-0.008694,-0.000009,0.003775,-0.000032,0.147772,-0.039912,0.201839,0.201834,0.167203,0.457020,0.000000,0.000000,0.000000,0.000000,0.000000,0.000000,0.000000,0.000000,0.000000,0.000000,0.000000,0.000000,0.142799,3,0
1200000,-0.000005,30.949858,-0.044685,-0.003579,25.836082,-0.026370,-0.003603,0.030842,1.570875,-0.066541,-0.000306,-0.003976,0.000039,-0.008793,-0.000009,0.001014,0.000005,0.063385,0.047555,0.202013,0.202007,0.166874,0.452932,0.000000,0.000000,0.000000,0.000000,0.000000,0.000000,0.000000,0.000000,0.000000,0.000000,0.000000,0.000000,0.061253,3,0
1210000,-0.000041,31.212326,-0.044161,-0.003816,25.846558,-0.025828,-0.003628,0.031413,1.570878,-0.067339,-0.000305,-0.004231,0.000039,-0.008985,-0.000009,0.002489,0.000043,0.120920,0.028766,0.202183,0.202177,0.166542,0.448940,0.000000,0.000000,0.000000,0.000000,0.000000,0.000000,0.000000,0.000000,0.000000,0.000000,0.000000,0.000000,0.116846,3,0
1220000,-0.000080,31.471415,-0.045319,-0.004099,25.851048,-0.027524,-0.003648,0.031572,1.570878,-0.067456,-0.000305,-0.003953,0.000039,-0.009013,-0.000009,0.000217,0.000082,0.017376,-0.032264,0.202352,0.202345,0.166205,0.445041,0.000000,0.000000,0.000000,0.000000,0.000000,0.000000,0.000000,0.000000,0.000000,0.000000,0.000000,0.000000,0.016789,3,0
1230000,-0.000118,31.730520,-0.044352,-0.004284,25.855459,-0.026426,-0.003669,0.031725,1.570881,-0.067563,-0.000303,-0.004346,0.000039,-0.009040,-0.000009,0.000375,0.000123,0.016670,0.045146,0.202518,0.202511,0.165865,0.441235,0.000000,0.000000,0.000000,0.000000,0.000000,0.000000,0.000000,0.000000,0.000000,0.000000,0.000000,0.000000,0.016110,3,0
1240000,-0.000158,31.988977,-0.045489,-0.004540,25.858698,-0.027905,-0.003694,0.031788,1.570876,-0.067539,-0.000303,-0.004071,0.000039,-0.009034,-0.000009,0.000163,0.000164,-0.003931,-0.031491,0.202683,0.202675,0.165522,0.437519,0.000000,0.000000,0.000000,0.000000,0.000000,0.000000,0.000000,0.000000,0.000000,0.000000,0.000000,0.000000,0.003803,3,0
1250000,-0.000199,32.248138,-0.046843,-0.004711,25.863220,-0.029799,-0.003719,0.031939,1.570870,-0.067646,-0.000302,-0.003730,0.000038,-0.009061,-0.000009,0.000285,0.000206,0.015881,-0.038839,0.202847,0.202839,0.165176,0.433893,0.000000,0.000000,0.000000,0.000000,0.000000,0.000000,0.000000,0.000000,0.000000,0.000000,0.000000,0.000000,0.015344,3,0
1260000,-0.000240,32.510006,-0.046754,-0.004988,25.872305,-0.029594,-0.003745,0.032436,1.570880,-0.068267,-0.000300,-0.003865,0.000038,-0.009222,-0.000009,0.001475,0.000249,0.094620,0.014396,0.203009,0.203001,0.164827,0.430355,0.000000,0.000000,0.000000,0.000000,0.000000,0.000000,0.000000,0.000000,0.000000,0.000000,0.000000,0.000000,0.091420,3,0
1270000,-0.000283,32.769157,-0.047530,-0.005226,25.876560,-0.030474,-0.003763,0.032574,1.570871,-0.068343,-0.000298,-0.003711,0.000037,-0.009242,-0.000009,0.000071,0.000293,0.011570,-0.017412,0.203172,0.203163,0.164476,0.426905,0.000000,0.000000,0.000000,0.000000,0.000000,0.000000,0.000000,0.000000,0.000000,0.000000,0.000000,0.000000,0.011181,3,0
1280000,-0.000325,33.032364,-0.046321,-0.005312,25.887819,-0.029027,-0.003784,0.033220,1.570872,-0.069192,-0.000295,-0.004220,0.000037,-0.009468,-0.000009,0.003230,0.000336,0.130074,0.055839,0.203333,0.203324,0.164123,0.423539,0.000000,0.000000,0.000000,0.000000,0.000000,0.000000,0.000000,0.000000,0.000000,0.000000,0.000000,0.000000,0.125668,3,0
1290000,-0.000367,33.293499,-0.045698,-0.005456,25.895361,-0.028213,-0.003808,0.033606,1.570872,-0.069618,-0.000292,-0.004529,0.000036,-0.009583,-0.000009,0.000876,0.000379,0.065540,0.033749,0.203495,0.203485,0.163769,0.420258,0.000000,0.000000,0.000000,0.000000,0.000000,0.000000,0.000000,0.000000,0.000000,0.000000,0.000000,0.000000,0.063321,3,0
1300000,-0.000409,33.553268,-0.044693,-0.005633,25.900335,-0.027050,-0.003844,0.033797,1.570868,-0.069765,-0.000289,-0.004960,0.000035,-0.009622,-0.000009,0.000451,0.000423,0.022999,0.047469,0.203657,0.203647,0.163413,0.417059,0.000000,0.000000,0.000000,0.000000,0.000000,0.000000,0.000000,0.000000,0.000000,0.000000,0.000000,0.000000,0.022224,3,0
1310000,-0.000451,33.815742,-0.044041,-0.005762,25.910152,-0.026382,-0.003871,0.034334,1.570871,-0.070420,-0.000285,-0.005281,0.000034,-0.009804,-0.000010,0.001838,0.000467,0.101120,0.034398,0.203819,0.203808,0.163056,0.413943,0.000000,0.000000,0.000000,0.000000,0.000000,0.000000,0.000000,0.000000,0.000000,0.000000,0.000000,0.000000,0.097688,3,0
1320000,-0.000493,34.078178,-0.043385,-0.005919,25.919781,-0.025557,-0.003895,0.034859,1.570863,-0.071046,-0.000281,-0.005604,0.000033,-0.009980,-0.000010,0.001705,0.000510,0.096977,0.034325,0.203982,0.203971,0.162698,0.410906,0.000000,0.000000,0.000000,0.000000,0.000000,0.000000,0.000000,0.000000,0.000000,0.000000,0.000000,0.000000,0.093683,3,0
1330000,-0.000536,34.338543,-0.043748,-0.006204,25.925682,-0.026097,-0.003927,0.035106,1.570864,-0.071261,-0.000278,-0.005572,0.000032,-0.010042,-0.000010,0.000180,0.000555,0.033234,-0.003723,0.204146,0.204134,0.162340,0.407947,0.000000,0.000000,0.000000,0.000000,0.000000,0.000000,0.000000,0.000000,0.000000,0.000000,0.000000,0.000000,0.032109,3,0
1340000,-0.000580,34.598900,-0.043171,-0.006344,25.931501,-0.025417,-0.003954,0.035354,1.570856,-0.071460,-0.000273,-0.005864,0.000031,-0.010099,-0.000010,0.000315,0.000600,0.031231,0.031245,0.204310,0.204297,0.161981,0.405066,0.000000,0.000000,0.000000,0.000000,0.000000,0.000000,0.000000,0.000000,0.000000,0.000000,0.000000,0.000000,0.030176,3,0
1350000,-0.000624,34.857899,-0.044299,-0.006625,25.934830,-0.026960,-0.003976,0.035400,1.570853,-0.071395,-0.000270,-0.005563,0.000030,-0.010081,-0.000010,0.000187,0.000646,-0.010513,-0.032289,0.204476,0.204463,0.161623,0.402261,0.000000,0.000000,0.000000,0.000000,0.000000,0.000000,0.000000,0.000000,0.000000,0.000000,0.000000,0.000000,0.010178,3,0
1360000,-0.000669,35.119621,-0.044843,-0.006773,25.942858,-0.027696,-0.004006,0.035821,1.570850,-0.071833,-0.000265,-0.005477,0.000029,-0.010212,-0.000010,0.000769,0.000692,0.068394,-0.009846,0.204643,0.204629,0.161264,0.399529,0.000000,0.000000,0.000000,0.000000,0.000000,0.000000,0.000000,0.000000,0.000000,0.000000,0.000000,0.000000,0.066063,3,0
1370000,-0.000713,35.378593,-0.044923,-0.006924,25.945910,-0.027755,-0.004030,0.035854,1.570851,-0.071740,-0.000260,-0.005546,0.000027,-0.010183,-0.000010,0.000043,0.000738,-0.014500,0.007400,0.204811,0.204796,0.160906,0.396869,0.000000,0.000000,0.000000,0.000000,0.000000,0.000000,0.000000,0.000000,0.000000,0.000000,0.000000,0.000000,0.014022,3,0
1380000,-0.000758,35.639618,-0.046360,-0.007048,25.952673,-0.029459,-0.004062,0.036178,1.570846,-0.072025,-0.000256,-0.005143,0.000026,-0.010272,-0.000010,0.000621,0.000784,0.044563,-0.043076,0.204981,0.204966,0.160548,0.394281,0.000000,0.000000,0.000000,0.000000,0.000000,0.000000,0.000000,0.000000,0.000000,0.000000,0.000000,0.000000,0.043044,3,0
1390000,-0.000801,35.902653,-0.045519,-0.007132,25.962805,-0.028542,-0.004088,0.036762,1.570837,-0.072664,-0.000250,-0.005563,0.000024,-0.010470,-0.000010,0.001961,0.000829,0.101532,0.043097,0.205153,0.205137,0.160192,0.391762,0.000000,0.000000,0.000000,0.000000,0.000000,0.000000,0.000000,0.000000,0.000000,0.000000,0.000000,0.000000,0.098068,3,0
1400000,-0.000844,36.162231,-0.046100,-0.007257,25.966576,-0.029519,-0.004108,0.036851,1.570845,-0.072648,-0.000245,-0.005459,0.000022,-0.010466,-0.000010,0.000020,0.000874,-0.002571,-0.010845,0.205326,0.205309,0.159836,0.389311,0.000000,0.000000,0.000000,0.000000,0.000000,0.000000,0.000000,0.000000,0.000000,0.000000,0.000000,0.000000,0.002623,3,0
1410000,-0.000888,36.424534,-0.046428,-0.007516,25.975315,-0.029927,-0.004131,0.037324,1.570837,-0.073122,-0.000239,-0.005460,0.000020,-0.010618,-0.000010,0.000924,0.000920,0.075748,-0.000813,0.205501,0.205483,0.159482,0.386928,0.000000,0.000000,0.000000,0.000000,0.000000,0.000000,0.000000,0.000000,0.000000,0.000000,0.000000,0.000000,0.073160,3,0
1420000,-0.000932,36.684742,-0.045387,-0.007664,25.980173,-0.028751,-0.004158,0.037480,1.570832,-0.073195,-0.000232,-0.005950,0.000018,-0.010641,-0.000010,0.000442,0.000966,0.012150,0.050772,0.205678,0.205659,0.159129,0.384610,0.000000,0.000000,0.000000,0.000000,0.000000,0.000000,0.000000,0.000000,0.000000,0.000000,0.000000,0.000000,0.011775,3,0
1430000,-0.000977,36.945618,-0.045546,-0.007846,25.986082,-0.029040,-0.004175,0.037739,1.570839,-0.073381,-0.000226,-0.006004,0.000016,-0.010702,-0.000010,0.000151,0.001011,0.030201,0.005164,0.205857,0.205837,0.158778,0.382355,0.000000,0.000000,0.000000,0.000000,0.000000,0.000000,0.000000,0.000000,0.000000,0.000000,0.000000,0.000000,0.029184,3,0
1440000,-0.001021,37.205788,-0.045944,-0.008001,25.990631,-0.029446,-0.004194,0.037887,1.570841,-0.073430,-0.000219,-0.005966,0.000014,-0.010719,-0.000010,0.000013,0.001057,0.007812,-0.003950,0.206037,0.206017,0.158428,0.380163,0.000000,0.000000,0.000000,0.000000,0.000000,0.000000,0.000000,0.000000,0.000000,0.000000,0.000000,0.000000,0.007614,3,0
1450000,-0.001066,37.469357,-0.045996,-0.008197,26.001259,-0.029680,-0.004211,0.038518,1.570836,-0.074075,-0.000212,-0.006076,0.000012,-0.010938,-0.000010,0.001804,0.001104,0.105415,0.009875,0.206220,0.206199,0.158081,0.378032,0.000000,0.000000,0.000000,0.000000,0.000000,0.000000,0.000000,0.000000,0.000000,0.000000,0.000000,0.000000,0.101801,3,0
1460000,-0.001110,37.731495,-0.047339,-0.008323,26.009207,-0.031482,-0.004234,0.038927,1.570836,-0.074446,-0.000206,-0.005697,0.000009,-0.011067,-0.000010,0.000838,0.001150,0.060410,-0.039306,0.206405,0.206383,0.157735,0.375961,0.000000,0.000000,0.000000,0.000000,0.000000,0.000000,0.000000,0.000000,0.000000,0.000000,0.000000,0.000000,0.058337,3,0
1470000,-0.001156,37.992893,-0.047604,-0.008591,26.015808,-0.031954,-0.004252,0.039214,1.570834,-0.074669,-0.000199,-0.005725,0.000007,-0.011145,-0.000010,0.000218,0.001197,0.036736,0.002288,0.206591,0.206569,0.157392,0.373948,0.000000,0.000000,0.000000,0.000000,0.000000,0.000000,0.000000,0.000000,0.000000,0.000000,0.000000,0.000000,0.035492,3,0
1480000,-0.001201,38.253567,-0.047675,-0.008712,26.020855,-0.032158,-0.004280,0.039401,1.570843,-0.074751,-0.000191,-0.005823,0.000004,-0.011174,-0.000010,0.000046,0.001244,0.013821,0.009746,0.206780,0.206756,0.157051,0.371992,0.000000,0.000000,0.000000,0.000000,0.000000,0.000000,0.000000,0.000000,0.000000,0.000000,0.000000,0.000000,0.013402,3,0
1490000,-0.001246,38.513531,-0.048065,-0.008955,26.024593,-0.032865,-0.004306,0.039467,1.570840,-0.074701,-0.000183,-0.005798,0.000001,-0.011156,-0.000010,0.000012,0.001291,-0.008358,-0.002424,0.206970,0.206946,0.156712,0.370092,0.000000,0.000000,0.000000,0.000000,0.000000,0.000000,0.000000,0.000000,0.000000,0.000000,0.000000,0.000000,0.008168,3,0
1500000,-0.001292,38.771420,-0.048911,-0.009102,26.024548,-0.033846,-0.004327,0.039218,1.570850,-0.074289,-0.000176,-0.005587,-0.000001,-0.011006,-0.000010,0.000844,0.001338,-0.069569,-0.020060,0.207163,0.207137,0.156377,0.368246,0.000000,0.000000,0.000000,0.000000,0.000000,0.000000,0.000000,0.000000,0.000000,0.000000,0.000000,0.000000,0.067182,3,0
1510000,-0.001338,39.034821,-0.049950,-0.009257,26.034529,-0.035200,-0.004356,0.039804,1.570858,-0.074822,-0.000168,-0.005336,-0.000004,-0.011205,-0.000010,0.001415,0.001386,0.090000,-0.026256,0.207357,0.207330,0.156044,0.366453,0.000000,0.000000,0.000000,0.000000,0.000000,0.000000,0.000000,0.000000,0.000000,0.000000,0.000000,0.000000,0.086898,3,0
1520000,-0.001383,39.294716,-0.050930,-0.009335,26.038050,-0.036587,-0.004384,0.039828,1.570849,-0.074739,-0.000160,-0.005091,-0.000008,-0.011174,-0.000010,0.000128,0.001432,-0.014473,-0.024046,0.207553,0.207525,0.155713,0.364712,0.000000,0.000000,0.000000,0.000000,0.000000,0.000000,0.000000,0.000000,0.000000,0.000000,0.000000,0.000000,0.014045,3,0
1530000,-0.001427,39.554581,-0.050293,-0.009482,26.041412,-0.035758,-0.004412,0.039853,1.570852,-0.074644,-0.000151,-0.005482,-0.000011,-0.011136,-0.000010,0.000286,0.001479,-0.015976,0.038801,0.207750,0.207722,0.155386,0.363021,0.000000,0.000000,0.000000,0.000000,0.000000,0.000000,0.000000,0.000000,0.000000,0.000000,0.000000,0.000000,0.015481,3,0
1540000,-0.001472,39.816490,-0.049367,-0.009675,26.048355,-0.034753,-0.004437,0.040194,1.570857,-0.074884,-0.000141,-0.005999,-0.000014,-0.011228,-0.000010,0.000695,0.001525,0.042191,0.050113,0.207950,0.207920,0.155062,0.361378,0.000000,0.000000,0.000000,0.000000,0.000000,0.000000,0.000000,0.000000,0.000000,0.000000,0.000000,0.000000,0.040764,3,0
1550000,-0.001518,40.078362,-0.050630,-0.009922,26.055109,-0.036382,-0.004457,0.040524,1.570863,-0.075108,-0.000133,-0.005647,-0.000018,-0.011318,-0.000010,0.000440,0.001572,0.038639,-0.035010,0.208150,0.208120,0.154741,0.359783,0.000000,0.000000,0.000000,0.000000,0.000000,0.000000,0.000000,0.000000,0.000000,0.000000,0.000000,0.000000,0.037323,3,0
1560000,-0.001563,40.336033,-0.050492,-0.010039,26.054214,-0.036046,-0.004469,0.040174,1.570855,-0.074628,-0.000123,-0.005829,-0.000022,-0.011125,-0.000010,0.001199,0.001619,-0.084156,0.019030,0.208353,0.208321,0.154424,0.358235,0.000000,0.000000,0.000000,0.000000,0.000000,0.000000,0.000000,0.000000,0.000000,0.000000,0.000000,0.000000,0.081245,3,0
1570000,-0.001608,40.597870,-0.051237,-0.010246,26.060923,-0.036961,-0.004495,0.040478,1.570849,-0.074831,-0.000114,-0.005685,-0.000025,-0.011208,-0.000010,0.000242,0.001666,0.035889,-0.014547,0.208557,0.208524,0.154109,0.356732,0.000000,0.000000,0.000000,0.000000,0.000000,0.000000,0.000000,0.000000,0.000000,0.000000,0.000000,0.000000,0.034675,3,0
1580000,-0.001654,40.857574,-0.051205,-0.010422,26.063587,-0.036787,-0.004520,0.040439,1.570854,-0.074678,-0.000104,-0.005842,-0.000029,-0.011144,-0.000010,0.000159,0.001714,-0.027229,0.015588,0.208762,0.208728,0.153798,0.355273,0.000000,0.000000,0.000000,0.000000,0.000000,0.000000,0.000000,0.000000,0.000000,0.000000,0.000000,0.000000,0.026331,3,0
1590000,-0.001700,41.117268,-0.052387,-0.010582,26.066236,-0.038046,-0.004532,0.040393,1.570855,-0.074522,-0.000095,-0.005505,-0.000033,-0.011080,-0.000010,0.000297,0.001761,-0.028538,-0.031918,0.208968,0.208933,0.153491,0.353857,0.000000,0.000000,0.000000,0.000000,0.000000,0.000000,0.000000,0.000000,0.000000,0.000000,0.000000,0.000000,0.027602,3,0
1600000,-0.001744,41.379002,-0.051703,-0.010652,26.072420,-0.037263,-0.004540,0.040660,1.570859,-0.074683,-0.000084,-0.005950,-0.000038,-0.011147,-0.000010,0.000432,0.001807,0.029812,0.042139,0.209176,0.209140,0.153187,0.352481,0.000000,0.000000,0.000000,0.000000,0.000000,0.000000,0.000000,0.000000,0.000000,0.000000,0.000000,0.000000,0.028835,3,0
1610000,-0.001788,41.642071,-0.050677,-0.010772,26.081133,-0.035924,-0.004566,0.041127,1.570865,-0.075040,-0.000073,-0.006544,-0.000042,-0.011299,-0.000010,0.001206,0.001853,0.066193,0.055484,0.209385,0.209347,0.152887,0.351147,0.000000,0.000000,0.000000,0.000000,0.000000,0.000000,0.000000,0.000000,0.000000,0.000000,0.000000,0.000000,0.063917,3,0
1620000,-0.001831,41.900211,-0.050554,-0.010835,26.080557,-0.035741,-0.004591,0.040791,1.570875,-0.074619,-0.000062,-0.006725,-0.000047,-0.011114,-0.000010,0.001027,0.001897,-0.077690,0.018539,0.209594,0.209555,0.152590,0.349851,0.000000,0.000000,0.000000,0.000000,0.000000,0.000000,0.000000,0.000000,0.000000,0.000000,0.000000,0.000000,0.074996,3,0
1630000,-0.001875,42.161831,-0.050908,-0.011077,26.086411,-0.036388,-0.004602,0.041022,1.570864,-0.074737,-0.000052,-0.006735,-0.000052,-0.011166,-0.000010,0.000078,0.001943,0.021999,0.000545,0.209805,0.209764,0.152297,0.348593,0.000000,0.000000,0.000000,0.000000,0.000000,0.000000,0.000000,0.000000,0.000000,0.000000,0.000000,0.000000,0.021311,3,0
1640000,-0.001920,42.424088,-0.050465,-0.011333,26.093378,-0.035915,-0.004621,0.041341,1.570868,-0.074939,-0.000040,-0.007086,-0.000057,-0.011257,-0.000010,0.000411,0.001990,0.038624,0.032377,0.210015,0.209974,0.152008,0.347373,0.000000,0.000000,0.000000,0.000000,0.000000,0.000000,0.000000,0.000000,0.000000,0.000000,0.000000,0.000000,0.037327,3,0
1650000,-0.001964,42.684193,-0.050673,-0.011436,26.096310,-0.036060,-0.004635,0.041312,1.570864,-0.074808,-0.000030,-0.007144,-0.000061,-0.011196,-0.000010,0.000106,0.002035,-0.024914,0.005912,0.210226,0.210184,0.151723,0.346189,0.000000,0.000000,0.000000,0.000000,0.000000,0.000000,0.000000,0.000000,0.000000,0.000000,0.000000,0.000000,0.024120,3,0
1660000,-0.002007,42.942169,-0.050351,-0.011524,26.095114,-0.035748,-0.004655,0.040909,1.570867,-0.074358,-0.000018,-0.007410,-0.000067,-0.010985,-0.000010,0.001311,0.002081,-0.086254,0.026474,0.210438,0.210394,0.151442,0.345038,0.000000,0.000000,0.000000,0.000000,0.000000,0.000000,0.000000,0.000000,0.000000,0.000000,0.000000,0.000000,0.083249,3,0
1670000,-0.002051,43.201550,-0.051012,-0.011667,26.096531,-0.036296,-0.004677,0.040752,1.570872,-0.074123,-0.000008,-0.007268,-0.000072,-0.010874,-0.000010,0.000366,0.002125,-0.046036,-0.012381,0.210649,0.210604,0.151164,0.343921,0.000000,0.000000,0.000000,0.000000,0.000000,0.000000,0.000000,0.000000,0.000000,0.000000,0.000000,0.000000,0.044469,3,0
1680000,-0.002094,43.460217,-0.052082,-0.011779,26.096590,-0.037526,-0.004684,0.040465,1.570872,-0.073784,0.000003,-0.006947,-0.000077,-0.010712,-0.000010,0.000853,0.002170,-0.066887,-0.028557,0.210861,0.210815,0.150891,0.342836,0.000000,0.000000,0.000000,0.000000,0.000000,0.000000,0.000000,0.000000,0.000000,0.000000,0.000000,0.000000,0.064579,3,0
1690000,-0.002137,43.720955,-0.051695,-0.011985,26.100433,-0.036977,-0.004707,0.040528,1.570881,-0.073745,0.000014,-0.007274,-0.000082,-0.010691,-0.000010,0.000160,0.002215,-0.007488,0.030442,0.211073,0.211025,0.150621,0.341782,0.000000,0.000000,0.000000,0.000000,0.000000,0.000000,0.000000,0.000000,0.000000,0.000000,0.000000,0.000000,0.007527,3,0
1700000,-0.002181,43.979561,-0.052601,-0.012170,26.100241,-0.037816,-0.004728,0.040212,1.570873,-0.073401,0.000025,-0.007021,-0.000088,-0.010520,-0.000010,0.000856,0.002260,-0.069477,-0.021967,0.211284,0.211235,0.150356,0.340759,0.000000,0.000000,0.000000,0.000000,0.000000,0.000000,0.000000,0.000000,0.000000,0.000000,0.000000,0.000000,0.067071,3,0
