time_us,pos_x,pos_y,pos_z,vel_x,vel_y,vel_z,roll,pitch,yaw,bias_ax,bias_ay,bias_az,bias_gx,bias_gy,bias_gz,nis,innov_x,innov_y,innov_z,cov_pos_x,cov_pos_y,cov_pos_z,cov_yaw,des_speed,des_heading,des_climb,pid_speed,pid_yaw,pid_alt,speed_meas,yaw_meas,climb_meas,fwd_accel,yaw_rate,vert_accel,drift_m,nav_mode,mission_state
0,-0.000002,0.149999,-0.000004,-0.000319,24.999786,-0.001050,-0.000006,-0.000001,1.570779,0.000000,0.000000,0.000000,0.000000,0.000000,0.000000,0.006250,0.000003,-0.250000,0.000011,2.400038,2.400038,3.600017,1.000518,0.000000,0.000000,0.000000,0.000000,0.000000,0.000000,0.000000,0.000000,0.000000,0.000000,0.000000,0.000000,0.149999,1,0
10000,-0.000007,0.365225,0.003169,-0.000826,24.999592,-0.001846,-0.000023,-0.000014,1.570759,0.000000,0.000000,-0.000000,0.000000,0.000000,0.000000,0.001770,0.000010,-0.121692,0.008511,1.714420,1.714420,2.250079,1.001073,0.000000,0.000000,0.000000,0.000000,0.000000,0.000000,0.000000,0.000000,0.000000,0.000000,0.000000,0.000000,0.086920,3,0
20000,-0.000016,0.571265,0.001925,-0.001335,24.999138,-0.002968,-0.000024,-0.000014,1.570754,0.000002,0.000000,0.000000,-0.000000,0.000000,-0.000000,0.005072,0.000021,-0.197765,-0.004452,1.333616,1.333616,1.636554,1.001655,0.000000,0.000000,0.000000,0.000000,0.000000,0.000000,0.000000,0.000000,0.000000,0.000000,0.000000,0.000000,0.153808,3,0
30000,-0.000027,0.812894,-0.010901,-0.001720,24.999075,-0.003991,-0.000035,-0.000016,1.570737,0.000003,0.000000,0.000001,0.000000,0.000000,-0.000000,0.000754,0.000033,-0.045980,-0.059663,1.091392,1.091392,1.286065,1.002257,0.000000,0.000000,0.000000,0.000000,0.000000,0.000000,0.000000,0.000000,0.000000,0.000000,0.000000,0.000000,0.037616,3,0
40000,-0.000041,1.046150,-0.018498,-0.002077,24.998745,-0.005016,-0.000049,-0.000012,1.570724,0.000006,0.000000,0.000002,0.000000,0.000000,-0.000000,0.001917,0.000048,-0.108698,-0.042754,0.923811,0.923811,1.059385,1.002869,0.000000,0.000000,0.000000,0.000000,0.000000,0.000000,0.000000,0.000000,0.000000,0.000000,0.000000,0.000000,0.091962,3,0
50000,-0.000058,1.298258,-0.018579,-0.002580,24.998995,-0.006096,-0.000058,-0.000017,1.570716,0.000005,0.000000,0.000002,0.000000,0.000000,-0.000000,0.000036,0.000066,0.015869,-0.000131,0.801036,0.801036,0.900822,1.003484,0.000000,0.000000,0.000000,0.000000,0.000000,0.000000,0.000000,0.000000,0.000000,0.000000,0.000000,0.000000,0.013751,3,0
60000,-0.000077,1.550864,-0.016843,-0.002952,24.999294,-0.006998,-0.000063,-0.000011,1.570698,0.000004,0.000000,0.000001,-0.000000,0.000000,-0.000000,0.000100,0.000087,0.022185,0.013835,0.707270,0.707270,0.783741,1.004094,0.000000,0.000000,0.000000,0.000000,0.000000,0.000000,0.000000,0.000000,0.000000,0.000000,0.000000,0.000000,0.019570,3,0
70000,-0.000100,1.801717,-0.018767,-0.003450,24.999527,-0.007939,-0.000082,-0.000019,1.570686,0.000003,0.000000,0.000003,-0.000000,-0.000000,-0.000000,0.000047,0.000111,0.008122,-0.015966,0.633370,0.633370,0.693801,1.004688,0.000000,0.000000,0.000000,0.000000,0.000000,0.000000,0.000000,0.000000,0.000000,0.000000,0.000000,0.000000,0.007266,3,0
80000,-0.000124,2.043709,-0.016042,-0.003780,24.998873,-0.008756,-0.000083,-0.000017,1.570673,0.000012,0.000000,-0.000000,-0.000000,0.000000,-0.000000,0.001166,0.000137,-0.083699,0.027131,0.573673,0.573673,0.622594,1.005260,0.000000,0.000000,0.000000,0.000000,0.000000,0.000000,0.000000,0.000000,0.000000,0.000000,0.000000,0.000000,0.075697,3,0
90000,-0.000152,2.287819,-0.021716,-0.004197,24.998354,-0.010059,-0.000103,-0.000023,1.570663,0.000021,0.000000,0.000007,-0.000000,0.000000,-0.000000,0.001218,0.000166,-0.067260,-0.059256,0.524488,0.524488,0.564865,1.005801,0.000000,0.000000,0.000000,0.000000,0.000000,0.000000,0.000000,0.000000,0.000000,0.000000,0.000000,0.000000,0.061381,3,0
100000,-0.000183,2.531938,-0.026095,-0.004706,24.997671,-0.011355,-0.000110,-0.000023,1.570654,0.000032,0.000000,0.000015,-0.000000,0.000000,-0.000000,0.001186,0.000199,-0.072818,-0.049543,0.483303,0.483303,0.517162,1.006301,0.000000,0.000000,0.000000,0.000000,0.000000,0.000000,0.000000,0.000000,0.000000,0.000000,0.000000,0.000000,0.066952,3,0
110000,-0.000216,2.789428,-0.025559,-0.005061,24.998884,-0.012241,-0.000124,-0.000016,1.570634,0.000013,0.000000,0.000013,-0.000000,0.000000,-0.000000,0.001569,0.000233,0.100527,0.008290,0.448353,0.448353,0.477121,1.006754,0.000000,0.000000,0.000000,0.000000,0.000000,0.000000,0.000000,0.000000,0.000000,0.000000,0.000000,0.000000,0.093015,3,0
120000,-0.000252,3.042334,-0.028245,-0.005541,24.999537,-0.013525,-0.000129,-0.000010,1.570631,0.000004,0.000000,0.000021,-0.000000,-0.000000,0.000000,0.000456,0.000271,0.041814,-0.034580,0.418358,0.418358,0.443071,1.007150,0.000000,0.000000,0.000000,0.000000,0.000000,0.000000,0.000000,0.000000,0.000000,0.000000,0.000000,0.000000,0.038899,3,0
130000,-0.000291,3.291526,-0.027378,-0.005919,24.999498,-0.014266,-0.000133,-0.000008,1.570624,0.000007,0.000000,0.000017,-0.000000,-0.000000,0.000000,0.000057,0.000312,-0.012309,0.014659,0.392369,0.392369,0.413797,1.007481,0.000000,0.000000,0.000000,0.000000,0.000000,0.000000,0.000000,0.000000,0.000000,0.000000,0.000000,0.000000,0.011508,3,0
140000,-0.000333,3.542557,-0.026955,-0.006327,24.999838,-0.015340,-0.000141,-0.000006,1.570613,0.000002,0.000000,0.000014,-0.000000,-0.000000,0.000000,0.000057,0.000355,0.016804,0.008927,0.369666,0.369666,0.388393,1.007739,0.000000,0.000000,0.000000,0.000000,0.000000,0.000000,0.000000,0.000000,0.000000,0.000000,0.000000,0.000000,0.015773,3,0
150000,-0.000378,3.792807,-0.030389,-0.006839,24.999929,-0.017228,-0.000148,0.000001,1.570595,0.000001,0.000001,0.000032,-0.000000,-0.000000,0.000000,0.000452,0.000401,0.004317,-0.053566,0.349694,0.349694,0.366172,1.007915,0.000000,0.000000,0.000000,0.000000,0.000000,0.000000,0.000000,0.000000,0.000000,0.000000,0.000000,0.000000,0.004083,3,0
160000,-0.000426,4.048999,-0.032696,-0.007285,25.001667,-0.018567,-0.000157,0.000001,1.570592,-0.000042,0.000001,0.000046,-0.000000,-0.000001,0.000000,0.002184,0.000451,0.111886,-0.036816,0.332020,0.332020,0.346600,1.008002,0.000000,0.000000,0.000000,0.000000,0.000000,0.000000,0.000000,0.000000,0.000000,0.000000,0.000000,0.000000,0.105696,3,0
170000,-0.000477,4.297696,-0.030466,-0.007782,25.001320,-0.019067,-0.000170,-0.000010,1.570588,-0.000031,0.000001,0.000027,-0.000000,-0.000001,0.000000,0.000407,0.000504,-0.025049,0.044231,0.316296,0.316296,0.329260,1.007991,0.000000,0.000000,0.000000,0.000000,0.000000,0.000000,0.000000,0.000000,0.000000,0.000000,0.000000,0.000000,0.023734,3,0
180000,-0.000530,4.553947,-0.029788,-0.008105,25.003399,-0.019912,-0.000172,0.000004,1.570574,-0.000090,0.000001,0.000019,-0.000000,-0.000002,0.000000,0.002472,0.000558,0.123836,0.016817,0.302245,0.302245,0.313817,1.007875,0.000000,0.000000,0.000000,0.000000,0.000000,0.000000,0.000000,0.000000,0.000000,0.000000,0.000000,0.000000,0.117599,3,0
190000,-0.000587,4.808145,-0.031276,-0.008620,25.004940,-0.021223,-0.000181,0.000010,1.570564,-0.000136,0.000001,0.000032,-0.000000,-0.000003,0.000000,0.001283,0.000617,0.086232,-0.025589,0.289639,0.289639,0.300003,1.007645,0.000000,0.000000,0.000000,0.000000,0.000000,0.000000,0.000000,0.000000,0.000000,0.000000,0.000000,0.000000,0.082071,3,0
200000,-0.000646,5.065156,-0.029462,-0.009031,25.007851,-0.021647,-0.000200,0.000023,1.570552,-0.000223,0.000002,0.000008,-0.000000,-0.000006,0.000000,0.003867,0.000677,0.150081,0.042509,0.278293,0.278293,0.287598,1.007295,0.000000,0.000000,0.000000,0.000000,0.000000,0.000000,0.000000,0.000000,0.000000,0.000000,0.000000,0.000000,0.143121,3,0
210000,-0.000708,5.322002,-0.027960,-0.009474,25.010813,-0.022019,-0.000217,0.000054,1.570535,-0.000320,0.000002,-0.000015,-0.000000,-0.000009,0.000000,0.003877,0.000741,0.151466,0.037521,0.268051,0.268051,0.276421,1.006816,0.000000,0.000000,0.000000,0.000000,0.000000,0.000000,0.000000,0.000000,0.000000,0.000000,0.000000,0.000000,0.144701,3,0
220000,-0.000773,5.573566,-0.027240,-0.009977,25.011505,-0.022432,-0.000230,0.000050,1.570516,-0.000344,0.000003,-0.000030,-0.000000,-0.000009,0.000000,0.000254,0.000807,0.033743,0.021379,0.258783,0.258784,0.266321,1.006202,0.000000,0.000000,0.000000,0.000000,0.000000,0.000000,0.000000,0.000000,0.000000,0.000000,0.000000,0.000000,0.032297,3,0
230000,-0.000841,5.825376,-0.027956,-0.010443,25.012419,-0.023551,-0.000240,0.000046,1.570497,-0.000375,0.000004,-0.000022,-0.000000,-0.000010,0.000000,0.000284,0.000877,0.040598,-0.011277,0.250381,0.250381,0.257172,1.005446,0.000000,0.000000,0.000000,0.000000,0.000000,0.000000,0.000000,0.000000,0.000000,0.000000,0.000000,0.000000,0.038913,3,0
240000,-0.000911,6.079824,-0.027241,-0.010820,25.014900,-0.023979,-0.000247,0.000067,1.570488,-0.000463,0.000004,-0.000041,-0.000000,-0.000013,0.000000,0.001911,0.000949,0.106841,0.023136,0.242751,0.242751,0.248866,1.004541,0.000000,0.000000,0.000000,0.000000,0.000000,0.000000,0.000000,0.000000,0.000000,0.000000,0.000000,0.000000,0.102523,3,0
250000,-0.000983,6.331203,-0.025667,-0.011196,25.015663,-0.023961,-0.000258,0.000066,1.570479,-0.000491,0.000005,-0.000080,-0.000000,-0.000014,0.000000,0.000486,0.001023,0.031279,0.045345,0.235813,0.235813,0.241314,1.003481,0.000000,0.000000,0.000000,0.000000,0.000000,0.000000,0.000000,0.000000,0.000000,0.000000,0.000000,0.000000,0.030066,3,0
260000,-0.001057,6.587389,-0.026067,-0.011665,25.019415,-0.025093,-0.000265,0.000114,1.570461,-0.000642,0.000006,-0.000077,-0.000000,-0.000020,0.000000,0.003983,0.001100,0.157592,-0.003835,0.229498,0.229498,0.234436,1.002258,0.000000,0.000000,0.000000,0.000000,0.000000,0.000000,0.000000,0.000000,0.000000,0.000000,0.000000,0.000000,0.151568,3,0
270000,-0.001134,6.842802,-0.026080,-0.011987,25.023006,-0.025805,-0.000282,0.000157,1.570457,-0.000786,0.000007,-0.000083,-0.000000,-0.000025,0.000000,0.003148,0.001178,0.139915,0.006480,0.223747,0.223747,0.228165,1.000869,0.000000,0.000000,0.000000,0.000000,0.000000,0.000000,0.000000,0.000000,0.000000,0.000000,0.000000,0.000000,0.134703,3,0
280000,-0.001211,7.098961,-0.025832,-0.012308,25.027208,-0.026522,-0.000290,0.000206,1.570439,-0.000966,0.000009,-0.000099,-0.000000,-0.000032,0.000000,0.004286,0.001257,0.162771,0.013926,0.218507,0.218508,0.222443,0.999307,0.000000,0.000000,0.000000,0.000000,0.000000,0.000000,0.000000,0.000000,0.000000,0.000000,0.000000,0.000000,0.156848,3,0
290000,-0.001291,7.355820,-0.027152,-0.012683,25.032162,-0.028316,-0.000295,0.000279,1.570433,-0.001184,0.000010,-0.000065,-0.000000,-0.000041,0.000000,0.005627,0.001339,0.184875,-0.028831,0.213734,0.213735,0.217219,0.997567,0.000000,0.000000,0.000000,0.000000,0.000000,0.000000,0.000000,0.000000,0.000000,0.000000,0.000000,0.000000,0.178294,3,0
300000,-0.001372,7.609874,-0.027692,-0.013056,25.035257,-0.029457,-0.000303,0.000316,1.570414,-0.001318,0.000012,-0.000056,-0.000000,-0.000047,0.000000,0.001845,0.001422,0.106875,-0.006974,0.209388,0.209388,0.212446,0.995645,0.000000,0.000000,0.000000,0.000000,0.000000,0.000000,0.000000,0.000000,0.000000,0.000000,0.000000,0.000000,0.103155,3,0
310000,-0.001455,7.864716,-0.026869,-0.013374,25.038948,-0.029443,-0.000317,0.000373,1.570408,-0.001493,0.000014,-0.000099,-0.000001,-0.000055,0.000000,0.002936,0.001506,0.131097,0.032451,0.205431,0.205431,0.208087,0.993536,0.000000,0.000000,0.000000,0.000000,0.000000,0.000000,0.000000,0.000000,0.000000,0.000000,0.000000,0.000000,0.126617,3,0
320000,-0.001539,8.116961,-0.028244,-0.013722,25.040630,-0.031340,-0.000318,0.000393,1.570391,-0.001571,0.000016,-0.000055,-0.000001,-0.000058,0.000000,0.000649,0.001592,0.055128,-0.031440,0.201833,0.201834,0.204105,0.991237,0.000000,0.000000,0.000000,0.000000,0.000000,0.000000,0.000000,0.000000,0.000000,0.000000,0.000000,0.000000,0.053295,3,0
330000,-0.001625,8.372686,-0.027445,-0.014178,25.045479,-0.031306,-0.000318,0.000470,1.570381,-0.001812,0.000019,-0.000105,-0.000001,-0.000070,0.000000,0.004343,0.001681,0.160686,0.033558,0.198566,0.198566,0.200469,0.988743,0.000000,0.000000,0.000000,0.000000,0.000000,0.000000,0.000000,0.000000,0.000000,0.000000,0.000000,0.000000,0.155377,3,0
340000,-0.001713,8.625228,-0.028544,-0.014476,25.047586,-0.033111,-0.000326,0.000492,1.570362,-0.001913,0.000022,-0.000068,-0.000001,-0.000074,0.000000,0.000749,0.001771,0.063943,-0.023566,0.195604,0.195604,0.197151,0.986053,0.000000,0.000000,0.000000,0.000000,0.000000,0.000000,0.000000,0.000000,0.000000,0.000000,0.000000,0.000000,0.061882,3,0
350000,-0.001802,8.877310,-0.027810,-0.014855,25.049229,-0.033287,-0.000334,0.000520,1.570341,-0.001996,0.000025,-0.000123,-0.000001,-0.000079,0.000000,0.000581,0.001862,0.049929,0.033266,0.192924,0.192924,0.194125,0.983164,0.000000,0.000000,0.000000,0.000000,0.000000,0.000000,0.000000,0.000000,0.000000,0.000000,0.000000,0.000000,0.048357,3,0
360000,-0.001894,9.129591,-0.029398,-0.015288,25.051266,-0.035547,-0.000343,0.000552,1.570339,-0.002095,0.000028,-0.000055,-0.000001,-0.000084,0.000000,0.000757,0.001956,0.056254,-0.039011,0.190505,0.190506,0.191370,0.980073,0.000000,0.000000,0.000000,0.000000,0.000000,0.000000,0.000000,0.000000,0.000000,0.000000,0.000000,0.000000,0.054501,3,0
370000,-0.001986,9.382063,-0.029895,-0.015605,25.053400,-0.036774,-0.000351,0.000583,1.570335,-0.002210,0.000032,-0.000047,-0.000001,-0.000090,0.000000,0.000632,0.002050,0.062380,-0.004134,0.188329,0.188329,0.188863,0.976779,0.000000,0.000000,0.000000,0.000000,0.000000,0.000000,0.000000,0.000000,0.000000,0.000000,0.000000,0.000000,0.060455,3,0
380000,-0.002080,9.637808,-0.030429,-0.016013,25.059090,-0.037979,-0.000357,0.000693,1.570318,-0.002534,0.000036,-0.000038,-0.000002,-0.000108,0.000000,0.004547,0.002147,0.167707,-0.005014,0.186378,0.186378,0.186586,0.973282,0.000000,0.000000,0.000000,0.000000,0.000000,0.000000,0.000000,0.000000,0.000000,0.000000,0.000000,0.000000,0.162511,3,0
390000,-0.002177,9.895477,-0.032349,-0.016476,25.067083,-0.040426,-0.000362,0.000847,1.570299,-0.003000,0.000040,0.000063,-0.000002,-0.000134,0.000001,0.008945,0.002246,0.229968,-0.049813,0.184636,0.184636,0.184522,0.969581,0.000000,0.000000,0.000000,0.000000,0.000000,0.000000,0.000000,0.000000,0.000000,0.000000,0.000000,0.000000,0.222901,3,0
400000,-0.002274,10.150156,-0.032012,-0.016774,25.071960,-0.040572,-0.000365,0.000929,1.570280,-0.003278,0.000045,0.000011,-0.000002,-0.000150,0.000001,0.002883,0.002345,0.131249,0.024658,0.183089,0.183089,0.182656,0.965675,0.000000,0.000000,0.000000,0.000000,0.000000,0.000000,0.000000,0.000000,0.000000,0.000000,0.000000,0.000000,0.127264,3,0
410000,-0.002372,10.404362,-0.032256,-0.017117,25.076250,-0.041561,-0.000376,0.001009,1.570261,-0.003532,0.000051,-0.000002,-0.000002,-0.000165,0.000001,0.002146,0.002446,0.115069,0.005763,0.181722,0.181723,0.180971,0.961566,0.000000,0.000000,0.000000,0.000000,0.000000,0.000000,0.000000,0.000000,0.000000,0.000000,0.000000,0.000000,0.111610,3,0
420000,-0.002471,10.658116,-0.031589,-0.017475,25.080130,-0.041245,-0.000392,0.001072,1.570243,-0.003761,0.000057,-0.000086,-0.000003,-0.000179,0.000001,0.001812,0.002547,0.099367,0.036494,0.180525,0.180525,0.179456,0.957255,0.000000,0.000000,0.000000,0.000000,0.000000,0.000000,0.000000,0.000000,0.000000,0.000000,0.000000,0.000000,0.096409,3,0
430000,-0.002570,10.916195,-0.031248,-0.017775,25.089516,-0.041199,-0.000397,0.001269,1.570230,-0.004344,0.000063,-0.000148,-0.000003,-0.000215,0.000001,0.009667,0.002649,0.243151,0.025684,0.179485,0.179485,0.178097,0.952743,0.000000,0.000000,0.000000,0.000000,0.000000,0.000000,0.000000,0.000000,0.000000,0.000000,0.000000,0.000000,0.235891,3,0
440000,-0.002670,11.171380,-0.033033,-0.018046,25.095333,-0.043834,-0.000397,0.001388,1.570213,-0.004704,0.000070,-0.000032,-0.000004,-0.000238,0.000001,0.003701,0.002752,0.144011,-0.046232,0.178591,0.178591,0.176883,0.948033,0.000000,0.000000,0.000000,0.000000,0.000000,0.000000,0.000000,0.000000,0.000000,0.000000,0.000000,0.000000,0.139749,3,0
450000,-0.002770,11.426700,-0.032531,-0.018414,25.101353,-0.043654,-0.000404,0.001513,1.570210,-0.005085,0.000077,-0.000116,-0.000004,-0.000263,0.000001,0.003676,0.002855,0.147193,0.032440,0.177833,0.177834,0.175803,0.943126,0.000000,0.000000,0.000000,0.000000,0.000000,0.000000,0.000000,0.000000,0.000000,0.000000,0.000000,0.000000,0.142857,3,0
460000,-0.002871,11.680979,-0.031811,-0.018652,25.106014,-0.043240,-0.000416,0.001614,1.570207,-0.005382,0.000085,-0.000224,-0.000005,-0.000283,0.000001,0.002235,0.002958,0.110481,0.040031,0.177203,0.177203,0.174847,0.938027,0.000000,0.000000,0.000000,0.000000,0.000000,0.000000,0.000000,0.000000,0.000000,0.000000,0.000000,0.000000,0.107257,3,0
470000,-0.002971,11.937758,-0.031697,-0.018961,25.114185,-0.043650,-0.000414,0.001799,1.570185,-0.005922,0.000093,-0.000278,-0.000005,-0.000320,0.000001,0.006155,0.003061,0.194097,0.019196,0.176690,0.176690,0.174006,0.932739,0.000000,0.000000,0.000000,0.000000,0.000000,0.000000,0.000000,0.000000,0.000000,0.000000,0.000000,0.000000,0.188405,3,0
480000,-0.003072,12.193485,-0.033397,-0.019221,25.120956,-0.046276,-0.000422,0.001958,1.570172,-0.006371,0.000102,-0.000153,-0.000006,-0.000351,0.000002,0.004238,0.003165,0.155902,-0.043354,0.176287,0.176287,0.173271,0.927266,0.000000,0.000000,0.000000,0.000000,0.000000,0.000000,0.000000,0.000000,0.000000,0.000000,0.000000,0.000000,0.151353,3,0
490000,-0.003173,12.451680,-0.034479,-0.019548,25.131233,-0.048120,-0.000421,0.002203,1.570157,-0.007080,0.000112,-0.000089,-0.000007,-0.000402,0.000002,0.009242,0.003269,0.238050,-0.021150,0.175985,0.175985,0.172634,0.921612,0.000000,0.000000,0.000000,0.000000,0.000000,0.000000,0.000000,0.000000,0.000000,0.000000,0.000000,0.000000,0.231090,3,0
500000,-0.003273,12.707062,-0.035321,-0.019785,25.137453,-0.049678,-0.000425,0.002356,1.570139,-0.007507,0.000122,-0.000052,-0.000007,-0.000434,0.000002,0.003142,0.003372,0.138783,-0.012220,0.175777,0.175778,0.172087,0.915783,0.000000,0.000000,0.000000,0.000000,0.000000,0.000000,0.000000,0.000000,0.000000,0.000000,0.000000,0.000000,0.134758,3,0
510000,-0.003375,12.962008,-0.035932,-0.020161,25.143019,-0.050973,-0.000435,0.002484,1.570123,-0.007894,0.000133,-0.000040,-0.000008,-0.000463,0.000002,0.002408,0.003476,0.121886,-0.003568,0.175657,0.175658,0.171622,0.909784,0.000000,0.000000,0.000000,0.000000,0.000000,0.000000,0.000000,0.000000,0.000000,0.000000,0.000000,0.000000,0.118366,3,0
520000,-0.003476,13.218275,-0.035664,-0.020436,25.150698,-0.051020,-0.000440,0.002679,1.570111,-0.008433,0.000144,-0.000132,-0.000009,-0.000504,0.000002,0.004534,0.003581,0.165068,0.027650,0.175618,0.175618,0.171234,0.903620,0.000000,0.000000,0.000000,0.000000,0.000000,0.000000,0.000000,0.000000,0.000000,0.000000,0.000000,0.000000,0.160274,3,0
530000,-0.003577,13.477589,-0.035119,-0.020815,25.162859,-0.050528,-0.000436,0.002988,1.570088,-0.009331,0.000157,-0.000259,-0.000010,-0.000574,0.000002,0.011723,0.003685,0.266545,0.037380,0.175652,0.175653,0.170914,0.897298,0.000000,0.000000,0.000000,0.000000,0.000000,0.000000,0.000000,0.000000,0.000000,0.000000,0.000000,0.000000,0.258767,3,0
540000,-0.003680,13.736418,-0.035842,-0.021149,25.174311,-0.051666,-0.000436,0.003293,1.570067,-0.010181,0.000170,-0.000233,-0.000011,-0.000642,0.000003,0.009774,0.003791,0.245655,-0.007351,0.175755,0.175755,0.170658,0.890825,0.000000,0.000000,0.000000,0.000000,0.000000,0.000000,0.000000,0.000000,0.000000,0.000000,0.000000,0.000000,0.238488,3,0
550000,-0.003781,13.992440,-0.035200,-0.021389,25.181522,-0.051236,-0.000450,0.003485,1.570054,-0.010700,0.000183,-0.000382,-0.000012,-0.000685,0.000003,0.003714,0.003895,0.145742,0.041231,0.175920,0.175921,0.170460,0.884206,0.000000,0.000000,0.000000,0.000000,0.000000,0.000000,0.000000,0.000000,0.000000,0.000000,0.000000,0.000000,0.141520,3,0
560000,-0.003883,14.249774,-0.036541,-0.021754,25.190599,-0.053460,-0.000464,0.003720,1.570044,-0.011386,0.000198,-0.000275,-0.000013,-0.000742,0.000003,0.005845,0.004000,0.187833,-0.028835,0.176143,0.176143,0.170314,0.877449,0.000000,0.000000,0.000000,0.000000,0.000000,0.000000,0.000000,0.000000,0.000000,0.000000,0.000000,0.000000,0.182360,3,0
570000,-0.003983,14.505484,-0.036609,-0.021928,25.197090,-0.053631,-0.000468,0.003888,1.570040,-0.011870,0.000213,-0.000339,-0.000015,-0.000783,0.000003,0.002748,0.004104,0.129198,0.016763,0.176417,0.176418,0.170214,0.870561,0.000000,0.000000,0.000000,0.000000,0.000000,0.000000,0.000000,0.000000,0.000000,0.000000,0.000000,0.000000,0.125463,3,0
580000,-0.004084,14.763102,-0.037636,-0.022208,25.206715,-0.055148,-0.000470,0.004149,1.570025,-0.012606,0.000229,-0.000273,-0.000016,-0.000847,0.000004,0.005981,0.004207,0.191485,-0.016994,0.176739,0.176739,0.170157,0.863550,0.000000,0.000000,0.000000,0.000000,0.000000,0.000000,0.000000,0.000000,0.000000,0.000000,0.000000,0.000000,0.185889,3,0
590000,-0.004184,15.022609,-0.036757,-0.022540,25.219414,-0.054130,-0.000475,0.004517,1.570008,-0.013597,0.000246,-0.000476,-0.000018,-0.000935,0.000004,0.010679,0.004311,0.251833,0.050813,0.177103,0.177104,0.170138,0.856423,0.000000,0.000000,0.000000,0.000000,0.000000,0.000000,0.000000,0.000000,0.000000,0.000000,0.000000,0.000000,0.244436,3,0
600000,-0.004282,15.282225,-0.038004,-0.022698,25.232115,-0.056179,-0.000473,0.004894,1.569990,-0.014606,0.000263,-0.000377,-0.000019,-0.001026,0.000004,0.010259,0.004413,0.250625,-0.024480,0.177506,0.177506,0.170152,0.849187,0.000000,0.000000,0.000000,0.000000,0.000000,0.000000,0.000000,0.000000,0.000000,0.000000,0.000000,0.000000,0.243248,3,0
610000,-0.004379,15.541947,-0.038602,-0.022853,25.244963,-0.057263,-0.000466,0.005278,1.569972,-0.015633,0.000281,-0.000373,-0.000021,-0.001120,0.000005,0.010055,0.004513,0.249307,-0.000911,0.177943,0.177943,0.170195,0.841852,0.000000,0.000000,0.000000,0.000000,0.000000,0.000000,0.000000,0.000000,0.000000,0.000000,0.000000,0.000000,0.241952,3,0
620000,-0.004475,15.798228,-0.039806,-0.023096,25.251970,-0.059331,-0.000468,0.005491,1.569961,-0.016174,0.000301,-0.000280,-0.000023,-0.001171,0.000005,0.002755,0.004612,0.128608,-0.021811,0.178409,0.178410,0.170264,0.834426,0.000000,0.000000,0.000000,0.000000,0.000000,0.000000,0.000000,0.000000,0.000000,0.000000,0.000000,0.000000,0.124864,3,0
630000,-0.004570,16.056429,-0.038821,-0.023363,25.262094,-0.057982,-0.000471,0.005797,1.569951,-0.016992,0.000321,-0.000526,-0.000025,-0.001249,0.000005,0.006367,0.004711,0.190321,0.055938,0.178903,0.178903,0.170356,0.826915,0.000000,0.000000,0.000000,0.000000,0.000000,0.000000,0.000000,0.000000,0.000000,0.000000,0.000000,0.000000,0.184703,3,0
640000,-0.004665,16.312969,-0.039726,-0.023613,25.269375,-0.059529,-0.000476,0.006026,1.569928,-0.017565,0.000341,-0.000477,-0.000027,-0.001305,0.000006,0.002790,0.004809,0.130806,-0.011062,0.179419,0.179420,0.170465,0.819329,0.000000,0.000000,0.000000,0.000000,0.000000,0.000000,0.000000,0.000000,0.000000,0.000000,0.000000,0.000000,0.126980,3,0
650000,-0.004758,16.573227,-0.040497,-0.023784,25.282869,-0.060694,-0.000479,0.006452,1.569908,-0.018691,0.000363,-0.000450,-0.000029,-0.001417,0.000006,0.010267,0.004906,0.251892,-0.005834,0.179955,0.179956,0.170591,0.811675,0.000000,0.000000,0.000000,0.000000,0.000000,0.000000,0.000000,0.000000,0.000000,0.000000,0.000000,0.000000,0.244383,3,0
660000,-0.004849,16.829397,-0.039635,-0.023913,25.289381,-0.059566,-0.000484,0.006650,1.569884,-0.019196,0.000386,-0.000694,-0.000031,-0.001468,0.000006,0.002426,0.005000,0.110773,0.052010,0.180508,0.180508,0.170729,0.803961,0.000000,0.000000,0.000000,0.000000,0.000000,0.000000,0.000000,0.000000,0.000000,0.000000,0.000000,0.000000,0.107550,3,0
670000,-0.004940,17.089310,-0.040279,-0.024170,25.302114,-0.060619,-0.000485,0.007066,1.569863,-0.020273,0.000409,-0.000689,-0.000034,-0.001579,0.000007,0.008722,0.005094,0.232235,-0.001302,0.181074,0.181075,0.170877,0.796196,0.000000,0.000000,0.000000,0.000000,0.000000,0.000000,0.000000,0.000000,0.000000,0.000000,0.000000,0.000000,0.225280,3,0
680000,-0.005029,17.348118,-0.039475,-0.024422,25.312965,-0.059670,-0.000482,0.007428,1.569854,-0.021174,0.000433,-0.000933,-0.000036,-0.001673,0.000007,0.006295,0.005187,0.190863,0.049898,0.181652,0.181652,0.171033,0.788388,0.000000,0.000000,0.000000,0.000000,0.000000,0.000000,0.000000,0.000000,0.000000,0.000000,0.000000,0.000000,0.185154,3,0
690000,-0.005117,17.607643,-0.039118,-0.024524,25.324884,-0.059253,-0.000490,0.007817,1.569838,-0.022183,0.000458,-0.001101,-0.000039,-0.001780,0.000008,0.007334,0.005277,0.210253,0.033815,0.182237,0.182238,0.171193,0.780544,0.000000,0.000000,0.000000,0.000000,0.000000,0.000000,0.000000,0.000000,0.000000,0.000000,0.000000,0.000000,0.203931,3,0
700000,-0.005202,17.867878,-0.038103,-0.024677,25.337906,-0.057929,-0.000491,0.008262,1.569828,-0.023300,0.000484,-0.001389,-0.000042,-0.001902,0.000008,0.008992,0.005366,0.228910,0.056690,0.182829,0.182830,0.171357,0.772673,0.000000,0.000000,0.000000,0.000000,0.000000,0.000000,0.000000,0.000000,0.000000,0.000000,0.000000,0.000000,0.221996,3,0
710000,-0.005286,18.127600,-0.038330,-0.024761,25.350019,-0.058447,-0.000485,0.008673,1.569802,-0.024326,0.000511,-0.001455,-0.000045,-0.002015,0.000009,0.006960,0.005453,0.207092,0.012725,0.183425,0.183426,0.171522,0.764781,0.000000,0.000000,0.000000,0.000000,0.000000,0.000000,0.000000,0.000000,0.000000,0.000000,0.000000,0.000000,0.200831,3,0
720000,-0.005368,18.384373,-0.038422,-0.024904,25.356934,-0.058872,-0.000478,0.008895,1.569789,-0.024861,0.000538,-0.001548,-0.000048,-0.002075,0.000009,0.001880,0.005538,0.106279,0.017614,0.184023,0.184024,0.171685,0.756877,0.000000,0.000000,0.000000,0.000000,0.000000,0.000000,0.000000,0.000000,0.000000,0.000000,0.000000,0.000000,0.103159,3,0
730000,-0.005448,18.641886,-0.039542,-0.025012,25.365026,-0.060610,-0.000474,0.009175,1.569771,-0.025513,0.000567,-0.001452,-0.000051,-0.002150,0.000009,0.002694,0.005621,0.127741,-0.018166,0.184621,0.184622,0.171846,0.748968,0.000000,0.000000,0.000000,0.000000,0.000000,0.000000,0.000000,0.000000,0.000000,0.000000,0.000000,0.000000,0.123930,3,0
740000,-0.005526,18.902586,-0.039317,-0.025055,25.378567,-0.060164,-0.000475,0.009657,1.569762,-0.026694,0.000596,-0.001612,-0.000055,-0.002287,0.000010,0.008538,0.005702,0.227968,0.029305,0.185217,0.185218,0.172003,0.741061,0.000000,0.000000,0.000000,0.000000,0.000000,0.000000,0.000000,0.000000,0.000000,0.000000,0.000000,0.000000,0.221001,3,0
750000,-0.005601,19.163986,-0.040112,-0.025098,25.393061,-0.061617,-0.000467,0.010186,1.569750,-0.027982,0.000626,-0.001579,-0.000058,-0.002439,0.000011,0.009741,0.005780,0.245436,-0.006305,0.185810,0.185810,0.172155,0.733163,0.000000,0.000000,0.000000,0.000000,0.000000,0.000000,0.000000,0.000000,0.000000,0.000000,0.000000,0.000000,0.237901,3,0
760000,-0.005673,19.422989,-0.039600,-0.025186,25.403250,-0.060811,-0.000455,0.010555,1.569738,-0.028848,0.000656,-0.001801,-0.000062,-0.002543,0.000011,0.004540,0.005856,0.162802,0.039643,0.186397,0.186398,0.172299,0.725281,0.000000,0.000000,0.000000,0.000000,0.000000,0.000000,0.000000,0.000000,0.000000,0.000000,0.000000,0.000000,0.157845,3,0
770000,-0.005744,19.683947,-0.040032,-0.025258,25.416725,-0.061369,-0.000446,0.011058,1.569729,-0.030042,0.000688,-0.001840,-0.000066,-0.002689,0.000012,0.007953,0.005929,0.221760,0.006466,0.186979,0.186980,0.172435,0.717420,0.000000,0.000000,0.000000,0.000000,0.000000,0.000000,0.000000,0.000000,0.000000,0.000000,0.000000,0.000000,0.214926,3,0
780000,-0.005814,19.942493,-0.041276,-0.025392,25.425911,-0.063236,-0.000435,0.011381,1.569708,-0.030802,0.000720,-0.001716,-0.000070,-0.002784,0.000012,0.003227,0.006002,0.139576,-0.021569,0.187554,0.187555,0.172563,0.709588,0.000000,0.000000,0.000000,0.000000,0.000000,0.000000,0.000000,0.000000,0.000000,0.000000,0.000000,0.000000,0.135337,3,0
790000,-0.005881,20.203630,-0.041501,-0.025419,25.439466,-0.063652,-0.000441,0.011890,1.569695,-0.032009,0.000753,-0.001803,-0.000074,-0.002936,0.000013,0.007775,0.006072,0.218880,0.014567,0.188120,0.188121,0.172680,0.701791,0.000000,0.000000,0.000000,0.000000,0.000000,0.000000,0.000000,0.000000,0.000000,0.000000,0.000000,0.000000,0.212099,3,0
800000,-0.005946,20.465460,-0.041135,-0.025444,25.454050,-0.063174,-0.000429,0.012466,1.569677,-0.033324,0.000787,-0.002014,-0.000079,-0.003105,0.000014,0.009191,0.006139,0.235910,0.035225,0.188677,0.188678,0.172787,0.694033,0.000000,0.000000,0.000000,0.000000,0.000000,0.000000,0.000000,0.000000,0.000000,0.000000,0.000000,0.000000,0.228570,3,0
810000,-0.006010,20.726091,-0.042721,-0.025591,25.466295,-0.065702,-0.000427,0.012951,1.569654,-0.034409,0.000821,-0.001820,-0.000083,-0.003247,0.000014,0.006166,0.006205,0.192602,-0.032644,0.189224,0.189225,0.172882,0.686321,0.000000,0.000000,0.000000,0.000000,0.000000,0.000000,0.000000,0.000000,0.000000,0.000000,0.000000,0.000000,0.186624,3,0
820000,-0.006071,20.986790,-0.043915,-0.025602,25.478621,-0.067357,-0.000421,0.013440,1.569642,-0.035492,0.000856,-0.001710,-0.000088,-0.003391,0.000015,0.005904,0.006269,0.190273,-0.018303,0.189761,0.189761,0.172964,0.678661,0.000000,0.000000,0.000000,0.000000,0.000000,0.000000,0.000000,0.000000,0.000000,0.000000,0.000000,0.000000,0.184356,3,0
830000,-0.006131,21.246923,-0.045618,-0.025711,25.489721,-0.069997,-0.000424,0.013869,1.569621,-0.036458,0.000892,-0.001495,-0.000092,-0.003522,0.000015,0.004762,0.006332,0.167999,-0.035246,0.190285,0.190286,0.173035,0.671056,0.000000,0.000000,0.000000,0.000000,0.000000,0.000000,0.000000,0.000000,0.000000,0.000000,0.000000,0.000000,0.162786,3,0
840000,-0.006188,21.506491,-0.045021,-0.025749,25.499706,-0.069212,-0.000410,0.014258,1.569611,-0.037307,0.000929,-0.001780,-0.000098,-0.003638,0.000016,0.003794,0.006392,0.146301,0.045422,0.190798,0.190799,0.173092,0.663512,0.000000,0.000000,0.000000,0.000000,0.000000,0.000000,0.000000,0.000000,0.000000,0.000000,0.000000,0.000000,0.141784,3,0
850000,-0.006244,21.766764,-0.043997,-0.025831,25.510733,-0.067802,-0.000412,0.014697,1.569590,-0.038272,0.000966,-0.002161,-0.000103,-0.003772,0.000016,0.004978,0.006450,0.164940,0.059921,0.191299,0.191299,0.173136,0.656032,0.000000,0.000000,0.000000,0.000000,0.000000,0.000000,0.000000,0.000000,0.000000,0.000000,0.000000,0.000000,0.159803,3,0
860000,-0.006298,22.025829,-0.043027,-0.025908,25.519547,-0.066391,-0.000397,0.015043,1.569571,-0.038999,0.001004,-0.002530,-0.000109,-0.003875,0.000017,0.002992,0.006507,0.123222,0.057506,0.191786,0.191787,0.173165,0.648623,0.000000,0.000000,0.000000,0.000000,0.000000,0.000000,0.000000,0.000000,0.000000,0.000000,0.000000,0.000000,0.119450,3,0
870000,-0.006351,22.284969,-0.044123,-0.025956,25.528326,-0.068072,-0.000389,0.015405,1.569558,-0.039728,0.001043,-0.002438,-0.000114,-0.003980,0.000017,0.002462,0.006561,0.122496,-0.014560,0.192261,0.192261,0.173181,0.641286,0.000000,0.000000,0.000000,0.000000,0.000000,0.000000,0.000000,0.000000,0.000000,0.000000,0.000000,0.000000,0.118740,3,0
880000,-0.006402,22.548012,-0.043386,-0.026028,25.543839,-0.066917,-0.000375,0.016075,1.569535,-0.041174,0.001082,-0.002765,-0.000120,-0.004191,0.000018,0.009771,0.006615,0.240967,0.049542,0.192722,0.192722,0.173183,0.634026,0.000000,0.000000,0.000000,0.000000,0.000000,0.000000,0.000000,0.000000,0.000000,0.000000,0.000000,0.000000,0.233315,3,0
890000,-0.006452,22.809795,-0.044246,-0.026095,25.556936,-0.068293,-0.000367,0.016650,1.569516,-0.042362,0.001122,-0.002728,-0.000126,-0.004367,0.000019,0.006237,0.006667,0.196436,-0.006147,0.193170,0.193170,0.173171,0.626847,0.000000,0.000000,0.000000,0.000000,0.000000,0.000000,0.000000,0.000000,0.000000,0.000000,0.000000,0.000000,0.190221,3,0
900000,-0.006499,23.070971,-0.043399,-0.026071,25.568974,-0.067100,-0.000358,0.017153,1.569495,-0.043415,0.001162,-0.003088,-0.000132,-0.004526,0.000020,0.005301,0.006717,0.173065,0.053479,0.193605,0.193605,0.173144,0.619751,0.000000,0.000000,0.000000,0.000000,0.000000,0.000000,0.000000,0.000000,0.000000,0.000000,0.000000,0.000000,0.167608,3,0
910000,-0.006544,23.333471,-0.042302,-0.026074,25.583172,-0.065600,-0.000340,0.017778,1.569477,-0.044701,0.001203,-0.003510,-0.000139,-0.004723,0.000021,0.007734,0.006764,0.209953,0.061765,0.194026,0.194026,0.173104,0.612742,0.000000,0.000000,0.000000,0.000000,0.000000,0.000000,0.000000,0.000000,0.000000,0.000000,0.000000,0.000000,0.203270,3,0
920000,-0.006587,23.592773,-0.042489,-0.026029,25.591545,-0.066047,-0.000331,0.018114,1.569469,-0.045357,0.001245,-0.003626,-0.000146,-0.004825,0.000021,0.001876,0.006808,0.106340,0.016694,0.194434,0.194434,0.173049,0.605822,0.000000,0.000000,0.000000,0.000000,0.000000,0.000000,0.000000,0.000000,0.000000,0.000000,0.000000,0.000000,0.103104,3,0
930000,-0.006630,23.852779,-0.042627,-0.026156,25.600990,-0.066285,-0.000316,0.018509,1.569451,-0.046134,0.001287,-0.003756,-0.000152,-0.004947,0.000022,0.002593,0.006853,0.125261,0.018544,0.194828,0.194828,0.172980,0.598994,0.000000,0.000000,0.000000,0.000000,0.000000,0.000000,0.000000,0.000000,0.000000,0.000000,0.000000,0.000000,0.121376,3,0
940000,-0.006671,24.114775,-0.042271,-0.026261,25.613914,-0.065968,-0.000312,0.019081,1.569427,-0.047278,0.001329,-0.004010,-0.000159,-0.005131,0.000022,0.005629,0.006896,0.183220,0.035881,0.195210,0.195210,0.172897,0.592259,0.000000,0.000000,0.000000,0.000000,0.000000,0.000000,0.000000,0.000000,0.000000,0.000000,0.000000,0.000000,0.177385,3,0
950000,-0.006713,24.375494,-0.042257,-0.026379,25.624365,-0.066187,-0.000295,0.019534,1.569401,-0.048155,0.001372,-0.004181,-0.000166,-0.005274,0.000023,0.003250,0.006939,0.139765,0.023874,0.195578,0.195578,0.172800,0.585620,0.000000,0.000000,0.000000,0.000000,0.000000,0.000000,0.000000,0.000000,0.000000,0.000000,0.000000,0.000000,0.135377,3,0
960000,-0.006751,24.635599,-0.041616,-0.026352,25.633587,-0.065312,-0.000275,0.019923,1.569394,-0.048896,0.001416,-0.004508,-0.000174,-0.005396,0.000024,0.002572,0.006980,0.117487,0.045720,0.195934,0.195934,0.172690,0.579079,0.000000,0.000000,0.000000,0.000000,0.000000,0.000000,0.000000,0.000000,0.000000,0.000000,0.000000,0.000000,0.113852,3,0
970000,-0.006790,24.894447,-0.042130,-0.026449,25.640575,-0.065990,-0.000258,0.020200,1.569390,-0.049378,0.001460,-0.004547,-0.000181,-0.005477,0.000024,0.000942,0.007020,0.075958,0.005167,0.196278,0.196277,0.172567,0.572637,0.000000,0.000000,0.000000,0.000000,0.000000,0.000000,0.000000,0.000000,0.000000,0.000000,0.000000,0.000000,0.073786,3,0
980000,-0.006826,25.152699,-0.041308,-0.026386,25.646259,-0.064965,-0.000246,0.020411,1.569378,-0.049731,0.001505,-0.004925,-0.000189,-0.005537,0.000024,0.000944,0.007058,0.055588,0.052014,0.196609,0.196609,0.172430,0.566296,0.000000,0.000000,0.000000,0.000000,0.000000,0.000000,0.000000,0.000000,0.000000,0.000000,0.000000,0.000000,0.054200,3,0
990000,-0.006861,25.411015,-0.040793,-0.026438,25.652004,-0.064466,-0.000228,0.020641,1.569368,-0.050087,0.001550,-0.005226,-0.000197,-0.005598,0.000025,0.000780,0.007094,0.055704,0.041004,0.196929,0.196928,0.172282,0.560056,0.000000,0.000000,0.000000,0.000000,0.000000,0.000000,0.000000,0.000000,0.000000,0.000000,0.000000,0.000000,0.054312,3,0
1000000,-0.006895,25.673313,-0.040569,-0.026527,25.664606,-0.064267,-0.000223,0.021248,1.569342,-0.051212,0.001595,-0.005457,-0.000205,-0.005795,0.000025,0.005100,0.007130,0.175030,0.030766,0.197237,0.197236,0.172120,0.553919,0.000000,0.000000,0.000000,0.000000,0.000000,0.000000,0.000000,0.000000,0.000000,0.000000,0.000000,0.000000,0.169418,3,0
1010000,-0.006929,25.936926,-0.040822,-0.026574,25.679485,-0.064751,-0.000203,0.021979,1.569316,-0.052571,0.001640,-0.005569,-0.000214,-0.006038,0.000027,0.007202,0.007165,0.210789,0.014149,0.197535,0.197534,0.171947,0.547885,0.000000,0.000000,0.000000,0.000000,0.000000,0.000000,0.000000,0.000000,0.000000,0.000000,0.000000,0.000000,0.203968,3,0
1020000,-0.006962,26.200521,-0.041202,-0.026655,25.694111,-0.065215,-0.000182,0.022696,1.569288,-0.053902,0.001686,-0.005649,-0.000222,-0.006279,0.000028,0.006827,0.007200,0.205452,0.009860,0.197821,0.197820,0.171762,0.541956,0.000000,0.000000,0.000000,0.000000,0.000000,0.000000,0.000000,0.000000,0.000000,0.000000,0.000000,0.000000,0.198801,3,0
1030000,-0.006993,26.463442,-0.041597,-0.026594,25.707357,-0.065749,-0.000167,0.023338,1.569270,-0.055073,0.001732,-0.005726,-0.000231,-0.006494,0.000029,0.005260,0.007232,0.180258,0.009489,0.198098,0.198096,0.171565,0.536132,0.000000,0.000000,0.000000,0.000000,0.000000,0.000000,0.000000,0.000000,0.000000,0.000000,0.000000,0.000000,0.174447,3,0
1040000,-0.007023,26.722406,-0.041551,-0.026663,25.713572,-0.065681,-0.000145,0.023593,1.569262,-0.055439,0.001779,-0.005918,-0.000240,-0.006562,0.000029,0.000622,0.007264,0.056355,0.025010,0.198365,0.198363,0.171358,0.530412,0.000000,0.000000,0.000000,0.000000,0.000000,0.000000,0.000000,0.000000,0.000000,0.000000,0.000000,0.000000,0.054944,3,0
1050000,-0.007052,26.983391,-0.041945,-0.026610,25.723276,-0.066452,-0.000138,0.024034,1.569247,-0.056193,0.001826,-0.005997,-0.000249,-0.006705,0.000029,0.002169,0.007294,0.115389,0.009712,0.198622,0.198620,0.171140,0.524799,0.000000,0.000000,0.000000,0.000000,0.000000,0.000000,0.000000,0.000000,0.000000,0.000000,0.000000,0.000000,0.111793,3,0
1060000,-0.007079,27.244390,-0.043598,-0.026513,25.732767,-0.068895,-0.000115,0.024473,1.569235,-0.056933,0.001874,-0.005737,-0.000257,-0.006847,0.000030,0.002246,0.007321,0.112738,-0.034163,0.198871,0.198869,0.170912,0.519290,0.000000,0.000000,0.000000,0.000000,0.000000,0.000000,0.000000,0.000000,0.000000,0.000000,0.000000,0.000000,0.109229,3,0
1070000,-0.007104,27.506062,-0.044606,-0.026410,25.743355,-0.070277,-0.000091,0.024988,1.569216,-0.057787,0.001922,-0.005658,-0.000267,-0.007014,0.000031,0.002748,0.007348,0.129944,-0.010728,0.199111,0.199109,0.170674,0.513886,0.000000,0.000000,0.000000,0.000000,0.000000,0.000000,0.000000,0.000000,0.000000,0.000000,0.000000,0.000000,0.125832,3,0
1080000,-0.007126,27.769712,-0.043707,-0.026427,25.757326,-0.069115,-0.000073,0.025710,1.569195,-0.059011,0.001969,-0.006113,-0.000277,-0.007256,0.000032,0.006123,0.007373,0.186228,0.056989,0.199343,0.199340,0.170427,0.508589,0.000000,0.000000,0.000000,0.000000,0.000000,0.000000,0.000000,0.000000,0.000000,0.000000,0.000000,0.000000,0.180183,3,0
1090000,-0.007148,28.032673,-0.043633,-0.026399,25.769938,-0.069111,-0.000054,0.026347,1.569186,-0.060071,0.002017,-0.006338,-0.000286,-0.007469,0.000033,0.004307,0.007395,0.160984,0.027556,0.199568,0.199565,0.170171,0.503396,0.000000,0.000000,0.000000,0.000000,0.000000,0.000000,0.000000,0.000000,0.000000,0.000000,0.000000,0.000000,0.155794,3,0
1100000,-0.007169,28.294287,-0.044145,-0.026335,25.780039,-0.069681,-0.000031,0.026845,1.569173,-0.060841,0.002066,-0.006397,-0.000296,-0.007625,0.000034,0.002206,0.007416,0.116566,0.006783,0.199785,0.199782,0.169906,0.498307,0.000000,0.000000,0.000000,0.000000,0.000000,0.000000,0.000000,0.000000,0.000000,0.000000,0.000000,0.000000,0.112912,3,0
1110000,-0.007187,28.552584,-0.043901,-0.026293,25.784266,-0.069503,-0.000010,0.026958,1.569171,-0.060932,0.002115,-0.006668,-0.000307,-0.007644,0.000034,0.000224,0.007436,0.013880,0.033709,0.199996,0.199993,0.169633,0.493323,0.000000,0.000000,0.000000,0.000000,0.000000,0.000000,0.000000,0.000000,0.000000,0.000000,0.000000,0.000000,0.015222,3,0
1120000,-0.007205,28.814907,-0.045440,-0.026169,25.795383,-0.071748,0.000003,0.027527,1.569161,-0.061815,0.002163,-0.006437,-0.000317,-0.007830,0.000035,0.003008,0.007453,0.133244,-0.029318,0.200201,0.200197,0.169353,0.488442,0.000000,0.000000,0.000000,0.000000,0.000000,0.000000,0.000000,0.000000,0.000000,0.000000,0.000000,0.000000,0.128997,3,0
1130000,-0.007222,29.077211,-0.046132,-0.026162,25.806320,-0.072850,0.000033,0.028089,1.569151,-0.062672,0.002212,-0.006456,-0.000327,-0.008012,0.000035,0.002700,0.007471,0.129232,0.001530,0.200400,0.200396,0.169065,0.483663,0.000000,0.000000,0.000000,0.000000,0.000000,0.000000,0.000000,0.000000,0.000000,0.000000,0.000000,0.000000,0.125125,3,0
1140000,-0.007237,29.338831,-0.045949,-0.026155,25.815998,-0.072457,0.000059,0.028554,1.569129,-0.063370,0.002261,-0.006731,-0.000338,-0.008163,0.000036,0.001973,0.007488,0.105366,0.032884,0.200593,0.200589,0.168770,0.478987,0.000000,0.000000,0.000000,0.000000,0.000000,0.000000,0.000000,0.000000,0.000000,0.000000,0.000000,0.000000,0.102102,3,0
1150000,-0.007250,29.599775,-0.046423,-0.026029,25.824244,-0.073068,0.000074,0.028933,1.569118,-0.063915,0.002311,-0.006813,-0.000349,-0.008282,0.000037,0.001112,0.007501,0.082197,0.009384,0.200782,0.200777,0.168469,0.474412,0.000000,0.000000,0.000000,0.000000,0.000000,0.000000,0.000000,0.000000,0.000000,0.000000,0.000000,0.000000,0.079777,3,0
1160000,-0.007261,29.858053,-0.046177,-0.025872,25.827766,-0.072559,0.000100,0.029015,1.569104,-0.063915,0.002360,-0.007104,-0.000360,-0.008281,0.000037,0.000209,0.007513,0.000078,0.035126,0.200966,0.200961,0.168161,0.469936,0.000000,0.000000,0.000000,0.000000,0.000000,0.000000,0.000000,0.000000,0.000000,0.000000,0.000000,0.000000,0.007261,3,0
1170000,-0.007270,30.120369,-0.045835,-0.025772,25.838270,-0.072245,0.000125,0.029552,1.569086,-0.064707,0.002410,-0.007436,-0.000372,-0.008460,0.000038,0.002552,0.007523,0.119465,0.038794,0.201147,0.201141,0.167848,0.465560,0.000000,0.000000,0.000000,0.000000,0.000000,0.000000,0.000000,0.000000,0.000000,0.000000,0.000000,0.000000,0.115690,3,0
1180000,-0.007278,30.383329,-0.046721,-0.025683,25.849907,-0.073566,0.000140,0.030162,1.569077,-0.065606,0.002459,-0.007400,-0.000383,-0.008666,0.000039,0.002964,0.007531,0.135349,-0.005169,0.201323,0.201317,0.167529,0.461283,0.000000,0.000000,0.000000,0.000000,0.000000,0.000000,0.000000,0.000000,0.000000,0.000000,0.000000,0.000000,0.131010,3,0
1190000,-0.007284,30.645584,-0.046045,-0.025578,25.860226,-0.072648,0.000164,0.030686,1.569067,-0.066340,0.002508,-0.007841,-0.000395,-0.008836,0.000039,0.002413,0.007539,0.110815,0.051241,0.201497,0.201490,0.167206,0.457102,0.000000,0.000000,0.000000,0.000000,0.000000,0.000000,0.000000,0.000000,0.000000,0.000000,0.000000,0.000000,0.107345,3,0
1200000,-0.007291,30.905146,-0.047209,-0.025529,25.865631,-0.074130,0.000188,0.030876,1.569064,-0.066522,0.002558,-0.007712,-0.000407,-0.008879,0.000040,0.000168,0.007544,0.027370,-0.015335,0.201667,0.201660,0.166878,0.453018,0.000000,0.000000,0.000000,0.000000,0.000000,0.000000,0.000000,0.000000,0.000000,0.000000,0.000000,0.000000,0.027436,3,0
1210000,-0.007295,31.166723,-0.046453,-0.025531,25.874535,-0.073132,0.000222,0.031308,1.569041,-0.067090,0.002607,-0.008185,-0.000419,-0.009014,0.000040,0.001676,0.007550,0.085815,0.054455,0.201835,0.201828,0.166545,0.449029,0.000000,0.000000,0.000000,0.000000,0.000000,0.000000,0.000000,0.000000,0.000000,0.000000,0.000000,0.000000,0.083254,3,0
1220000,-0.007298,31.426947,-0.046554,-0.025390,25.880827,-0.073247,0.000240,0.031569,1.569020,-0.067373,0.002657,-0.008388,-0.000431,-0.009082,0.000041,0.000392,0.007553,0.042820,0.023202,0.202001,0.201993,0.166209,0.445132,0.000000,0.000000,0.000000,0.000000,0.000000,0.000000,0.000000,0.000000,0.000000,0.000000,0.000000,0.000000,0.042019,3,0
1230000,-0.007300,31.687172,-0.047050,-0.025207,25.887091,-0.074006,0.000265,0.031823,1.569011,-0.067643,0.002707,-0.008469,-0.000444,-0.009148,0.000041,0.000293,0.007555,0.040956,0.009065,0.202166,0.202157,0.165869,0.441329,0.000000,0.000000,0.000000,0.000000,0.000000,0.000000,0.000000,0.000000,0.000000,0.000000,0.000000,0.000000,0.040245,3,0
1240000,-0.007301,31.949409,-0.047448,-0.025180,25.896809,-0.074569,0.000297,0.032314,1.569002,-0.068296,0.002756,-0.008590,-0.000456,-0.009311,0.000042,0.001607,0.007557,0.098730,0.013024,0.202328,0.202319,0.165526,0.437616,0.000000,0.000000,0.000000,0.000000,0.000000,0.000000,0.000000,0.000000,0.000000,0.000000,0.000000,0.000000,0.095681,3,0
1250000,-0.007302,32.212959,-0.048939,-0.025007,25.908678,-0.076457,0.000325,0.032967,1.568977,-0.069185,0.002805,-0.008369,-0.000468,-0.009537,0.000043,0.003039,0.007556,0.134579,-0.026381,0.202490,0.202480,0.165180,0.433992,0.000000,0.000000,0.000000,0.000000,0.000000,0.000000,0.000000,0.000000,0.000000,0.000000,0.000000,0.000000,0.130240,3,0
1260000,-0.007299,32.474438,-0.047910,-0.024988,25.916903,-0.075137,0.000344,0.033361,1.568963,-0.069642,0.002854,-0.008956,-0.000482,-0.009653,0.000043,0.001495,0.007556,0.069698,0.065869,0.202651,0.202640,0.164831,0.430458,0.000000,0.000000,0.000000,0.000000,0.000000,0.000000,0.000000,0.000000,0.000000,0.000000,0.000000,0.000000,0.067743,3,0
1270000,-0.007297,32.735226,-0.048873,-0.024923,25.923824,-0.076437,0.000374,0.033664,1.568945,-0.069950,0.002904,-0.008896,-0.000494,-0.009733,0.000044,0.000369,0.007553,0.046688,-0.007230,0.202811,0.202799,0.164480,0.427011,0.000000,0.000000,0.000000,0.000000,0.000000,0.000000,0.000000,0.000000,0.000000,0.000000,0.000000,0.000000,0.045695,3,0
1280000,-0.007295,32.997345,-0.050101,-0.024766,25.932850,-0.077920,0.000406,0.034128,1.568933,-0.070502,0.002953,-0.008756,-0.000507,-0.009880,0.000044,0.001189,0.007550,0.084015,-0.016358,0.202971,0.202959,0.164128,0.423649,0.000000,0.000000,0.000000,0.000000,0.000000,0.000000,0.000000,0.000000,0.000000,0.000000,0.000000,0.000000,0.081500,3,0
1290000,-0.007289,33.259422,-0.049066,-0.024691,25.941793,-0.076639,0.000436,0.034563,1.568922,-0.071025,0.003001,-0.009367,-0.000521,-0.010019,0.000045,0.001776,0.007546,0.080231,0.067114,0.203131,0.203118,0.163773,0.420371,0.000000,0.000000,0.000000,0.000000,0.000000,0.000000,0.000000,0.000000,0.000000,0.000000,0.000000,0.000000,0.077864,3,0
1300000,-0.007283,33.518108,-0.049975,-0.024504,25.944702,-0.077760,0.000475,0.034556,1.568920,-0.070876,0.003051,-0.009320,-0.000534,-0.009978,0.000045,0.000098,0.007538,-0.022911,-0.004976,0.203291,0.203277,0.163418,0.417177,0.000000,0.000000,0.000000,0.000000,0.000000,0.000000,0.000000,0.000000,0.000000,0.000000,0.000000,0.000000,0.023304,3,0
1310000,-0.007274,33.776806,-0.049066,-0.024365,25.947512,-0.076770,0.000504,0.034547,1.568909,-0.070722,0.003100,-0.009885,-0.000549,-0.009934,0.000045,0.000727,0.007531,-0.023197,0.062394,0.203451,0.203437,0.163061,0.414063,0.000000,0.000000,0.000000,0.000000,0.000000,0.000000,0.000000,0.000000,0.000000,0.000000,0.000000,0.000000,0.023555,3,0
1320000,-0.007264,34.039566,-0.048149,-0.024277,25.957525,-0.075642,0.000525,0.035071,1.568900,-0.071341,0.003147,-0.010469,-0.000563,-0.010106,0.000046,0.002127,0.007521,0.095776,0.062854,0.203612,0.203597,0.162703,0.411030,0.000000,0.000000,0.000000,0.000000,0.000000,0.000000,0.000000,0.000000,0.000000,0.000000,0.000000,0.000000,0.092818,3,0
1330000,-0.007254,34.301609,-0.048333,-0.024072,25.966022,-0.075786,0.000555,0.035487,1.568883,-0.071804,0.003195,-0.010676,-0.000577,-0.010237,0.000046,0.000908,0.007510,0.071465,0.021723,0.203774,0.203758,0.162345,0.408074,0.000000,0.000000,0.000000,0.000000,0.000000,0.000000,0.000000,0.000000,0.000000,0.000000,0.000000,0.000000,0.069418,3,0
1340000,-0.007243,34.560242,-0.049964,-0.023884,25.968422,-0.077737,0.000582,0.035449,1.568882,-0.071601,0.003244,-0.010375,-0.000590,-0.010179,0.000046,0.000338,0.007497,-0.031635,-0.032140,0.203937,0.203920,0.161987,0.405196,0.000000,0.000000,0.000000,0.000000,0.000000,0.000000,0.000000,0.000000,0.000000,0.000000,0.000000,0.000000,0.031410,3,0
1350000,-0.007230,34.822262,-0.049879,-0.023835,25.976854,-0.077524,0.000606,0.035867,1.568860,-0.072034,0.003292,-0.010685,-0.000605,-0.010305,0.000047,0.000915,0.007486,0.067528,0.032588,0.204101,0.204083,0.161628,0.402393,0.000000,0.000000,0.000000,0.000000,0.000000,0.000000,0.000000,0.000000,0.000000,0.000000,0.000000,0.000000,0.065635,3,0
1360000,-0.007215,35.082211,-0.049447,-0.023612,25.981400,-0.076946,0.000642,0.035991,1.568854,-0.072059,0.003339,-0.011109,-0.000619,-0.010311,0.000047,0.000344,0.007471,0.004215,0.045287,0.204267,0.204248,0.161270,0.399664,0.000000,0.000000,0.000000,0.000000,0.000000,0.000000,0.000000,0.000000,0.000000,0.000000,0.000000,0.000000,0.008288,3,0
1370000,-0.007201,35.340805,-0.050951,-0.023370,25.983498,-0.078666,0.000669,0.035921,1.568838,-0.071823,0.003387,-0.010849,-0.000633,-0.010241,0.000047,0.000351,0.007454,-0.037113,-0.027236,0.204434,0.204414,0.160912,0.397008,0.000000,0.000000,0.000000,0.000000,0.000000,0.000000,0.000000,0.000000,0.000000,0.000000,0.000000,0.000000,0.036566,3,0
1380000,-0.007185,35.603477,-0.051947,-0.023308,25.992733,-0.079873,0.000710,0.036413,1.568832,-0.072346,0.003434,-0.010791,-0.000648,-0.010401,0.000048,0.001099,0.007438,0.081974,-0.007109,0.204602,0.204582,0.160555,0.394422,0.000000,0.000000,0.000000,0.000000,0.000000,0.000000,0.000000,0.000000,0.000000,0.000000,0.000000,0.000000,0.079503,3,0
1390000,-0.007166,35.864738,-0.051916,-0.023103,25.999395,-0.079719,0.000740,0.036695,1.568810,-0.072584,0.003481,-0.011094,-0.000662,-0.010474,0.000048,0.000401,0.007420,0.037872,0.031556,0.204773,0.204751,0.160198,0.391906,0.000000,0.000000,0.000000,0.000000,0.000000,0.000000,0.000000,0.000000,0.000000,0.000000,0.000000,0.000000,0.037278,3,0
1400000,-0.007146,36.123928,-0.051816,-0.022962,26.002285,-0.079563,0.000766,0.036669,1.568801,-0.072427,0.003527,-0.011415,-0.000677,-0.010423,0.000048,0.000293,0.007400,-0.024662,0.033907,0.204945,0.204923,0.159843,0.389459,0.000000,0.000000,0.000000,0.000000,0.000000,0.000000,0.000000,0.000000,0.000000,0.000000,0.000000,0.000000,0.024864,3,0
1410000,-0.007127,36.385841,-0.052168,-0.022891,26.010056,-0.079835,0.000793,0.037038,1.568781,-0.072766,0.003573,-0.011587,-0.000692,-0.010531,0.000048,0.000528,0.007380,0.054058,0.017289,0.205119,0.205096,0.159489,0.387078,0.000000,0.000000,0.000000,0.000000,0.000000,0.000000,0.000000,0.000000,0.000000,0.000000,0.000000,0.000000,0.052696,3,0
1420000,-0.007105,36.647705,-0.051880,-0.022627,26.017506,-0.079308,0.000836,0.037390,1.568771,-0.073080,0.003618,-0.011993,-0.000707,-0.010631,0.000049,0.000699,0.007358,0.050495,0.041531,0.205295,0.205271,0.159136,0.384762,0.000000,0.000000,0.000000,0.000000,0.000000,0.000000,0.000000,0.000000,0.000000,0.000000,0.000000,0.000000,0.049289,3,0
1430000,-0.007083,36.906132,-0.052948,-0.022491,26.018827,-0.080702,0.000876,0.037240,1.568757,-0.072754,0.003664,-0.011887,-0.000722,-0.010525,0.000049,0.000468,0.007334,-0.052414,-0.010275,0.205473,0.205448,0.158785,0.382511,0.000000,0.000000,0.000000,0.000000,0.000000,0.000000,0.000000,0.000000,0.000000,0.000000,0.000000,0.000000,0.051114,3,0
1440000,-0.007061,37.163891,-0.054327,-0.022317,26.018877,-0.082329,0.000920,0.036978,1.568758,-0.072307,0.003711,-0.011666,-0.000737,-0.010377,0.000048,0.000927,0.007311,-0.072308,-0.021717,0.205654,0.205627,0.158436,0.380322,0.000000,0.000000,0.000000,0.000000,0.000000,0.000000,0.000000,0.000000,0.000000,0.000000,0.000000,0.000000,0.070188,3,0
1450000,-0.007035,37.422344,-0.054146,-0.022116,26.020157,-0.081922,0.000960,0.036810,1.568745,-0.071987,0.003755,-0.012032,-0.000753,-0.010267,0.000048,0.000676,0.007287,-0.051762,0.038125,0.205836,0.205808,0.158088,0.378194,0.000000,0.000000,0.000000,0.000000,0.000000,0.000000,0.000000,0.000000,0.000000,0.000000,0.000000,0.000000,0.050473,3,0
1460000,-0.007007,37.682167,-0.053498,-0.021839,26.023886,-0.081255,0.000991,0.036844,1.568725,-0.071910,0.003799,-0.012581,-0.000769,-0.010239,0.000048,0.000544,0.007258,-0.012043,0.056163,0.206020,0.205991,0.157743,0.376126,0.000000,0.000000,0.000000,0.000000,0.000000,0.000000,0.000000,0.000000,0.000000,0.000000,0.000000,0.000000,0.013569,3,0
1470000,-0.006980,37.943356,-0.054432,-0.021617,26.030008,-0.082222,0.001034,0.037086,1.568705,-0.072070,0.003843,-0.012544,-0.000784,-0.010295,0.000048,0.000122,0.007228,0.026279,-0.004176,0.206206,0.206176,0.157400,0.374115,0.000000,0.000000,0.000000,0.000000,0.000000,0.000000,0.000000,0.000000,0.000000,0.000000,0.000000,0.000000,0.026318,3,0
1480000,-0.006949,38.202442,-0.053352,-0.021443,26.032118,-0.080962,0.001080,0.036985,1.568690,-0.071848,0.003886,-0.013260,-0.000800,-0.010213,0.000048,0.001080,0.007199,-0.036182,0.072828,0.206394,0.206363,0.157059,0.372161,0.000000,0.000000,0.000000,0.000000,0.000000,0.000000,0.000000,0.000000,0.000000,0.000000,0.000000,0.000000,0.035608,3,0
1490000,-0.006918,38.464272,-0.053659,-0.021211,26.039272,-0.081320,0.001110,0.037294,1.568675,-0.072103,0.003928,-0.013465,-0.000816,-0.010304,0.000048,0.000365,0.007165,0.042652,0.019880,0.206585,0.206552,0.156721,0.370263,0.000000,0.000000,0.000000,0.000000,0.000000,0.000000,0.000000,0.000000,0.000000,0.000000,0.000000,0.000000,0.041764,3,0
1500000,-0.006885,38.722626,-0.053203,-0.021074,26.039858,-0.080633,0.001157,0.037067,1.568673,-0.071741,0.003971,-0.013942,-0.000832,-0.010170,0.000048,0.000976,0.007133,-0.060215,0.048643,0.206777,0.206743,0.156385,0.368418,0.000000,0.000000,0.000000,0.000000,0.000000,0.000000,0.000000,0.000000,0.000000,0.000000,0.000000,0.000000,0.058539,3,0
1510000,-0.006852,38.983727,-0.052207,-0.020964,26.045507,-0.079468,0.001185,0.037265,1.568665,-0.071853,0.004012,-0.014647,-0.000848,-0.010209,0.000048,0.000859,0.007100,0.019363,0.069795,0.206971,0.206936,0.156053,0.366626,0.000000,0.000000,0.000000,0.000000,0.000000,0.000000,0.000000,0.000000,0.000000,0.000000,0.000000,0.000000,0.019923,3,0
1520000,-0.006820,39.244114,-0.052921,-0.020775,26.049822,-0.080480,0.001230,0.037350,1.568657,-0.071833,0.004053,-0.014681,-0.000863,-0.010201,0.000048,0.000012,0.007064,-0.003246,0.003518,0.207167,0.207131,0.155723,0.364886,0.000000,0.000000,0.000000,0.000000,0.000000,0.000000,0.000000,0.000000,0.000000,0.000000,0.000000,0.000000,0.007505,3,0
1530000,-0.006786,39.505157,-0.052754,-0.020548,26.055176,-0.080300,0.001264,0.037520,1.568652,-0.071917,0.004094,-0.015069,-0.000879,-0.010232,0.000049,0.000277,0.007030,0.014626,0.038004,0.207365,0.207327,0.155396,0.363196,0.000000,0.000000,0.000000,0.000000,0.000000,0.000000,0.000000,0.000000,0.000000,0.000000,0.000000,0.000000,0.015671,3,0
1540000,-0.006752,39.766857,-0.053751,-0.020383,26.061708,-0.081474,0.001298,0.037790,1.568630,-0.072102,0.004134,-0.015004,-0.000895,-0.010303,0.000049,0.000179,0.006994,0.031837,-0.006892,0.207564,0.207525,0.155072,0.361555,0.000000,0.000000,0.000000,0.000000,0.000000,0.000000,0.000000,0.000000,0.000000,0.000000,0.000000,0.000000,0.031468,3,0
1550000,-0.006717,40.025742,-0.053167,-0.020259,26.062960,-0.080616,0.001345,0.037596,1.568628,-0.071805,0.004174,-0.015549,-0.000911,-0.010185,0.000049,0.000902,0.006959,-0.051018,0.054133,0.207765,0.207725,0.154751,0.359961,0.000000,0.000000,0.000000,0.000000,0.000000,0.000000,0.000000,0.000000,0.000000,0.000000,0.000000,0.000000,0.049696,3,0
1560000,-0.006680,40.286003,-0.053079,-0.019985,26.066683,-0.080375,0.001377,0.037625,1.568623,-0.071737,0.004213,-0.015906,-0.000927,-0.010156,0.000049,0.000228,0.006921,-0.011730,0.034956,0.207968,0.207927,0.154434,0.358414,0.000000,0.000000,0.000000,0.000000,0.000000,0.000000,0.000000,0.000000,0.000000,0.000000,0.000000,0.000000,0.013142,3,0
1570000,-0.006642,40.543480,-0.053130,-0.019729,26.065275,-0.080153,0.001409,0.037212,1.568618,-0.071206,0.004252,-0.016187,-0.000944,-0.009940,0.000048,0.001538,0.006881,-0.093121,0.028832,0.208173,0.208130,0.154120,0.356911,0.000000,0.000000,0.000000,0.000000,0.000000,0.000000,0.000000,0.000000,0.000000,0.000000,0.000000,0.000000,0.090131,3,0
1580000,-0.006602,40.805805,-0.053759,-0.019419,26.072763,-0.080752,0.001438,0.037562,1.568595,-0.071471,0.004290,-0.016272,-0.000959,-0.010048,0.000048,0.000372,0.006840,0.046997,0.007438,0.208379,0.208334,0.153809,0.355452,0.000000,0.000000,0.000000,0.000000,0.000000,0.000000,0.000000,0.000000,0.000000,0.000000,0.000000,0.000000,0.045846,3,0
1590000,-0.006562,41.066696,-0.055074,-0.019145,26.077370,-0.082418,0.001482,0.037687,1.568577,-0.071490,0.004329,-0.016071,-0.000975,-0.010057,0.000049,0.000070,0.006798,0.003265,-0.019403,0.208586,0.208540,0.153502,0.354035,0.000000,0.000000,0.000000,0.000000,0.000000,0.000000,0.000000,0.000000,0.000000,0.000000,0.000000,0.000000,0.007278,3,0
1600000,-0.006519,41.326836,-0.054360,-0.018939,26.080681,-0.081591,0.001515,0.037666,1.568568,-0.071381,0.004365,-0.016699,-0.000991,-0.010008,0.000049,0.000660,0.006756,-0.019127,0.060465,0.208794,0.208747,0.153198,0.352661,0.000000,0.000000,0.000000,0.000000,0.000000,0.000000,0.000000,0.000000,0.000000,0.000000,0.000000,0.000000,0.019566,3,0
1610000,-0.006477,41.587658,-0.055526,-0.018723,26.085144,-0.083030,0.001553,0.037766,1.568552,-0.071377,0.004402,-0.016558,-0.001007,-0.010007,0.000049,0.000036,0.006710,-0.000996,-0.013373,0.209004,0.208955,0.152898,0.351326,0.000000,0.000000,0.000000,0.000000,0.000000,0.000000,0.000000,0.000000,0.000000,0.000000,0.000000,0.000000,0.006549,3,0
1620000,-0.006435,41.849827,-0.056910,-0.018544,26.092026,-0.084777,0.001591,0.038072,1.568530,-0.071575,0.004438,-0.016344,-0.001022,-0.010095,0.000049,0.000291,0.006667,0.036320,-0.020996,0.209214,0.209164,0.152602,0.350031,0.000000,0.000000,0.000000,0.000000,0.000000,0.000000,0.000000,0.000000,0.000000,0.000000,0.000000,0.000000,0.035635,3,0
1630000,-0.006388,42.110519,-0.055956,-0.018214,26.096004,-0.083496,0.001630,0.038113,1.568523,-0.071533,0.004473,-0.017096,-0.001039,-0.010072,0.000049,0.000840,0.006622,-0.007244,0.071246,0.209425,0.209374,0.152309,0.348773,0.000000,0.000000,0.000000,0.000000,0.000000,0.000000,0.000000,0.000000,0.000000,0.000000,0.000000,0.000000,0.009457,3,0
1640000,-0.006341,42.369797,-0.056137,-0.017930,26.097425,-0.083537,0.001677,0.037927,1.568511,-0.071269,0.004508,-0.017358,-0.001055,-0.009952,0.000049,0.000505,0.006571,-0.049313,0.025658,0.209637,0.209584,0.152020,0.347553,0.000000,0.000000,0.000000,0.000000,0.000000,0.000000,0.000000,0.000000,0.000000,0.000000,0.000000,0.000000,0.048005,3,0
1650000,-0.006293,42.629749,-0.056205,-0.017745,26.100025,-0.083489,0.001707,0.037842,1.568503,-0.071108,0.004542,-0.017675,-0.001071,-0.009877,0.000049,0.000304,0.006522,-0.030300,0.030372,0.209849,0.209795,0.151735,0.346369,0.000000,0.000000,0.000000,0.000000,0.000000,0.000000,0.000000,0.000000,0.000000,0.000000,0.000000,0.000000,0.029902,3,0
1660000,-0.006246,42.891068,-0.056480,-0.017556,26.105112,-0.083572,0.001746,0.037972,1.568483,-0.071148,0.004575,-0.017918,-0.001087,-0.009894,0.000049,0.000100,0.006473,0.007904,0.022563,0.210061,0.210006,0.151454,0.345219,0.000000,0.000000,0.000000,0.000000,0.000000,0.000000,0.000000,0.000000,0.000000,0.000000,0.000000,0.000000,0.009863,3,0
1670000,-0.006197,43.149544,-0.056619,-0.017335,26.104725,-0.083574,0.001778,0.037625,1.568468,-0.070761,0.004608,-0.018193,-0.001103,-0.009710,0.000048,0.001021,0.006423,-0.074554,0.027194,0.210274,0.210217,0.151177,0.344101,0.000000,0.000000,0.000000,0.000000,0.000000,0.000000,0.000000,0.000000,0.000000,0.000000,0.000000,0.000000,0.072200,3,0
1680000,-0.006145,43.411488,-0.055715,-0.017055,26.110685,-0.082567,0.001824,0.037858,1.568451,-0.070885,0.004639,-0.018951,-0.001119,-0.009765,0.000049,0.000899,0.006372,0.024796,0.069865,0.210487,0.210429,0.150903,0.343015,0.000000,0.000000,0.000000,0.000000,0.000000,0.000000,0.000000,0.000000,0.000000,0.000000,0.000000,0.000000,0.024721,3,0
1690000,-0.006095,43.674084,-0.056811,-0.016731,26.117786,-0.083902,0.001861,0.038202,1.568443,-0.071094,0.004671,-0.018853,-0.001135,-0.009867,0.000049,0.000294,0.006317,0.041100,-0.009963,0.210700,0.210640,0.150634,0.341961,0.000000,0.000000,0.000000,0.000000,0.000000,0.000000,0.000000,0.000000,0.000000,0.000000,0.000000,0.000000,0.040120,3,0
1700000,-0.006045,43.931713,-0.057829,-0.016560,26.115700,-0.084777,0.001899,0.037695,1.568437,-0.070582,0.004704,-0.018742,-0.001150,-0.009615,0.000048,0.001700,0.006265,-0.102295,-0.007998,0.210913,0.210851,0.150368,0.340938,0.000000,0.000000,0.000000,0.000000,0.000000,0.000000,0.000000,0.000000,0.000000,0.000000,0.000000,0.000000,0.098886,3,0
1710000,-0.005993,44.188644,-0.058321,-0.016285,26.112297,-0.084957,0.001944,0.037058,1.568425,-0.069981,0.004735,-0.018856,-0.001166,-0.009312,0.000047,0.002402,0.006212,-0.121361,0.013114,0.211125,0.211062,0.150107,0.339945,0.000000,0.000000,0.000000,0.000000,0.000000,0.000000,0.000000,0.000000,0.000000,0.000000,0.000000,0.000000,0.117242,3,0
