time_us,pos_x,pos_y,pos_z,vel_x,vel_y,vel_z,roll,pitch,yaw,bias_ax,bias_ay,bias_az,bias_gx,bias_gy,bias_gz,nis,innov_x,innov_y,innov_z,cov_pos_x,cov_pos_y,cov_pos_z,cov_yaw,des_speed,des_heading,des_climb,pid_speed,pid_yaw,pid_alt,speed_meas,yaw_meas,climb_meas,fwd_accel,yaw_rate,vert_accel,drift_m,nav_mode,mission_state
0,0.000002,0.149998,-0.000002,0.000388,24.999628,-0.000607,0.000002,-0.000003,1.570817,0.000000,0.000000,0.000000,0.000000,0.000000,0.000000,0.006250,-0.000004,-0.249999,0.000006,2.400038,2.400038,3.600017,1.000518,0.000000,0.000000,0.000000,0.000000,0.000000,0.000000,0.000000,0.000000,0.000000,0.000000,0.000000,0.000000,0.149998,1,0
10000,0.000007,0.382263,0.016410,0.000724,24.999441,-0.001225,0.000017,0.000001,1.570822,0.000000,-0.000000,-0.000000,0.000000,0.000000,0.000000,0.000658,-0.000010,-0.062052,0.043800,1.714420,1.714420,2.250079,1.001073,0.000000,0.000000,0.000000,0.000000,0.000000,0.000000,0.000000,0.000000,0.000000,0.000000,0.000000,0.000000,0.044321,3,0
20000,0.000014,0.633117,0.009283,0.001081,24.999479,-0.001694,0.000023,-0.000000,1.570825,0.000000,-0.000000,0.000000,-0.000000,-0.000000,-0.000000,0.000084,-0.000018,0.003868,-0.026071,1.333616,1.333616,1.636554,1.001655,0.000000,0.000000,0.000000,0.000000,0.000000,0.000000,0.000000,0.000000,0.000000,0.000000,0.000000,0.000000,0.003008,3,0
30000,0.000023,0.888809,0.010002,0.001393,24.999569,-0.002030,0.000036,-0.000005,1.570833,-0.000000,-0.000000,0.000000,0.000000,-0.000000,-0.000000,0.000135,-0.000028,0.031318,0.003452,1.091392,1.091392,1.286065,1.002257,0.000000,0.000000,0.000000,0.000000,0.000000,0.000000,0.000000,0.000000,0.000000,0.000000,0.000000,0.000000,0.025622,3,0
40000,0.000033,1.134865,0.021596,0.001683,24.999496,-0.002247,0.000046,-0.000008,1.570843,0.000000,-0.000000,-0.000002,0.000000,0.000000,0.000000,0.000687,-0.000039,-0.025585,0.065803,0.923811,0.923811,1.059385,1.002869,0.000000,0.000000,0.000000,0.000000,0.000000,0.000000,0.000000,0.000000,0.000000,0.000000,0.000000,0.000000,0.021646,3,0
50000,0.000046,1.385749,0.026942,0.001917,24.999397,-0.002586,0.000056,-0.000016,1.570852,0.000000,-0.000000,-0.000003,0.000000,-0.000000,-0.000000,0.000188,-0.000053,0.006665,0.035794,0.801036,0.801036,0.900822,1.003484,0.000000,0.000000,0.000000,0.000000,0.000000,0.000000,0.000000,0.000000,0.000000,0.000000,0.000000,0.000000,0.005775,3,0
60000,0.000060,1.642103,0.026822,0.002260,24.999584,-0.003186,0.000060,-0.000027,1.570867,-0.000003,-0.000000,-0.000003,0.000000,-0.000000,-0.000000,0.000428,-0.000068,0.053967,-0.000677,0.707270,0.707270,0.783741,1.004094,0.000000,0.000000,0.000000,0.000000,0.000000,0.000000,0.000000,0.000000,0.000000,0.000000,0.000000,0.000000,0.047605,3,0
70000,0.000077,1.889620,0.033170,0.002632,24.999456,-0.003470,0.000064,-0.000028,1.570885,-0.000001,-0.000000,-0.000007,0.000000,-0.000000,-0.000000,0.000532,-0.000086,-0.023481,0.055226,0.633370,0.633370,0.693801,1.004688,0.000000,0.000000,0.000000,0.000000,0.000000,0.000000,0.000000,0.000000,0.000000,0.000000,0.000000,0.000000,0.021002,3,0
80000,0.000096,2.146016,0.031727,0.002915,24.999990,-0.004086,0.000064,-0.000022,1.570890,-0.000008,-0.000000,-0.000006,0.000000,-0.000000,-0.000000,0.000703,-0.000106,0.066945,-0.013517,0.573673,0.573673,0.622594,1.005260,0.000000,0.000000,0.000000,0.000000,0.000000,0.000000,0.000000,0.000000,0.000000,0.000000,0.000000,0.000000,0.060544,3,0
90000,0.000117,2.396831,0.028800,0.003142,25.000031,-0.004750,0.000075,-0.000018,1.570899,-0.000009,-0.000000,-0.000002,0.000000,-0.000000,-0.000000,0.000155,-0.000128,0.009333,-0.030616,0.524488,0.524488,0.564865,1.005801,0.000000,0.000000,0.000000,0.000000,0.000000,0.000000,0.000000,0.000000,0.000000,0.000000,0.000000,0.000000,0.008518,3,0
100000,0.000140,2.651398,0.027606,0.003534,25.000475,-0.005457,0.000076,-0.000024,1.570902,-0.000018,-0.000000,-0.000000,0.000000,-0.000000,-0.000000,0.000519,-0.000152,0.056702,-0.013229,0.483303,0.483303,0.517162,1.006301,0.000000,0.000000,0.000000,0.000000,0.000000,0.000000,0.000000,0.000000,0.000000,0.000000,0.000000,0.000000,0.052135,3,0
110000,0.000165,2.897015,0.031028,0.003850,24.999817,-0.005439,0.000081,-0.000029,1.570923,-0.000007,-0.000000,-0.000008,0.000000,-0.000000,-0.000000,0.000826,-0.000178,-0.058717,0.043772,0.448353,0.448353,0.477121,1.006754,0.000000,0.000000,0.000000,0.000000,0.000000,0.000000,0.000000,0.000000,0.000000,0.000000,0.000000,0.000000,0.054330,3,0
120000,0.000191,3.147970,0.030875,0.004066,24.999884,-0.006082,0.000097,-0.000029,1.570928,-0.000010,-0.000000,-0.000008,0.000000,-0.000000,-0.000000,0.000030,-0.000206,0.013736,-0.001258,0.418358,0.418358,0.443071,1.007150,0.000000,0.000000,0.000000,0.000000,0.000000,0.000000,0.000000,0.000000,0.000000,0.000000,0.000000,0.000000,0.012779,3,0
130000,0.000221,3.404555,0.027741,0.004468,25.001129,-0.007105,0.000106,-0.000025,1.570939,-0.000036,-0.000000,0.000003,0.000000,-0.000001,-0.000000,0.001887,-0.000236,0.100721,-0.044482,0.392369,0.392369,0.413797,1.007481,0.000000,0.000000,0.000000,0.000000,0.000000,0.000000,0.000000,0.000000,0.000000,0.000000,0.000000,0.000000,0.094134,3,0
140000,0.000252,3.662109,0.030834,0.004829,25.002655,-0.006831,0.000118,-0.000025,1.570945,-0.000072,-0.000000,-0.000011,0.000000,-0.000001,-0.000000,0.002717,-0.000269,0.122428,0.048930,0.369666,0.369666,0.388393,1.007739,0.000000,0.000000,0.000000,0.000000,0.000000,0.000000,0.000000,0.000000,0.000000,0.000000,0.000000,0.000000,0.114886,3,0
150000,0.000286,3.914686,0.031365,0.005167,25.003254,-0.007167,0.000124,-0.000033,1.570956,-0.000087,-0.000000,-0.000014,0.000000,-0.000002,-0.000000,0.000316,-0.000304,0.043769,0.009902,0.349695,0.349695,0.366172,1.007915,0.000000,0.000000,0.000000,0.000000,0.000000,0.000000,0.000000,0.000000,0.000000,0.000000,0.000000,0.000000,0.041219,3,0
160000,0.000322,4.163064,0.031834,0.005417,25.002748,-0.007340,0.000129,-0.000050,1.570976,-0.000075,-0.000001,-0.000018,0.000000,-0.000001,-0.000000,0.000155,-0.000340,-0.029903,0.009396,0.332020,0.332020,0.346600,1.008002,0.000000,0.000000,0.000000,0.000000,0.000000,0.000000,0.000000,0.000000,0.000000,0.000000,0.000000,0.000000,0.028251,3,0
170000,0.000358,4.413091,0.033732,0.005639,25.002625,-0.007271,0.000126,-0.000061,1.570988,-0.000075,-0.000001,-0.000033,0.000000,-0.000001,-0.000000,0.000204,-0.000378,0.000030,0.036012,0.316297,0.316297,0.329260,1.007991,0.000000,0.000000,0.000000,0.000000,0.000000,0.000000,0.000000,0.000000,0.000000,0.000000,0.000000,0.000000,0.000359,3,0
180000,0.000398,4.663541,0.032676,0.006042,25.002712,-0.008053,0.000131,-0.000067,1.570993,-0.000079,-0.000001,-0.000024,0.000000,-0.000001,-0.000000,0.000067,-0.000419,0.008429,-0.018702,0.302245,0.302245,0.313817,1.007875,0.000000,0.000000,0.000000,0.000000,0.000000,0.000000,0.000000,0.000000,0.000000,0.000000,0.000000,0.000000,0.008014,3,0
190000,0.000439,4.920118,0.031738,0.006392,25.005049,-0.008815,0.000137,-0.000042,1.571006,-0.000151,-0.000001,-0.000015,0.000000,-0.000003,-0.000000,0.002966,-0.000462,0.135676,-0.017060,0.289640,0.289640,0.300003,1.007645,0.000000,0.000000,0.000000,0.000000,0.000000,0.000000,0.000000,0.000000,0.000000,0.000000,0.000000,0.000000,0.129128,3,0
200000,0.000483,5.177469,0.034076,0.006702,25.007956,-0.008447,0.000144,-0.000012,1.571012,-0.000243,-0.000001,-0.000044,0.000000,-0.000006,-0.000000,0.004345,-0.000506,0.157381,0.050729,0.278294,0.278294,0.287598,1.007295,0.000000,0.000000,0.000000,0.000000,0.000000,0.000000,0.000000,0.000000,0.000000,0.000000,0.000000,0.000000,0.150081,3,0
210000,0.000529,5.428410,0.034215,0.007035,25.008364,-0.008829,0.000147,-0.000003,1.571033,-0.000255,-0.000002,-0.000047,0.000000,-0.000006,-0.000000,0.000063,-0.000553,0.019274,0.004948,0.268052,0.268052,0.276421,1.006816,0.000000,0.000000,0.000000,0.000000,0.000000,0.000000,0.000000,0.000000,0.000000,0.000000,0.000000,0.000000,0.018421,3,0
220000,0.000575,5.682220,0.035050,0.007254,25.010096,-0.008986,0.000161,0.000018,1.571048,-0.000316,-0.000002,-0.000062,0.000000,-0.000008,-0.000000,0.001260,-0.000601,0.086391,0.020927,0.258785,0.258785,0.266321,1.006202,0.000000,0.000000,0.000000,0.000000,0.000000,0.000000,0.000000,0.000000,0.000000,0.000000,0.000000,0.000000,0.082667,3,0
230000,0.000623,5.934459,0.034238,0.007470,25.011143,-0.009825,0.000164,0.000024,1.571053,-0.000355,-0.000003,-0.000049,0.000000,-0.000009,-0.000000,0.000464,-0.000650,0.051233,-0.016715,0.250384,0.250384,0.257172,1.005446,0.000000,0.000000,0.000000,0.000000,0.000000,0.000000,0.000000,0.000000,0.000000,0.000000,0.000000,0.000000,0.049099,3,0
240000,0.000673,6.187696,0.033483,0.007780,25.012716,-0.010623,0.000174,0.000042,1.571063,-0.000418,-0.000003,-0.000036,0.000000,-0.000011,-0.000000,0.000995,-0.000701,0.077289,-0.015730,0.242754,0.242754,0.248866,1.004541,0.000000,0.000000,0.000000,0.000000,0.000000,0.000000,0.000000,0.000000,0.000000,0.000000,0.000000,0.000000,0.074165,3,0
250000,0.000723,6.443408,0.035216,0.008028,25.015923,-0.010142,0.000176,0.000079,1.571078,-0.000545,-0.000004,-0.000077,0.000000,-0.000016,-0.000000,0.003569,-0.000753,0.142097,0.045852,0.235816,0.235816,0.241314,1.003481,0.000000,0.000000,0.000000,0.000000,0.000000,0.000000,0.000000,0.000000,0.000000,0.000000,0.000000,0.000000,0.136515,3,0
260000,0.000777,6.699865,0.035810,0.008380,25.019739,-0.010096,0.000186,0.000130,1.571088,-0.000703,-0.000005,-0.000094,0.000000,-0.000022,-0.000000,0.004397,-0.000807,0.164659,0.017882,0.229501,0.229501,0.234436,1.002258,0.000000,0.000000,0.000000,0.000000,0.000000,0.000000,0.000000,0.000000,0.000000,0.000000,0.000000,0.000000,0.158362,3,0
270000,0.000831,6.954050,0.035124,0.008675,25.022242,-0.010766,0.000195,0.000153,1.571106,-0.000813,-0.000006,-0.000078,0.000000,-0.000026,-0.000000,0.001873,-0.000864,0.106954,-0.015282,0.223751,0.223751,0.228165,1.000869,0.000000,0.000000,0.000000,0.000000,0.000000,0.000000,0.000000,0.000000,0.000000,0.000000,0.000000,0.000000,0.102969,3,0
280000,0.000888,7.209045,0.035791,0.009028,25.025505,-0.010740,0.000206,0.000191,1.571110,-0.000958,-0.000007,-0.000101,0.000000,-0.000032,-0.000000,0.002829,-0.000922,0.131048,0.021022,0.218512,0.218512,0.222443,0.999307,0.000000,0.000000,0.000000,0.000000,0.000000,0.000000,0.000000,0.000000,0.000000,0.000000,0.000000,0.000000,0.126278,3,0
290000,0.000946,7.466213,0.036079,0.009235,25.030510,-0.010943,0.000210,0.000265,1.571123,-0.001187,-0.000008,-0.000114,0.000000,-0.000041,-0.000000,0.006074,-0.000981,0.194083,0.011052,0.213740,0.213740,0.217219,0.997567,0.000000,0.000000,0.000000,0.000000,0.000000,0.000000,0.000000,0.000000,0.000000,0.000000,0.000000,0.000000,0.187172,3,0
300000,0.001006,7.720559,0.035958,0.009610,25.033617,-0.011446,0.000212,0.000312,1.571140,-0.001332,-0.000009,-0.000114,0.000000,-0.000047,-0.000000,0.002156,-0.001042,0.115775,-0.000190,0.209394,0.209394,0.212446,0.995645,0.000000,0.000000,0.000000,0.000000,0.000000,0.000000,0.000000,0.000000,0.000000,0.000000,0.000000,0.000000,0.111739,3,0
310000,0.001067,7.976360,0.036192,0.009847,25.038105,-0.011525,0.000211,0.000370,1.571148,-0.001545,-0.000010,-0.000127,0.000000,-0.000057,-0.000000,0.004116,-0.001105,0.159580,0.010125,0.205438,0.205439,0.208087,0.993536,0.000000,0.000000,0.000000,0.000000,0.000000,0.000000,0.000000,0.000000,0.000000,0.000000,0.000000,0.000000,0.154120,3,0
320000,0.001129,8.230189,0.034830,0.010134,25.041010,-0.012854,0.000220,0.000422,1.571156,-0.001691,-0.000012,-0.000076,0.000000,-0.000063,-0.000000,0.001908,-0.001169,0.102525,-0.036517,0.201842,0.201842,0.204105,0.991236,0.000000,0.000000,0.000000,0.000000,0.000000,0.000000,0.000000,0.000000,0.000000,0.000000,0.000000,0.000000,0.099083,3,0
330000,0.001194,8.483487,0.033636,0.010483,25.043636,-0.014085,0.000231,0.000462,1.571175,-0.001821,-0.000014,-0.000029,0.000001,-0.000069,-0.000000,0.001389,-0.001234,0.087213,-0.031805,0.198576,0.198576,0.200469,0.988743,0.000000,0.000000,0.000000,0.000000,0.000000,0.000000,0.000000,0.000000,0.000000,0.000000,0.000000,0.000000,0.084334,3,0
340000,0.001259,8.738229,0.032618,0.010782,25.047600,-0.015456,0.000244,0.000530,1.571182,-0.002030,-0.000016,0.000013,0.000001,-0.000080,-0.000000,0.002926,-0.001302,0.132073,-0.026507,0.195615,0.195615,0.197151,0.986053,0.000000,0.000000,0.000000,0.000000,0.000000,0.000000,0.000000,0.000000,0.000000,0.000000,0.000000,0.000000,0.127774,3,0
350000,0.001326,8.990513,0.032694,0.011056,25.049389,-0.015596,0.000257,0.000549,1.571190,-0.002124,-0.000018,0.000001,0.000001,-0.000084,-0.000000,0.000518,-0.001370,0.056201,0.007255,0.192936,0.192936,0.194125,0.983163,0.000000,0.000000,0.000000,0.000000,0.000000,0.000000,0.000000,0.000000,0.000000,0.000000,0.000000,0.000000,0.054410,3,0
360000,0.001394,9.244248,0.032898,0.011304,25.052637,-0.015696,0.000255,0.000605,1.571194,-0.002303,-0.000021,-0.000019,0.000001,-0.000094,-0.000000,0.001703,-0.001440,0.102084,0.011421,0.190519,0.190519,0.191370,0.980072,0.000000,0.000000,0.000000,0.000000,0.000000,0.000000,0.000000,0.000000,0.000000,0.000000,0.000000,0.000000,0.098852,3,0
370000,0.001462,9.499997,0.032811,0.011489,25.058064,-0.016224,0.000266,0.000700,1.571215,-0.002610,-0.000023,-0.000023,0.000001,-0.000110,-0.000000,0.004470,-0.001509,0.166379,0.002410,0.188344,0.188344,0.188863,0.976779,0.000000,0.000000,0.000000,0.000000,0.000000,0.000000,0.000000,0.000000,0.000000,0.000000,0.000000,0.000000,0.161163,3,0
380000,0.001531,9.753358,0.033291,0.011776,25.061110,-0.016039,0.000269,0.000753,1.571223,-0.002783,-0.000026,-0.000063,0.000001,-0.000119,-0.000000,0.001363,-0.001580,0.089486,0.020782,0.186394,0.186394,0.186586,0.973281,0.000000,0.000000,0.000000,0.000000,0.000000,0.000000,0.000000,0.000000,0.000000,0.000000,0.000000,0.000000,0.086720,3,0
390000,0.001602,10.009325,0.032783,0.012084,25.067093,-0.017053,0.000267,0.000873,1.571237,-0.003135,-0.000030,-0.000041,0.000001,-0.000139,-0.000000,0.004913,-0.001653,0.174036,-0.011082,0.184654,0.184654,0.184522,0.969580,0.000000,0.000000,0.000000,0.000000,0.000000,0.000000,0.000000,0.000000,0.000000,0.000000,0.000000,0.000000,0.168688,3,0
400000,0.001673,10.264774,0.033832,0.012350,25.072611,-0.016092,0.000275,0.000978,1.571255,-0.003467,-0.000033,-0.000126,0.000002,-0.000158,-0.000000,0.004222,-0.001726,0.156556,0.040171,0.183108,0.183108,0.182656,0.965674,0.000000,0.000000,0.000000,0.000000,0.000000,0.000000,0.000000,0.000000,0.000000,0.000000,0.000000,0.000000,0.151787,3,0
410000,0.001745,10.519730,0.033069,0.012563,25.077662,-0.017054,0.000281,0.001073,1.571258,-0.003775,-0.000037,-0.000082,0.000002,-0.000177,-0.000001,0.003214,-0.001799,0.139598,-0.019865,0.181744,0.181744,0.180971,0.961566,0.000000,0.000000,0.000000,0.000000,0.000000,0.000000,0.000000,0.000000,0.000000,0.000000,0.000000,0.000000,0.135381,3,0
420000,0.001818,10.777205,0.034432,0.012891,25.085938,-0.015968,0.000292,0.001244,1.571271,-0.004288,-0.000041,-0.000200,0.000002,-0.000208,-0.000001,0.008434,-0.001875,0.222533,0.051497,0.180548,0.180549,0.179456,0.957254,0.000000,0.000000,0.000000,0.000000,0.000000,0.000000,0.000000,0.000000,0.000000,0.000000,0.000000,0.000000,0.215844,3,0
430000,0.001892,11.034154,0.032891,0.013121,25.093584,-0.017895,0.000299,0.001404,1.571291,-0.004776,-0.000046,-0.000089,0.000002,-0.000239,-0.000001,0.007046,-0.001950,0.203524,-0.046408,0.179510,0.179510,0.178097,0.952742,0.000000,0.000000,0.000000,0.000000,0.000000,0.000000,0.000000,0.000000,0.000000,0.000000,0.000000,0.000000,0.197444,3,0
440000,0.001967,11.290008,0.033016,0.013472,25.099960,-0.018118,0.000300,0.001543,1.571307,-0.005188,-0.000051,-0.000115,0.000003,-0.000265,-0.000001,0.004430,-0.002027,0.165165,0.010481,0.178619,0.178619,0.176883,0.948032,0.000000,0.000000,0.000000,0.000000,0.000000,0.000000,0.000000,0.000000,0.000000,0.000000,0.000000,0.000000,0.160260,3,0
450000,0.002042,11.546569,0.031728,0.013640,25.107409,-0.020111,0.000297,0.001703,1.571312,-0.005674,-0.000056,-0.000018,0.000003,-0.000297,-0.000001,0.005917,-0.002104,0.187551,-0.037528,0.177863,0.177864,0.175803,0.943126,0.000000,0.000000,0.000000,0.000000,0.000000,0.000000,0.000000,0.000000,0.000000,0.000000,0.000000,0.000000,0.182003,3,0
460000,0.002117,11.803824,0.031241,0.013920,25.115841,-0.020878,0.000300,0.001889,1.571318,-0.006236,-0.000062,0.000008,0.000003,-0.000335,-0.000001,0.007096,-0.002182,0.209221,-0.009663,0.177235,0.177235,0.174847,0.938027,0.000000,0.000000,0.000000,0.000000,0.000000,0.000000,0.000000,0.000000,0.000000,0.000000,0.000000,0.000000,0.203052,3,0
470000,0.002193,12.058251,0.030326,0.014127,25.120474,-0.022304,0.000299,0.001990,1.571327,-0.006545,-0.000068,0.000075,0.000004,-0.000356,-0.000001,0.002085,-0.002260,0.110911,-0.024155,0.176725,0.176725,0.174006,0.932738,0.000000,0.000000,0.000000,0.000000,0.000000,0.000000,0.000000,0.000000,0.000000,0.000000,0.000000,0.000000,0.107667,3,0
480000,0.002269,12.315754,0.030343,0.014410,25.129436,-0.022590,0.000299,0.002200,1.571347,-0.007162,-0.000075,0.000050,0.000004,-0.000400,-0.000001,0.007439,-0.002338,0.214259,0.008519,0.176324,0.176324,0.173271,0.927265,0.000000,0.000000,0.000000,0.000000,0.000000,0.000000,0.000000,0.000000,0.000000,0.000000,0.000000,0.000000,0.207975,3,0
490000,0.002345,12.571611,0.031140,0.014593,25.136156,-0.021853,0.000304,0.002355,1.571357,-0.007625,-0.000082,-0.000056,0.000005,-0.000433,-0.000001,0.004117,-0.002416,0.155456,0.035753,0.176025,0.176025,0.172634,0.921612,0.000000,0.000000,0.000000,0.000000,0.000000,0.000000,0.000000,0.000000,0.000000,0.000000,0.000000,0.000000,0.150913,3,0
500000,0.002421,12.828770,0.031415,0.014817,25.144859,-0.021627,0.000299,0.002558,1.571366,-0.008233,-0.000090,-0.000110,0.000005,-0.000478,-0.000002,0.006374,-0.002495,0.197715,0.017356,0.175820,0.175821,0.172087,0.915782,0.000000,0.000000,0.000000,0.000000,0.000000,0.000000,0.000000,0.000000,0.000000,0.000000,0.000000,0.000000,0.191937,3,0
510000,0.002498,13.085463,0.030379,0.015033,25.152765,-0.023262,0.000295,0.002761,1.571371,-0.008801,-0.000098,-0.000019,0.000006,-0.000521,-0.000002,0.005317,-0.002573,0.179017,-0.028497,0.175703,0.175703,0.171622,0.909783,0.000000,0.000000,0.000000,0.000000,0.000000,0.000000,0.000000,0.000000,0.000000,0.000000,0.000000,0.000000,0.173793,3,0
520000,0.002573,13.340538,0.030503,0.015157,25.158438,-0.023121,0.000296,0.002902,1.571385,-0.009196,-0.000106,-0.000061,0.000007,-0.000552,-0.000002,0.002397,-0.002650,0.121032,0.012628,0.175667,0.175667,0.171234,0.903619,0.000000,0.000000,0.000000,0.000000,0.000000,0.000000,0.000000,0.000000,0.000000,0.000000,0.000000,0.000000,0.117516,3,0
530000,0.002648,13.598677,0.031519,0.015441,25.168570,-0.022058,0.000296,0.003159,1.571403,-0.009949,-0.000115,-0.000211,0.000007,-0.000611,-0.000002,0.008413,-0.002728,0.223722,0.044018,0.175704,0.175704,0.170914,0.897297,0.000000,0.000000,0.000000,0.000000,0.000000,0.000000,0.000000,0.000000,0.000000,0.000000,0.000000,0.000000,0.217186,3,0
540000,0.002723,13.854595,0.030638,0.015564,25.175301,-0.023474,0.000291,0.003338,1.571423,-0.010449,-0.000125,-0.000130,0.000008,-0.000651,-0.000002,0.003460,-0.002805,0.144393,-0.023046,0.175810,0.175810,0.170658,0.890823,0.000000,0.000000,0.000000,0.000000,0.000000,0.000000,0.000000,0.000000,0.000000,0.000000,0.000000,0.000000,0.140189,3,0
550000,0.002798,14.110659,0.030126,0.015803,25.182335,-0.024395,0.000297,0.003516,1.571427,-0.010972,-0.000135,-0.000096,0.000009,-0.000694,-0.000002,0.003504,-0.002882,0.146832,-0.009587,0.175979,0.175979,0.170460,0.884204,0.000000,0.000000,0.000000,0.000000,0.000000,0.000000,0.000000,0.000000,0.000000,0.000000,0.000000,0.000000,0.142552,3,0
560000,0.002873,14.369201,0.030035,0.016015,25.193251,-0.024690,0.000296,0.003814,1.571445,-0.011807,-0.000146,-0.000117,0.000010,-0.000764,-0.000002,0.008463,-0.002959,0.228638,0.005601,0.176205,0.176205,0.170314,0.877447,0.000000,0.000000,0.000000,0.000000,0.000000,0.000000,0.000000,0.000000,0.000000,0.000000,0.000000,0.000000,0.221941,3,0
570000,0.002946,14.624932,0.031342,0.016182,25.199686,-0.022980,0.000302,0.003989,1.571468,-0.012290,-0.000157,-0.000325,0.000011,-0.000805,-0.000003,0.003183,-0.003036,0.129018,0.054920,0.176483,0.176483,0.170214,0.870559,0.000000,0.000000,0.000000,0.000000,0.000000,0.000000,0.000000,0.000000,0.000000,0.000000,0.000000,0.000000,0.125258,3,0
580000,0.003020,14.883157,0.031966,0.016356,25.210083,-0.022081,0.000296,0.004294,1.571481,-0.013101,-0.000169,-0.000444,0.000012,-0.000876,-0.000003,0.007362,-0.003111,0.211164,0.030234,0.176808,0.176808,0.170157,0.863548,0.000000,0.000000,0.000000,0.000000,0.000000,0.000000,0.000000,0.000000,0.000000,0.000000,0.000000,0.000000,0.204963,3,0
590000,0.003092,15.139741,0.031584,0.016516,25.217859,-0.022975,0.000295,0.004516,1.571497,-0.013698,-0.000181,-0.000422,0.000013,-0.000929,-0.000003,0.003725,-0.003186,0.151623,-0.005457,0.177176,0.177176,0.170138,0.856421,0.000000,0.000000,0.000000,0.000000,0.000000,0.000000,0.000000,0.000000,0.000000,0.000000,0.000000,0.000000,0.147178,3,0
600000,0.003165,15.398229,0.031121,0.016749,25.228571,-0.023794,0.000298,0.004830,1.571520,-0.014556,-0.000194,-0.000389,0.000014,-0.001007,-0.000003,0.007352,-0.003261,0.213025,-0.008034,0.177582,0.177583,0.170152,0.849185,0.000000,0.000000,0.000000,0.000000,0.000000,0.000000,0.000000,0.000000,0.000000,0.000000,0.000000,0.000000,0.206745,3,0
610000,0.003236,15.656245,0.031334,0.016869,25.238424,-0.023506,0.000298,0.005131,1.571528,-0.015350,-0.000207,-0.000457,0.000016,-0.001081,-0.000003,0.006066,-0.003335,0.192976,0.016028,0.178023,0.178023,0.170195,0.841850,0.000000,0.000000,0.000000,0.000000,0.000000,0.000000,0.000000,0.000000,0.000000,0.000000,0.000000,0.000000,0.187278,3,0
620000,0.003307,15.914384,0.030563,0.017042,25.248423,-0.024753,0.000308,0.005438,1.571546,-0.016163,-0.000222,-0.000377,0.000017,-0.001157,-0.000004,0.006100,-0.003408,0.193289,-0.018744,0.178493,0.178494,0.170264,0.834423,0.000000,0.000000,0.000000,0.000000,0.000000,0.000000,0.000000,0.000000,0.000000,0.000000,0.000000,0.000000,0.187568,3,0
630000,0.003376,16.172054,0.030975,0.017125,25.257713,-0.024368,0.000305,0.005717,1.571556,-0.016909,-0.000236,-0.000480,0.000018,-0.001229,-0.000004,0.004964,-0.003480,0.173594,0.023450,0.178991,0.178991,0.170355,0.826912,0.000000,0.000000,0.000000,0.000000,0.000000,0.000000,0.000000,0.000000,0.000000,0.000000,0.000000,0.000000,0.168449,3,0
640000,0.003444,16.429852,0.030005,0.017293,25.267147,-0.026093,0.000303,0.006001,1.571563,-0.017673,-0.000252,-0.000367,0.000020,-0.001304,-0.000004,0.005015,-0.003551,0.174257,-0.025328,0.179511,0.179511,0.170465,0.819326,0.000000,0.000000,0.000000,0.000000,0.000000,0.000000,0.000000,0.000000,0.000000,0.000000,0.000000,0.000000,0.169080,3,0
650000,0.003512,16.688969,0.028790,0.017417,25.278721,-0.028177,0.000306,0.006373,1.571579,-0.018632,-0.000268,-0.000215,0.000021,-0.001400,-0.000004,0.007623,-0.003620,0.214546,-0.033301,0.180051,0.180051,0.170591,0.811672,0.000000,0.000000,0.000000,0.000000,0.000000,0.000000,0.000000,0.000000,0.000000,0.000000,0.000000,0.000000,0.208139,3,0
660000,0.003578,16.948196,0.028269,0.017534,25.290297,-0.029079,0.000312,0.006748,1.571587,-0.019605,-0.000284,-0.000177,0.000023,-0.001498,-0.000005,0.007398,-0.003689,0.213741,-0.008199,0.180607,0.180608,0.170729,0.803958,0.000000,0.000000,0.000000,0.000000,0.000000,0.000000,0.000000,0.000000,0.000000,0.000000,0.000000,0.000000,0.207339,3,0
670000,0.003643,17.206333,0.029247,0.017638,25.299952,-0.027638,0.000320,0.007068,1.571596,-0.020407,-0.000301,-0.000391,0.000025,-0.001581,-0.000005,0.005167,-0.003756,0.173065,0.044685,0.181178,0.181178,0.170877,0.796193,0.000000,0.000000,0.000000,0.000000,0.000000,0.000000,0.000000,0.000000,0.000000,0.000000,0.000000,0.000000,0.167879,3,0
680000,0.003706,17.462784,0.030223,0.017692,25.306604,-0.026448,0.000327,0.007277,1.571614,-0.020943,-0.000319,-0.000607,0.000027,-0.001638,-0.000005,0.002405,-0.003822,0.113621,0.044195,0.181759,0.181760,0.171033,0.788384,0.000000,0.000000,0.000000,0.000000,0.000000,0.000000,0.000000,0.000000,0.000000,0.000000,0.000000,0.000000,0.110240,3,0
690000,0.003768,17.722994,0.030815,0.017887,25.319696,-0.025789,0.000331,0.007725,1.571638,-0.022070,-0.000337,-0.000758,0.000029,-0.001759,-0.000006,0.009060,-0.003887,0.234802,0.030248,0.182349,0.182350,0.171193,0.780540,0.000000,0.000000,0.000000,0.000000,0.000000,0.000000,0.000000,0.000000,0.000000,0.000000,0.000000,0.000000,0.227698,3,0
700000,0.003831,17.980270,0.030481,0.018102,25.327522,-0.026228,0.000326,0.007982,1.571650,-0.022721,-0.000356,-0.000745,0.000031,-0.001830,-0.000006,0.002883,-0.003951,0.133493,-0.002552,0.182945,0.182946,0.171357,0.772668,0.000000,0.000000,0.000000,0.000000,0.000000,0.000000,0.000000,0.000000,0.000000,0.000000,0.000000,0.000000,0.129480,3,0
710000,0.003892,18.241928,0.031251,0.018234,25.342894,-0.025355,0.000317,0.008516,1.571675,-0.024077,-0.000376,-0.000934,0.000033,-0.001980,-0.000006,0.012321,-0.004015,0.273716,0.036351,0.183546,0.183546,0.171522,0.764777,0.000000,0.000000,0.000000,0.000000,0.000000,0.000000,0.000000,0.000000,0.000000,0.000000,0.000000,0.000000,0.265371,3,0
720000,0.003952,18.501223,0.032294,0.018312,25.354053,-0.023813,0.000304,0.008902,1.571683,-0.025037,-0.000396,-0.001173,0.000036,-0.002089,-0.000007,0.006220,-0.004078,0.190815,0.045471,0.184147,0.184148,0.171685,0.756872,0.000000,0.000000,0.000000,0.000000,0.000000,0.000000,0.000000,0.000000,0.000000,0.000000,0.000000,0.000000,0.185002,3,0
730000,0.004012,18.760008,0.032556,0.018514,25.364252,-0.023711,0.000298,0.009270,1.571704,-0.025905,-0.000417,-0.001268,0.000038,-0.002188,-0.000007,0.004719,-0.004139,0.169954,0.017690,0.184749,0.184750,0.171846,0.748963,0.000000,0.000000,0.000000,0.000000,0.000000,0.000000,0.000000,0.000000,0.000000,0.000000,0.000000,0.000000,0.164769,3,0
740000,0.004070,19.019510,0.033211,0.018549,25.375473,-0.022803,0.000304,0.009671,1.571726,-0.026885,-0.000438,-0.001438,0.000041,-0.002303,-0.000007,0.005954,-0.004200,0.189373,0.031303,0.185349,0.185350,0.172003,0.741056,0.000000,0.000000,0.000000,0.000000,0.000000,0.000000,0.000000,0.000000,0.000000,0.000000,0.000000,0.000000,0.183568,3,0
750000,0.004127,19.280958,0.032869,0.018681,25.389982,-0.023502,0.000299,0.010203,1.571736,-0.028185,-0.000460,-0.001419,0.000043,-0.002457,-0.000008,0.009924,-0.004259,0.247818,-0.003764,0.185946,0.185947,0.172154,0.733157,0.000000,0.000000,0.000000,0.000000,0.000000,0.000000,0.000000,0.000000,0.000000,0.000000,0.000000,0.000000,0.240173,3,0
760000,0.004182,19.540623,0.032422,0.018721,25.401262,-0.024440,0.000299,0.010611,1.571750,-0.029168,-0.000483,-0.001380,0.000046,-0.002576,-0.000008,0.005539,-0.004316,0.185015,-0.007161,0.186538,0.186539,0.172299,0.725274,0.000000,0.000000,0.000000,0.000000,0.000000,0.000000,0.000000,0.000000,0.000000,0.000000,0.000000,0.000000,0.179311,3,0
770000,0.004236,19.799757,0.032986,0.018779,25.411524,-0.023526,0.000293,0.010994,1.571774,-0.030049,-0.000506,-0.001542,0.000049,-0.002685,-0.000008,0.004464,-0.004372,0.163784,0.028270,0.187124,0.187125,0.172435,0.717414,0.000000,0.000000,0.000000,0.000000,0.000000,0.000000,0.000000,0.000000,0.000000,0.000000,0.000000,0.000000,0.158733,3,0
780000,0.004288,20.057739,0.033460,0.018862,25.419497,-0.022843,0.000287,0.011287,1.571786,-0.030720,-0.000530,-0.001686,0.000052,-0.002769,-0.000009,0.002554,-0.004427,0.123215,0.024794,0.187703,0.187704,0.172562,0.709581,0.000000,0.000000,0.000000,0.000000,0.000000,0.000000,0.000000,0.000000,0.000000,0.000000,0.000000,0.000000,0.119437,3,0
790000,0.004340,20.316450,0.032874,0.019026,25.428806,-0.023683,0.000290,0.011639,1.571799,-0.031511,-0.000554,-0.001615,0.000055,-0.002869,-0.000009,0.003350,-0.004481,0.143456,-0.012310,0.188274,0.188274,0.172680,0.701783,0.000000,0.000000,0.000000,0.000000,0.000000,0.000000,0.000000,0.000000,0.000000,0.000000,0.000000,0.000000,0.139022,3,0
800000,0.004392,20.574631,0.031973,0.019142,25.437006,-0.025115,0.000293,0.011942,1.571821,-0.032197,-0.000579,-0.001480,0.000058,-0.002958,-0.000009,0.002538,-0.004534,0.123199,-0.022883,0.188835,0.188835,0.172786,0.694025,0.000000,0.000000,0.000000,0.000000,0.000000,0.000000,0.000000,0.000000,0.000000,0.000000,0.000000,0.000000,0.119403,3,0
810000,0.004442,20.832281,0.032057,0.019260,25.444195,-0.024956,0.000284,0.012213,1.571835,-0.032780,-0.000605,-0.001552,0.000062,-0.003034,-0.000010,0.001754,-0.004587,0.103483,0.011752,0.189386,0.189386,0.172881,0.686313,0.000000,0.000000,0.000000,0.000000,0.000000,0.000000,0.000000,0.000000,0.000000,0.000000,0.000000,0.000000,0.100316,3,0
820000,0.004491,21.093184,0.030642,0.019322,25.456966,-0.027307,0.000287,0.012733,1.571855,-0.033938,-0.000631,-0.001309,0.000065,-0.003189,-0.000010,0.006953,-0.004638,0.203581,-0.040168,0.189926,0.189927,0.172964,0.678652,0.000000,0.000000,0.000000,0.000000,0.000000,0.000000,0.000000,0.000000,0.000000,0.000000,0.000000,0.000000,0.197187,3,0
830000,0.004538,21.354778,0.031646,0.019316,25.470839,-0.025751,0.000288,0.013300,1.571879,-0.035206,-0.000657,-0.001586,0.000069,-0.003361,-0.000011,0.008195,-0.004687,0.220856,0.044444,0.190455,0.190456,0.173034,0.671047,0.000000,0.000000,0.000000,0.000000,0.000000,0.000000,0.000000,0.000000,0.000000,0.000000,0.000000,0.000000,0.213894,3,0
840000,0.004585,21.617693,0.031226,0.019457,25.486855,-0.026665,0.000279,0.013960,1.571891,-0.036698,-0.000684,-0.001555,0.000072,-0.003567,-0.000011,0.010691,-0.004735,0.257305,-0.005334,0.190972,0.190973,0.173092,0.663502,0.000000,0.000000,0.000000,0.000000,0.000000,0.000000,0.000000,0.000000,0.000000,0.000000,0.000000,0.000000,0.249157,3,0
850000,0.004629,21.876200,0.032175,0.019484,25.494888,-0.025387,0.000264,0.014272,1.571913,-0.037362,-0.000712,-0.001824,0.000076,-0.003660,-0.000012,0.002372,-0.004782,0.113504,0.042306,0.191477,0.191477,0.173135,0.656023,0.000000,0.000000,0.000000,0.000000,0.000000,0.000000,0.000000,0.000000,0.000000,0.000000,0.000000,0.000000,0.109980,3,0
860000,0.004672,22.138609,0.032265,0.019464,25.509666,-0.025534,0.000263,0.014908,1.571923,-0.038734,-0.000740,-0.001905,0.000080,-0.003855,-0.000012,0.008758,-0.004826,0.232615,0.012213,0.191968,0.191969,0.173165,0.648612,0.000000,0.000000,0.000000,0.000000,0.000000,0.000000,0.000000,0.000000,0.000000,0.000000,0.000000,0.000000,0.225221,3,0
870000,0.004714,22.400415,0.032980,0.019583,25.523262,-0.024514,0.000248,0.015479,1.571945,-0.039975,-0.000768,-0.002126,0.000085,-0.004035,-0.000013,0.007209,-0.004870,0.208603,0.033814,0.192447,0.192447,0.173181,0.641275,0.000000,0.000000,0.000000,0.000000,0.000000,0.000000,0.000000,0.000000,0.000000,0.000000,0.000000,0.000000,0.201967,3,0
880000,0.004756,22.659704,0.032118,0.019697,25.532225,-0.025863,0.000247,0.015855,1.571968,-0.040728,-0.000797,-0.001989,0.000089,-0.004145,-0.000013,0.002620,-0.004914,0.125572,-0.021198,0.192912,0.192913,0.173183,0.634015,0.000000,0.000000,0.000000,0.000000,0.000000,0.000000,0.000000,0.000000,0.000000,0.000000,0.000000,0.000000,0.121627,3,0
890000,0.004797,22.920982,0.033119,0.019816,25.544512,-0.024507,0.000235,0.016398,1.571979,-0.041840,-0.000827,-0.002282,0.000093,-0.004311,-0.000014,0.005791,-0.004957,0.184256,0.043866,0.193364,0.193365,0.173171,0.626836,0.000000,0.000000,0.000000,0.000000,0.000000,0.000000,0.000000,0.000000,0.000000,0.000000,0.000000,0.000000,0.178383,3,0
900000,0.004837,23.179092,0.031651,0.019903,25.551186,-0.026787,0.000221,0.016664,1.571993,-0.042339,-0.000857,-0.002001,0.000098,-0.004387,-0.000014,0.001374,-0.004998,0.081884,-0.042188,0.193803,0.193803,0.173144,0.619740,0.000000,0.000000,0.000000,0.000000,0.000000,0.000000,0.000000,0.000000,0.000000,0.000000,0.000000,0.000000,0.079386,3,0
910000,0.004876,23.438570,0.032178,0.019883,25.560137,-0.026233,0.000220,0.017045,1.572013,-0.043085,-0.000887,-0.002192,0.000103,-0.004502,-0.000014,0.002526,-0.005039,0.121893,0.027832,0.194228,0.194228,0.173103,0.612730,0.000000,0.000000,0.000000,0.000000,0.000000,0.000000,0.000000,0.000000,0.000000,0.000000,0.000000,0.000000,0.118047,3,0
920000,0.004914,23.697464,0.031704,0.020001,25.567860,-0.027026,0.000211,0.017372,1.572019,-0.043707,-0.000918,-0.002144,0.000107,-0.004599,-0.000015,0.001653,-0.005079,0.100872,-0.007145,0.194640,0.194640,0.173048,0.605809,0.000000,0.000000,0.000000,0.000000,0.000000,0.000000,0.000000,0.000000,0.000000,0.000000,0.000000,0.000000,0.097723,3,0
930000,0.004950,23.958363,0.032734,0.020040,25.579082,-0.025643,0.000196,0.017872,1.572032,-0.044699,-0.000950,-0.002460,0.000113,-0.004757,-0.000015,0.004463,-0.005117,0.159962,0.045338,0.195038,0.195038,0.172979,0.598980,0.000000,0.000000,0.000000,0.000000,0.000000,0.000000,0.000000,0.000000,0.000000,0.000000,0.000000,0.000000,0.154841,3,0
940000,0.004985,24.220594,0.033882,0.019971,25.592527,-0.024237,0.000183,0.018482,1.572047,-0.045928,-0.000981,-0.002806,0.000118,-0.004955,-0.000016,0.006659,-0.005153,0.197134,0.049017,0.195424,0.195424,0.172896,0.592244,0.000000,0.000000,0.000000,0.000000,0.000000,0.000000,0.000000,0.000000,0.000000,0.000000,0.000000,0.000000,0.190779,3,0
950000,0.005018,24.481550,0.034264,0.020009,25.603605,-0.023841,0.000181,0.018975,1.572064,-0.046890,-0.001013,-0.002963,0.000123,-0.005112,-0.000016,0.003878,-0.005188,0.153433,0.021934,0.195796,0.195796,0.172800,0.585605,0.000000,0.000000,0.000000,0.000000,0.000000,0.000000,0.000000,0.000000,0.000000,0.000000,0.000000,0.000000,0.148511,3,0
960000,0.005050,24.739941,0.034393,0.019980,25.610064,-0.023853,0.000170,0.019229,1.572079,-0.047339,-0.001046,-0.003057,0.000129,-0.005187,-0.000017,0.000851,-0.005221,0.071278,0.012985,0.196156,0.196156,0.172690,0.579063,0.000000,0.000000,0.000000,0.000000,0.000000,0.000000,0.000000,0.000000,0.000000,0.000000,0.000000,0.000000,0.069132,3,0
970000,0.005080,24.999048,0.034996,0.019960,25.617622,-0.023020,0.000153,0.019552,1.572102,-0.047916,-0.001079,-0.003270,0.000134,-0.005284,-0.000017,0.001484,-0.005253,0.091127,0.029458,0.196503,0.196503,0.172566,0.572620,0.000000,0.000000,0.000000,0.000000,0.000000,0.000000,0.000000,0.000000,0.000000,0.000000,0.000000,0.000000,0.088291,3,0
980000,0.005111,25.260170,0.033659,0.020049,25.628704,-0.025254,0.000148,0.020074,1.572111,-0.048871,-0.001112,-0.002997,0.000140,-0.005448,-0.000017,0.003868,-0.005284,0.150007,-0.038210,0.196838,0.196838,0.172430,0.566278,0.000000,0.000000,0.000000,0.000000,0.000000,0.000000,0.000000,0.000000,0.000000,0.000000,0.000000,0.000000,0.145176,3,0
990000,0.005140,25.522625,0.032844,0.020083,25.641924,-0.026487,0.000139,0.020712,1.572135,-0.050067,-0.001145,-0.002861,0.000146,-0.005657,-0.000018,0.005699,-0.005315,0.186958,-0.019312,0.197162,0.197161,0.172281,0.560037,0.000000,0.000000,0.000000,0.000000,0.000000,0.000000,0.000000,0.000000,0.000000,0.000000,0.000000,0.000000,0.180888,3,0
1000000,0.005170,25.781815,0.031883,0.020173,25.649223,-0.028141,0.000137,0.021037,1.572150,-0.050603,-0.001180,-0.002687,0.000152,-0.005751,-0.000018,0.001219,-0.005345,0.083399,-0.023990,0.197474,0.197473,0.172119,0.553900,0.000000,0.000000,0.000000,0.000000,0.000000,0.000000,0.000000,0.000000,0.000000,0.000000,0.000000,0.000000,0.080820,3,0
1010000,0.005196,26.045639,0.032044,0.020088,25.664646,-0.028008,0.000117,0.021797,1.572166,-0.052031,-0.001213,-0.002810,0.000158,-0.006008,-0.000019,0.007968,-0.005374,0.221716,0.015782,0.197775,0.197774,0.171946,0.547865,0.000000,0.000000,0.000000,0.000000,0.000000,0.000000,0.000000,0.000000,0.000000,0.000000,0.000000,0.000000,0.214472,3,0
1020000,0.005222,26.309446,0.033280,0.020116,25.679764,-0.026365,0.000109,0.022549,1.572194,-0.053428,-0.001247,-0.003215,0.000164,-0.006262,-0.000020,0.007995,-0.005401,0.216164,0.053261,0.198065,0.198064,0.171761,0.541935,0.000000,0.000000,0.000000,0.000000,0.000000,0.000000,0.000000,0.000000,0.000000,0.000000,0.000000,0.000000,0.209093,3,0
1030000,0.005246,26.569290,0.033058,0.020035,25.687840,-0.026885,0.000103,0.022907,1.572199,-0.054020,-0.001282,-0.003231,0.000171,-0.006371,-0.000020,0.001350,-0.005425,0.091356,0.001721,0.198345,0.198344,0.171564,0.536110,0.000000,0.000000,0.000000,0.000000,0.000000,0.000000,0.000000,0.000000,0.000000,0.000000,0.000000,0.000000,0.088493,3,0
1040000,0.005269,26.830484,0.032964,0.020015,25.698013,-0.027034,0.000081,0.023399,1.572224,-0.054864,-0.001317,-0.003283,0.000177,-0.006529,-0.000021,0.002719,-0.005449,0.129616,0.006372,0.198615,0.198614,0.171357,0.530390,0.000000,0.000000,0.000000,0.000000,0.000000,0.000000,0.000000,0.000000,0.000000,0.000000,0.000000,0.000000,0.125437,3,0
1050000,0.005289,27.092354,0.033158,0.019940,25.709383,-0.027000,0.000059,0.023946,1.572236,-0.055820,-0.001352,-0.003416,0.000184,-0.006712,-0.000022,0.003514,-0.005471,0.146622,0.016632,0.198876,0.198874,0.171139,0.524775,0.000000,0.000000,0.000000,0.000000,0.000000,0.000000,0.000000,0.000000,0.000000,0.000000,0.000000,0.000000,0.141860,3,0
1060000,0.005309,27.354885,0.033212,0.019903,25.721794,-0.026928,0.000055,0.024567,1.572250,-0.056885,-0.001388,-0.003512,0.000191,-0.006917,-0.000022,0.004305,-0.005492,0.162941,0.011648,0.199127,0.199126,0.170911,0.519266,0.000000,0.000000,0.000000,0.000000,0.000000,0.000000,0.000000,0.000000,0.000000,0.000000,0.000000,0.000000,0.157623,3,0
1070000,0.005328,27.617407,0.033000,0.019902,25.733957,-0.027373,0.000047,0.025186,1.572264,-0.057926,-0.001423,-0.003536,0.000198,-0.007122,-0.000023,0.004065,-0.005512,0.158712,0.002348,0.199371,0.199369,0.170673,0.513862,0.000000,0.000000,0.000000,0.000000,0.000000,0.000000,0.000000,0.000000,0.000000,0.000000,0.000000,0.000000,0.153531,3,0
1080000,0.005346,27.878593,0.032461,0.019871,25.743675,-0.028295,0.000038,0.025660,1.572277,-0.058680,-0.001459,-0.003469,0.000205,-0.007272,-0.000023,0.002139,-0.005530,0.114738,-0.008992,0.199606,0.199604,0.170426,0.508563,0.000000,0.000000,0.000000,0.000000,0.000000,0.000000,0.000000,0.000000,0.000000,0.000000,0.000000,0.000000,0.111051,3,0
1090000,0.005363,28.137798,0.033620,0.019902,25.749716,-0.026949,0.000025,0.025919,1.572293,-0.059023,-0.001495,-0.003876,0.000213,-0.007341,-0.000024,0.000867,-0.005549,0.052242,0.051084,0.199834,0.199832,0.170170,0.503369,0.000000,0.000000,0.000000,0.000000,0.000000,0.000000,0.000000,0.000000,0.000000,0.000000,0.000000,0.000000,0.050789,3,0
1100000,0.005378,28.400352,0.034681,0.019837,25.761618,-0.025745,0.000014,0.026523,1.572316,-0.060015,-0.001531,-0.004259,0.000221,-0.007544,-0.000024,0.004032,-0.005565,0.150799,0.047378,0.200054,0.200052,0.169905,0.498280,0.000000,0.000000,0.000000,0.000000,0.000000,0.000000,0.000000,0.000000,0.000000,0.000000,0.000000,0.000000,0.145872,3,0
1110000,0.005394,28.661564,0.033852,0.019814,25.770933,-0.027104,-0.000003,0.026978,1.572340,-0.060721,-0.001568,-0.004104,0.000228,-0.007691,-0.000025,0.001906,-0.005580,0.106792,-0.019865,0.200268,0.200265,0.169632,0.493294,0.000000,0.000000,0.000000,0.000000,0.000000,0.000000,0.000000,0.000000,0.000000,0.000000,0.000000,0.000000,0.103368,3,0
1120000,0.005408,28.924107,0.032887,0.019725,25.782539,-0.028401,-0.000027,0.027587,1.572361,-0.061671,-0.001604,-0.003914,0.000236,-0.007892,-0.000026,0.003426,-0.005594,0.143671,-0.024277,0.200476,0.200472,0.169352,0.488412,0.000000,0.000000,0.000000,0.000000,0.000000,0.000000,0.000000,0.000000,0.000000,0.000000,0.000000,0.000000,0.138976,3,0
1130000,0.005420,29.183969,0.032707,0.019673,25.789383,-0.028968,-0.000052,0.027877,1.572380,-0.062068,-0.001641,-0.003950,0.000244,-0.007977,-0.000026,0.000586,-0.005608,0.059921,0.004041,0.200677,0.200674,0.169064,0.483633,0.000000,0.000000,0.000000,0.000000,0.000000,0.000000,0.000000,0.000000,0.000000,0.000000,0.000000,0.000000,0.058170,3,0
1140000,0.005432,29.446516,0.031328,0.019592,25.800854,-0.030910,-0.000075,0.028473,1.572390,-0.062982,-0.001678,-0.003642,0.000251,-0.008176,-0.000027,0.003308,-0.005619,0.137932,-0.038370,0.200874,0.200870,0.168769,0.478955,0.000000,0.000000,0.000000,0.000000,0.000000,0.000000,0.000000,0.000000,0.000000,0.000000,0.000000,0.000000,0.133423,3,0
1150000,0.005443,29.706377,0.030216,0.019602,25.807434,-0.032644,-0.000101,0.028768,1.572397,-0.063342,-0.001715,-0.003411,0.000259,-0.008256,-0.000027,0.000607,-0.005631,0.054178,-0.028262,0.201065,0.201061,0.168468,0.474379,0.000000,0.000000,0.000000,0.000000,0.000000,0.000000,0.000000,0.000000,0.000000,0.000000,0.000000,0.000000,0.052643,3,0
1160000,0.005452,29.965584,0.031056,0.019517,25.812702,-0.031730,-0.000121,0.028966,1.572415,-0.063558,-0.001752,-0.003761,0.000268,-0.008304,-0.000027,0.000463,-0.005642,0.032801,0.041900,0.201252,0.201247,0.168160,0.469903,0.000000,0.000000,0.000000,0.000000,0.000000,0.000000,0.000000,0.000000,0.000000,0.000000,0.000000,0.000000,0.032167,3,0
1170000,0.005461,30.228155,0.029701,0.019460,25.823811,-0.033643,-0.000136,0.029552,1.572440,-0.064430,-0.001789,-0.003461,0.000276,-0.008502,-0.000028,0.003003,-0.005650,0.131361,-0.036690,0.201435,0.201430,0.167847,0.465526,0.000000,0.000000,0.000000,0.000000,0.000000,0.000000,0.000000,0.000000,0.000000,0.000000,0.000000,0.000000,0.127067,3,0
1180000,0.005467,30.490032,0.029350,0.019295,25.833733,-0.034085,-0.000146,0.030063,1.572455,-0.065141,-0.001826,-0.003466,0.000285,-0.008666,-0.000028,0.001857,-0.005657,0.107224,-0.000195,0.201614,0.201608,0.167528,0.461247,0.000000,0.000000,0.000000,0.000000,0.000000,0.000000,0.000000,0.000000,0.000000,0.000000,0.000000,0.000000,0.103765,3,0
1190000,0.005472,30.749220,0.027899,0.019207,25.838699,-0.036097,-0.000170,0.030246,1.572467,-0.065302,-0.001863,-0.003132,0.000293,-0.008704,-0.000028,0.000353,-0.005662,0.024157,-0.039607,0.201789,0.201783,0.167204,0.457065,0.000000,0.000000,0.000000,0.000000,0.000000,0.000000,0.000000,0.000000,0.000000,0.000000,0.000000,0.000000,0.023975,3,0
1200000,0.005477,31.009764,0.027817,0.019177,25.845921,-0.036461,-0.000199,0.030592,1.572471,-0.065720,-0.001901,-0.003224,0.000302,-0.008803,-0.000029,0.000664,-0.005668,0.063105,0.010449,0.201962,0.201956,0.166876,0.452980,0.000000,0.000000,0.000000,0.000000,0.000000,0.000000,0.000000,0.000000,0.000000,0.000000,0.000000,0.000000,0.061227,3,0
1210000,0.005480,31.270983,0.026823,0.019088,25.854378,-0.037824,-0.000214,0.030999,1.572477,-0.066255,-0.001938,-0.003038,0.000311,-0.008932,-0.000029,0.001137,-0.005671,0.080793,-0.022336,0.202132,0.202125,0.166544,0.448989,0.000000,0.000000,0.000000,0.000000,0.000000,0.000000,0.000000,0.000000,0.000000,0.000000,0.000000,0.000000,0.078262,3,0
1220000,0.005484,31.534874,0.025653,0.019079,25.867451,-0.039535,-0.000242,0.031724,1.572485,-0.067297,-0.001975,-0.002806,0.000320,-0.009187,-0.000030,0.004123,-0.005674,0.157427,-0.028003,0.202300,0.202293,0.166207,0.445092,0.000000,0.000000,0.000000,0.000000,0.000000,0.000000,0.000000,0.000000,0.000000,0.000000,0.000000,0.000000,0.152216,3,0
1230000,0.005484,31.794682,0.026548,0.018944,25.873121,-0.038292,-0.000255,0.031938,1.572491,-0.067510,-0.002012,-0.003216,0.000329,-0.009239,-0.000030,0.000533,-0.005676,0.032558,0.046926,0.202466,0.202458,0.165867,0.441287,0.000000,0.000000,0.000000,0.000000,0.000000,0.000000,0.000000,0.000000,0.000000,0.000000,0.000000,0.000000,0.031938,3,0
1240000,0.005484,32.055843,0.026962,0.018862,25.881189,-0.037739,-0.000278,0.032314,1.572496,-0.067976,-0.002049,-0.003476,0.000339,-0.009355,-0.000031,0.000952,-0.005676,0.070877,0.029194,0.202631,0.202622,0.165524,0.437574,0.000000,0.000000,0.000000,0.000000,0.000000,0.000000,0.000000,0.000000,0.000000,0.000000,0.000000,0.000000,0.068704,3,0
1250000,0.005483,32.318336,0.026701,0.018846,25.891521,-0.037965,-0.000302,0.032866,1.572515,-0.068686,-0.002085,-0.003524,0.000348,-0.009536,-0.000031,0.001881,-0.005675,0.107819,0.004643,0.202794,0.202785,0.165178,0.433950,0.000000,0.000000,0.000000,0.000000,0.000000,0.000000,0.000000,0.000000,0.000000,0.000000,0.000000,0.000000,0.104320,3,0
1260000,0.005482,32.580120,0.026978,0.018798,25.900372,-0.037743,-0.000322,0.033319,1.572526,-0.069236,-0.002122,-0.003746,0.000358,-0.009678,-0.000032,0.001231,-0.005675,0.083771,0.024353,0.202956,0.202947,0.164829,0.430414,0.000000,0.000000,0.000000,0.000000,0.000000,0.000000,0.000000,0.000000,0.000000,0.000000,0.000000,0.000000,0.081126,3,0
1270000,0.005481,32.843231,0.026240,0.018682,25.911470,-0.038645,-0.000335,0.033926,1.572549,-0.070025,-0.002159,-0.003642,0.000368,-0.009885,-0.000033,0.002353,-0.005673,0.120079,-0.012707,0.203118,0.203108,0.164479,0.426965,0.000000,0.000000,0.000000,0.000000,0.000000,0.000000,0.000000,0.000000,0.000000,0.000000,0.000000,0.000000,0.116142,3,0
1280000,0.005477,33.102921,0.027239,0.018567,25.916439,-0.037294,-0.000354,0.034098,1.572558,-0.070126,-0.002196,-0.004098,0.000378,-0.009911,-0.000033,0.000465,-0.005670,0.015888,0.050863,0.203280,0.203269,0.164126,0.423603,0.000000,0.000000,0.000000,0.000000,0.000000,0.000000,0.000000,0.000000,0.000000,0.000000,0.000000,0.000000,0.016302,3,0
1290000,0.005471,33.362617,0.027873,0.018377,25.921255,-0.036703,-0.000368,0.034262,1.572569,-0.070220,-0.002232,-0.004434,0.000388,-0.009936,-0.000033,0.000263,-0.005664,0.014576,0.037166,0.203441,0.203430,0.163771,0.420324,0.000000,0.000000,0.000000,0.000000,0.000000,0.000000,0.000000,0.000000,0.000000,0.000000,0.000000,0.000000,0.015109,3,0
1300000,0.005465,33.626369,0.027557,0.018286,25.933228,-0.037110,-0.000393,0.034952,1.572581,-0.071083,-0.002268,-0.004467,0.000398,-0.010172,-0.000034,0.002834,-0.005657,0.132530,0.002454,0.203603,0.203591,0.163415,0.417127,0.000000,0.000000,0.000000,0.000000,0.000000,0.000000,0.000000,0.000000,0.000000,0.000000,0.000000,0.000000,0.128149,3,0
1310000,0.005457,33.885330,0.027837,0.018110,25.936596,-0.036867,-0.000418,0.034991,1.572601,-0.071004,-0.002305,-0.004685,0.000408,-0.010150,-0.000034,0.000123,-0.005650,-0.012066,0.024130,0.203765,0.203752,0.163059,0.414013,0.000000,0.000000,0.000000,0.000000,0.000000,0.000000,0.000000,0.000000,0.000000,0.000000,0.000000,0.000000,0.012868,3,0
1320000,0.005450,34.147015,0.026553,0.018031,25.944630,-0.038671,-0.000448,0.035397,1.572615,-0.071439,-0.002341,-0.004387,0.000418,-0.010273,-0.000034,0.000905,-0.005641,0.066875,-0.033300,0.203927,0.203914,0.162701,0.410977,0.000000,0.000000,0.000000,0.000000,0.000000,0.000000,0.000000,0.000000,0.000000,0.000000,0.000000,0.000000,0.064828,3,0
1330000,0.005439,34.407982,0.027447,0.017823,25.951380,-0.037787,-0.000481,0.035685,1.572627,-0.071719,-0.002377,-0.004830,0.000429,-0.010352,-0.000034,0.000682,-0.005632,0.043659,0.047757,0.204091,0.204077,0.162343,0.408021,0.000000,0.000000,0.000000,0.000000,0.000000,0.000000,0.000000,0.000000,0.000000,0.000000,0.000000,0.000000,0.042528,3,0
1340000,0.005429,34.670963,0.027086,0.017756,25.961569,-0.038398,-0.000497,0.036246,1.572644,-0.072367,-0.002413,-0.004851,0.000440,-0.010540,-0.000035,0.001638,-0.005620,0.100689,0.001222,0.204255,0.204240,0.161984,0.405141,0.000000,0.000000,0.000000,0.000000,0.000000,0.000000,0.000000,0.000000,0.000000,0.000000,0.000000,0.000000,0.097415,3,0
1350000,0.005416,34.934570,0.027063,0.017559,25.972904,-0.038620,-0.000531,0.036892,1.572665,-0.073111,-0.002448,-0.004993,0.000450,-0.010759,-0.000036,0.002200,-0.005608,0.115906,0.014054,0.204420,0.204404,0.161626,0.402338,0.000000,0.000000,0.000000,0.000000,0.000000,0.000000,0.000000,0.000000,0.000000,0.000000,0.000000,0.000000,0.112088,3,0
1360000,0.005403,35.195400,0.027814,0.017524,25.979105,-0.037862,-0.000551,0.037130,1.572670,-0.073307,-0.002483,-0.005395,0.000461,-0.010816,-0.000036,0.000456,-0.005595,0.031097,0.042700,0.204586,0.204570,0.161267,0.399608,0.000000,0.000000,0.000000,0.000000,0.000000,0.000000,0.000000,0.000000,0.000000,0.000000,0.000000,0.000000,0.030523,3,0
1370000,0.005391,35.457569,0.027554,0.017496,25.987497,-0.038095,-0.000571,0.037557,1.572692,-0.073743,-0.002518,-0.005447,0.000472,-0.010948,-0.000037,0.000762,-0.005581,0.068390,0.004831,0.204754,0.204736,0.160909,0.396951,0.000000,0.000000,0.000000,0.000000,0.000000,0.000000,0.000000,0.000000,0.000000,0.000000,0.000000,0.000000,0.066275,3,0
1380000,0.005377,35.718334,0.027134,0.017293,25.993382,-0.038772,-0.000606,0.037776,1.572711,-0.073900,-0.002554,-0.005439,0.000483,-0.010997,-0.000037,0.000104,-0.005567,0.024807,-0.001147,0.204923,0.204905,0.160552,0.394365,0.000000,0.000000,0.000000,0.000000,0.000000,0.000000,0.000000,0.000000,0.000000,0.000000,0.000000,0.000000,0.024556,3,0
1390000,0.005361,35.981113,0.027606,0.017106,26.002775,-0.038329,-0.000636,0.038279,1.572728,-0.074417,-0.002588,-0.005759,0.000494,-0.011157,-0.000037,0.001263,-0.005552,0.082043,0.032797,0.205094,0.205075,0.160195,0.391849,0.000000,0.000000,0.000000,0.000000,0.000000,0.000000,0.000000,0.000000,0.000000,0.000000,0.000000,0.000000,0.079424,3,0
1400000,0.005346,36.243164,0.026372,0.017066,26.010704,-0.040038,-0.000653,0.038681,1.572747,-0.074782,-0.002623,-0.005466,0.000504,-0.011273,-0.000038,0.000701,-0.005535,0.057716,-0.031421,0.205267,0.205246,0.159840,0.389401,0.000000,0.000000,0.000000,0.000000,0.000000,0.000000,0.000000,0.000000,0.000000,0.000000,0.000000,0.000000,0.055992,3,0
1410000,0.005331,36.501766,0.025193,0.016901,26.012415,-0.041315,-0.000670,0.038579,1.572760,-0.074499,-0.002658,-0.005179,0.000515,-0.011183,-0.000037,0.000477,-0.005519,-0.045383,-0.029405,0.205441,0.205420,0.159486,0.387021,0.000000,0.000000,0.000000,0.000000,0.000000,0.000000,0.000000,0.000000,0.000000,0.000000,0.000000,0.000000,0.044158,3,0
1420000,0.005314,36.761738,0.024198,0.016820,26.016535,-0.042681,-0.000705,0.038651,1.572771,-0.074464,-0.002692,-0.004969,0.000526,-0.011172,-0.000038,0.000087,-0.005502,-0.005821,-0.021735,0.205617,0.205595,0.159133,0.384705,0.000000,0.000000,0.000000,0.000000,0.000000,0.000000,0.000000,0.000000,0.000000,0.000000,0.000000,0.000000,0.007737,3,0
1430000,0.005295,37.021011,0.024020,0.016625,26.019403,-0.042983,-0.000732,0.038625,1.572786,-0.074295,-0.002726,-0.005057,0.000538,-0.011116,-0.000037,0.000139,-0.005484,-0.027287,0.009493,0.205795,0.205772,0.158782,0.382454,0.000000,0.000000,0.000000,0.000000,0.000000,0.000000,0.000000,0.000000,0.000000,0.000000,0.000000,0.000000,0.026875,3,0
1440000,0.005275,37.278912,0.024912,0.016542,26.019657,-0.041825,-0.000755,0.038394,1.572796,-0.073873,-0.002760,-0.005534,0.000549,-0.010973,-0.000037,0.001151,-0.005464,-0.067917,0.049918,0.205975,0.205951,0.158432,0.380264,0.000000,0.000000,0.000000,0.000000,0.000000,0.000000,0.000000,0.000000,0.000000,0.000000,0.000000,0.000000,0.065790,3,0
1450000,0.005254,37.540245,0.025982,0.016336,26.026091,-0.040440,-0.000792,0.038658,1.572804,-0.074066,-0.002793,-0.006094,0.000561,-0.011037,-0.000037,0.000693,-0.005442,0.031998,0.056817,0.206157,0.206132,0.158085,0.378136,0.000000,0.000000,0.000000,0.000000,0.000000,0.000000,0.000000,0.000000,0.000000,0.000000,0.000000,0.000000,0.031350,3,0
1460000,0.005231,37.802910,0.026459,0.016093,26.034710,-0.040128,-0.000819,0.039111,1.572811,-0.074484,-0.002825,-0.006439,0.000573,-0.011180,-0.000038,0.000956,-0.005418,0.068787,0.034193,0.206341,0.206315,0.157740,0.376066,0.000000,0.000000,0.000000,0.000000,0.000000,0.000000,0.000000,0.000000,0.000000,0.000000,0.000000,0.000000,0.066631,3,0
1470000,0.005208,38.065517,0.026402,0.015947,26.043215,-0.040119,-0.000840,0.039557,1.572819,-0.074874,-0.002857,-0.006582,0.000584,-0.011317,-0.000038,0.000704,-0.005394,0.064461,0.013622,0.206527,0.206500,0.157396,0.374056,0.000000,0.000000,0.000000,0.000000,0.000000,0.000000,0.000000,0.000000,0.000000,0.000000,0.000000,0.000000,0.062462,3,0
1480000,0.005182,38.324638,0.027326,0.015765,26.045238,-0.038906,-0.000878,0.039457,1.572837,-0.074635,-0.002889,-0.007077,0.000596,-0.011230,-0.000038,0.000667,-0.005369,-0.039204,0.050547,0.206715,0.206687,0.157056,0.372102,0.000000,0.000000,0.000000,0.000000,0.000000,0.000000,0.000000,0.000000,0.000000,0.000000,0.000000,0.000000,0.038199,3,0
1490000,0.005156,38.586494,0.028359,0.015603,26.052248,-0.037642,-0.000902,0.039763,1.572851,-0.074869,-0.002920,-0.007629,0.000608,-0.011313,-0.000038,0.000745,-0.005342,0.039597,0.054837,0.206905,0.206876,0.156717,0.370204,0.000000,0.000000,0.000000,0.000000,0.000000,0.000000,0.000000,0.000000,0.000000,0.000000,0.000000,0.000000,0.038585,3,0
1500000,0.005130,38.845570,0.027623,0.015390,26.054230,-0.038534,-0.000934,0.039649,1.572867,-0.074611,-0.002952,-0.007484,0.000619,-0.011219,-0.000038,0.000339,-0.005313,-0.043423,-0.013860,0.207097,0.207067,0.156382,0.368361,0.000000,0.000000,0.000000,0.000000,0.000000,0.000000,0.000000,0.000000,0.000000,0.000000,0.000000,0.000000,0.042240,3,0
1510000,0.005103,39.108749,0.027896,0.015251,26.063400,-0.038478,-0.000969,0.040149,1.572883,-0.075054,-0.002983,-0.007757,0.000631,-0.011382,-0.000039,0.001024,-0.005286,0.075188,0.026050,0.207291,0.207259,0.156049,0.366569,0.000000,0.000000,0.000000,0.000000,0.000000,0.000000,0.000000,0.000000,0.000000,0.000000,0.000000,0.000000,0.072773,3,0
1520000,0.005076,39.370495,0.026501,0.015028,26.069969,-0.040353,-0.001000,0.040418,1.572900,-0.075236,-0.003014,-0.007374,0.000642,-0.011452,-0.000039,0.000395,-0.005256,0.030582,-0.038450,0.207487,0.207454,0.155719,0.364830,0.000000,0.000000,0.000000,0.000000,0.000000,0.000000,0.000000,0.000000,0.000000,0.000000,0.000000,0.000000,0.029951,3,0
1530000,0.005046,39.630798,0.027010,0.014844,26.073839,-0.039866,-0.001037,0.040466,1.572913,-0.075161,-0.003044,-0.007730,0.000654,-0.011422,-0.000039,0.000233,-0.005227,-0.012562,0.035371,0.207685,0.207650,0.155392,0.363141,0.000000,0.000000,0.000000,0.000000,0.000000,0.000000,0.000000,0.000000,0.000000,0.000000,0.000000,0.000000,0.013128,3,0
1540000,0.005016,39.889702,0.026622,0.014675,26.075129,-0.040271,-0.001071,0.040286,1.572919,-0.074847,-0.003074,-0.007723,0.000666,-0.011300,-0.000039,0.000478,-0.005196,-0.054234,0.000180,0.207884,0.207848,0.155068,0.361501,0.000000,0.000000,0.000000,0.000000,0.000000,0.000000,0.000000,0.000000,0.000000,0.000000,0.000000,0.000000,0.052593,3,0
1550000,0.004985,40.152740,0.025935,0.014489,26.083855,-0.041240,-0.001095,0.040744,1.572932,-0.075218,-0.003104,-0.007629,0.000677,-0.011447,-0.000039,0.000692,-0.005164,0.064548,-0.010299,0.208085,0.208047,0.154747,0.359908,0.000000,0.000000,0.000000,0.000000,0.000000,0.000000,0.000000,0.000000,0.000000,0.000000,0.000000,0.000000,0.062508,3,0
1560000,0.004953,40.410191,0.024915,0.014247,26.082272,-0.042560,-0.001128,0.040313,1.572940,-0.074655,-0.003134,-0.007364,0.000689,-0.011222,-0.000039,0.001682,-0.005131,-0.099186,-0.024136,0.208287,0.208248,0.154430,0.358362,0.000000,0.000000,0.000000,0.000000,0.000000,0.000000,0.000000,0.000000,0.000000,0.000000,0.000000,0.000000,0.095877,3,0
1570000,0.004921,40.672485,0.024096,0.014170,26.089470,-0.043391,-0.001149,0.040653,1.572950,-0.074887,-0.003163,-0.007217,0.000701,-0.011317,-0.000039,0.000310,-0.005098,0.040962,-0.014861,0.208490,0.208451,0.154116,0.356860,0.000000,0.000000,0.000000,0.000000,0.000000,0.000000,0.000000,0.000000,0.000000,0.000000,0.000000,0.000000,0.039841,3,0
1580000,0.004890,40.932644,0.023069,0.014094,26.092798,-0.044535,-0.001186,0.040642,1.572959,-0.074762,-0.003191,-0.006973,0.000712,-0.011267,-0.000039,0.000173,-0.005065,-0.022617,-0.023151,0.208696,0.208655,0.153805,0.355404,0.000000,0.000000,0.000000,0.000000,0.000000,0.000000,0.000000,0.000000,0.000000,0.000000,0.000000,0.000000,0.022376,3,0
1590000,0.004855,41.191376,0.023805,0.013857,26.093428,-0.043593,-0.001207,0.040377,1.572967,-0.074403,-0.003219,-0.007439,0.000724,-0.011114,-0.000039,0.001007,-0.005032,-0.064140,0.045857,0.208902,0.208860,0.153498,0.353990,0.000000,0.000000,0.000000,0.000000,0.000000,0.000000,0.000000,0.000000,0.000000,0.000000,0.000000,0.000000,0.062087,3,0
1600000,0.004822,41.453579,0.022721,0.013662,26.100256,-0.044857,-0.001230,0.040681,1.572979,-0.074597,-0.003247,-0.007185,0.000736,-0.011198,-0.000039,0.000301,-0.004995,0.034946,-0.024918,0.209110,0.209066,0.153194,0.352616,0.000000,0.000000,0.000000,0.000000,0.000000,0.000000,0.000000,0.000000,0.000000,0.000000,0.000000,0.000000,0.034065,3,0
1610000,0.004786,41.712933,0.023431,0.013545,26.101831,-0.044106,-0.001270,0.040509,1.572986,-0.074330,-0.003274,-0.007651,0.000748,-0.011081,-0.000039,0.000715,-0.004960,-0.048420,0.045336,0.209318,0.209273,0.152894,0.351283,0.000000,0.000000,0.000000,0.000000,0.000000,0.000000,0.000000,0.000000,0.000000,0.000000,0.000000,0.000000,0.046967,3,0
1620000,0.004751,41.973663,0.022967,0.013315,26.105932,-0.044470,-0.001292,0.040554,1.573003,-0.074278,-0.003300,-0.007640,0.000760,-0.011058,-0.000039,0.000019,-0.004922,-0.009605,-0.000872,0.209528,0.209481,0.152597,0.349989,0.000000,0.000000,0.000000,0.000000,0.000000,0.000000,0.000000,0.000000,0.000000,0.000000,0.000000,0.000000,0.010416,3,0
1630000,0.004713,42.235043,0.022829,0.013039,26.111008,-0.044629,-0.001312,0.040710,1.573018,-0.074320,-0.003326,-0.007772,0.000771,-0.011076,-0.000039,0.000039,-0.004884,0.007927,0.012336,0.209738,0.209690,0.152305,0.348732,0.000000,0.000000,0.000000,0.000000,0.000000,0.000000,0.000000,0.000000,0.000000,0.000000,0.000000,0.000000,0.008987,3,0
1640000,0.004676,42.494991,0.021537,0.012826,26.113565,-0.045974,-0.001339,0.040623,1.573030,-0.074137,-0.003353,-0.007409,0.000783,-0.010995,-0.000039,0.000382,-0.004844,-0.034836,-0.033557,0.209949,0.209899,0.152016,0.347514,0.000000,0.000000,0.000000,0.000000,0.000000,0.000000,0.000000,0.000000,0.000000,0.000000,0.000000,0.000000,0.033950,3,0
1650000,0.004636,42.753498,0.022016,0.012619,26.113214,-0.045213,-0.001370,0.040276,1.573044,-0.073735,-0.003378,-0.007782,0.000795,-0.010809,-0.000038,0.001153,-0.004805,-0.076138,0.036541,0.210160,0.210109,0.151731,0.346329,0.000000,0.000000,0.000000,0.000000,0.000000,0.000000,0.000000,0.000000,0.000000,0.000000,0.000000,0.000000,0.073610,3,0
1660000,0.004598,43.012012,0.020741,0.012513,26.112993,-0.046483,-0.001394,0.039949,1.573047,-0.073340,-0.003404,-0.007411,0.000806,-0.010626,-0.000038,0.001117,-0.004764,-0.076214,-0.033197,0.210372,0.210319,0.151450,0.345181,0.000000,0.000000,0.000000,0.000000,0.000000,0.000000,0.000000,0.000000,0.000000,0.000000,0.000000,0.000000,0.073695,3,0
1670000,0.004558,43.269802,0.020982,0.012343,26.111254,-0.045928,-0.001416,0.039490,1.573061,-0.072844,-0.003429,-0.007682,0.000818,-0.010389,-0.000037,0.001611,-0.004724,-0.096180,0.027193,0.210584,0.210530,0.151172,0.344064,0.000000,0.000000,0.000000,0.000000,0.000000,0.000000,0.000000,0.000000,0.000000,0.000000,0.000000,0.000000,0.092908,3,0
1680000,0.004518,43.528996,0.020952,0.012215,26.112207,-0.045846,-0.001451,0.039257,1.573062,-0.072560,-0.003452,-0.007850,0.000830,-0.010251,-0.000037,0.000549,-0.004683,-0.055767,0.016657,0.210796,0.210740,0.150899,0.342980,0.000000,0.000000,0.000000,0.000000,0.000000,0.000000,0.000000,0.000000,0.000000,0.000000,0.000000,0.000000,0.053992,3,0
1690000,0.004480,43.788883,0.019646,0.012127,26.114439,-0.047137,-0.001481,0.039150,1.573082,-0.072377,-0.003477,-0.007473,0.000841,-0.010163,-0.000036,0.000408,-0.004642,-0.036671,-0.034020,0.211008,0.210951,0.150630,0.341928,0.000000,0.000000,0.000000,0.000000,0.000000,0.000000,0.000000,0.000000,0.000000,0.000000,0.000000,0.000000,0.035671,3,0
1700000,0.004439,44.049419,0.020196,0.011919,26.117661,-0.046408,-0.001518,0.039129,1.573100,-0.072284,-0.003499,-0.007912,0.000853,-0.010115,-0.000036,0.000327,-0.004602,-0.018272,0.040779,0.211220,0.211161,0.150364,0.340904,0.000000,0.000000,0.000000,0.000000,0.000000,0.000000,0.000000,0.000000,0.000000,0.000000,0.000000,0.000000,0.018171,3,0
1710000,0.004397,44.306404,0.021268,0.011670,26.114302,-0.044900,-0.001553,0.038502,1.573117,-0.071692,-0.003521,-0.008540,0.000865,-0.009812,-0.000036,0.002900,-0.004559,-0.119812,0.060236,0.211431,0.211371,0.150103,0.339911,0.000000,0.000000,0.000000,0.000000,0.000000,0.000000,0.000000,0.000000,0.000000,0.000000,0.000000,0.000000,0.115657,3,0
