time_us,pos_x,pos_y,pos_z,vel_x,vel_y,vel_z,roll,pitch,yaw,bias_ax,bias_ay,bias_az,bias_gx,bias_gy,bias_gz,nis,innov_x,innov_y,innov_z,cov_pos_x,cov_pos_y,cov_pos_z,cov_yaw,des_speed,des_heading,des_climb,pid_speed,pid_yaw,pid_alt,speed_meas,yaw_meas,climb_meas,fwd_accel,yaw_rate,vert_accel,drift_m,nav_mode,mission_state
0,-0.000001,0.150004,-0.000001,-0.000244,25.000683,-0.000289,0.000009,-0.000005,1.570793,0.000000,0.000000,0.000000,0.000000,0.000000,0.000000,0.006250,0.000002,-0.250009,0.000003,2.400038,2.400038,3.600017,1.000518,0.000000,0.000000,0.000000,0.000000,0.000000,0.000000,0.000000,0.000000,0.000000,0.000000,0.000000,0.000000,0.150004,1,0
10000,-0.000004,0.393643,0.034015,-0.000449,25.001707,-0.000534,0.000007,-0.000001,1.570788,0.000000,0.000000,-0.000000,0.000000,0.000000,0.000000,0.000917,0.000006,-0.022322,0.090724,1.714420,1.714420,2.250079,1.001073,0.000000,0.000000,0.000000,0.000000,0.000000,0.000000,0.000000,0.000000,0.000000,0.000000,0.000000,0.000000,0.015944,3,0
20000,-0.000009,0.641993,0.044913,-0.000775,25.002678,-0.000815,0.000006,-0.000014,1.570777,0.000000,0.000000,-0.000001,-0.000000,0.000000,-0.000000,0.000201,0.000012,-0.007545,0.039989,1.333616,1.333616,1.636554,1.001655,0.000000,0.000000,0.000000,0.000000,0.000000,0.000000,0.000000,0.000000,0.000000,0.000000,0.000000,0.000000,0.005868,3,0
30000,-0.000016,0.885257,0.044944,-0.001075,25.003616,-0.001107,0.000019,-0.000009,1.570766,0.000001,0.000000,-0.000001,-0.000000,0.000000,-0.000000,0.000189,0.000020,-0.037237,0.000197,1.091392,1.091392,1.286065,1.002257,0.000000,0.000000,0.000000,0.000000,0.000000,0.000000,0.000000,0.000000,0.000000,0.000000,0.000000,0.000000,0.030464,3,0
40000,-0.000026,1.125782,0.036351,-0.001446,25.004368,-0.001965,0.000035,-0.000005,1.570753,0.000003,0.000000,0.000001,0.000000,0.000000,-0.000000,0.000863,0.000031,-0.061842,-0.048571,0.923811,0.923811,1.059385,1.002869,0.000000,0.000000,0.000000,0.000000,0.000000,0.000000,0.000000,0.000000,0.000000,0.000000,0.000000,0.000000,0.052320,3,0
50000,-0.000037,1.362008,0.035996,-0.001655,25.004940,-0.002490,0.000037,-0.000004,1.570748,0.000007,0.000000,0.000001,0.000000,0.000000,-0.000000,0.001550,0.000043,-0.103586,-0.002197,0.801036,0.801036,0.900822,1.003484,0.000000,0.000000,0.000000,0.000000,0.000000,0.000000,0.000000,0.000000,0.000000,0.000000,0.000000,0.000000,0.089757,3,0
60000,-0.000050,1.611847,0.038791,-0.001923,25.006056,-0.003036,0.000053,0.000002,1.570730,0.000007,0.000000,-0.000000,-0.000000,0.000000,-0.000000,0.000068,0.000056,-0.001876,0.021639,0.707270,0.707270,0.783741,1.004094,0.000000,0.000000,0.000000,0.000000,0.000000,0.000000,0.000000,0.000000,0.000000,0.000000,0.000000,0.000000,0.001656,3,0
70000,-0.000063,1.858428,0.045141,-0.002117,25.006855,-0.003126,0.000052,-0.000004,1.570713,0.000010,0.000000,-0.000005,-0.000000,0.000000,-0.000000,0.000612,0.000071,-0.033058,0.055214,0.633370,0.633370,0.693801,1.004689,0.000000,0.000000,0.000000,0.000000,0.000000,0.000000,0.000000,0.000000,0.000000,0.000000,0.000000,0.000000,0.029568,3,0
80000,-0.000079,2.106479,0.043023,-0.002396,25.007807,-0.003657,0.000059,-0.000011,1.570693,0.000012,0.000000,-0.000003,-0.000000,0.000000,-0.000000,0.000128,0.000087,-0.021222,-0.020070,0.573673,0.573673,0.622594,1.005261,0.000000,0.000000,0.000000,0.000000,0.000000,0.000000,0.000000,0.000000,0.000000,0.000000,0.000000,0.000000,0.019193,3,0
90000,-0.000096,2.357356,0.039490,-0.002660,25.008917,-0.004296,0.000057,-0.000009,1.570670,0.000011,0.000000,0.000002,-0.000000,0.000000,-0.000000,0.000220,0.000106,0.009024,-0.037107,0.524488,0.524488,0.564865,1.005801,0.000000,0.000000,0.000000,0.000000,0.000000,0.000000,0.000000,0.000000,0.000000,0.000000,0.000000,0.000000,0.008236,3,0
100000,-0.000115,2.605586,0.042185,-0.002896,25.009653,-0.004584,0.000054,-0.000006,1.570650,0.000014,0.000000,-0.000003,-0.000000,0.000000,-0.000000,0.000237,0.000125,-0.023196,0.031831,0.483303,0.483303,0.517162,1.006302,0.000000,0.000000,0.000000,0.000000,0.000000,0.000000,0.000000,0.000000,0.000000,0.000000,0.000000,0.000000,0.021328,3,0
110000,-0.000137,2.859177,0.042566,-0.003240,25.011114,-0.004861,0.000062,-0.000013,1.570638,0.000006,0.000000,-0.000004,-0.000000,-0.000000,0.000000,0.000340,0.000148,0.046629,0.005407,0.448353,0.448353,0.477121,1.006755,0.000000,0.000000,0.000000,0.000000,0.000000,0.000000,0.000000,0.000000,0.000000,0.000000,0.000000,0.000000,0.043145,3,0
120000,-0.000160,3.117045,0.042454,-0.003498,25.013468,-0.005531,0.000072,-0.000017,1.570623,-0.000019,0.000000,-0.000004,-0.000000,-0.000000,0.000000,0.001913,0.000172,0.111085,-0.000765,0.418358,0.418358,0.443071,1.007151,0.000000,0.000000,0.000000,0.000000,0.000000,0.000000,0.000000,0.000000,0.000000,0.000000,0.000000,0.000000,0.103340,3,0
130000,-0.000184,3.373188,0.042955,-0.003768,25.015537,-0.005723,0.000077,-0.000020,1.570606,-0.000042,0.000000,-0.000006,-0.000000,-0.000001,0.000000,0.001321,0.000197,0.091743,0.008108,0.392369,0.392369,0.413797,1.007483,0.000000,0.000000,0.000000,0.000000,0.000000,0.000000,0.000000,0.000000,0.000000,0.000000,0.000000,0.000000,0.085743,3,0
140000,-0.000211,3.626695,0.044348,-0.004046,25.017176,-0.006108,0.000077,-0.000025,1.570603,-0.000058,0.000000,-0.000012,-0.000000,-0.000001,0.000000,0.000539,0.000225,0.054246,0.022509,0.369666,0.369666,0.388393,1.007741,0.000000,0.000000,0.000000,0.000000,0.000000,0.000000,0.000000,0.000000,0.000000,0.000000,0.000000,0.000000,0.050904,3,0
150000,-0.000239,3.881484,0.044313,-0.004248,25.019360,-0.006535,0.000086,-0.000014,1.570594,-0.000085,0.000000,-0.000012,-0.000000,-0.000002,0.000000,0.000980,0.000254,0.079026,0.000488,0.349695,0.349695,0.366172,1.007917,0.000000,0.000000,0.000000,0.000000,0.000000,0.000000,0.000000,0.000000,0.000000,0.000000,0.000000,0.000000,0.074421,3,0
160000,-0.000268,4.132961,0.041627,-0.004476,25.020706,-0.007639,0.000095,-0.000006,1.570580,-0.000093,0.000000,0.000005,-0.000000,-0.000002,0.000000,0.000405,0.000284,0.023006,-0.045284,0.332020,0.332020,0.346600,1.008004,0.000000,0.000000,0.000000,0.000000,0.000000,0.000000,0.000000,0.000000,0.000000,0.000000,0.000000,0.000000,0.021734,3,0
170000,-0.000299,4.389997,0.039341,-0.004718,25.023798,-0.008735,0.000104,0.000008,1.570574,-0.000149,0.000001,0.000021,-0.000000,-0.000003,0.000000,0.002895,0.000315,0.129335,-0.040167,0.316297,0.316297,0.329260,1.007994,0.000000,0.000000,0.000000,0.000000,0.000000,0.000000,0.000000,0.000000,0.000000,0.000000,0.000000,0.000000,0.122517,3,0
180000,-0.000331,4.646829,0.038859,-0.005036,25.027016,-0.009258,0.000114,0.000032,1.570566,-0.000211,0.000001,0.000025,-0.000000,-0.000005,0.000000,0.002712,0.000349,0.130694,-0.007470,0.302246,0.302245,0.313817,1.007878,0.000000,0.000000,0.000000,0.000000,0.000000,0.000000,0.000000,0.000000,0.000000,0.000000,0.000000,0.000000,0.124111,3,0
190000,-0.000365,4.897735,0.036949,-0.005236,25.028187,-0.010296,0.000114,0.000041,1.570549,-0.000218,0.000001,0.000044,-0.000000,-0.000005,0.000000,0.000235,0.000384,0.012984,-0.036246,0.289640,0.289640,0.300003,1.007648,0.000000,0.000000,0.000000,0.000000,0.000000,0.000000,0.000000,0.000000,0.000000,0.000000,0.000000,0.000000,0.012363,3,0
200000,-0.000401,5.148056,0.037346,-0.005514,25.029306,-0.010783,0.000130,0.000037,1.570536,-0.000218,0.000001,0.000038,-0.000000,-0.000005,0.000000,0.000018,0.000420,0.000611,0.010559,0.278294,0.278294,0.287598,1.007298,0.000000,0.000000,0.000000,0.000000,0.000000,0.000000,0.000000,0.000000,0.000000,0.000000,0.000000,0.000000,0.000708,3,0
210000,-0.000438,5.404078,0.038274,-0.005699,25.032852,-0.010887,0.000144,0.000051,1.570531,-0.000300,0.000001,0.000023,-0.000000,-0.000007,0.000000,0.002689,0.000458,0.127978,0.022603,0.268053,0.268053,0.276421,1.006820,0.000000,0.000000,0.000000,0.000000,0.000000,0.000000,0.000000,0.000000,0.000000,0.000000,0.000000,0.000000,0.122262,3,0
220000,-0.000475,5.654037,0.038353,-0.005893,25.033714,-0.011426,0.000143,0.000049,1.570514,-0.000294,0.000002,0.000020,-0.000000,-0.000007,0.000000,0.000015,0.000497,-0.008804,0.004374,0.258786,0.258786,0.266321,1.006207,0.000000,0.000000,0.000000,0.000000,0.000000,0.000000,0.000000,0.000000,0.000000,0.000000,0.000000,0.000000,0.008438,3,0
230000,-0.000514,5.907689,0.038419,-0.006159,25.036499,-0.011940,0.000157,0.000068,1.570497,-0.000354,0.000002,0.000017,-0.000000,-0.000009,0.000000,0.001004,0.000537,0.079168,0.004339,0.250384,0.250384,0.257172,1.005451,0.000000,0.000000,0.000000,0.000000,0.000000,0.000000,0.000000,0.000000,0.000000,0.000000,0.000000,0.000000,0.075866,3,0
240000,-0.000555,6.160655,0.037162,-0.006425,25.038918,-0.012913,0.000174,0.000079,1.570480,-0.000407,0.000003,0.000039,-0.000000,-0.000011,0.000000,0.000775,0.000579,0.064037,-0.027327,0.242754,0.242754,0.248866,1.004547,0.000000,0.000000,0.000000,0.000000,0.000000,0.000000,0.000000,0.000000,0.000000,0.000000,0.000000,0.000000,0.061449,3,0
250000,-0.000597,6.416909,0.038446,-0.006633,25.043238,-0.012636,0.000191,0.000126,1.570471,-0.000540,0.000003,0.000008,-0.000000,-0.000015,0.000000,0.003753,0.000622,0.148989,0.035252,0.235816,0.235816,0.241314,1.003487,0.000000,0.000000,0.000000,0.000000,0.000000,0.000000,0.000000,0.000000,0.000000,0.000000,0.000000,0.000000,0.143135,3,0
260000,-0.000640,6.669331,0.039664,-0.006782,25.045538,-0.012238,0.000201,0.000140,1.570461,-0.000590,0.000004,-0.000024,-0.000000,-0.000017,0.000000,0.000620,0.000665,0.051722,0.034516,0.229502,0.229502,0.234436,1.002265,0.000000,0.000000,0.000000,0.000000,0.000000,0.000000,0.000000,0.000000,0.000000,0.000000,0.000000,0.000000,0.049747,3,0
270000,-0.000683,6.924174,0.038775,-0.006942,25.049513,-0.013266,0.000210,0.000182,1.570442,-0.000711,0.000005,-0.000004,-0.000000,-0.000022,0.000000,0.002273,0.000710,0.117338,-0.020015,0.223752,0.223751,0.228165,1.000876,0.000000,0.000000,0.000000,0.000000,0.000000,0.000000,0.000000,0.000000,0.000000,0.000000,0.000000,0.000000,0.112964,3,0
280000,-0.000728,7.179805,0.040233,-0.007192,25.054026,-0.012848,0.000215,0.000234,1.570423,-0.000866,0.000005,-0.000051,-0.000000,-0.000028,0.000000,0.003480,0.000755,0.140763,0.043061,0.218513,0.218513,0.222443,0.999314,0.000000,0.000000,0.000000,0.000000,0.000000,0.000000,0.000000,0.000000,0.000000,0.000000,0.000000,0.000000,0.135638,3,0
290000,-0.000773,7.433344,0.040424,-0.007357,25.057261,-0.012989,0.000230,0.000265,1.570407,-0.000965,0.000006,-0.000061,-0.000000,-0.000032,0.000000,0.001144,0.000801,0.083874,0.008927,0.213741,0.213740,0.217219,0.997575,0.000000,0.000000,0.000000,0.000000,0.000000,0.000000,0.000000,0.000000,0.000000,0.000000,0.000000,0.000000,0.080890,3,0
300000,-0.000819,7.688411,0.040291,-0.007543,25.061764,-0.013385,0.000240,0.000319,1.570390,-0.001126,0.000007,-0.000061,-0.000000,-0.000039,0.000000,0.002656,0.000849,0.128487,0.000023,0.209395,0.209394,0.212446,0.995653,0.000000,0.000000,0.000000,0.000000,0.000000,0.000000,0.000000,0.000000,0.000000,0.000000,0.000000,0.000000,0.124006,3,0
310000,-0.000867,7.942192,0.039233,-0.007873,25.065416,-0.014654,0.000249,0.000358,1.570376,-0.001249,0.000009,-0.000026,-0.000000,-0.000044,0.000000,0.001476,0.000898,0.092042,-0.026461,0.205439,0.205439,0.208087,0.993545,0.000000,0.000000,0.000000,0.000000,0.000000,0.000000,0.000000,0.000000,0.000000,0.000000,0.000000,0.000000,0.088895,3,0
320000,-0.000916,8.197446,0.038513,-0.008073,25.070381,-0.015464,0.000250,0.000410,1.570356,-0.001442,0.000010,-0.000003,-0.000000,-0.000053,0.000000,0.003042,0.000948,0.136409,-0.016757,0.201843,0.201842,0.204105,0.991246,0.000000,0.000000,0.000000,0.000000,0.000000,0.000000,0.000000,0.000000,0.000000,0.000000,0.000000,0.000000,0.131823,3,0
330000,-0.000966,8.454095,0.037442,-0.008256,25.076777,-0.016527,0.000254,0.000485,1.570347,-0.001711,0.000011,0.000038,-0.000000,-0.000066,0.000000,0.005300,0.000999,0.179288,-0.027304,0.198577,0.198576,0.200469,0.988753,0.000000,0.000000,0.000000,0.000000,0.000000,0.000000,0.000000,0.000000,0.000000,0.000000,0.000000,0.000000,0.173357,3,0
340000,-0.001017,8.706238,0.039196,-0.008445,25.079052,-0.015321,0.000261,0.000496,1.570333,-0.001777,0.000013,-0.000054,-0.000001,-0.000069,0.000000,0.000835,0.001051,0.041850,0.058527,0.195616,0.195615,0.197151,0.986063,0.000000,0.000000,0.000000,0.000000,0.000000,0.000000,0.000000,0.000000,0.000000,0.000000,0.000000,0.000000,0.040498,3,0
350000,-0.001069,8.963061,0.037646,-0.008739,25.085974,-0.017103,0.000262,0.000598,1.570324,-0.002089,0.000015,0.000017,-0.000001,-0.000085,0.000000,0.005955,0.001104,0.187262,-0.042999,0.192937,0.192936,0.194125,0.983174,0.000000,0.000000,0.000000,0.000000,0.000000,0.000000,0.000000,0.000000,0.000000,0.000000,0.000000,0.000000,0.181243,3,0
360000,-0.001122,9.218034,0.037104,-0.008914,25.091291,-0.018056,0.000261,0.000663,1.570301,-0.002316,0.000017,0.000037,-0.000001,-0.000097,0.000000,0.002713,0.001158,0.129158,-0.011416,0.190520,0.190519,0.191370,0.980084,0.000000,0.000000,0.000000,0.000000,0.000000,0.000000,0.000000,0.000000,0.000000,0.000000,0.000000,0.000000,0.125062,3,0
370000,-0.001176,9.473743,0.037405,-0.009200,25.097458,-0.017969,0.000265,0.000743,1.570281,-0.002597,0.000019,0.000008,-0.000001,-0.000112,0.000000,0.003790,0.001214,0.152436,0.015436,0.188345,0.188344,0.188863,0.976791,0.000000,0.000000,0.000000,0.000000,0.000000,0.000000,0.000000,0.000000,0.000000,0.000000,0.000000,0.000000,0.147656,3,0
380000,-0.001232,9.729547,0.036497,-0.009475,25.103691,-0.019320,0.000270,0.000841,1.570261,-0.002897,0.000021,0.000053,-0.000001,-0.000128,0.000000,0.003972,0.001271,0.155092,-0.023221,0.186395,0.186394,0.186586,0.973294,0.000000,0.000000,0.000000,0.000000,0.000000,0.000000,0.000000,0.000000,0.000000,0.000000,0.000000,0.000000,0.150279,3,0
390000,-0.001288,9.984223,0.036680,-0.009646,25.108828,-0.019352,0.000268,0.000912,1.570249,-0.003136,0.000024,0.000028,-0.000001,-0.000141,0.000000,0.002270,0.001328,0.117895,0.012384,0.184655,0.184654,0.184523,0.969593,0.000000,0.000000,0.000000,0.000000,0.000000,0.000000,0.000000,0.000000,0.000000,0.000000,0.000000,0.000000,0.114274,3,0
400000,-0.001345,10.239033,0.036638,-0.009890,25.114161,-0.019751,0.000278,0.000993,1.570228,-0.003393,0.000027,0.000017,-0.000001,-0.000156,0.000000,0.002394,0.001387,0.121593,0.005171,0.183109,0.183108,0.182656,0.965688,0.000000,0.000000,0.000000,0.000000,0.000000,0.000000,0.000000,0.000000,0.000000,0.000000,0.000000,0.000000,0.117890,3,0
410000,-0.001402,10.492772,0.036833,-0.010045,25.118378,-0.019918,0.000287,0.001053,1.570214,-0.003582,0.000030,-0.000012,-0.000001,-0.000168,0.000000,0.001207,0.001446,0.085398,0.013249,0.181745,0.181744,0.180971,0.961580,0.000000,0.000000,0.000000,0.000000,0.000000,0.000000,0.000000,0.000000,0.000000,0.000000,0.000000,0.000000,0.082823,3,0
420000,-0.001460,10.746079,0.038311,-0.010296,25.122129,-0.018497,0.000291,0.001102,1.570199,-0.003743,0.000033,-0.000141,-0.000002,-0.000177,0.000000,0.001307,0.001505,0.070163,0.056228,0.180550,0.180549,0.179456,0.957269,0.000000,0.000000,0.000000,0.000000,0.000000,0.000000,0.000000,0.000000,0.000000,0.000000,0.000000,0.000000,0.068067,3,0
430000,-0.001518,11.000754,0.038299,-0.010442,25.127676,-0.018766,0.000293,0.001191,1.570192,-0.004019,0.000037,-0.000156,-0.000002,-0.000195,0.000001,0.002144,0.001565,0.115001,0.005998,0.179512,0.179511,0.178097,0.952758,0.000000,0.000000,0.000000,0.000000,0.000000,0.000000,0.000000,0.000000,0.000000,0.000000,0.000000,0.000000,0.111570,3,0
440000,-0.001576,11.257352,0.038511,-0.010584,25.135672,-0.018619,0.000304,0.001346,1.570177,-0.004464,0.000041,-0.000190,-0.000002,-0.000223,0.000001,0.005174,0.001625,0.178334,0.013698,0.178620,0.178619,0.176883,0.948048,0.000000,0.000000,0.000000,0.000000,0.000000,0.000000,0.000000,0.000000,0.000000,0.000000,0.000000,0.000000,0.173032,3,0
450000,-0.001634,11.514059,0.038360,-0.010672,25.143820,-0.018987,0.000306,0.001499,1.570170,-0.004930,0.000045,-0.000193,-0.000002,-0.000254,0.000001,0.005245,0.001684,0.180082,0.001360,0.177865,0.177864,0.175803,0.943143,0.000000,0.000000,0.000000,0.000000,0.000000,0.000000,0.000000,0.000000,0.000000,0.000000,0.000000,0.000000,0.174751,3,0
460000,-0.001692,11.769116,0.037941,-0.010890,25.149954,-0.019680,0.000324,0.001608,1.570152,-0.005258,0.000050,-0.000173,-0.000003,-0.000276,0.000001,0.002421,0.001743,0.122081,-0.007693,0.177237,0.177235,0.174848,0.938044,0.000000,0.000000,0.000000,0.000000,0.000000,0.000000,0.000000,0.000000,0.000000,0.000000,0.000000,0.000000,0.118487,3,0
470000,-0.001751,12.027248,0.038419,-0.011144,25.160152,-0.019270,0.000330,0.001819,1.570135,-0.005884,0.000055,-0.000238,-0.000003,-0.000319,0.000001,0.008263,0.001804,0.224784,0.023483,0.176727,0.176725,0.174007,0.932757,0.000000,0.000000,0.000000,0.000000,0.000000,0.000000,0.000000,0.000000,0.000000,0.000000,0.000000,0.000000,0.218171,3,0
480000,-0.001810,12.284890,0.037323,-0.011278,25.169886,-0.020869,0.000334,0.002029,1.570124,-0.006475,0.000060,-0.000149,-0.000003,-0.000361,0.000001,0.006962,0.001864,0.205097,-0.031094,0.176326,0.176324,0.173272,0.927285,0.000000,0.000000,0.000000,0.000000,0.000000,0.000000,0.000000,0.000000,0.000000,0.000000,0.000000,0.000000,0.199078,3,0
490000,-0.001869,12.542055,0.036284,-0.011533,25.178858,-0.022472,0.000343,0.002214,1.570113,-0.007029,0.000066,-0.000063,-0.000004,-0.000401,0.000001,0.005724,0.001926,0.185905,-0.028620,0.176027,0.176026,0.172635,0.921632,0.000000,0.000000,0.000000,0.000000,0.000000,0.000000,0.000000,0.000000,0.000000,0.000000,0.000000,0.000000,0.180461,3,0
500000,-0.001928,12.798757,0.034986,-0.011663,25.187229,-0.024251,0.000353,0.002385,1.570103,-0.007543,0.000072,0.000052,-0.000004,-0.000439,0.000001,0.004748,0.001987,0.167197,-0.037266,0.175823,0.175821,0.172087,0.915803,0.000000,0.000000,0.000000,0.000000,0.000000,0.000000,0.000000,0.000000,0.000000,0.000000,0.000000,0.000000,0.162309,3,0
510000,-0.001987,13.053841,0.033944,-0.011770,25.193327,-0.025953,0.000368,0.002499,1.570092,-0.007889,0.000078,0.000140,-0.000005,-0.000465,0.000001,0.002054,0.002047,0.109200,-0.027668,0.175706,0.175704,0.171623,0.909805,0.000000,0.000000,0.000000,0.000000,0.000000,0.000000,0.000000,0.000000,0.000000,0.000000,0.000000,0.000000,0.106020,3,0
520000,-0.002046,13.309663,0.033220,-0.012010,25.200388,-0.026869,0.000384,0.002645,1.570068,-0.008322,0.000085,0.000193,-0.000005,-0.000499,0.000001,0.002877,0.002108,0.132361,-0.016148,0.175669,0.175667,0.171234,0.903642,0.000000,0.000000,0.000000,0.000000,0.000000,0.000000,0.000000,0.000000,0.000000,0.000000,0.000000,0.000000,0.128502,3,0
530000,-0.002105,13.566213,0.034531,-0.012145,25.208630,-0.025147,0.000388,0.002832,1.570052,-0.008843,0.000092,0.000004,-0.000006,-0.000539,0.000001,0.004378,0.002169,0.154771,0.055648,0.175707,0.175705,0.170915,0.897321,0.000000,0.000000,0.000000,0.000000,0.000000,0.000000,0.000000,0.000000,0.000000,0.000000,0.000000,0.000000,0.150254,3,0
540000,-0.002163,13.825811,0.035779,-0.012220,25.221403,-0.023402,0.000406,0.003142,1.570040,-0.009729,0.000099,-0.000181,-0.000007,-0.000611,0.000002,0.011054,0.002228,0.255960,0.052937,0.175814,0.175811,0.170659,0.890848,0.000000,0.000000,0.000000,0.000000,0.000000,0.000000,0.000000,0.000000,0.000000,0.000000,0.000000,0.000000,0.248470,3,0
550000,-0.002221,14.083759,0.034577,-0.012395,25.231611,-0.025080,0.000424,0.003393,1.570023,-0.010423,0.000107,-0.000060,-0.000007,-0.000668,0.000002,0.006340,0.002288,0.195024,-0.033882,0.175982,0.175980,0.170461,0.884230,0.000000,0.000000,0.000000,0.000000,0.000000,0.000000,0.000000,0.000000,0.000000,0.000000,0.000000,0.000000,0.189316,3,0
560000,-0.002277,14.339493,0.035603,-0.012435,25.238401,-0.023581,0.000430,0.003541,1.570006,-0.010846,0.000116,-0.000227,-0.000008,-0.000703,0.000002,0.002503,0.002346,0.115882,0.045127,0.176209,0.176206,0.170314,0.877474,0.000000,0.000000,0.000000,0.000000,0.000000,0.000000,0.000000,0.000000,0.000000,0.000000,0.000000,0.000000,0.112502,3,0
570000,-0.002333,14.594791,0.036282,-0.012506,25.244383,-0.022920,0.000438,0.003679,1.569989,-0.011216,0.000125,-0.000350,-0.000009,-0.000735,0.000002,0.001746,0.002404,0.098629,0.032495,0.176487,0.176484,0.170215,0.870587,0.000000,0.000000,0.000000,0.000000,0.000000,0.000000,0.000000,0.000000,0.000000,0.000000,0.000000,0.000000,0.095756,3,0
580000,-0.002387,14.854348,0.035154,-0.012542,25.257162,-0.024852,0.000451,0.004018,1.569966,-0.012141,0.000134,-0.000229,-0.000009,-0.000815,0.000002,0.009543,0.002459,0.240848,-0.031332,0.176813,0.176810,0.170158,0.863577,0.000000,0.000000,0.000000,0.000000,0.000000,0.000000,0.000000,0.000000,0.000000,0.000000,0.000000,0.000000,0.233762,3,0
590000,-0.002440,15.110488,0.034733,-0.012662,25.264456,-0.025552,0.000454,0.004183,1.569948,-0.012614,0.000144,-0.000206,-0.000010,-0.000858,0.000002,0.002348,0.002515,0.120314,-0.005897,0.177181,0.177178,0.170139,0.856451,0.000000,0.000000,0.000000,0.000000,0.000000,0.000000,0.000000,0.000000,0.000000,0.000000,0.000000,0.000000,0.116787,3,0
600000,-0.002493,15.370305,0.034877,-0.012719,25.277725,-0.025340,0.000471,0.004542,1.569931,-0.013588,0.000154,-0.000265,-0.000011,-0.000946,0.000003,0.009491,0.002569,0.241800,0.014333,0.177587,0.177584,0.170153,0.849217,0.000000,0.000000,0.000000,0.000000,0.000000,0.000000,0.000000,0.000000,0.000000,0.000000,0.000000,0.000000,0.234657,3,0
610000,-0.002545,15.629638,0.034710,-0.012914,25.290031,-0.025709,0.000481,0.004888,1.569910,-0.014495,0.000164,-0.000279,-0.000012,-0.001030,0.000003,0.007859,0.002623,0.220397,0.003328,0.178028,0.178025,0.170196,0.841883,0.000000,0.000000,0.000000,0.000000,0.000000,0.000000,0.000000,0.000000,0.000000,0.000000,0.000000,0.000000,0.213873,3,0
620000,-0.002597,15.886123,0.036154,-0.012990,25.297518,-0.023897,0.000500,0.005074,1.569889,-0.015000,0.000175,-0.000539,-0.000013,-0.001077,0.000003,0.002917,0.002677,0.119973,0.060282,0.178499,0.178496,0.170265,0.834458,0.000000,0.000000,0.000000,0.000000,0.000000,0.000000,0.000000,0.000000,0.000000,0.000000,0.000000,0.000000,0.116433,3,0
630000,-0.002647,16.143343,0.035956,-0.013017,25.306152,-0.024174,0.000519,0.005312,1.569868,-0.015609,0.000187,-0.000546,-0.000014,-0.001136,0.000003,0.003249,0.002728,0.141718,0.001612,0.178997,0.178993,0.170357,0.826948,0.000000,0.000000,0.000000,0.000000,0.000000,0.000000,0.000000,0.000000,0.000000,0.000000,0.000000,0.000000,0.137515,3,0
640000,-0.002697,16.401289,0.035705,-0.013204,25.315989,-0.024549,0.000530,0.005580,1.569846,-0.016322,0.000199,-0.000546,-0.000016,-0.001206,0.000003,0.004282,0.002780,0.162716,-0.000107,0.179517,0.179513,0.170466,0.819363,0.000000,0.000000,0.000000,0.000000,0.000000,0.000000,0.000000,0.000000,0.000000,0.000000,0.000000,0.000000,0.157871,3,0
650000,-0.002746,16.658766,0.034432,-0.013200,25.324905,-0.026361,0.000536,0.005839,1.569825,-0.016962,0.000211,-0.000382,-0.000017,-0.001270,0.000004,0.003526,0.002830,0.143217,-0.035950,0.180058,0.180054,0.170592,0.811710,0.000000,0.000000,0.000000,0.000000,0.000000,0.000000,0.000000,0.000000,0.000000,0.000000,0.000000,0.000000,0.138945,3,0
660000,-0.002793,16.918762,0.035532,-0.013297,25.338081,-0.024786,0.000538,0.006227,1.569805,-0.017980,0.000224,-0.000609,-0.000018,-0.001373,0.000004,0.008459,0.002880,0.223593,0.048225,0.180615,0.180611,0.170730,0.803998,0.000000,0.000000,0.000000,0.000000,0.000000,0.000000,0.000000,0.000000,0.000000,0.000000,0.000000,0.000000,0.216882,3,0
670000,-0.002840,17.177660,0.035561,-0.013342,25.349274,-0.024733,0.000545,0.006548,1.569782,-0.018825,0.000237,-0.000657,-0.000020,-0.001460,0.000004,0.005379,0.002928,0.182133,0.009980,0.181186,0.181182,0.170878,0.796235,0.000000,0.000000,0.000000,0.000000,0.000000,0.000000,0.000000,0.000000,0.000000,0.000000,0.000000,0.000000,0.176657,3,0
680000,-0.002884,17.434864,0.035557,-0.013335,25.357401,-0.024784,0.000555,0.006770,1.569758,-0.019400,0.000251,-0.000701,-0.000021,-0.001521,0.000004,0.002416,0.002974,0.121912,0.008781,0.181768,0.181763,0.171034,0.788428,0.000000,0.000000,0.000000,0.000000,0.000000,0.000000,0.000000,0.000000,0.000000,0.000000,0.000000,0.000000,0.118255,3,0
690000,-0.002927,17.694614,0.035888,-0.013329,25.369787,-0.024550,0.000571,0.007149,1.569751,-0.020372,0.000265,-0.000804,-0.000023,-0.001625,0.000005,0.006701,0.003019,0.202566,0.020640,0.182359,0.182354,0.171195,0.780586,0.000000,0.000000,0.000000,0.000000,0.000000,0.000000,0.000000,0.000000,0.000000,0.000000,0.000000,0.000000,0.196431,3,0
700000,-0.002969,17.953251,0.036104,-0.013402,25.380215,-0.024519,0.000594,0.007457,1.569745,-0.021159,0.000280,-0.000889,-0.000024,-0.001710,0.000005,0.004253,0.003063,0.161362,0.016541,0.182955,0.182950,0.171359,0.772716,0.000000,0.000000,0.000000,0.000000,0.000000,0.000000,0.000000,0.000000,0.000000,0.000000,0.000000,0.000000,0.156471,3,0
710000,-0.003011,18.211391,0.036459,-0.013506,25.389660,-0.024035,0.000599,0.007738,1.569727,-0.021858,0.000295,-0.000999,-0.000026,-0.001788,0.000005,0.003294,0.003106,0.141167,0.021229,0.183556,0.183551,0.171523,0.764826,0.000000,0.000000,0.000000,0.000000,0.000000,0.000000,0.000000,0.000000,0.000000,0.000000,0.000000,0.000000,0.136882,3,0
720000,-0.003051,18.469645,0.037187,-0.013524,25.399059,-0.022982,0.000604,0.008027,1.569703,-0.022569,0.000310,-0.001179,-0.000028,-0.001868,0.000005,0.003418,0.003148,0.141359,0.034111,0.184158,0.184153,0.171687,0.756924,0.000000,0.000000,0.000000,0.000000,0.000000,0.000000,0.000000,0.000000,0.000000,0.000000,0.000000,0.000000,0.137056,3,0
730000,-0.003090,18.731682,0.038283,-0.013531,25.415077,-0.021602,0.000627,0.008568,1.569694,-0.023900,0.000326,-0.001429,-0.000030,-0.002021,0.000006,0.011335,0.003188,0.260710,0.046722,0.184761,0.184755,0.171848,0.749016,0.000000,0.000000,0.000000,0.000000,0.000000,0.000000,0.000000,0.000000,0.000000,0.000000,0.000000,0.000000,0.252703,3,0
740000,-0.003128,18.991947,0.038592,-0.013643,25.427673,-0.021460,0.000636,0.008995,1.569674,-0.024921,0.000342,-0.001532,-0.000032,-0.002140,0.000006,0.006346,0.003228,0.197300,0.018715,0.185362,0.185356,0.172005,0.741111,0.000000,0.000000,0.000000,0.000000,0.000000,0.000000,0.000000,0.000000,0.000000,0.000000,0.000000,0.000000,0.191232,3,0
750000,-0.003165,19.251068,0.039106,-0.013708,25.438282,-0.020869,0.000647,0.009335,1.569658,-0.025737,0.000359,-0.001675,-0.000034,-0.002237,0.000006,0.004018,0.003267,0.155575,0.025736,0.185959,0.185953,0.172156,0.733215,0.000000,0.000000,0.000000,0.000000,0.000000,0.000000,0.000000,0.000000,0.000000,0.000000,0.000000,0.000000,0.150786,3,0
760000,-0.003201,19.510284,0.040213,-0.013691,25.448957,-0.019232,0.000652,0.009675,1.569640,-0.026560,0.000376,-0.001934,-0.000036,-0.002336,0.000007,0.004214,0.003304,0.154774,0.046063,0.186552,0.186546,0.172301,0.725334,0.000000,0.000000,0.000000,0.000000,0.000000,0.000000,0.000000,0.000000,0.000000,0.000000,0.000000,0.000000,0.149998,3,0
770000,-0.003236,19.770214,0.039992,-0.013716,25.460621,-0.019877,0.000658,0.010085,1.569632,-0.027495,0.000393,-0.001932,-0.000038,-0.002451,0.000007,0.004877,0.003340,0.173758,-0.000603,0.187138,0.187132,0.172437,0.717476,0.000000,0.000000,0.000000,0.000000,0.000000,0.000000,0.000000,0.000000,0.000000,0.000000,0.000000,0.000000,0.168370,3,0
780000,-0.003269,20.032093,0.041232,-0.013712,25.475533,-0.018089,0.000667,0.010630,1.569607,-0.028757,0.000411,-0.002225,-0.000040,-0.002608,0.000007,0.009086,0.003375,0.231773,0.050397,0.187718,0.187711,0.172565,0.709645,0.000000,0.000000,0.000000,0.000000,0.000000,0.000000,0.000000,0.000000,0.000000,0.000000,0.000000,0.000000,0.224547,3,0
790000,-0.003301,20.290915,0.040806,-0.013758,25.485065,-0.018746,0.000676,0.010947,1.569600,-0.029467,0.000430,-0.002178,-0.000043,-0.002699,0.000008,0.002690,0.003408,0.128775,-0.008262,0.188289,0.188282,0.172682,0.701850,0.000000,0.000000,0.000000,0.000000,0.000000,0.000000,0.000000,0.000000,0.000000,0.000000,0.000000,0.000000,0.124777,3,0
800000,-0.003333,20.551079,0.040328,-0.013855,25.496782,-0.019710,0.000682,0.011353,1.569578,-0.030403,0.000448,-0.002122,-0.000045,-0.002820,0.000008,0.004575,0.003442,0.168041,-0.009721,0.188851,0.188844,0.172789,0.694095,0.000000,0.000000,0.000000,0.000000,0.000000,0.000000,0.000000,0.000000,0.000000,0.000000,0.000000,0.000000,0.162786,3,0
810000,-0.003364,20.811317,0.039641,-0.013844,25.508335,-0.020979,0.000689,0.011771,1.569569,-0.031339,0.000467,-0.002025,-0.000048,-0.002943,0.000008,0.004504,0.003474,0.166185,-0.016630,0.189402,0.189395,0.172884,0.686386,0.000000,0.000000,0.000000,0.000000,0.000000,0.000000,0.000000,0.000000,0.000000,0.000000,0.000000,0.000000,0.160973,3,0
820000,-0.003394,21.072884,0.039082,-0.013913,25.522108,-0.022177,0.000701,0.012297,1.569543,-0.032499,0.000487,-0.001957,-0.000050,-0.003098,0.000009,0.006741,0.003505,0.204014,-0.011638,0.189943,0.189936,0.172967,0.678727,0.000000,0.000000,0.000000,0.000000,0.000000,0.000000,0.000000,0.000000,0.000000,0.000000,0.000000,0.000000,0.197585,3,0
830000,-0.003423,21.334505,0.037907,-0.013829,25.535862,-0.023935,0.000707,0.012823,1.569521,-0.033652,0.000507,-0.001758,-0.000053,-0.003255,0.000009,0.006677,0.003535,0.200737,-0.032671,0.190472,0.190465,0.173037,0.671125,0.000000,0.000000,0.000000,0.000000,0.000000,0.000000,0.000000,0.000000,0.000000,0.000000,0.000000,0.000000,0.194393,3,0
840000,-0.003450,21.597439,0.037669,-0.013855,25.551746,-0.024259,0.000725,0.013434,1.569494,-0.035027,0.000527,-0.001765,-0.000056,-0.003445,0.000010,0.009078,0.003563,0.237162,0.000463,0.190990,0.190982,0.173094,0.663583,0.000000,0.000000,0.000000,0.000000,0.000000,0.000000,0.000000,0.000000,0.000000,0.000000,0.000000,0.000000,0.229638,3,0
850000,-0.003476,21.859135,0.037416,-0.013916,25.565287,-0.024857,0.000738,0.013958,1.569479,-0.036155,0.000547,-0.001768,-0.000059,-0.003603,0.000010,0.005996,0.003591,0.192736,0.000123,0.191495,0.191487,0.173138,0.656107,0.000000,0.000000,0.000000,0.000000,0.000000,0.000000,0.000000,0.000000,0.000000,0.000000,0.000000,0.000000,0.186617,3,0
860000,-0.003501,22.117054,0.038709,-0.013943,25.571938,-0.023243,0.000752,0.014160,1.569473,-0.036568,0.000568,-0.002113,-0.000062,-0.003661,0.000010,0.001261,0.003618,0.070055,0.053716,0.191987,0.191979,0.173168,0.648700,0.000000,0.000000,0.000000,0.000000,0.000000,0.000000,0.000000,0.000000,0.000000,0.000000,0.000000,0.000000,0.067906,3,0
870000,-0.003525,22.376974,0.038625,-0.013883,25.582012,-0.023702,0.000763,0.014534,1.569450,-0.037342,0.000589,-0.002152,-0.000065,-0.003773,0.000011,0.002739,0.003642,0.130133,0.005589,0.192466,0.192457,0.173184,0.641366,0.000000,0.000000,0.000000,0.000000,0.000000,0.000000,0.000000,0.000000,0.000000,0.000000,0.000000,0.000000,0.126009,3,0
880000,-0.003548,22.638233,0.038204,-0.013866,25.594324,-0.024449,0.000781,0.015017,1.569425,-0.038351,0.000611,-0.002116,-0.000068,-0.003921,0.000011,0.004577,0.003666,0.168295,-0.005978,0.192932,0.192923,0.173186,0.634109,0.000000,0.000000,0.000000,0.000000,0.000000,0.000000,0.000000,0.000000,0.000000,0.000000,0.000000,0.000000,0.162922,3,0
890000,-0.003570,22.896971,0.037745,-0.013859,25.602015,-0.025248,0.000790,0.015284,1.569418,-0.038869,0.000633,-0.002070,-0.000071,-0.003999,0.000011,0.001198,0.003689,0.085823,-0.007122,0.193385,0.193375,0.173174,0.626932,0.000000,0.000000,0.000000,0.000000,0.000000,0.000000,0.000000,0.000000,0.000000,0.000000,0.000000,0.000000,0.083134,3,0
900000,-0.003590,23.157064,0.037577,-0.013808,25.612064,-0.025672,0.000805,0.015666,1.569405,-0.039631,0.000655,-0.002095,-0.000075,-0.004114,0.000012,0.002532,0.003710,0.125191,0.003335,0.193824,0.193814,0.173148,0.619840,0.000000,0.000000,0.000000,0.000000,0.000000,0.000000,0.000000,0.000000,0.000000,0.000000,0.000000,0.000000,0.121200,3,0
910000,-0.003609,23.420429,0.037226,-0.013718,25.627800,-0.026194,0.000829,0.016319,1.569382,-0.040995,0.000677,-0.002082,-0.000078,-0.004325,0.000012,0.008010,0.003730,0.222816,-0.002790,0.194249,0.194239,0.173107,0.612833,0.000000,0.000000,0.000000,0.000000,0.000000,0.000000,0.000000,0.000000,0.000000,0.000000,0.000000,0.000000,0.215633,3,0
920000,-0.003626,23.679289,0.036253,-0.013671,25.635345,-0.027905,0.000854,0.016585,1.569366,-0.041480,0.000700,-0.001918,-0.000082,-0.004401,0.000012,0.001093,0.003748,0.078566,-0.024285,0.194661,0.194651,0.173052,0.605917,0.000000,0.000000,0.000000,0.000000,0.000000,0.000000,0.000000,0.000000,0.000000,0.000000,0.000000,0.000000,0.076102,3,0
930000,-0.003642,23.941442,0.036876,-0.013650,25.648651,-0.027125,0.000882,0.017131,1.569359,-0.042580,0.000722,-0.002141,-0.000085,-0.004575,0.000013,0.005243,0.003765,0.177450,0.031793,0.195060,0.195049,0.172983,0.599092,0.000000,0.000000,0.000000,0.000000,0.000000,0.000000,0.000000,0.000000,0.000000,0.000000,0.000000,0.000000,0.171721,3,0
940000,-0.003657,24.203613,0.037477,-0.013641,25.661697,-0.026416,0.000907,0.017672,1.569337,-0.043663,0.000745,-0.002361,-0.000089,-0.004750,0.000013,0.005015,0.003781,0.173594,0.030777,0.195446,0.195435,0.172901,0.592360,0.000000,0.000000,0.000000,0.000000,0.000000,0.000000,0.000000,0.000000,0.000000,0.000000,0.000000,0.000000,0.167980,3,0
950000,-0.003672,24.461910,0.036675,-0.013574,25.667723,-0.027742,0.000926,0.017872,1.569323,-0.043979,0.000769,-0.002232,-0.000093,-0.004802,0.000014,0.000467,0.003795,0.050442,-0.018397,0.195819,0.195807,0.172804,0.585724,0.000000,0.000000,0.000000,0.000000,0.000000,0.000000,0.000000,0.000000,0.000000,0.000000,0.000000,0.000000,0.048932,3,0
960000,-0.003685,24.722219,0.036889,-0.013616,25.677225,-0.027634,0.000945,0.018242,1.569298,-0.044674,0.000792,-0.002360,-0.000097,-0.004917,0.000014,0.002008,0.003810,0.110147,0.017501,0.196179,0.196167,0.172694,0.579186,0.000000,0.000000,0.000000,0.000000,0.000000,0.000000,0.000000,0.000000,0.000000,0.000000,0.000000,0.000000,0.106610,3,0
970000,-0.003697,24.985823,0.036000,-0.013503,25.692398,-0.029161,0.000970,0.018915,1.569272,-0.045989,0.000816,-0.002218,-0.000101,-0.005140,0.000015,0.007017,0.003822,0.207565,-0.020646,0.196527,0.196514,0.172571,0.572747,0.000000,0.000000,0.000000,0.000000,0.000000,0.000000,0.000000,0.000000,0.000000,0.000000,0.000000,0.000000,0.200800,3,0
980000,-0.003707,25.244194,0.036981,-0.013404,25.698172,-0.027915,0.000988,0.019097,1.569266,-0.046264,0.000840,-0.002542,-0.000105,-0.005186,0.000015,0.000625,0.003834,0.043203,0.044554,0.196862,0.196849,0.172435,0.566409,0.000000,0.000000,0.000000,0.000000,0.000000,0.000000,0.000000,0.000000,0.000000,0.000000,0.000000,0.000000,0.041952,3,0
990000,-0.003717,25.505241,0.036598,-0.013428,25.708616,-0.028714,0.001003,0.019530,1.569259,-0.047048,0.000864,-0.002523,-0.000109,-0.005323,0.000015,0.002431,0.003844,0.122715,-0.003117,0.197186,0.197173,0.172286,0.560173,0.000000,0.000000,0.000000,0.000000,0.000000,0.000000,0.000000,0.000000,0.000000,0.000000,0.000000,0.000000,0.118741,3,0
1000000,-0.003726,25.765657,0.035862,-0.013310,25.717810,-0.029947,0.001026,0.019898,1.569252,-0.047691,0.000888,-0.002415,-0.000114,-0.005437,0.000016,0.001655,0.003853,0.100107,-0.015202,0.197498,0.197484,0.172125,0.554039,0.000000,0.000000,0.000000,0.000000,0.000000,0.000000,0.000000,0.000000,0.000000,0.000000,0.000000,0.000000,0.096883,3,0
1010000,-0.003734,26.024136,0.035558,-0.013326,25.723577,-0.030619,0.001043,0.020080,1.569236,-0.047938,0.000913,-0.002418,-0.000118,-0.005481,0.000016,0.000240,0.003862,0.038387,0.000168,0.197799,0.197785,0.171952,0.548010,0.000000,0.000000,0.000000,0.000000,0.000000,0.000000,0.000000,0.000000,0.000000,0.000000,0.000000,0.000000,0.037310,3,0
1020000,-0.003741,26.287920,0.035524,-0.013282,25.738523,-0.030935,0.001068,0.020766,1.569217,-0.049214,0.000937,-0.002502,-0.000123,-0.005713,0.000016,0.006294,0.003869,0.197309,0.010191,0.198090,0.198075,0.171767,0.542084,0.000000,0.000000,0.000000,0.000000,0.000000,0.000000,0.000000,0.000000,0.000000,0.000000,0.000000,0.000000,0.190833,3,0
1030000,-0.003747,26.546423,0.034919,-0.013184,25.743914,-0.031997,0.001086,0.020920,1.569209,-0.049427,0.000962,-0.002427,-0.000127,-0.005753,0.000016,0.000192,0.003875,0.032770,-0.010007,0.198370,0.198355,0.171570,0.536263,0.000000,0.000000,0.000000,0.000000,0.000000,0.000000,0.000000,0.000000,0.000000,0.000000,0.000000,0.000000,0.031908,3,0
1040000,-0.003752,26.810238,0.036264,-0.013129,25.758522,-0.030076,0.001109,0.021605,1.569183,-0.050673,0.000986,-0.002884,-0.000132,-0.005985,0.000017,0.006485,0.003881,0.191669,0.058914,0.198640,0.198624,0.171363,0.530547,0.000000,0.000000,0.000000,0.000000,0.000000,0.000000,0.000000,0.000000,0.000000,0.000000,0.000000,0.000000,0.185367,3,0
1050000,-0.003756,27.072714,0.035212,-0.013053,25.770668,-0.031614,0.001128,0.022167,1.569171,-0.051628,0.001011,-0.002693,-0.000137,-0.006168,0.000018,0.003563,0.003885,0.146376,-0.025778,0.198901,0.198885,0.171146,0.524937,0.000000,0.000000,0.000000,0.000000,0.000000,0.000000,0.000000,0.000000,0.000000,0.000000,0.000000,0.000000,0.141571,3,0
1060000,-0.003757,27.335173,0.036594,-0.012886,25.782682,-0.029754,0.001159,0.022713,1.569162,-0.052558,0.001036,-0.003164,-0.000142,-0.006346,0.000018,0.003847,0.003887,0.142204,0.060141,0.199153,0.199136,0.170918,0.519433,0.000000,0.000000,0.000000,0.000000,0.000000,0.000000,0.000000,0.000000,0.000000,0.000000,0.000000,0.000000,0.137541,3,0
1070000,-0.003757,27.593657,0.037363,-0.012736,25.787561,-0.028994,0.001178,0.022828,1.569157,-0.052680,0.001061,-0.003460,-0.000147,-0.006370,0.000018,0.000290,0.003887,0.018776,0.037787,0.199396,0.199379,0.170680,0.514033,0.000000,0.000000,0.000000,0.000000,0.000000,0.000000,0.000000,0.000000,0.000000,0.000000,0.000000,0.000000,0.018541,3,0
1080000,-0.003757,27.854176,0.037124,-0.012653,25.795914,-0.029541,0.001193,0.023172,1.569141,-0.053195,0.001086,-0.003481,-0.000152,-0.006472,0.000019,0.000991,0.003886,0.078306,0.002254,0.199631,0.199613,0.170433,0.508739,0.000000,0.000000,0.000000,0.000000,0.000000,0.000000,0.000000,0.000000,0.000000,0.000000,0.000000,0.000000,0.075794,3,0
1090000,-0.003756,28.114710,0.036267,-0.012620,25.804148,-0.030699,0.001214,0.023508,1.569117,-0.053696,0.001111,-0.003331,-0.000157,-0.006574,0.000019,0.000997,0.003885,0.076130,-0.019444,0.199859,0.199841,0.170177,0.503550,0.000000,0.000000,0.000000,0.000000,0.000000,0.000000,0.000000,0.000000,0.000000,0.000000,0.000000,0.000000,0.073689,3,0
1100000,-0.003754,28.377241,0.036527,-0.012501,25.815809,-0.030431,0.001245,0.024054,1.569105,-0.054577,0.001136,-0.003503,-0.000162,-0.006754,0.000019,0.002946,0.003883,0.133577,0.020599,0.200079,0.200060,0.169913,0.498465,0.000000,0.000000,0.000000,0.000000,0.000000,0.000000,0.000000,0.000000,0.000000,0.000000,0.000000,0.000000,0.129180,3,0
1110000,-0.003751,28.637762,0.037533,-0.012478,25.823914,-0.029150,0.001262,0.024374,1.569086,-0.055036,0.001161,-0.003882,-0.000167,-0.006848,0.000020,0.001139,0.003881,0.069715,0.046747,0.200293,0.200274,0.169640,0.493485,0.000000,0.000000,0.000000,0.000000,0.000000,0.000000,0.000000,0.000000,0.000000,0.000000,0.000000,0.000000,0.067497,3,0
1120000,-0.003747,28.897636,0.036268,-0.012345,25.830603,-0.030784,0.001281,0.024615,1.569079,-0.055352,0.001186,-0.003608,-0.000173,-0.006916,0.000020,0.000558,0.003876,0.047663,-0.034229,0.200501,0.200481,0.169360,0.488608,0.000000,0.000000,0.000000,0.000000,0.000000,0.000000,0.000000,0.000000,0.000000,0.000000,0.000000,0.000000,0.046218,3,0
1130000,-0.003743,29.156857,0.036986,-0.012343,25.836029,-0.030110,0.001306,0.024785,1.569060,-0.055525,0.001212,-0.003909,-0.000178,-0.006952,0.000020,0.000332,0.003873,0.026266,0.036755,0.200703,0.200682,0.169072,0.483833,0.000000,0.000000,0.000000,0.000000,0.000000,0.000000,0.000000,0.000000,0.000000,0.000000,0.000000,0.000000,0.025665,3,0
1140000,-0.003738,29.419437,0.036282,-0.012179,25.847321,-0.031152,0.001324,0.025313,1.569043,-0.056352,0.001237,-0.003804,-0.000184,-0.007132,0.000021,0.002542,0.003867,0.124813,-0.013731,0.200899,0.200878,0.168778,0.479160,0.000000,0.000000,0.000000,0.000000,0.000000,0.000000,0.000000,0.000000,0.000000,0.000000,0.000000,0.000000,0.120690,3,0
1150000,-0.003732,29.682661,0.034847,-0.012131,25.859697,-0.033343,0.001340,0.025911,1.569022,-0.057282,0.001262,-0.003489,-0.000189,-0.007339,0.000021,0.003428,0.003861,0.140421,-0.039287,0.201091,0.201069,0.168477,0.474588,0.000000,0.000000,0.000000,0.000000,0.000000,0.000000,0.000000,0.000000,0.000000,0.000000,0.000000,0.000000,0.135763,3,0
1160000,-0.003725,29.943844,0.034595,-0.011984,25.868393,-0.033803,0.001366,0.026269,1.568997,-0.057785,0.001287,-0.003522,-0.000195,-0.007451,0.000022,0.000931,0.003854,0.075863,0.003407,0.201278,0.201255,0.168170,0.470118,0.000000,0.000000,0.000000,0.000000,0.000000,0.000000,0.000000,0.000000,0.000000,0.000000,0.000000,0.000000,0.073413,3,0
1170000,-0.003717,30.203684,0.035085,-0.011902,25.874538,-0.033367,0.001398,0.026468,1.568987,-0.058005,0.001312,-0.003775,-0.000201,-0.007500,0.000022,0.000326,0.003846,0.033260,0.029966,0.201461,0.201437,0.167857,0.465746,0.000000,0.000000,0.000000,0.000000,0.000000,0.000000,0.000000,0.000000,0.000000,0.000000,0.000000,0.000000,0.032361,3,0
1180000,-0.003708,30.462875,0.034187,-0.011804,25.879530,-0.034488,0.001411,0.026589,1.568967,-0.058084,0.001337,-0.003607,-0.000206,-0.007519,0.000022,0.000090,0.003837,0.011906,-0.020038,0.201640,0.201615,0.167538,0.461473,0.000000,0.000000,0.000000,0.000000,0.000000,0.000000,0.000000,0.000000,0.000000,0.000000,0.000000,0.000000,0.012086,3,0
1190000,-0.003698,30.722755,0.033400,-0.011634,25.885563,-0.035660,0.001432,0.026783,1.568956,-0.058290,0.001363,-0.003478,-0.000212,-0.007567,0.000022,0.000196,0.003827,0.030970,-0.015522,0.201815,0.201790,0.167215,0.457296,0.000000,0.000000,0.000000,0.000000,0.000000,0.000000,0.000000,0.000000,0.000000,0.000000,0.000000,0.000000,0.030154,3,0
1200000,-0.003687,30.981304,0.033751,-0.011534,25.889093,-0.035058,0.001448,0.026805,1.568934,-0.058221,0.001388,-0.003695,-0.000218,-0.007550,0.000022,0.000125,0.003816,-0.010302,0.025498,0.201988,0.201962,0.166887,0.453215,0.000000,0.000000,0.000000,0.000000,0.000000,0.000000,0.000000,0.000000,0.000000,0.000000,0.000000,0.000000,0.010614,3,0
1210000,-0.003676,31.244577,0.032702,-0.011454,25.901075,-0.036634,0.001476,0.027401,1.568919,-0.059073,0.001412,-0.003496,-0.000224,-0.007756,0.000023,0.002766,0.003804,0.128693,-0.024373,0.202159,0.202132,0.166555,0.449229,0.000000,0.000000,0.000000,0.000000,0.000000,0.000000,0.000000,0.000000,0.000000,0.000000,0.000000,0.000000,0.124408,3,0
1220000,-0.003665,31.503786,0.031549,-0.011430,25.905710,-0.038257,0.001492,0.027503,1.568914,-0.059103,0.001438,-0.003253,-0.000230,-0.007764,0.000023,0.000134,0.003793,0.004450,-0.028152,0.202327,0.202299,0.166219,0.445337,0.000000,0.000000,0.000000,0.000000,0.000000,0.000000,0.000000,0.000000,0.000000,0.000000,0.000000,0.000000,0.005646,3,0
1230000,-0.003654,31.763012,0.030330,-0.011411,25.910303,-0.039841,0.001524,0.027602,1.568893,-0.059127,0.001463,-0.002993,-0.000236,-0.007772,0.000023,0.000151,0.003781,0.003624,-0.030061,0.202493,0.202464,0.165879,0.441537,0.000000,0.000000,0.000000,0.000000,0.000000,0.000000,0.000000,0.000000,0.000000,0.000000,0.000000,0.000000,0.005059,3,0
1240000,-0.003642,32.021584,0.029643,-0.011311,25.913620,-0.040628,0.001556,0.027613,1.568879,-0.059015,0.001488,-0.002900,-0.000243,-0.007744,0.000023,0.000067,0.003770,-0.017105,-0.010394,0.202658,0.202628,0.165536,0.437828,0.000000,0.000000,0.000000,0.000000,0.000000,0.000000,0.000000,0.000000,0.000000,0.000000,0.000000,0.000000,0.016926,3,0
1250000,-0.003629,32.285549,0.030232,-0.011159,25.926327,-0.039997,0.001575,0.028288,1.568864,-0.059947,0.001511,-0.003239,-0.000249,-0.007980,0.000024,0.003461,0.003756,0.141750,0.037074,0.202821,0.202791,0.165191,0.434208,0.000000,0.000000,0.000000,0.000000,0.000000,0.000000,0.000000,0.000000,0.000000,0.000000,0.000000,0.000000,0.137011,3,0
1260000,-0.003614,32.549458,0.030527,-0.011012,25.938784,-0.039839,0.001600,0.028939,1.568857,-0.060842,0.001535,-0.003483,-0.000255,-0.008210,0.000024,0.003096,0.003741,0.136082,0.026200,0.202984,0.202952,0.164842,0.430676,0.000000,0.000000,0.000000,0.000000,0.000000,0.000000,0.000000,0.000000,0.000000,0.000000,0.000000,0.000000,0.131531,3,0
1270000,-0.003598,32.808590,0.031844,-0.010894,25.942661,-0.038255,0.001630,0.028971,1.568841,-0.060784,0.001559,-0.004041,-0.000262,-0.008192,0.000024,0.000653,0.003725,-0.008678,0.062776,0.203146,0.203113,0.164492,0.427232,0.000000,0.000000,0.000000,0.000000,0.000000,0.000000,0.000000,0.000000,0.000000,0.000000,0.000000,0.000000,0.009117,3,0
1280000,-0.003583,33.067062,0.032888,-0.010856,25.945347,-0.036973,0.001649,0.028924,1.568827,-0.060591,0.001583,-0.004505,-0.000268,-0.008139,0.000024,0.000582,0.003709,-0.029301,0.052177,0.203307,0.203274,0.164139,0.423873,0.000000,0.000000,0.000000,0.000000,0.000000,0.000000,0.000000,0.000000,0.000000,0.000000,0.000000,0.000000,0.028527,3,0
1290000,-0.003566,33.328262,0.032155,-0.010661,25.952906,-0.037887,0.001673,0.029228,1.568809,-0.060919,0.001607,-0.004394,-0.000275,-0.008228,0.000025,0.000434,0.003692,0.050140,-0.012847,0.203468,0.203434,0.163785,0.420599,0.000000,0.000000,0.000000,0.000000,0.000000,0.000000,0.000000,0.000000,0.000000,0.000000,0.000000,0.000000,0.048570,3,0
1300000,-0.003550,33.589443,0.031599,-0.010605,25.960279,-0.038795,0.001696,0.029525,1.568803,-0.061227,0.001630,-0.004345,-0.000281,-0.008313,0.000025,0.000368,0.003675,0.047291,-0.005998,0.203630,0.203594,0.163430,0.417407,0.000000,0.000000,0.000000,0.000000,0.000000,0.000000,0.000000,0.000000,0.000000,0.000000,0.000000,0.000000,0.045823,3,0
1310000,-0.003533,33.848579,0.030482,-0.010500,25.963976,-0.040222,0.001715,0.029537,1.568796,-0.061129,0.001655,-0.004100,-0.000288,-0.008287,0.000025,0.000155,0.003657,-0.015175,-0.026724,0.203792,0.203755,0.163073,0.414297,0.000000,0.000000,0.000000,0.000000,0.000000,0.000000,0.000000,0.000000,0.000000,0.000000,0.000000,0.000000,0.015083,3,0
1320000,-0.003515,34.109753,0.029888,-0.010347,25.971239,-0.041152,0.001750,0.029813,1.568776,-0.061412,0.001678,-0.004045,-0.000294,-0.008367,0.000025,0.000317,0.003639,0.043713,-0.006576,0.203954,0.203916,0.162716,0.411266,0.000000,0.000000,0.000000,0.000000,0.000000,0.000000,0.000000,0.000000,0.000000,0.000000,0.000000,0.000000,0.042371,3,0
1330000,-0.003496,34.369541,0.031067,-0.010186,25.975914,-0.039726,0.001776,0.029888,1.568755,-0.061419,0.001701,-0.004588,-0.000301,-0.008366,0.000025,0.000567,0.003620,0.001137,0.058993,0.204117,0.204078,0.162358,0.408314,0.000000,0.000000,0.000000,0.000000,0.000000,0.000000,0.000000,0.000000,0.000000,0.000000,0.000000,0.000000,0.003666,3,0
1340000,-0.003477,34.627987,0.030062,-0.010148,25.978148,-0.040899,0.001801,0.029789,1.568734,-0.061161,0.001724,-0.004374,-0.000308,-0.008292,0.000025,0.000343,0.003599,-0.040031,-0.022607,0.204281,0.204241,0.162000,0.405438,0.000000,0.000000,0.000000,0.000000,0.000000,0.000000,0.000000,0.000000,0.000000,0.000000,0.000000,0.000000,0.038829,3,0
1350000,-0.003457,34.886440,0.031191,-0.010023,25.980282,-0.039504,0.001819,0.029673,1.568725,-0.060903,0.001747,-0.004899,-0.000315,-0.008214,0.000025,0.000788,0.003579,-0.040073,0.057033,0.204446,0.204405,0.161642,0.402638,0.000000,0.000000,0.000000,0.000000,0.000000,0.000000,0.000000,0.000000,0.000000,0.000000,0.000000,0.000000,0.038854,3,0
1360000,-0.003435,35.150337,0.031670,-0.009833,25.991991,-0.038812,0.001851,0.030308,1.568704,-0.061663,0.001768,-0.005226,-0.000322,-0.008439,0.000026,0.002460,0.003557,0.118908,0.033438,0.204612,0.204570,0.161284,0.399910,0.000000,0.000000,0.000000,0.000000,0.000000,0.000000,0.000000,0.000000,0.000000,0.000000,0.000000,0.000000,0.114912,3,0
1370000,-0.003413,35.414173,0.030867,-0.009646,26.003498,-0.039918,0.001872,0.030936,1.568695,-0.062385,0.001790,-0.005105,-0.000328,-0.008658,0.000027,0.002103,0.003534,0.113319,-0.014490,0.204780,0.204737,0.160926,0.397256,0.000000,0.000000,0.000000,0.000000,0.000000,0.000000,0.000000,0.000000,0.000000,0.000000,0.000000,0.000000,0.109505,3,0
1380000,-0.003391,35.675224,0.030031,-0.009523,26.010000,-0.040933,0.001889,0.031155,1.568684,-0.062565,0.001812,-0.004958,-0.000335,-0.008714,0.000027,0.000172,0.003511,0.028278,-0.015968,0.204949,0.204905,0.160569,0.394674,0.000000,0.000000,0.000000,0.000000,0.000000,0.000000,0.000000,0.000000,0.000000,0.000000,0.000000,0.000000,0.027519,3,0
1390000,-0.003367,35.934212,0.028995,-0.009298,26.012661,-0.042302,0.001925,0.031088,1.568670,-0.062350,0.001835,-0.004730,-0.000342,-0.008649,0.000027,0.000278,0.003486,-0.034050,-0.023496,0.205120,0.205075,0.160213,0.392161,0.000000,0.000000,0.000000,0.000000,0.000000,0.000000,0.000000,0.000000,0.000000,0.000000,0.000000,0.000000,0.033062,3,0
1400000,-0.003343,36.197281,0.028394,-0.009224,26.022463,-0.043028,0.001959,0.031577,1.568655,-0.062883,0.001856,-0.004686,-0.000349,-0.008817,0.000027,0.001161,0.003462,0.084637,-0.005872,0.205293,0.205246,0.159858,0.389715,0.000000,0.000000,0.000000,0.000000,0.000000,0.000000,0.000000,0.000000,0.000000,0.000000,0.000000,0.000000,0.081810,3,0
1410000,-0.003317,36.457561,0.028744,-0.008986,26.027245,-0.042616,0.001988,0.031653,1.568636,-0.062885,0.001877,-0.004970,-0.000356,-0.008816,0.000027,0.000144,0.003435,0.000378,0.029567,0.205468,0.205419,0.159504,0.387336,0.000000,0.000000,0.000000,0.000000,0.000000,0.000000,0.000000,0.000000,0.000000,0.000000,0.000000,0.000000,0.003338,3,0
1420000,-0.003290,36.717815,0.030063,-0.008806,26.031796,-0.041081,0.002009,0.031729,1.568626,-0.062874,0.001898,-0.005605,-0.000363,-0.008809,0.000028,0.000709,0.003407,-0.001522,0.066016,0.205644,0.205594,0.159152,0.385022,0.000000,0.000000,0.000000,0.000000,0.000000,0.000000,0.000000,0.000000,0.000000,0.000000,0.000000,0.000000,0.003598,3,0
1430000,-0.003263,36.977383,0.029809,-0.008686,26.035208,-0.041263,0.002042,0.031695,1.568604,-0.062730,0.001919,-0.005659,-0.000370,-0.008761,0.000028,0.000095,0.003379,-0.023277,0.005880,0.205822,0.205771,0.158801,0.382774,0.000000,0.000000,0.000000,0.000000,0.000000,0.000000,0.000000,0.000000,0.000000,0.000000,0.000000,0.000000,0.022712,3,0
1440000,-0.003234,37.241035,0.029643,-0.008436,26.045858,-0.041558,0.002070,0.032259,1.568587,-0.063315,0.001939,-0.005774,-0.000377,-0.008956,0.000028,0.001466,0.003349,0.094822,0.010318,0.206002,0.205950,0.158452,0.380587,0.000000,0.000000,0.000000,0.000000,0.000000,0.000000,0.000000,0.000000,0.000000,0.000000,0.000000,0.000000,0.091625,3,0
1450000,-0.003205,37.503242,0.029979,-0.008346,26.053808,-0.041060,0.002090,0.032602,1.568573,-0.063620,0.001958,-0.006066,-0.000384,-0.009058,0.000028,0.000537,0.003319,0.049732,0.029091,0.206184,0.206131,0.158105,0.378461,0.000000,0.000000,0.000000,0.000000,0.000000,0.000000,0.000000,0.000000,0.000000,0.000000,0.000000,0.000000,0.048138,3,0
1460000,-0.003174,37.762657,0.031241,-0.008148,26.056545,-0.039573,0.002116,0.032511,1.568562,-0.063414,0.001978,-0.006685,-0.000391,-0.008983,0.000028,0.000838,0.003288,-0.033646,0.063518,0.206369,0.206314,0.157760,0.376395,0.000000,0.000000,0.000000,0.000000,0.000000,0.000000,0.000000,0.000000,0.000000,0.000000,0.000000,0.000000,0.032629,3,0
1470000,-0.003143,38.024811,0.031019,-0.007907,26.064089,-0.040041,0.002142,0.032831,1.568547,-0.063686,0.001997,-0.006764,-0.000398,-0.009078,0.000029,0.000334,0.003255,0.044853,0.007254,0.206555,0.206498,0.157417,0.374386,0.000000,0.000000,0.000000,0.000000,0.000000,0.000000,0.000000,0.000000,0.000000,0.000000,0.000000,0.000000,0.043426,3,0
1480000,-0.003112,38.286900,0.032233,-0.007833,26.071415,-0.038673,0.002178,0.033130,1.568526,-0.063933,0.002015,-0.007388,-0.000405,-0.009161,0.000029,0.000902,0.003224,0.041050,0.062272,0.206743,0.206685,0.157077,0.372434,0.000000,0.000000,0.000000,0.000000,0.000000,0.000000,0.000000,0.000000,0.000000,0.000000,0.000000,0.000000,0.039772,3,0
1490000,-0.003081,38.548950,0.031815,-0.007759,26.078651,-0.039154,0.002201,0.033417,1.568510,-0.064156,0.002034,-0.007387,-0.000412,-0.009242,0.000029,0.000226,0.003191,0.037312,-0.000710,0.206933,0.206874,0.156739,0.370538,0.000000,0.000000,0.000000,0.000000,0.000000,0.000000,0.000000,0.000000,0.000000,0.000000,0.000000,0.000000,0.036158,3,0
1500000,-0.003050,38.810257,0.031846,-0.007683,26.084467,-0.039108,0.002220,0.033577,1.568497,-0.064238,0.002052,-0.007555,-0.000419,-0.009271,0.000030,0.000076,0.003160,0.013737,0.016532,0.207125,0.207064,0.156404,0.368697,0.000000,0.000000,0.000000,0.000000,0.000000,0.000000,0.000000,0.000000,0.000000,0.000000,0.000000,0.000000,0.013614,3,0
1510000,-0.003021,39.070843,0.030865,-0.007608,26.088982,-0.040198,0.002257,0.033615,1.568488,-0.064184,0.002071,-0.007326,-0.000425,-0.009252,0.000030,0.000098,0.003129,-0.009079,-0.022619,0.207319,0.207257,0.156071,0.366909,0.000000,0.000000,0.000000,0.000000,0.000000,0.000000,0.000000,0.000000,0.000000,0.000000,0.000000,0.000000,0.009276,3,0
1520000,-0.002989,39.329330,0.030612,-0.007377,26.089495,-0.040561,0.002289,0.033328,1.568482,-0.063768,0.002090,-0.007366,-0.000432,-0.009095,0.000029,0.000815,0.003096,-0.070923,0.005254,0.207515,0.207451,0.155742,0.365171,0.000000,0.000000,0.000000,0.000000,0.000000,0.000000,0.000000,0.000000,0.000000,0.000000,0.000000,0.000000,0.068535,3,0
1530000,-0.002957,39.587124,0.030980,-0.007180,26.088669,-0.040068,0.002318,0.032917,1.568479,-0.063238,0.002108,-0.007645,-0.000439,-0.008890,0.000029,0.001468,0.003063,-0.090866,0.029191,0.207712,0.207647,0.155415,0.363484,0.000000,0.000000,0.000000,0.000000,0.000000,0.000000,0.000000,0.000000,0.000000,0.000000,0.000000,0.000000,0.087765,3,0
1540000,-0.002925,39.846321,0.029879,-0.007111,26.090475,-0.041331,0.002346,0.032738,1.568465,-0.062946,0.002126,-0.007355,-0.000446,-0.008779,0.000029,0.000534,0.003030,-0.050468,-0.027454,0.207912,0.207845,0.155092,0.361845,0.000000,0.000000,0.000000,0.000000,0.000000,0.000000,0.000000,0.000000,0.000000,0.000000,0.000000,0.000000,0.048817,3,0
1550000,-0.002891,40.108929,0.030697,-0.006914,26.098351,-0.040395,0.002364,0.033075,1.568452,-0.063223,0.002142,-0.007860,-0.000453,-0.008884,0.000029,0.000756,0.002996,0.048138,0.048444,0.208113,0.208044,0.154771,0.360253,0.000000,0.000000,0.000000,0.000000,0.000000,0.000000,0.000000,0.000000,0.000000,0.000000,0.000000,0.000000,0.046572,3,0
1560000,-0.002856,40.366634,0.031975,-0.006662,26.097197,-0.038777,0.002393,0.032629,1.568434,-0.062680,0.002159,-0.008504,-0.000460,-0.008662,0.000029,0.002137,0.002960,-0.095276,0.064518,0.208315,0.208245,0.154454,0.358708,0.000000,0.000000,0.000000,0.000000,0.000000,0.000000,0.000000,0.000000,0.000000,0.000000,0.000000,0.000000,0.091994,3,0
1570000,-0.002822,40.625759,0.030745,-0.006476,26.098701,-0.040090,0.002413,0.032407,1.568414,-0.062370,0.002176,-0.008149,-0.000467,-0.008539,0.000029,0.000664,0.002923,-0.054787,-0.033270,0.208519,0.208448,0.154140,0.357208,0.000000,0.000000,0.000000,0.000000,0.000000,0.000000,0.000000,0.000000,0.000000,0.000000,0.000000,0.000000,0.052966,3,0
1580000,-0.002786,40.884853,0.031342,-0.006332,26.099945,-0.039505,0.002440,0.032179,1.568411,-0.062059,0.002192,-0.008537,-0.000474,-0.008407,0.000028,0.000739,0.002887,-0.055500,0.038591,0.208724,0.208652,0.153830,0.355750,0.000000,0.000000,0.000000,0.000000,0.000000,0.000000,0.000000,0.000000,0.000000,0.000000,0.000000,0.000000,0.053631,3,0
1590000,-0.002750,41.148087,0.031979,-0.006245,26.108679,-0.038916,0.002470,0.032613,1.568391,-0.062410,0.002207,-0.008980,-0.000481,-0.008551,0.000029,0.000919,0.002850,0.063091,0.041277,0.208931,0.208856,0.153523,0.354334,0.000000,0.000000,0.000000,0.000000,0.000000,0.000000,0.000000,0.000000,0.000000,0.000000,0.000000,0.000000,0.060968,3,0
1600000,-0.002715,41.409184,0.030702,-0.006003,26.113503,-0.040453,0.002503,0.032684,1.568373,-0.062402,0.002223,-0.008619,-0.000487,-0.008550,0.000029,0.000196,0.002812,-0.001438,-0.034596,0.209138,0.209062,0.153220,0.352961,0.000000,0.000000,0.000000,0.000000,0.000000,0.000000,0.000000,0.000000,0.000000,0.000000,0.000000,0.000000,0.003054,3,0
1610000,-0.002677,41.666740,0.031575,-0.005824,26.111786,-0.039206,0.002530,0.032175,1.568359,-0.061837,0.002238,-0.009110,-0.000494,-0.008302,0.000029,0.002116,0.002775,-0.103554,0.049057,0.209347,0.209269,0.152920,0.351628,0.000000,0.000000,0.000000,0.000000,0.000000,0.000000,0.000000,0.000000,0.000000,0.000000,0.000000,0.000000,0.099962,3,0
1620000,-0.002641,41.925026,0.030374,-0.005663,26.111315,-0.040645,0.002566,0.031789,1.568348,-0.061389,0.002254,-0.008748,-0.000501,-0.008109,0.000028,0.001276,0.002736,-0.082787,-0.032579,0.209557,0.209477,0.152624,0.350333,0.000000,0.000000,0.000000,0.000000,0.000000,0.000000,0.000000,0.000000,0.000000,0.000000,0.000000,0.000000,0.079950,3,0
1630000,-0.002603,42.183990,0.030040,-0.005475,26.111940,-0.041125,0.002600,0.031507,1.568344,-0.061053,0.002269,-0.008758,-0.000507,-0.007959,0.000028,0.000636,0.002697,-0.062763,0.002337,0.209767,0.209686,0.152331,0.349074,0.000000,0.000000,0.000000,0.000000,0.000000,0.000000,0.000000,0.000000,0.000000,0.000000,0.000000,0.000000,0.060626,3,0
1640000,-0.002564,42.443630,0.030049,-0.005230,26.113848,-0.041202,0.002630,0.031325,1.568331,-0.060823,0.002284,-0.008920,-0.000514,-0.007853,0.000028,0.000347,0.002657,-0.043427,0.016276,0.209977,0.209895,0.152043,0.347853,0.000000,0.000000,0.000000,0.000000,0.000000,0.000000,0.000000,0.000000,0.000000,0.000000,0.000000,0.000000,0.041979,3,0
1650000,-0.002524,42.702541,0.030609,-0.005067,26.114315,-0.040461,0.002651,0.031011,1.568322,-0.060484,0.002297,-0.009307,-0.000520,-0.007694,0.000028,0.000903,0.002616,-0.064537,0.037776,0.210189,0.210105,0.151758,0.346667,0.000000,0.000000,0.000000,0.000000,0.000000,0.000000,0.000000,0.000000,0.000000,0.000000,0.000000,0.000000,0.062315,3,0
1660000,-0.002485,42.960766,0.029453,-0.004957,26.113630,-0.041571,0.002688,0.030588,1.568309,-0.060042,0.002312,-0.008958,-0.000527,-0.007491,0.000027,0.001314,0.002575,-0.084911,-0.030744,0.210400,0.210314,0.151477,0.345516,0.000000,0.000000,0.000000,0.000000,0.000000,0.000000,0.000000,0.000000,0.000000,0.000000,0.000000,0.000000,0.081981,3,0
1670000,-0.002444,43.221054,0.029972,-0.004707,26.116579,-0.041111,0.002708,0.030509,1.568298,-0.059914,0.002324,-0.009349,-0.000533,-0.007426,0.000027,0.000325,0.002534,-0.025063,0.037041,0.210612,0.210525,0.151200,0.344397,0.000000,0.000000,0.000000,0.000000,0.000000,0.000000,0.000000,0.000000,0.000000,0.000000,0.000000,0.000000,0.024293,3,0
1680000,-0.002404,43.480614,0.029967,-0.004566,26.118053,-0.041078,0.002734,0.030301,1.568281,-0.059676,0.002337,-0.009506,-0.000539,-0.007310,0.000027,0.000394,0.002492,-0.046833,0.015693,0.210823,0.210735,0.150927,0.343310,0.000000,0.000000,0.000000,0.000000,0.000000,0.000000,0.000000,0.000000,0.000000,0.000000,0.000000,0.000000,0.045245,3,0
1690000,-0.002363,43.738056,0.029509,-0.004328,26.115639,-0.041588,0.002760,0.029730,1.568273,-0.059134,0.002351,-0.009444,-0.000545,-0.007045,0.000027,0.001865,0.002449,-0.107620,-0.003114,0.211035,0.210944,0.150658,0.342254,0.000000,0.000000,0.000000,0.000000,0.000000,0.000000,0.000000,0.000000,0.000000,0.000000,0.000000,0.000000,0.103863,3,0
1700000,-0.002321,43.997608,0.028646,-0.004115,26.117056,-0.042552,0.002779,0.029527,1.568249,-0.058900,0.002363,-0.009233,-0.000551,-0.006930,0.000026,0.000410,0.002405,-0.046970,-0.018302,0.211246,0.211154,0.150393,0.341228,0.000000,0.000000,0.000000,0.000000,0.000000,0.000000,0.000000,0.000000,0.000000,0.000000,0.000000,0.000000,0.045382,3,0
1710000,-0.002279,44.260628,0.028261,-0.003950,26.125004,-0.042923,0.002799,0.029906,1.568237,-0.059152,0.002374,-0.009274,-0.000557,-0.007058,0.000027,0.000425,0.002362,0.051281,0.002498,0.211456,0.211363,0.150131,0.340232,0.000000,0.000000,0.000000,0.000000,0.000000,0.000000,0.000000,0.000000,0.000000,0.000000,0.000000,0.000000,0.049529,3,0
1720000,-0.002235,44.523552,0.028899,-0.003728,26.132570,-0.042057,0.002818,0.030235,1.568219,-0.059380,0.002384,-0.009763,-0.000563,-0.007170,0.000027,0.000658,0.002318,0.046608,0.043531,0.211666,0.211572,0.149874,0.339265,0.000000,0.000000,0.000000,0.000000,0.000000,0.000000,0.000000,0.000000,0.000000,0.000000,0.000000,0.000000,0.045035,3,0
