time_us,pos_x,pos_y,pos_z,vel_x,vel_y,vel_z,roll,pitch,yaw,bias_ax,bias_ay,bias_az,bias_gx,bias_gy,bias_gz,nis,innov_x,innov_y,innov_z,cov_pos_x,cov_pos_y,cov_pos_z,cov_yaw,des_speed,des_heading,des_climb,pid_speed,pid_yaw,pid_alt,speed_meas,yaw_meas,climb_meas,fwd_accel,yaw_rate,vert_accel,drift_m,nav_mode,mission_state
0,-0.000003,0.149998,0.000002,-0.000422,24.999699,0.000589,-0.000004,-0.000005,1.570796,0.000000,0.000000,0.000000,0.000000,0.000000,0.000000,0.006250,0.000004,-0.249999,-0.000006,2.400038,2.400038,3.600017,1.000518,0.000000,0.000000,0.000000,0.000000,0.000000,0.000000,0.000000,0.000000,0.000000,0.000000,0.000000,0.000000,0.149998,1,0
10000,-0.000008,0.336822,0.016391,-0.000870,24.999147,0.001085,0.000007,-0.000008,1.570800,0.000001,0.000000,-0.000000,0.000000,0.000000,0.000000,0.006017,0.000011,-0.221084,0.043674,1.714420,1.714420,2.250079,1.001073,0.000000,0.000000,0.000000,0.000000,0.000000,0.000000,0.000000,0.000000,0.000000,0.000000,0.000000,0.000000,0.157912,3,0
20000,-0.000017,0.549170,0.030596,-0.001351,24.998514,0.001872,0.000009,-0.000017,1.570801,0.000002,0.000000,-0.000001,-0.000000,0.000000,-0.000000,0.004046,0.000022,-0.169355,0.052013,1.333616,1.333616,1.636554,1.001655,0.000000,0.000000,0.000000,0.000000,0.000000,0.000000,0.000000,0.000000,0.000000,0.000000,0.000000,0.000000,0.131712,3,0
30000,-0.000028,0.776731,0.039477,-0.001789,24.997986,0.002399,0.000004,-0.000014,1.570789,0.000004,0.000000,-0.000001,-0.000000,0.000000,-0.000000,0.002296,0.000035,-0.123271,0.041332,1.091392,1.091392,1.286065,1.002257,0.000000,0.000000,0.000000,0.000000,0.000000,0.000000,0.000000,0.000000,0.000000,0.000000,0.000000,0.000000,0.100848,3,0
40000,-0.000043,1.024727,0.035799,-0.002286,24.997864,0.002726,-0.000005,-0.000023,1.570794,0.000005,0.000000,-0.000001,-0.000000,0.000000,-0.000000,0.000084,0.000051,-0.012886,-0.020990,0.923811,0.923811,1.059385,1.002869,0.000000,0.000000,0.000000,0.000000,0.000000,0.000000,0.000000,0.000000,0.000000,0.000000,0.000000,0.000000,0.010902,3,0
50000,-0.000061,1.271722,0.040886,-0.002669,24.997604,0.003398,-0.000002,-0.000025,1.570798,0.000006,0.000000,-0.000002,-0.000000,0.000000,-0.000000,0.000233,0.000070,-0.022332,0.033661,0.801036,0.801036,0.900822,1.003484,0.000000,0.000000,0.000000,0.000000,0.000000,0.000000,0.000000,0.000000,0.000000,0.000000,0.000000,0.000000,0.019351,3,0
60000,-0.000081,1.525099,0.042150,-0.003101,24.997662,0.003921,0.000002,-0.000029,1.570789,0.000004,0.000000,-0.000003,-0.000000,0.000000,-0.000000,0.000135,0.000092,0.028858,0.009380,0.707270,0.707270,0.783741,1.004094,0.000000,0.000000,0.000000,0.000000,0.000000,0.000000,0.000000,0.000000,0.000000,0.000000,0.000000,0.000000,0.025457,3,0
70000,-0.000103,1.768162,0.036430,-0.003448,24.997143,0.003967,0.000009,-0.000034,1.570794,0.000009,0.000000,0.000001,-0.000000,0.000000,-0.000000,0.001005,0.000115,-0.065488,-0.049831,0.633370,0.633370,0.693801,1.004688,0.000000,0.000000,0.000000,0.000000,0.000000,0.000000,0.000000,0.000000,0.000000,0.000000,0.000000,0.000000,0.058575,3,0
80000,-0.000127,2.019042,0.037079,-0.003772,24.997038,0.004376,0.000019,-0.000026,1.570782,0.000008,0.000000,0.000001,-0.000000,0.000000,-0.000000,0.000019,0.000141,0.009518,0.005835,0.573673,0.573673,0.622594,1.005260,0.000000,0.000000,0.000000,0.000000,0.000000,0.000000,0.000000,0.000000,0.000000,0.000000,0.000000,0.000000,0.008609,3,0
90000,-0.000154,2.265289,0.037993,-0.004136,24.996548,0.004809,0.000023,-0.000031,1.570778,0.000014,0.000000,-0.000000,-0.000000,0.000000,-0.000000,0.000288,0.000169,-0.042572,0.009205,0.524488,0.524488,0.564865,1.005801,0.000000,0.000000,0.000000,0.000000,0.000000,0.000000,0.000000,0.000000,0.000000,0.000000,0.000000,0.000000,0.038851,3,0
100000,-0.000184,2.519211,0.037780,-0.004574,24.996862,0.005469,0.000023,-0.000032,1.570774,0.000006,0.000000,0.000000,-0.000000,0.000000,-0.000000,0.000371,0.000200,0.049127,-0.003108,0.483304,0.483304,0.517162,1.006301,0.000000,0.000000,0.000000,0.000000,0.000000,0.000000,0.000000,0.000000,0.000000,0.000000,0.000000,0.000000,0.045170,3,0
110000,-0.000216,2.774670,0.038871,-0.004955,24.997459,0.006144,0.000017,-0.000031,1.570768,-0.000008,0.000000,-0.000002,-0.000000,-0.000000,0.000000,0.000859,0.000233,0.073508,0.012966,0.448354,0.448354,0.477121,1.006754,0.000000,0.000000,0.000000,0.000000,0.000000,0.000000,0.000000,0.000000,0.000000,0.000000,0.000000,0.000000,0.068015,3,0
120000,-0.000251,3.031362,0.039781,-0.005369,24.998461,0.006674,0.000022,-0.000021,1.570768,-0.000029,0.000000,-0.000005,-0.000000,-0.000001,0.000000,0.001459,0.000270,0.096346,0.011436,0.418359,0.418359,0.443071,1.007150,0.000000,0.000000,0.000000,0.000000,0.000000,0.000000,0.000000,0.000000,0.000000,0.000000,0.000000,0.000000,0.089628,3,0
130000,-0.000288,3.283859,0.041335,-0.005763,24.998798,0.007318,0.000026,-0.000015,1.570770,-0.000039,0.000000,-0.000010,-0.000000,-0.000001,0.000000,0.000302,0.000308,0.038434,0.021502,0.392369,0.392369,0.413797,1.007481,0.000000,0.000000,0.000000,0.000000,0.000000,0.000000,0.000000,0.000000,0.000000,0.000000,0.000000,0.000000,0.035922,3,0
140000,-0.000329,3.541477,0.041020,-0.006207,25.000238,0.007610,0.000023,0.000001,1.570774,-0.000075,0.000000,-0.000008,-0.000000,-0.000001,0.000000,0.002406,0.000350,0.123876,-0.006050,0.369667,0.369667,0.388393,1.007739,0.000000,0.000000,0.000000,0.000000,0.000000,0.000000,0.000000,0.000000,0.000000,0.000000,0.000000,0.000000,0.116244,3,0
150000,-0.000372,3.798744,0.040987,-0.006602,25.001863,0.007942,0.000030,0.000011,1.570777,-0.000117,0.000001,-0.000008,-0.000000,-0.000002,0.000000,0.002440,0.000395,0.124668,-0.001842,0.349696,0.349696,0.366172,1.007915,0.000000,0.000000,0.000000,0.000000,0.000000,0.000000,0.000000,0.000000,0.000000,0.000000,0.000000,0.000000,0.117403,3,0
160000,-0.000418,4.054624,0.040757,-0.007055,25.003370,0.008544,0.000021,0.000027,1.570782,-0.000157,0.000001,-0.000006,-0.000000,-0.000003,0.000000,0.001772,0.000442,0.105931,-0.005486,0.332021,0.332021,0.346600,1.008002,0.000000,0.000000,0.000000,0.000000,0.000000,0.000000,0.000000,0.000000,0.000000,0.000000,0.000000,0.000000,0.100070,3,0
170000,-0.000466,4.303038,0.041674,-0.007438,25.002689,0.009454,0.000031,0.000019,1.570786,-0.000144,0.000001,-0.000012,-0.000000,-0.000003,0.000000,0.000184,0.000492,-0.030689,0.015031,0.316298,0.316298,0.329260,1.007991,0.000000,0.000000,0.000000,0.000000,0.000000,0.000000,0.000000,0.000000,0.000000,0.000000,0.000000,0.000000,0.029075,3,0
180000,-0.000517,4.556028,0.040375,-0.007789,25.003494,0.009640,0.000039,0.000021,1.570783,-0.000172,0.000001,0.000000,-0.000000,-0.000004,0.000000,0.000661,0.000544,0.058846,-0.026755,0.302247,0.302247,0.313817,1.007875,0.000000,0.000000,0.000000,0.000000,0.000000,0.000000,0.000000,0.000000,0.000000,0.000000,0.000000,0.000000,0.055883,3,0
190000,-0.000569,4.808206,0.039606,-0.008117,25.004225,0.010029,0.000046,0.000019,1.570776,-0.000196,0.000001,0.000010,-0.000000,-0.000004,0.000000,0.000361,0.000598,0.044393,-0.017444,0.289642,0.289643,0.300003,1.007645,0.000000,0.000000,0.000000,0.000000,0.000000,0.000000,0.000000,0.000000,0.000000,0.000000,0.000000,0.000000,0.042254,3,0
200000,-0.000624,5.058752,0.040627,-0.008508,25.004347,0.010767,0.000052,0.000020,1.570764,-0.000202,0.000002,-0.000001,-0.000000,-0.000004,0.000000,0.000077,0.000655,0.010877,0.019131,0.278297,0.278297,0.287598,1.007295,0.000000,0.000000,0.000000,0.000000,0.000000,0.000000,0.000000,0.000000,0.000000,0.000000,0.000000,0.000000,0.010391,3,0
210000,-0.000681,5.313183,0.041810,-0.008807,25.006014,0.011748,0.000050,0.000049,1.570757,-0.000265,0.000002,-0.000016,-0.000000,-0.000006,0.000000,0.001623,0.000712,0.098272,0.023204,0.268056,0.268056,0.276421,1.006816,0.000000,0.000000,0.000000,0.000000,0.000000,0.000000,0.000000,0.000000,0.000000,0.000000,0.000000,0.000000,0.093885,3,0
220000,-0.000739,5.566795,0.041908,-0.009174,25.007507,0.012159,0.000042,0.000065,1.570759,-0.000323,0.000003,-0.000016,-0.000000,-0.000008,0.000000,0.001082,0.000773,0.082370,-0.000526,0.258790,0.258790,0.266321,1.006202,0.000000,0.000000,0.000000,0.000000,0.000000,0.000000,0.000000,0.000000,0.000000,0.000000,0.000000,0.000000,0.078821,3,0
230000,-0.000801,5.820507,0.040876,-0.009611,25.009214,0.012027,0.000034,0.000089,1.570754,-0.000389,0.000003,0.000005,-0.000000,-0.000010,0.000000,0.001330,0.000836,0.087170,-0.027008,0.250388,0.250388,0.257172,1.005446,0.000000,0.000000,0.000000,0.000000,0.000000,0.000000,0.000000,0.000000,0.000000,0.000000,0.000000,0.000000,0.083536,3,0
240000,-0.000863,6.076727,0.040589,-0.009903,25.012352,0.012218,0.000044,0.000124,1.570752,-0.000514,0.000004,0.000013,-0.000000,-0.000014,0.000000,0.003687,0.000900,0.151504,-0.009912,0.242759,0.242759,0.248866,1.004541,0.000000,0.000000,0.000000,0.000000,0.000000,0.000000,0.000000,0.000000,0.000000,0.000000,0.000000,0.000000,0.145377,3,0
250000,-0.000930,6.332889,0.040098,-0.010388,25.015648,0.012389,0.000056,0.000169,1.570752,-0.000651,0.000005,0.000026,-0.000000,-0.000019,0.000000,0.003819,0.000968,0.153678,-0.015375,0.235823,0.235823,0.241314,1.003481,0.000000,0.000000,0.000000,0.000000,0.000000,0.000000,0.000000,0.000000,0.000000,0.000000,0.000000,0.000000,0.147641,3,0
260000,-0.000997,6.589008,0.038835,-0.010724,25.019144,0.011936,0.000067,0.000209,1.570755,-0.000801,0.000006,0.000060,-0.000000,-0.000025,0.000000,0.004099,0.001037,0.155909,-0.035583,0.229509,0.229509,0.234436,1.002258,0.000000,0.000000,0.000000,0.000000,0.000000,0.000000,0.000000,0.000000,0.000000,0.000000,0.000000,0.000000,0.149948,3,0
270000,-0.001068,6.843615,0.038996,-0.011195,25.021944,0.012631,0.000063,0.000257,1.570743,-0.000923,0.000007,0.000059,-0.000000,-0.000030,0.000000,0.002250,0.001110,0.118422,0.000913,0.223760,0.223760,0.228165,1.000869,0.000000,0.000000,0.000000,0.000000,0.000000,0.000000,0.000000,0.000000,0.000000,0.000000,0.000000,0.000000,0.114011,3,0
280000,-0.001142,7.097560,0.039755,-0.011668,25.024412,0.013465,0.000057,0.000301,1.570740,-0.001036,0.000009,0.000040,-0.000000,-0.000034,0.000000,0.001728,0.001185,0.102334,0.016960,0.218523,0.218523,0.222443,0.999307,0.000000,0.000000,0.000000,0.000000,0.000000,0.000000,0.000000,0.000000,0.000000,0.000000,0.000000,0.000000,0.098614,3,0
290000,-0.001218,7.354441,0.039283,-0.012027,25.029146,0.013632,0.000050,0.000364,1.570732,-0.001255,0.000010,0.000060,-0.000000,-0.000043,0.000000,0.005625,0.001263,0.186306,-0.016932,0.213752,0.213752,0.217219,0.997567,0.000000,0.000000,0.000000,0.000000,0.000000,0.000000,0.000000,0.000000,0.000000,0.000000,0.000000,0.000000,0.179673,3,0
300000,-0.001296,7.609204,0.037980,-0.012462,25.032421,0.012931,0.000042,0.000415,1.570721,-0.001416,0.000012,0.000111,-0.000000,-0.000050,0.000000,0.002909,0.001343,0.128168,-0.040731,0.209408,0.209408,0.212446,0.995645,0.000000,0.000000,0.000000,0.000000,0.000000,0.000000,0.000000,0.000000,0.000000,0.000000,0.000000,0.000000,0.123702,3,0
310000,-0.001376,7.863360,0.039556,-0.012862,25.035511,0.014343,0.000037,0.000471,1.570706,-0.001566,0.000014,0.000056,-0.000000,-0.000057,0.000000,0.002295,0.001425,0.111917,0.041624,0.205454,0.205454,0.208087,0.993536,0.000000,0.000000,0.000000,0.000000,0.000000,0.000000,0.000000,0.000000,0.000000,0.000000,0.000000,0.000000,0.108094,3,0
320000,-0.001457,8.120298,0.041011,-0.013167,25.041075,0.015727,0.000037,0.000555,1.570693,-0.001843,0.000016,0.000002,-0.000001,-0.000070,0.000000,0.006405,0.001508,0.195672,0.038439,0.201859,0.201859,0.204105,0.991237,0.000000,0.000000,0.000000,0.000000,0.000000,0.000000,0.000000,0.000000,0.000000,0.000000,0.000000,0.000000,0.189094,3,0
330000,-0.001540,8.372626,0.040478,-0.013494,25.042753,0.015538,0.000031,0.000579,1.570679,-0.001930,0.000018,0.000033,-0.000001,-0.000074,0.000000,0.000611,0.001593,0.057952,-0.020780,0.198595,0.198595,0.200469,0.988743,0.000000,0.000000,0.000000,0.000000,0.000000,0.000000,0.000000,0.000000,0.000000,0.000000,0.000000,0.000000,0.056055,3,0
340000,-0.001625,8.627733,0.039645,-0.013952,25.046949,0.015313,0.000034,0.000651,1.570668,-0.002157,0.000021,0.000080,-0.000001,-0.000085,0.000000,0.003471,0.001680,0.143549,-0.030276,0.195636,0.195636,0.197151,0.986053,0.000000,0.000000,0.000000,0.000000,0.000000,0.000000,0.000000,0.000000,0.000000,0.000000,0.000000,0.000000,0.138878,3,0
350000,-0.001711,8.881646,0.040936,-0.014230,25.050249,0.016749,0.000041,0.000705,1.570653,-0.002335,0.000024,0.000022,-0.000001,-0.000094,0.000000,0.002048,0.001768,0.107068,0.035060,0.192960,0.192960,0.194125,0.983164,0.000000,0.000000,0.000000,0.000000,0.000000,0.000000,0.000000,0.000000,0.000000,0.000000,0.000000,0.000000,0.103638,3,0
360000,-0.001798,9.135691,0.040403,-0.014535,25.053699,0.016400,0.000038,0.000769,1.570656,-0.002531,0.000027,0.000061,-0.000001,-0.000104,0.000000,0.002087,0.001857,0.111548,-0.022080,0.190545,0.190545,0.191370,0.980073,0.000000,0.000000,0.000000,0.000000,0.000000,0.000000,0.000000,0.000000,0.000000,0.000000,0.000000,0.000000,0.108020,3,0
370000,-0.001887,9.391113,0.040168,-0.014904,25.058687,0.016687,0.000047,0.000870,1.570648,-0.002818,0.000031,0.000084,-0.000001,-0.000120,0.000000,0.003939,0.001948,0.155653,-0.012871,0.188373,0.188373,0.188863,0.976779,0.000000,0.000000,0.000000,0.000000,0.000000,0.000000,0.000000,0.000000,0.000000,0.000000,0.000000,0.000000,0.150778,3,0
380000,-0.001977,9.645392,0.039919,-0.015292,25.062634,0.016812,0.000051,0.000945,1.570639,-0.003048,0.000034,0.000110,-0.000002,-0.000132,0.000001,0.002311,0.002040,0.118848,-0.013540,0.186426,0.186426,0.186586,0.973282,0.000000,0.000000,0.000000,0.000000,0.000000,0.000000,0.000000,0.000000,0.000000,0.000000,0.000000,0.000000,0.115172,3,0
390000,-0.002067,9.899804,0.041466,-0.015543,25.066833,0.018540,0.000047,0.001033,1.570633,-0.003297,0.000039,0.000020,-0.000002,-0.000146,0.000001,0.002766,0.002133,0.122954,0.044698,0.184689,0.184689,0.184522,0.969581,0.000000,0.000000,0.000000,0.000000,0.000000,0.000000,0.000000,0.000000,0.000000,0.000000,0.000000,0.000000,0.119187,3,0
400000,-0.002159,10.154954,0.041828,-0.015916,25.071981,0.019111,0.000059,0.001141,1.570624,-0.003607,0.000043,0.000008,-0.000002,-0.000165,0.000001,0.003488,0.002227,0.146806,0.005703,0.183147,0.183147,0.182655,0.965675,0.000000,0.000000,0.000000,0.000000,0.000000,0.000000,0.000000,0.000000,0.000000,0.000000,0.000000,0.000000,0.142341,3,0
410000,-0.002253,10.411425,0.043341,-0.016289,25.078857,0.020973,0.000061,0.001276,1.570618,-0.004027,0.000049,-0.000088,-0.000002,-0.000190,0.000001,0.006130,0.002323,0.189788,0.043656,0.181786,0.181786,0.180971,0.961566,0.000000,0.000000,0.000000,0.000000,0.000000,0.000000,0.000000,0.000000,0.000000,0.000000,0.000000,0.000000,0.184052,3,0
420000,-0.002347,10.664392,0.044561,-0.016670,25.081455,0.022442,0.000073,0.001341,1.570617,-0.004194,0.000054,-0.000165,-0.000003,-0.000200,0.000001,0.001032,0.002420,0.072403,0.033664,0.180594,0.180594,0.179456,0.957255,0.000000,0.000000,0.000000,0.000000,0.000000,0.000000,0.000000,0.000000,0.000000,0.000000,0.000000,0.000000,0.070263,3,0
430000,-0.002442,10.919916,0.045416,-0.016886,25.087421,0.023471,0.000080,0.001470,1.570614,-0.004571,0.000060,-0.000216,-0.000003,-0.000224,0.000001,0.004076,0.002517,0.157350,0.021132,0.179560,0.179560,0.178097,0.952743,0.000000,0.000000,0.000000,0.000000,0.000000,0.000000,0.000000,0.000000,0.000000,0.000000,0.000000,0.000000,0.152660,3,0
440000,-0.002536,11.176154,0.045773,-0.017129,25.094362,0.024204,0.000076,0.001618,1.570604,-0.005020,0.000067,-0.000226,-0.000004,-0.000253,0.000001,0.005247,0.002614,0.180070,0.003956,0.178672,0.178673,0.176883,0.948033,0.000000,0.000000,0.000000,0.000000,0.000000,0.000000,0.000000,0.000000,0.000000,0.000000,0.000000,0.000000,0.174726,3,0
450000,-0.002631,11.431911,0.045315,-0.017376,25.100748,0.023850,0.000078,0.001765,1.570588,-0.005441,0.000074,-0.000164,-0.000004,-0.000281,0.000001,0.004355,0.002711,0.162310,-0.024073,0.177921,0.177922,0.175803,0.943126,0.000000,0.000000,0.000000,0.000000,0.000000,0.000000,0.000000,0.000000,0.000000,0.000000,0.000000,0.000000,0.157518,3,0
460000,-0.002726,11.685444,0.046032,-0.017752,25.104275,0.024941,0.000090,0.001848,1.570592,-0.005670,0.000081,-0.000207,-0.000005,-0.000297,0.000001,0.001224,0.002809,0.085398,0.016260,0.177297,0.177298,0.174847,0.938027,0.000000,0.000000,0.000000,0.000000,0.000000,0.000000,0.000000,0.000000,0.000000,0.000000,0.000000,0.000000,0.082919,3,0
470000,-0.002821,11.940318,0.044595,-0.017954,25.109528,0.023242,0.000087,0.001982,1.570585,-0.006032,0.000089,-0.000045,-0.000005,-0.000322,0.000001,0.003286,0.002907,0.130015,-0.058321,0.176792,0.176792,0.174006,0.932739,0.000000,0.000000,0.000000,0.000000,0.000000,0.000000,0.000000,0.000000,0.000000,0.000000,0.000000,0.000000,0.126216,3,0
480000,-0.002916,12.197678,0.044343,-0.018179,25.118383,0.023090,0.000099,0.002186,1.570576,-0.006645,0.000098,0.000004,-0.000006,-0.000366,0.000002,0.007389,0.003004,0.213029,-0.016908,0.176396,0.176396,0.173271,0.927266,0.000000,0.000000,0.000000,0.000000,0.000000,0.000000,0.000000,0.000000,0.000000,0.000000,0.000000,0.000000,0.206787,3,0
490000,-0.003011,12.455728,0.045013,-0.018488,25.128267,0.024134,0.000102,0.002421,1.570566,-0.007342,0.000107,-0.000041,-0.000006,-0.000416,0.000002,0.008888,0.003102,0.233886,0.015084,0.176102,0.176102,0.172634,0.921612,0.000000,0.000000,0.000000,0.000000,0.000000,0.000000,0.000000,0.000000,0.000000,0.000000,0.000000,0.000000,0.227041,3,0
500000,-0.003107,12.711546,0.044233,-0.018826,25.135000,0.023156,0.000106,0.002597,1.570558,-0.007817,0.000117,0.000069,-0.000007,-0.000452,0.000002,0.004078,0.003201,0.154647,-0.035766,0.175903,0.175903,0.172087,0.915783,0.000000,0.000000,0.000000,0.000000,0.000000,0.000000,0.000000,0.000000,0.000000,0.000000,0.000000,0.000000,0.150145,3,0
510000,-0.003203,12.969250,0.045071,-0.019075,25.144485,0.024620,0.000101,0.002845,1.570544,-0.008505,0.000127,0.000002,-0.000008,-0.000504,0.000002,0.007679,0.003299,0.216824,0.020988,0.175791,0.175791,0.171622,0.909784,0.000000,0.000000,0.000000,0.000000,0.000000,0.000000,0.000000,0.000000,0.000000,0.000000,0.000000,0.000000,0.210496,3,0
520000,-0.003298,13.224739,0.045555,-0.019319,25.150837,0.025353,0.000102,0.003018,1.570534,-0.008956,0.000138,-0.000025,-0.000009,-0.000539,0.000002,0.003091,0.003397,0.137934,0.008154,0.175760,0.175760,0.171234,0.903620,0.000000,0.000000,0.000000,0.000000,0.000000,0.000000,0.000000,0.000000,0.000000,0.000000,0.000000,0.000000,0.133934,3,0
530000,-0.003391,13.480376,0.046409,-0.019467,25.157379,0.026798,0.000116,0.003196,1.570518,-0.009430,0.000150,-0.000096,-0.000010,-0.000577,0.000002,0.003280,0.003494,0.140807,0.020855,0.175804,0.175804,0.170914,0.897298,0.000000,0.000000,0.000000,0.000000,0.000000,0.000000,0.000000,0.000000,0.000000,0.000000,0.000000,0.000000,0.136724,3,0
540000,-0.003485,13.736161,0.045235,-0.019743,25.164080,0.025310,0.000130,0.003380,1.570510,-0.009926,0.000163,0.000082,-0.000011,-0.000617,0.000003,0.003754,0.003591,0.143531,-0.050879,0.175916,0.175916,0.170658,0.890824,0.000000,0.000000,0.000000,0.000000,0.000000,0.000000,0.000000,0.000000,0.000000,0.000000,0.000000,0.000000,0.139366,3,0
550000,-0.003579,13.993844,0.046510,-0.019999,25.173744,0.027042,0.000146,0.003653,1.570496,-0.010658,0.000176,-0.000047,-0.000012,-0.000678,0.000003,0.007058,0.003687,0.205741,0.035849,0.176090,0.176091,0.170460,0.884205,0.000000,0.000000,0.000000,0.000000,0.000000,0.000000,0.000000,0.000000,0.000000,0.000000,0.000000,0.000000,0.199734,3,0
560000,-0.003671,14.253402,0.047866,-0.020152,25.186344,0.029039,0.000161,0.004001,1.570493,-0.011630,0.000189,-0.000188,-0.000013,-0.000760,0.000003,0.011685,0.003782,0.266025,0.038089,0.176323,0.176323,0.170314,0.877448,0.000000,0.000000,0.000000,0.000000,0.000000,0.000000,0.000000,0.000000,0.000000,0.000000,0.000000,0.000000,0.258233,3,0
570000,-0.003762,14.508965,0.047421,-0.020298,25.192520,0.028341,0.000166,0.004185,1.570490,-0.012100,0.000204,-0.000090,-0.000014,-0.000801,0.000003,0.002665,0.003876,0.125615,-0.026070,0.176607,0.176608,0.170214,0.870560,0.000000,0.000000,0.000000,0.000000,0.000000,0.000000,0.000000,0.000000,0.000000,0.000000,0.000000,0.000000,0.121976,3,0
580000,-0.003851,14.767612,0.046468,-0.020425,25.203707,0.027229,0.000180,0.004501,1.570487,-0.012975,0.000219,0.000081,-0.000016,-0.000878,0.000004,0.008708,0.003968,0.227808,-0.043815,0.176939,0.176940,0.170157,0.863548,0.000000,0.000000,0.000000,0.000000,0.000000,0.000000,0.000000,0.000000,0.000000,0.000000,0.000000,0.000000,0.221124,3,0
590000,-0.003939,15.025789,0.047023,-0.020569,25.214052,0.028132,0.000178,0.004800,1.570469,-0.013792,0.000235,0.000041,-0.000017,-0.000951,0.000004,0.006988,0.004059,0.207595,0.009756,0.177314,0.177314,0.170138,0.856421,0.000000,0.000000,0.000000,0.000000,0.000000,0.000000,0.000000,0.000000,0.000000,0.000000,0.000000,0.000000,0.201498,3,0
600000,-0.004026,15.284088,0.047940,-0.020809,25.224463,0.029588,0.000189,0.005106,1.570462,-0.014628,0.000252,-0.000050,-0.000019,-0.001028,0.000004,0.007063,0.004149,0.207742,0.022240,0.177727,0.177728,0.170152,0.849186,0.000000,0.000000,0.000000,0.000000,0.000000,0.000000,0.000000,0.000000,0.000000,0.000000,0.000000,0.000000,0.201628,3,0
610000,-0.004112,15.539556,0.047942,-0.020966,25.230268,0.029630,0.000197,0.005275,1.570454,-0.015074,0.000269,-0.000006,-0.000020,-0.001070,0.000004,0.001920,0.004237,0.108369,-0.010554,0.178175,0.178175,0.170195,0.841851,0.000000,0.000000,0.000000,0.000000,0.000000,0.000000,0.000000,0.000000,0.000000,0.000000,0.000000,0.000000,0.105232,3,0
620000,-0.004196,15.798136,0.047083,-0.021129,25.241142,0.028253,0.000198,0.005609,1.570450,-0.015960,0.000287,0.000169,-0.000022,-0.001154,0.000005,0.007449,0.004325,0.210664,-0.040826,0.178652,0.178653,0.170264,0.834424,0.000000,0.000000,0.000000,0.000000,0.000000,0.000000,0.000000,0.000000,0.000000,0.000000,0.000000,0.000000,0.204435,3,0
630000,-0.004281,16.056244,0.047452,-0.021379,25.251284,0.028736,0.000204,0.005930,1.570444,-0.016778,0.000306,0.000156,-0.000024,-0.001234,0.000005,0.005874,0.004412,0.190521,0.002922,0.179157,0.179158,0.170355,0.826913,0.000000,0.000000,0.000000,0.000000,0.000000,0.000000,0.000000,0.000000,0.000000,0.000000,0.000000,0.000000,0.184881,3,0
640000,-0.004363,16.315664,0.048608,-0.021492,25.263369,0.030397,0.000214,0.006321,1.570444,-0.017787,0.000326,0.000018,-0.000026,-0.001333,0.000005,0.008743,0.004498,0.230497,0.030413,0.179685,0.179685,0.170465,0.819326,0.000000,0.000000,0.000000,0.000000,0.000000,0.000000,0.000000,0.000000,0.000000,0.000000,0.000000,0.000000,0.223637,3,0
650000,-0.004444,16.572208,0.049637,-0.021626,25.270550,0.031796,0.000227,0.006552,1.570434,-0.018368,0.000346,-0.000098,-0.000028,-0.001392,0.000006,0.002839,0.004582,0.129986,0.025400,0.180232,0.180233,0.170591,0.811672,0.000000,0.000000,0.000000,0.000000,0.000000,0.000000,0.000000,0.000000,0.000000,0.000000,0.000000,0.000000,0.126160,3,0
660000,-0.004524,16.833084,0.049680,-0.021820,25.285088,0.032009,0.000246,0.007042,1.570428,-0.019601,0.000367,-0.000053,-0.000030,-0.001518,0.000006,0.011886,0.004664,0.270947,-0.009889,0.180796,0.180797,0.170729,0.803958,0.000000,0.000000,0.000000,0.000000,0.000000,0.000000,0.000000,0.000000,0.000000,0.000000,0.000000,0.000000,0.262822,3,0
670000,-0.004602,17.089849,0.050137,-0.021872,25.292555,0.032510,0.000259,0.007292,1.570410,-0.020200,0.000389,-0.000076,-0.000032,-0.001581,0.000006,0.002705,0.004745,0.129198,0.004678,0.181375,0.181375,0.170877,0.796193,0.000000,0.000000,0.000000,0.000000,0.000000,0.000000,0.000000,0.000000,0.000000,0.000000,0.000000,0.000000,0.125376,3,0
680000,-0.004678,17.347956,0.050812,-0.022024,25.302197,0.033519,0.000277,0.007608,1.570394,-0.021004,0.000412,-0.000135,-0.000035,-0.001666,0.000007,0.004728,0.004824,0.170542,0.012108,0.181964,0.181964,0.171033,0.788384,0.000000,0.000000,0.000000,0.000000,0.000000,0.000000,0.000000,0.000000,0.000000,0.000000,0.000000,0.000000,0.165435,3,0
690000,-0.004752,17.606785,0.051165,-0.022059,25.312912,0.033919,0.000297,0.007972,1.570386,-0.021919,0.000435,-0.000138,-0.000037,-0.001765,0.000007,0.005877,0.004901,0.190645,0.000481,0.182562,0.182562,0.171193,0.780540,0.000000,0.000000,0.000000,0.000000,0.000000,0.000000,0.000000,0.000000,0.000000,0.000000,0.000000,0.000000,0.184906,3,0
700000,-0.004825,17.863907,0.051981,-0.022257,25.320566,0.035281,0.000311,0.008231,1.570378,-0.022555,0.000459,-0.000222,-0.000040,-0.001835,0.000008,0.002799,0.004977,0.130497,0.016462,0.183165,0.183166,0.171357,0.772668,0.000000,0.000000,0.000000,0.000000,0.000000,0.000000,0.000000,0.000000,0.000000,0.000000,0.000000,0.000000,0.126604,3,0
710000,-0.004897,18.124199,0.053265,-0.022395,25.333685,0.037276,0.000328,0.008704,1.570359,-0.023699,0.000484,-0.000390,-0.000043,-0.001964,0.000008,0.008804,0.005052,0.231119,0.032352,0.183773,0.183774,0.171522,0.764777,0.000000,0.000000,0.000000,0.000000,0.000000,0.000000,0.000000,0.000000,0.000000,0.000000,0.000000,0.000000,0.224094,3,0
720000,-0.004968,18.380922,0.051854,-0.022507,25.340511,0.035087,0.000343,0.008948,1.570357,-0.024251,0.000510,-0.000063,-0.000046,-0.002027,0.000008,0.002586,0.005124,0.109846,-0.062484,0.184383,0.184384,0.171685,0.756872,0.000000,0.000000,0.000000,0.000000,0.000000,0.000000,0.000000,0.000000,0.000000,0.000000,0.000000,0.000000,0.106586,3,0
730000,-0.005036,18.639000,0.050352,-0.022527,25.349583,0.032721,0.000357,0.009270,1.570353,-0.025023,0.000536,0.000281,-0.000048,-0.002116,0.000009,0.004380,0.005196,0.151239,-0.064841,0.184993,0.184994,0.171846,0.748963,0.000000,0.000000,0.000000,0.000000,0.000000,0.000000,0.000000,0.000000,0.000000,0.000000,0.000000,0.000000,0.146662,3,0
740000,-0.005103,18.899652,0.049457,-0.022682,25.362997,0.031377,0.000372,0.009763,1.570346,-0.026218,0.000564,0.000512,-0.000052,-0.002257,0.000009,0.008921,0.005266,0.231012,-0.042831,0.185602,0.185602,0.172003,0.741055,0.000000,0.000000,0.000000,0.000000,0.000000,0.000000,0.000000,0.000000,0.000000,0.000000,0.000000,0.000000,0.223924,3,0
750000,-0.005168,19.157923,0.048222,-0.022749,25.372147,0.029482,0.000388,0.010102,1.570346,-0.027000,0.000592,0.000809,-0.000055,-0.002351,0.000010,0.004070,0.005333,0.149134,-0.054110,0.186207,0.186207,0.172154,0.733157,0.000000,0.000000,0.000000,0.000000,0.000000,0.000000,0.000000,0.000000,0.000000,0.000000,0.000000,0.000000,0.144597,3,0
760000,-0.005232,19.418158,0.047900,-0.022884,25.384604,0.029160,0.000393,0.010581,1.570344,-0.028109,0.000620,0.000929,-0.000058,-0.002487,0.000010,0.007123,0.005400,0.208836,-0.021707,0.186807,0.186808,0.172299,0.725274,0.000000,0.000000,0.000000,0.000000,0.000000,0.000000,0.000000,0.000000,0.000000,0.000000,0.000000,0.000000,0.202401,3,0
770000,-0.005295,19.677237,0.048027,-0.023019,25.394934,0.029310,0.000413,0.010982,1.570339,-0.029008,0.000649,0.000961,-0.000062,-0.002599,0.000011,0.004521,0.005465,0.167143,-0.005861,0.187401,0.187402,0.172435,0.717413,0.000000,0.000000,0.000000,0.000000,0.000000,0.000000,0.000000,0.000000,0.000000,0.000000,0.000000,0.000000,0.162009,3,0
780000,-0.005355,19.937035,0.049418,-0.023088,25.406330,0.031396,0.000433,0.011419,1.570332,-0.030021,0.000679,0.000741,-0.000066,-0.002726,0.000011,0.005840,0.005529,0.186266,0.038028,0.187988,0.187988,0.172563,0.709581,0.000000,0.000000,0.000000,0.000000,0.000000,0.000000,0.000000,0.000000,0.000000,0.000000,0.000000,0.000000,0.180509,3,0
790000,-0.005414,20.195044,0.050563,-0.023133,25.414442,0.032937,0.000449,0.011739,1.570332,-0.030709,0.000710,0.000571,-0.000070,-0.002815,0.000011,0.002667,0.005590,0.125143,0.028766,0.188566,0.188567,0.172680,0.701782,0.000000,0.000000,0.000000,0.000000,0.000000,0.000000,0.000000,0.000000,0.000000,0.000000,0.000000,0.000000,0.121331,3,0
800000,-0.005471,20.453157,0.050757,-0.023258,25.422773,0.033219,0.000462,0.012065,1.570333,-0.031408,0.000741,0.000599,-0.000074,-0.002906,0.000012,0.002550,0.005649,0.125477,-0.004847,0.189135,0.189136,0.172786,0.694025,0.000000,0.000000,0.000000,0.000000,0.000000,0.000000,0.000000,0.000000,0.000000,0.000000,0.000000,0.000000,0.121644,3,0
810000,-0.005528,20.711374,0.050083,-0.023337,25.431200,0.032229,0.000488,0.012393,1.570320,-0.032115,0.000773,0.000809,-0.000078,-0.003000,0.000012,0.002755,0.005708,0.125706,-0.035091,0.189694,0.189695,0.172881,0.686312,0.000000,0.000000,0.000000,0.000000,0.000000,0.000000,0.000000,0.000000,0.000000,0.000000,0.000000,0.000000,0.121856,3,0
820000,-0.005583,20.974104,0.049309,-0.023430,25.447462,0.030951,0.000505,0.013062,1.570304,-0.033620,0.000806,0.001038,-0.000082,-0.003203,0.000013,0.011572,0.005765,0.264980,-0.038156,0.190242,0.190243,0.172964,0.678651,0.000000,0.000000,0.000000,0.000000,0.000000,0.000000,0.000000,0.000000,0.000000,0.000000,0.000000,0.000000,0.256639,3,0
830000,-0.005636,21.231819,0.048530,-0.023462,25.454540,0.029803,0.000529,0.013340,1.570302,-0.034203,0.000839,0.001271,-0.000087,-0.003283,0.000013,0.001900,0.005821,0.101484,-0.037896,0.190779,0.190780,0.173034,0.671046,0.000000,0.000000,0.000000,0.000000,0.000000,0.000000,0.000000,0.000000,0.000000,0.000000,0.000000,0.000000,0.098419,3,0
840000,-0.005687,21.490906,0.047297,-0.023456,25.464130,0.027991,0.000555,0.013736,1.570299,-0.035025,0.000873,0.001601,-0.000091,-0.003397,0.000014,0.003712,0.005874,0.141880,-0.053195,0.191304,0.191304,0.173092,0.663501,0.000000,0.000000,0.000000,0.000000,0.000000,0.000000,0.000000,0.000000,0.000000,0.000000,0.000000,0.000000,0.137474,3,0
850000,-0.005736,21.751980,0.048056,-0.023460,25.476976,0.029267,0.000574,0.014271,1.570289,-0.036198,0.000908,0.001495,-0.000096,-0.003563,0.000015,0.006552,0.005925,0.200762,0.016431,0.191816,0.191816,0.173135,0.656021,0.000000,0.000000,0.000000,0.000000,0.000000,0.000000,0.000000,0.000000,0.000000,0.000000,0.000000,0.000000,0.194428,3,0
860000,-0.005782,22.013748,0.048565,-0.023406,25.490845,0.029883,0.000588,0.014878,1.570282,-0.037481,0.000943,0.001445,-0.000101,-0.003748,0.000015,0.007672,0.005973,0.217863,0.007398,0.192315,0.192316,0.173165,0.648610,0.000000,0.000000,0.000000,0.000000,0.000000,0.000000,0.000000,0.000000,0.000000,0.000000,0.000000,0.000000,0.210960,3,0
870000,-0.005827,22.272369,0.047329,-0.023442,25.499155,0.028099,0.000612,0.015225,1.570271,-0.038165,0.000979,0.001788,-0.000106,-0.003848,0.000016,0.002599,0.006019,0.114985,-0.053322,0.192801,0.192802,0.173181,0.641273,0.000000,0.000000,0.000000,0.000000,0.000000,0.000000,0.000000,0.000000,0.000000,0.000000,0.000000,0.000000,0.111442,3,0
880000,-0.005871,22.534275,0.045878,-0.023516,25.513016,0.025808,0.000628,0.015847,1.570267,-0.039447,0.001015,0.002178,-0.000111,-0.004039,0.000016,0.007983,0.006065,0.214102,-0.060048,0.193274,0.193275,0.173183,0.634013,0.000000,0.000000,0.000000,0.000000,0.000000,0.000000,0.000000,0.000000,0.000000,0.000000,0.000000,0.000000,0.207288,3,0
890000,-0.005913,22.794294,0.044885,-0.023508,25.523422,0.024590,0.000645,0.016291,1.570252,-0.040357,0.001052,0.002464,-0.000117,-0.004176,0.000017,0.003983,0.006109,0.150846,-0.043519,0.193733,0.193734,0.173171,0.626833,0.000000,0.000000,0.000000,0.000000,0.000000,0.000000,0.000000,0.000000,0.000000,0.000000,0.000000,0.000000,0.146095,3,0
900000,-0.005952,23.056305,0.044810,-0.023492,25.537268,0.024511,0.000670,0.016912,1.570244,-0.041625,0.001089,0.002536,-0.000122,-0.004370,0.000018,0.007057,0.006151,0.208784,-0.011229,0.194179,0.194180,0.173144,0.619737,0.000000,0.000000,0.000000,0.000000,0.000000,0.000000,0.000000,0.000000,0.000000,0.000000,0.000000,0.000000,0.202114,3,0
910000,-0.005989,23.318993,0.045879,-0.023478,25.552158,0.026217,0.000680,0.017586,1.570235,-0.043000,0.001126,0.002340,-0.000128,-0.004584,0.000019,0.008296,0.006190,0.224939,0.028432,0.194611,0.194612,0.173103,0.612727,0.000000,0.000000,0.000000,0.000000,0.000000,0.000000,0.000000,0.000000,0.000000,0.000000,0.000000,0.000000,0.217726,3,0
920000,-0.006025,23.577826,0.044554,-0.023431,25.559978,0.024465,0.000696,0.017922,1.570222,-0.043624,0.001165,0.002715,-0.000134,-0.004683,0.000019,0.002152,0.006227,0.101255,-0.055166,0.195030,0.195031,0.173048,0.605806,0.000000,0.000000,0.000000,0.000000,0.000000,0.000000,0.000000,0.000000,0.000000,0.000000,0.000000,0.000000,0.098148,3,0
930000,-0.006060,23.838671,0.044754,-0.023454,25.571224,0.024951,0.000713,0.018427,1.570206,-0.044617,0.001203,0.002724,-0.000140,-0.004842,0.000020,0.004155,0.006264,0.160404,-0.001716,0.195436,0.195436,0.172979,0.598976,0.000000,0.000000,0.000000,0.000000,0.000000,0.000000,0.000000,0.000000,0.000000,0.000000,0.000000,0.000000,0.155298,3,0
940000,-0.006093,24.100206,0.043907,-0.023446,25.583582,0.023755,0.000741,0.018994,1.570195,-0.045724,0.001242,0.002986,-0.000147,-0.005023,0.000020,0.005335,0.006298,0.177752,-0.038108,0.195828,0.195829,0.172896,0.592241,0.000000,0.000000,0.000000,0.000000,0.000000,0.000000,0.000000,0.000000,0.000000,0.000000,0.000000,0.000000,0.172057,3,0
950000,-0.006124,24.359171,0.044460,-0.023496,25.591167,0.024655,0.000771,0.019333,1.570179,-0.046318,0.001282,0.002908,-0.000153,-0.005121,0.000021,0.001480,0.006331,0.095003,0.010806,0.196208,0.196208,0.172800,0.585601,0.000000,0.000000,0.000000,0.000000,0.000000,0.000000,0.000000,0.000000,0.000000,0.000000,0.000000,0.000000,0.092100,3,0
960000,-0.006154,24.621452,0.045220,-0.023467,25.604544,0.025959,0.000800,0.019973,1.570173,-0.047537,0.001322,0.002778,-0.000160,-0.005326,0.000022,0.006111,0.006362,0.193783,0.017701,0.196575,0.196575,0.172690,0.579059,0.000000,0.000000,0.000000,0.000000,0.000000,0.000000,0.000000,0.000000,0.000000,0.000000,0.000000,0.000000,0.187536,3,0
970000,-0.006182,24.881792,0.046513,-0.023497,25.614449,0.027760,0.000828,0.020428,1.570171,-0.048359,0.001362,0.002518,-0.000167,-0.005466,0.000022,0.002946,0.006392,0.130154,0.035891,0.196929,0.196929,0.172566,0.572616,0.000000,0.000000,0.000000,0.000000,0.000000,0.000000,0.000000,0.000000,0.000000,0.000000,0.000000,0.000000,0.126035,3,0
980000,-0.006209,25.142826,0.047767,-0.023516,25.625477,0.029560,0.000850,0.020934,1.570152,-0.049299,0.001402,0.002269,-0.000174,-0.005629,0.000023,0.003724,0.006421,0.148022,0.033871,0.197271,0.197271,0.172430,0.566273,0.000000,0.000000,0.000000,0.000000,0.000000,0.000000,0.000000,0.000000,0.000000,0.000000,0.000000,0.000000,0.143291,3,0
990000,-0.006236,25.401272,0.048314,-0.023520,25.631714,0.030322,0.000870,0.021190,1.570141,-0.049718,0.001443,0.002204,-0.000182,-0.005703,0.000023,0.000716,0.006448,0.065786,0.008671,0.197601,0.197601,0.172281,0.560033,0.000000,0.000000,0.000000,0.000000,0.000000,0.000000,0.000000,0.000000,0.000000,0.000000,0.000000,0.000000,0.063924,3,0
1000000,-0.006259,25.662403,0.049595,-0.023377,25.642586,0.032275,0.000886,0.021720,1.570141,-0.050647,0.001484,0.001951,-0.000189,-0.005868,0.000024,0.003592,0.006473,0.145220,0.033944,0.197919,0.197919,0.172119,0.553894,0.000000,0.000000,0.000000,0.000000,0.000000,0.000000,0.000000,0.000000,0.000000,0.000000,0.000000,0.000000,0.140570,3,0
1010000,-0.006282,25.924875,0.048224,-0.023323,25.655767,0.030465,0.000906,0.022376,1.570135,-0.051819,0.001526,0.002385,-0.000196,-0.006081,0.000025,0.005922,0.006496,0.182161,-0.059202,0.198227,0.198226,0.171946,0.547860,0.000000,0.000000,0.000000,0.000000,0.000000,0.000000,0.000000,0.000000,0.000000,0.000000,0.000000,0.000000,0.176254,3,0
1020000,-0.006304,26.184061,0.046905,-0.023294,25.662962,0.028662,0.000938,0.022692,1.570132,-0.052327,0.001568,0.002809,-0.000204,-0.006175,0.000025,0.001525,0.006519,0.078588,-0.056846,0.198523,0.198523,0.171761,0.541930,0.000000,0.000000,0.000000,0.000000,0.000000,0.000000,0.000000,0.000000,0.000000,0.000000,0.000000,0.000000,0.076248,3,0
1030000,-0.006323,26.447905,0.048091,-0.023221,25.678261,0.030299,0.000970,0.023467,1.570118,-0.053730,0.001610,0.002565,-0.000212,-0.006437,0.000026,0.007749,0.006541,0.216909,0.031463,0.198810,0.198809,0.171564,0.536104,0.000000,0.000000,0.000000,0.000000,0.000000,0.000000,0.000000,0.000000,0.000000,0.000000,0.000000,0.000000,0.209818,3,0
1040000,-0.006341,26.706450,0.048936,-0.023157,25.683975,0.031602,0.000997,0.023705,1.570110,-0.054069,0.001652,0.002420,-0.000220,-0.006501,0.000027,0.000505,0.006559,0.052309,0.018805,0.199086,0.199086,0.171357,0.530384,0.000000,0.000000,0.000000,0.000000,0.000000,0.000000,0.000000,0.000000,0.000000,0.000000,0.000000,0.000000,0.050969,3,0
1050000,-0.006356,26.967031,0.049419,-0.023009,25.693310,0.032221,0.001020,0.024156,1.570094,-0.054796,0.001695,0.002372,-0.000228,-0.006641,0.000027,0.002025,0.006575,0.111767,0.005815,0.199353,0.199352,0.171139,0.524769,0.000000,0.000000,0.000000,0.000000,0.000000,0.000000,0.000000,0.000000,0.000000,0.000000,0.000000,0.000000,0.108240,3,0
1060000,-0.006370,27.226976,0.048579,-0.022891,25.701365,0.030868,0.001042,0.024542,1.570090,-0.055381,0.001738,0.002685,-0.000236,-0.006756,0.000028,0.001571,0.006589,0.089636,-0.040826,0.199611,0.199610,0.170911,0.519259,0.000000,0.000000,0.000000,0.000000,0.000000,0.000000,0.000000,0.000000,0.000000,0.000000,0.000000,0.000000,0.086887,3,0
1070000,-0.006383,27.490261,0.048734,-0.022894,25.715197,0.031020,0.001062,0.025269,1.570070,-0.056606,0.001781,0.002720,-0.000245,-0.006999,0.000029,0.005672,0.006603,0.187433,-0.005359,0.199861,0.199859,0.170673,0.513855,0.000000,0.000000,0.000000,0.000000,0.000000,0.000000,0.000000,0.000000,0.000000,0.000000,0.000000,0.000000,0.181303,3,0
1080000,-0.006396,27.750212,0.048600,-0.022890,25.723047,0.030948,0.001082,0.025640,1.570056,-0.057151,0.001824,0.002840,-0.000253,-0.007108,0.000029,0.001158,0.006616,0.083040,-0.015762,0.200102,0.200100,0.170426,0.508556,0.000000,0.000000,0.000000,0.000000,0.000000,0.000000,0.000000,0.000000,0.000000,0.000000,0.000000,0.000000,0.080525,3,0
1090000,-0.006406,28.013512,0.048597,-0.022701,25.736755,0.030967,0.001110,0.026349,1.570042,-0.058337,0.001867,0.002921,-0.000262,-0.007351,0.000030,0.005295,0.006627,0.180830,-0.011024,0.200335,0.200334,0.170170,0.503361,0.000000,0.000000,0.000000,0.000000,0.000000,0.000000,0.000000,0.000000,0.000000,0.000000,0.000000,0.000000,0.174909,3,0
1100000,-0.006414,28.276785,0.049617,-0.022689,25.750092,0.032191,0.001131,0.027058,1.570039,-0.059492,0.001910,0.002713,-0.000271,-0.007590,0.000031,0.005090,0.006636,0.175819,0.025190,0.200562,0.200560,0.169905,0.498272,0.000000,0.000000,0.000000,0.000000,0.000000,0.000000,0.000000,0.000000,0.000000,0.000000,0.000000,0.000000,0.170064,3,0
1110000,-0.006423,28.535379,0.048720,-0.022655,25.755014,0.030903,0.001155,0.027247,1.570026,-0.059702,0.001954,0.003058,-0.000280,-0.007635,0.000031,0.000471,0.006644,0.031685,-0.043215,0.200781,0.200779,0.169632,0.493286,0.000000,0.000000,0.000000,0.000000,0.000000,0.000000,0.000000,0.000000,0.000000,0.000000,0.000000,0.000000,0.031289,3,0
1120000,-0.006428,28.796677,0.050060,-0.022440,25.764778,0.032834,0.001176,0.027736,1.570018,-0.060431,0.001998,0.002759,-0.000290,-0.007790,0.000032,0.002206,0.006651,0.110983,0.036443,0.200994,0.200991,0.169352,0.488403,0.000000,0.000000,0.000000,0.000000,0.000000,0.000000,0.000000,0.000000,0.000000,0.000000,0.000000,0.000000,0.107460,3,0
1130000,-0.006432,29.055981,0.049743,-0.022339,25.770903,0.032175,0.001206,0.027992,1.570009,-0.060751,0.002042,0.002943,-0.000299,-0.007859,0.000032,0.000469,0.006655,0.048376,-0.022921,0.201201,0.201198,0.169064,0.483624,0.000000,0.000000,0.000000,0.000000,0.000000,0.000000,0.000000,0.000000,0.000000,0.000000,0.000000,0.000000,0.047193,3,0
1140000,-0.006435,29.318651,0.050619,-0.022256,25.782785,0.033315,0.001241,0.028626,1.569999,-0.061719,0.002085,0.002774,-0.000309,-0.008072,0.000033,0.003543,0.006659,0.146832,0.019773,0.201403,0.201400,0.168769,0.478946,0.000000,0.000000,0.000000,0.000000,0.000000,0.000000,0.000000,0.000000,0.000000,0.000000,0.000000,0.000000,0.142049,3,0
1150000,-0.006436,29.577959,0.051547,-0.022134,25.788742,0.034429,0.001279,0.028862,1.569996,-0.062002,0.002129,0.002598,-0.000319,-0.008135,0.000033,0.000378,0.006660,0.043072,0.021131,0.201599,0.201596,0.168467,0.474369,0.000000,0.000000,0.000000,0.000000,0.000000,0.000000,0.000000,0.000000,0.000000,0.000000,0.000000,0.000000,0.042121,3,0
1160000,-0.006437,29.837297,0.051302,-0.022073,25.794569,0.034084,0.001317,0.029113,1.569992,-0.062281,0.002173,0.002771,-0.000329,-0.008198,0.000034,0.000365,0.006661,0.042131,-0.021143,0.201791,0.201788,0.168160,0.469893,0.000000,0.000000,0.000000,0.000000,0.000000,0.000000,0.000000,0.000000,0.000000,0.000000,0.000000,0.000000,0.041220,3,0
1170000,-0.006436,30.097330,0.051810,-0.021928,25.801544,0.034606,0.001343,0.029438,1.569989,-0.062684,0.002217,0.002718,-0.000339,-0.008291,0.000034,0.000613,0.006660,0.061039,0.005942,0.201979,0.201975,0.167846,0.465515,0.000000,0.000000,0.000000,0.000000,0.000000,0.000000,0.000000,0.000000,0.000000,0.000000,0.000000,0.000000,0.059335,3,0
1180000,-0.006433,30.357380,0.052017,-0.021746,25.808434,0.034667,0.001369,0.029746,1.569992,-0.063075,0.002261,0.002757,-0.000349,-0.008382,0.000034,0.000579,0.006657,0.059364,-0.004961,0.202163,0.202158,0.167528,0.461236,0.000000,0.000000,0.000000,0.000000,0.000000,0.000000,0.000000,0.000000,0.000000,0.000000,0.000000,0.000000,0.057723,3,0
1190000,-0.006430,30.620796,0.052014,-0.021694,25.821217,0.034573,0.001403,0.030463,1.569979,-0.064112,0.002304,0.002853,-0.000359,-0.008627,0.000035,0.004005,0.006654,0.157063,-0.012424,0.202343,0.202339,0.167204,0.457054,0.000000,0.000000,0.000000,0.000000,0.000000,0.000000,0.000000,0.000000,0.000000,0.000000,0.000000,0.000000,0.151902,3,0
1200000,-0.006425,30.880817,0.052110,-0.021550,25.827829,0.034744,0.001432,0.030764,1.569979,-0.064459,0.002348,0.002927,-0.000370,-0.008711,0.000036,0.000465,0.006649,0.052551,-0.009057,0.202521,0.202516,0.166876,0.452968,0.000000,0.000000,0.000000,0.000000,0.000000,0.000000,0.000000,0.000000,0.000000,0.000000,0.000000,0.000000,0.051182,3,0
1210000,-0.006420,31.139509,0.051042,-0.021408,25.831976,0.033102,0.001458,0.030894,1.569981,-0.064534,0.002392,0.003365,-0.000380,-0.008730,0.000036,0.000449,0.006643,0.011133,-0.051047,0.202696,0.202690,0.166543,0.448976,0.000000,0.000000,0.000000,0.000000,0.000000,0.000000,0.000000,0.000000,0.000000,0.000000,0.000000,0.000000,0.012524,3,0
1220000,-0.006414,31.398907,0.049791,-0.021280,25.837395,0.031433,0.001495,0.031120,1.569972,-0.064739,0.002437,0.003857,-0.000390,-0.008781,0.000036,0.000689,0.006637,0.030701,-0.057220,0.202868,0.202862,0.166207,0.445078,0.000000,0.000000,0.000000,0.000000,0.000000,0.000000,0.000000,0.000000,0.000000,0.000000,0.000000,0.000000,0.030345,3,0
1230000,-0.006405,31.663031,0.049879,-0.021118,25.851166,0.031318,0.001530,0.031914,1.569956,-0.065849,0.002480,0.003914,-0.000401,-0.009059,0.000037,0.004607,0.006629,0.168827,-0.007877,0.203038,0.203032,0.165867,0.441273,0.000000,0.000000,0.000000,0.000000,0.000000,0.000000,0.000000,0.000000,0.000000,0.000000,0.000000,0.000000,0.163240,3,0
1240000,-0.006393,31.926426,0.050510,-0.020902,25.863380,0.032162,0.001553,0.032601,1.569946,-0.066787,0.002523,0.003802,-0.000412,-0.009297,0.000038,0.003327,0.006618,0.143114,0.011648,0.203207,0.203200,0.165524,0.437558,0.000000,0.000000,0.000000,0.000000,0.000000,0.000000,0.000000,0.000000,0.000000,0.000000,0.000000,0.000000,0.138415,3,0
1250000,-0.006383,32.185738,0.049192,-0.020827,25.868242,0.030371,0.001593,0.032775,1.569934,-0.066913,0.002567,0.004325,-0.000423,-0.009330,0.000038,0.000640,0.006605,0.018749,-0.059654,0.203375,0.203367,0.165178,0.433934,0.000000,0.000000,0.000000,0.000000,0.000000,0.000000,0.000000,0.000000,0.000000,0.000000,0.000000,0.000000,0.019200,3,0
1260000,-0.006371,32.446415,0.048571,-0.020729,25.875544,0.029601,0.001626,0.033117,1.569921,-0.067291,0.002610,0.004619,-0.000434,-0.009430,0.000039,0.000724,0.006594,0.057571,-0.033669,0.203541,0.203533,0.164829,0.430398,0.000000,0.000000,0.000000,0.000000,0.000000,0.000000,0.000000,0.000000,0.000000,0.000000,0.000000,0.000000,0.055978,3,0
1270000,-0.006357,32.708431,0.049094,-0.020536,25.885096,0.030265,0.001660,0.033616,1.569913,-0.067911,0.002653,0.004537,-0.000445,-0.009594,0.000040,0.001472,0.006581,0.095005,0.008386,0.203707,0.203698,0.164478,0.426948,0.000000,0.000000,0.000000,0.000000,0.000000,0.000000,0.000000,0.000000,0.000000,0.000000,0.000000,0.000000,0.092001,3,0
1280000,-0.006340,32.969070,0.050262,-0.020277,25.891983,0.031686,0.001694,0.033944,1.569911,-0.068245,0.002695,0.004250,-0.000457,-0.009684,0.000040,0.000597,0.006564,0.051559,0.031659,0.203872,0.203862,0.164125,0.423584,0.000000,0.000000,0.000000,0.000000,0.000000,0.000000,0.000000,0.000000,0.000000,0.000000,0.000000,0.000000,0.050210,3,0
1290000,-0.006324,33.229031,0.049301,-0.020165,25.897612,0.030325,0.001720,0.034168,1.569903,-0.068438,0.002738,0.004669,-0.000468,-0.009737,0.000040,0.000502,0.006545,0.029400,-0.046847,0.204037,0.204027,0.163771,0.420304,0.000000,0.000000,0.000000,0.000000,0.000000,0.000000,0.000000,0.000000,0.000000,0.000000,0.000000,0.000000,0.029092,3,0
1300000,-0.006305,33.490345,0.050551,-0.020000,25.905687,0.031965,0.001746,0.034567,1.569895,-0.068874,0.002780,0.004349,-0.000480,-0.009858,0.000041,0.000938,0.006528,0.067562,0.034790,0.204202,0.204191,0.163415,0.417108,0.000000,0.000000,0.000000,0.000000,0.000000,0.000000,0.000000,0.000000,0.000000,0.000000,0.000000,0.000000,0.065569,3,0
1310000,-0.006285,33.751644,0.050401,-0.019746,25.913572,0.031590,0.001786,0.034968,1.569890,-0.069293,0.002822,0.004500,-0.000492,-0.009975,0.000041,0.000726,0.006506,0.064594,-0.017205,0.204367,0.204356,0.163058,0.413992,0.000000,0.000000,0.000000,0.000000,0.000000,0.000000,0.000000,0.000000,0.000000,0.000000,0.000000,0.000000,0.062709,3,0
1320000,-0.006265,34.014282,0.049356,-0.019615,25.923857,0.030321,0.001815,0.035540,1.569886,-0.069949,0.002864,0.004948,-0.000504,-0.010163,0.000042,0.002068,0.006485,0.101398,-0.050028,0.204532,0.204520,0.162700,0.410957,0.000000,0.000000,0.000000,0.000000,0.000000,0.000000,0.000000,0.000000,0.000000,0.000000,0.000000,0.000000,0.098139,3,0
1330000,-0.006244,34.277557,0.048886,-0.019430,25.935102,0.029465,0.001844,0.036186,1.569884,-0.070702,0.002906,0.005198,-0.000515,-0.010382,0.000043,0.002338,0.006464,0.116962,-0.028255,0.204699,0.204686,0.162342,0.408000,0.000000,0.000000,0.000000,0.000000,0.000000,0.000000,0.000000,0.000000,0.000000,0.000000,0.000000,0.000000,0.113141,3,0
1340000,-0.006221,34.536701,0.049343,-0.019306,25.938850,0.029895,0.001883,0.036255,1.569873,-0.070655,0.002947,0.005144,-0.000528,-0.010368,0.000043,0.000021,0.006441,-0.007271,0.005886,0.204866,0.204852,0.161983,0.405121,0.000000,0.000000,0.000000,0.000000,0.000000,0.000000,0.000000,0.000000,0.000000,0.000000,0.000000,0.000000,0.009382,3,0
1350000,-0.006197,34.796539,0.048406,-0.019048,25.943714,0.028803,0.001925,0.036420,1.569864,-0.070733,0.002988,0.005571,-0.000539,-0.010392,0.000043,0.000372,0.006415,0.011852,-0.046007,0.205034,0.205020,0.161625,0.402316,0.000000,0.000000,0.000000,0.000000,0.000000,0.000000,0.000000,0.000000,0.000000,0.000000,0.000000,0.000000,0.013014,3,0
1360000,-0.006171,35.055695,0.048588,-0.018864,25.947405,0.029209,0.001969,0.036478,1.569864,-0.070673,0.003029,0.005611,-0.000552,-0.010374,0.000043,0.000024,0.006390,-0.009491,-0.004186,0.205203,0.205188,0.161266,0.399586,0.000000,0.000000,0.000000,0.000000,0.000000,0.000000,0.000000,0.000000,0.000000,0.000000,0.000000,0.000000,0.011050,3,0
1370000,-0.006145,35.316906,0.047944,-0.018657,25.954636,0.028251,0.001999,0.036825,1.569867,-0.070987,0.003070,0.005933,-0.000564,-0.010471,0.000044,0.000595,0.006362,0.049377,-0.034796,0.205374,0.205358,0.160908,0.396928,0.000000,0.000000,0.000000,0.000000,0.000000,0.000000,0.000000,0.000000,0.000000,0.000000,0.000000,0.000000,0.048078,3,0
1380000,-0.006116,35.576729,0.048335,-0.018414,25.959269,0.028756,0.002027,0.036957,1.569853,-0.071030,0.003109,0.005895,-0.000576,-0.010484,0.000044,0.000016,0.006333,0.006763,0.003924,0.205545,0.205529,0.160551,0.394342,0.000000,0.000000,0.000000,0.000000,0.000000,0.000000,0.000000,0.000000,0.000000,0.000000,0.000000,0.000000,0.008947,3,0
1390000,-0.006085,35.835865,0.048936,-0.018182,25.962658,0.029554,0.002070,0.036994,1.569849,-0.070938,0.003149,0.005787,-0.000589,-0.010455,0.000044,0.000062,0.006301,-0.014557,0.011508,0.205719,0.205701,0.160194,0.391825,0.000000,0.000000,0.000000,0.000000,0.000000,0.000000,0.000000,0.000000,0.000000,0.000000,0.000000,0.000000,0.015318,3,0
1400000,-0.006055,36.097744,0.047707,-0.017955,25.970892,0.028047,0.002102,0.037423,1.569852,-0.071342,0.003189,0.006325,-0.000601,-0.010586,0.000044,0.001199,0.006268,0.064213,-0.057107,0.205894,0.205875,0.159839,0.389376,0.000000,0.000000,0.000000,0.000000,0.000000,0.000000,0.000000,0.000000,0.000000,0.000000,0.000000,0.000000,0.062299,3,0
1410000,-0.006021,36.360939,0.048887,-0.017754,25.981403,0.029419,0.002150,0.038026,1.569854,-0.071965,0.003227,0.005985,-0.000614,-0.010787,0.000045,0.001820,0.006236,0.100437,0.034204,0.206070,0.206051,0.159485,0.386994,0.000000,0.000000,0.000000,0.000000,0.000000,0.000000,0.000000,0.000000,0.000000,0.000000,0.000000,0.000000,0.097179,3,0
1420000,-0.005987,36.621346,0.049999,-0.017612,25.986652,0.030858,0.002191,0.038214,1.569850,-0.072062,0.003264,0.005687,-0.000626,-0.010818,0.000045,0.000201,0.006201,0.016045,0.030741,0.206249,0.206229,0.159132,0.384677,0.000000,0.000000,0.000000,0.000000,0.000000,0.000000,0.000000,0.000000,0.000000,0.000000,0.000000,0.000000,0.016612,3,0
1430000,-0.005954,36.882427,0.049285,-0.017440,25.993176,0.029726,0.002237,0.038492,1.569854,-0.072273,0.003303,0.006056,-0.000639,-0.010890,0.000046,0.000432,0.006165,0.033890,-0.038535,0.206429,0.206408,0.158781,0.382424,0.000000,0.000000,0.000000,0.000000,0.000000,0.000000,0.000000,0.000000,0.000000,0.000000,0.000000,0.000000,0.033256,3,0
1440000,-0.005918,37.144161,0.049429,-0.017136,26.000845,0.029927,0.002274,0.038866,1.569842,-0.072586,0.003340,0.006106,-0.000652,-0.010996,0.000046,0.000431,0.006129,0.051052,-0.005739,0.206611,0.206589,0.158431,0.380235,0.000000,0.000000,0.000000,0.000000,0.000000,0.000000,0.000000,0.000000,0.000000,0.000000,0.000000,0.000000,0.049648,3,0
1450000,-0.005881,37.405174,0.049475,-0.016845,26.007101,0.030115,0.002319,0.039117,1.569845,-0.072756,0.003378,0.006197,-0.000664,-0.011055,0.000046,0.000145,0.006091,0.027782,-0.009643,0.206795,0.206772,0.158084,0.378106,0.000000,0.000000,0.000000,0.000000,0.000000,0.000000,0.000000,0.000000,0.000000,0.000000,0.000000,0.000000,0.027462,3,0
1460000,-0.005843,37.666161,0.049472,-0.016700,26.013041,0.030059,0.002355,0.039366,1.569843,-0.072908,0.003414,0.006307,-0.000677,-0.011109,0.000047,0.000129,0.006052,0.025135,-0.011581,0.206981,0.206957,0.157738,0.376037,0.000000,0.000000,0.000000,0.000000,0.000000,0.000000,0.000000,0.000000,0.000000,0.000000,0.000000,0.000000,0.024959,3,0
1470000,-0.005805,37.927124,0.048139,-0.016407,26.019028,0.028333,0.002400,0.039595,1.569838,-0.073048,0.003452,0.006919,-0.000689,-0.011160,0.000047,0.000716,0.006011,0.022511,-0.062247,0.207168,0.207143,0.157395,0.374026,0.000000,0.000000,0.000000,0.000000,0.000000,0.000000,0.000000,0.000000,0.000000,0.000000,0.000000,0.000000,0.022487,3,0
1480000,-0.005766,38.189426,0.047437,-0.016222,26.027311,0.027420,0.002436,0.040012,1.569840,-0.073407,0.003488,0.007282,-0.000702,-0.011290,0.000047,0.000806,0.005971,0.059677,-0.037444,0.207358,0.207332,0.157054,0.372072,0.000000,0.000000,0.000000,0.000000,0.000000,0.000000,0.000000,0.000000,0.000000,0.000000,0.000000,0.000000,0.057897,3,0
1490000,-0.005724,38.452358,0.047973,-0.016000,26.036537,0.027905,0.002474,0.040517,1.569831,-0.073855,0.003523,0.007168,-0.000715,-0.011453,0.000048,0.000943,0.005930,0.075596,0.010389,0.207549,0.207522,0.156716,0.370173,0.000000,0.000000,0.000000,0.000000,0.000000,0.000000,0.000000,0.000000,0.000000,0.000000,0.000000,0.000000,0.073207,3,0
1500000,-0.005681,38.714531,0.049183,-0.015803,26.044319,0.029277,0.002514,0.040906,1.569834,-0.074155,0.003557,0.006801,-0.000728,-0.011563,0.000049,0.000636,0.005886,0.051121,0.035942,0.207742,0.207714,0.156380,0.368329,0.000000,0.000000,0.000000,0.000000,0.000000,0.000000,0.000000,0.000000,0.000000,0.000000,0.000000,0.000000,0.049684,3,0
1510000,-0.005638,38.975967,0.050216,-0.015625,26.050726,0.030651,0.002555,0.041158,1.569832,-0.074314,0.003590,0.006511,-0.000741,-0.011622,0.000049,0.000258,0.005841,0.027412,0.028416,0.207937,0.207907,0.156047,0.366539,0.000000,0.000000,0.000000,0.000000,0.000000,0.000000,0.000000,0.000000,0.000000,0.000000,0.000000,0.000000,0.027060,3,0
1520000,-0.005593,39.235989,0.050503,-0.015301,26.054428,0.031086,0.002602,0.041190,1.569836,-0.074224,0.003624,0.006524,-0.000754,-0.011588,0.000049,0.000044,0.005794,-0.015423,-0.001036,0.208134,0.208103,0.155717,0.364799,0.000000,0.000000,0.000000,0.000000,0.000000,0.000000,0.000000,0.000000,0.000000,0.000000,0.000000,0.000000,0.015905,3,0
1530000,-0.005551,39.497375,0.049292,-0.015148,26.060522,0.029710,0.002636,0.041431,1.569838,-0.074359,0.003658,0.007117,-0.000766,-0.011642,0.000049,0.000649,0.005749,0.022705,-0.058797,0.208332,0.208300,0.155390,0.363110,0.000000,0.000000,0.000000,0.000000,0.000000,0.000000,0.000000,0.000000,0.000000,0.000000,0.000000,0.000000,0.022600,3,0
1540000,-0.005506,39.758717,0.049029,-0.014958,26.066534,0.029235,0.002678,0.041654,1.569837,-0.074473,0.003691,0.007334,-0.000779,-0.011688,0.000049,0.000143,0.005704,0.019680,-0.021612,0.208532,0.208499,0.155066,0.361470,0.000000,0.000000,0.000000,0.000000,0.000000,0.000000,0.000000,0.000000,0.000000,0.000000,0.000000,0.000000,0.019775,3,0
1550000,-0.005461,40.018635,0.048267,-0.014693,26.069777,0.028182,0.002716,0.041646,1.569841,-0.074344,0.003725,0.007758,-0.000792,-0.011638,0.000049,0.000365,0.005657,-0.023048,-0.041137,0.208733,0.208699,0.154745,0.359878,0.000000,0.000000,0.000000,0.000000,0.000000,0.000000,0.000000,0.000000,0.000000,0.000000,0.000000,0.000000,0.022915,3,0
1560000,-0.005413,40.278519,0.049529,-0.014486,26.072826,0.029849,0.002751,0.041617,1.569838,-0.074203,0.003755,0.007375,-0.000805,-0.011579,0.000049,0.000333,0.005610,-0.024578,0.037705,0.208936,0.208900,0.154428,0.358331,0.000000,0.000000,0.000000,0.000000,0.000000,0.000000,0.000000,0.000000,0.000000,0.000000,0.000000,0.000000,0.024326,3,0
1570000,-0.005365,40.538383,0.050352,-0.014222,26.075914,0.030950,0.002800,0.041590,1.569830,-0.074056,0.003786,0.007173,-0.000818,-0.011518,0.000049,0.000179,0.005559,-0.026062,0.020045,0.209140,0.209103,0.154114,0.356830,0.000000,0.000000,0.000000,0.000000,0.000000,0.000000,0.000000,0.000000,0.000000,0.000000,0.000000,0.000000,0.025716,3,0
1580000,-0.005316,40.801010,0.049975,-0.013942,26.083975,0.030548,0.002835,0.041992,1.569823,-0.074346,0.003817,0.007439,-0.000830,-0.011640,0.000050,0.000554,0.005508,0.051983,-0.026547,0.209346,0.209307,0.153803,0.355373,0.000000,0.000000,0.000000,0.000000,0.000000,0.000000,0.000000,0.000000,0.000000,0.000000,0.000000,0.000000,0.050444,3,0
1590000,-0.005268,41.061489,0.049252,-0.013784,26.087963,0.029538,0.002875,0.042055,1.569812,-0.074283,0.003848,0.007862,-0.000843,-0.011615,0.000050,0.000293,0.005457,-0.011936,-0.040401,0.209552,0.209512,0.153496,0.353958,0.000000,0.000000,0.000000,0.000000,0.000000,0.000000,0.000000,0.000000,0.000000,0.000000,0.000000,0.000000,0.012675,3,0
1600000,-0.005217,41.319832,0.050470,-0.013568,26.087936,0.030889,0.002910,0.041750,1.569808,-0.073879,0.003877,0.007505,-0.000856,-0.011440,0.000049,0.001081,0.005407,-0.073662,0.035453,0.209760,0.209719,0.153192,0.352585,0.000000,0.000000,0.000000,0.000000,0.000000,0.000000,0.000000,0.000000,0.000000,0.000000,0.000000,0.000000,0.071270,3,0
1610000,-0.005166,41.581661,0.051174,-0.013341,26.094404,0.031451,0.002941,0.042014,1.569812,-0.074018,0.003906,0.007336,-0.000868,-0.011500,0.000049,0.000152,0.005354,0.025810,0.015643,0.209968,0.209925,0.152892,0.351253,0.000000,0.000000,0.000000,0.000000,0.000000,0.000000,0.000000,0.000000,0.000000,0.000000,0.000000,0.000000,0.025440,3,0
1620000,-0.005115,41.840652,0.051234,-0.013021,26.095448,0.031543,0.002981,0.041813,1.569816,-0.073712,0.003934,0.007459,-0.000881,-0.011364,0.000049,0.000549,0.005300,-0.057167,-0.010651,0.210177,0.210133,0.152595,0.349960,0.000000,0.000000,0.000000,0.000000,0.000000,0.000000,0.000000,0.000000,0.000000,0.000000,0.000000,0.000000,0.055405,3,0
1630000,-0.005064,42.100334,0.050525,-0.012833,26.097757,0.030782,0.003021,0.041712,1.569803,-0.073514,0.003963,0.007899,-0.000893,-0.011277,0.000049,0.000506,0.005246,-0.037868,-0.040869,0.210387,0.210341,0.152303,0.348704,0.000000,0.000000,0.000000,0.000000,0.000000,0.000000,0.000000,0.000000,0.000000,0.000000,0.000000,0.000000,0.036898,3,0
1640000,-0.005011,42.363476,0.050676,-0.012652,26.106289,0.030804,0.003058,0.042177,1.569803,-0.073831,0.003991,0.007948,-0.000906,-0.011422,0.000049,0.000593,0.005193,0.060249,-0.005743,0.210597,0.210550,0.152014,0.347484,0.000000,0.000000,0.000000,0.000000,0.000000,0.000000,0.000000,0.000000,0.000000,0.000000,0.000000,0.000000,0.058348,3,0
1650000,-0.004959,42.624439,0.051065,-0.012482,26.110878,0.031163,0.003098,0.042272,1.569801,-0.073809,0.004017,0.007916,-0.000918,-0.011412,0.000049,0.000009,0.005139,-0.004192,0.003069,0.210807,0.210759,0.151729,0.346302,0.000000,0.000000,0.000000,0.000000,0.000000,0.000000,0.000000,0.000000,0.000000,0.000000,0.000000,0.000000,0.006398,3,0
1660000,-0.004905,42.886051,0.051575,-0.012169,26.116417,0.031877,0.003143,0.042462,1.569790,-0.073876,0.004043,0.007830,-0.000931,-0.011443,0.000050,0.000042,0.005084,0.013107,0.007796,0.211017,0.210968,0.151447,0.345153,0.000000,0.000000,0.000000,0.000000,0.000000,0.000000,0.000000,0.000000,0.000000,0.000000,0.000000,0.000000,0.013567,3,0
1670000,-0.004849,43.146904,0.052474,-0.011860,26.120594,0.032902,0.003193,0.042513,1.569794,-0.073823,0.004068,0.007587,-0.000943,-0.011417,0.000050,0.000104,0.005027,-0.010014,0.022770,0.211228,0.211177,0.151170,0.344039,0.000000,0.000000,0.000000,0.000000,0.000000,0.000000,0.000000,0.000000,0.000000,0.000000,0.000000,0.000000,0.010804,3,0
1680000,-0.004793,43.408409,0.053581,-0.011640,26.125864,0.034112,0.003237,0.042670,1.569791,-0.073859,0.004092,0.007253,-0.000956,-0.011433,0.000050,0.000168,0.004969,0.007397,0.030885,0.211439,0.211386,0.150897,0.342957,0.000000,0.000000,0.000000,0.000000,0.000000,0.000000,0.000000,0.000000,0.000000,0.000000,0.000000,0.000000,0.008603,3,0
1690000,-0.004738,43.667778,0.052360,-0.011300,26.127108,0.032632,0.003285,0.042462,1.569783,-0.073587,0.004119,0.007946,-0.000967,-0.011301,0.000049,0.001140,0.004909,-0.055374,-0.062916,0.211649,0.211595,0.150627,0.341907,0.000000,0.000000,0.000000,0.000000,0.000000,0.000000,0.000000,0.000000,0.000000,0.000000,0.000000,0.000000,0.053646,3,0
1700000,-0.004682,43.929226,0.051490,-0.011094,26.132147,0.031649,0.003322,0.042597,1.569771,-0.073606,0.004144,0.008465,-0.000979,-0.011313,0.000049,0.000378,0.004852,0.003307,-0.047901,0.211859,0.211803,0.150362,0.340886,0.000000,0.000000,0.000000,0.000000,0.000000,0.000000,0.000000,0.000000,0.000000,0.000000,0.000000,0.000000,0.005658,3,0
1710000,-0.004625,44.190617,0.050342,-0.010735,26.136982,0.030409,0.003366,0.042730,1.569763,-0.073610,0.004169,0.009105,-0.000991,-0.011318,0.000049,0.000565,0.004792,0.000237,-0.058751,0.212068,0.212011,0.150100,0.339895,0.000000,0.000000,0.000000,0.000000,0.000000,0.000000,0.000000,0.000000,0.000000,0.000000,0.000000,0.000000,0.004630,3,0
1720000,-0.004564,44.451225,0.051411,-0.010493,26.140226,0.031564,0.003410,0.042704,1.569751,-0.073500,0.004191,0.008779,-0.001003,-0.011259,0.000049,0.000235,0.004733,-0.022655,0.030283,0.212277,0.212218,0.149843,0.338932,0.000000,0.000000,0.000000,0.000000,0.000000,0.000000,0.000000,0.000000,0.000000,0.000000,0.000000,0.000000,0.022318,3,0
