time_us,pos_x,pos_y,pos_z,vel_x,vel_y,vel_z,roll,pitch,yaw,bias_ax,bias_ay,bias_az,bias_gx,bias_gy,bias_gz,nis,innov_x,innov_y,innov_z,cov_pos_x,cov_pos_y,cov_pos_z,cov_yaw,des_speed,des_heading,des_climb,pid_speed,pid_yaw,pid_alt,speed_meas,yaw_meas,climb_meas,fwd_accel,yaw_rate,vert_accel,drift_m,nav_mode,mission_state
0,0.000005,0.149995,-0.000003,0.000777,24.999128,-0.000780,0.000010,-0.000002,1.570783,0.000000,0.000000,0.000000,0.000000,0.000000,0.000000,0.006250,-0.000008,-0.249994,0.000008,2.400038,2.400038,3.600017,1.000518,0.000000,0.000000,0.000000,0.000000,0.000000,0.000000,0.000000,0.000000,0.000000,0.000000,0.000000,0.000000,0.209631,1,0
10000,0.000013,0.291368,-0.011576,0.001402,24.997364,-0.001474,0.000012,-0.000028,1.570769,0.000001,-0.000000,0.000000,0.000000,0.000000,0.000000,0.017298,-0.000019,-0.380097,-0.030822,1.714420,1.714420,2.250079,1.001073,0.000000,0.000000,0.000000,0.000000,0.000000,0.000000,0.000000,0.000000,0.000000,0.000000,0.000000,0.000000,0.092579,3,0
20000,0.000027,0.412175,-0.012538,0.002200,24.994946,-0.002088,0.000012,-0.000026,1.570757,0.000006,-0.000000,0.000000,-0.000000,0.000000,0.000000,0.043770,-0.000035,-0.581092,-0.003452,1.333616,1.333616,1.636554,1.001655,0.000000,0.000000,0.000000,0.000000,0.000000,0.000000,0.000000,0.000000,0.000000,0.000000,0.000000,0.000000,0.045040,3,0
30000,0.000048,0.523599,-0.001175,0.003122,24.991398,-0.002541,0.000025,-0.000039,1.570743,0.000020,-0.000000,-0.000001,0.000000,0.000000,0.000000,0.079439,-0.000059,-0.761511,0.053142,1.091392,1.091392,1.286065,1.002257,0.000000,0.000000,0.000000,0.000000,0.000000,0.000000,0.000000,0.000000,0.000000,0.000000,0.000000,0.000000,0.192042,3,0
40000,0.000074,0.639104,0.008559,0.003894,24.986483,-0.002996,0.000034,-0.000063,1.570736,0.000045,-0.000000,-0.000002,0.000000,0.000000,0.000000,0.107859,-0.000087,-0.872897,0.055308,0.923811,0.923811,1.059385,1.002869,0.000000,0.000000,0.000000,0.000000,0.000000,0.000000,0.000000,0.000000,0.000000,0.000000,0.000000,0.000000,0.334963,3,0
50000,0.000105,0.757011,0.001900,0.004736,24.980505,-0.003703,0.000037,-0.000082,1.570719,0.000087,-0.000000,-0.000000,0.000000,0.000000,0.000000,0.141348,-0.000121,-0.988357,-0.044118,0.801036,0.801036,0.900822,1.003484,0.000000,0.000000,0.000000,0.000000,0.000000,0.000000,0.000000,0.000000,0.000000,0.000000,0.000000,0.000000,0.475482,3,0
60000,0.000142,0.883439,-0.001421,0.005673,24.973083,-0.004766,0.000035,-0.000121,1.570724,0.000150,-0.000000,0.000001,-0.000000,0.000001,0.000000,0.161122,-0.000162,-1.046564,-0.025068,0.707270,0.707270,0.783741,1.004094,0.000000,0.000000,0.000000,0.000000,0.000000,0.000000,0.000000,0.000000,0.000000,0.000000,0.000000,0.000000,0.607480,3,0
70000,0.000187,1.000954,-0.001596,0.006654,24.963572,-0.005541,0.000039,-0.000159,1.570721,0.000250,-0.000000,0.000001,0.000000,0.000002,0.000000,0.233836,-0.000209,-1.252437,-0.001036,0.633370,0.633370,0.693801,1.004688,0.000000,0.000000,0.000000,0.000000,0.000000,0.000000,0.000000,0.000000,0.000000,0.000000,0.000000,0.000000,0.748391,3,0
80000,0.000237,1.123408,-0.006012,0.007477,24.952255,-0.006493,0.000063,-0.000198,1.570709,0.000386,-0.000000,0.000005,-0.000000,0.000003,0.000000,0.266931,-0.000262,-1.330097,-0.041959,0.573673,0.573673,0.622594,1.005260,0.000000,0.000000,0.000000,0.000000,0.000000,0.000000,0.000000,0.000000,0.000000,0.000000,0.000000,0.000000,0.884363,3,0
90000,0.000295,1.265072,-0.004047,0.008647,24.940517,-0.006945,0.000072,-0.000253,1.570702,0.000543,-0.000000,0.000003,0.000000,0.000005,0.000000,0.231591,-0.000323,-1.233769,0.021630,0.524488,0.524488,0.564865,1.005801,0.000000,0.000000,0.000000,0.000000,0.000000,0.000000,0.000000,0.000000,0.000000,0.000000,0.000000,0.000000,1.001125,3,0
100000,0.000362,1.434111,0.000872,0.009824,24.930231,-0.007072,0.000087,-0.000318,1.570684,0.000698,-0.000000,-0.000006,0.000000,0.000007,0.000000,0.153024,-0.000393,-0.997618,0.057948,0.483303,0.483303,0.517162,1.006302,0.000000,0.000000,0.000000,0.000000,0.000000,0.000000,0.000000,0.000000,0.000000,0.000000,0.000000,0.000000,1.090511,3,0
110000,0.000435,1.609603,0.002963,0.010818,24.919060,-0.007564,0.000100,-0.000380,1.570662,0.000882,-0.000000,-0.000011,0.000000,0.000010,0.000000,0.150539,-0.000470,-0.987643,0.027282,0.448353,0.448353,0.477121,1.006755,0.000000,0.000000,0.000000,0.000000,0.000000,0.000000,0.000000,0.000000,0.000000,0.000000,0.000000,0.000000,1.173445,3,0
120000,0.000513,1.798482,-0.000356,0.011653,24.908304,-0.008807,0.000104,-0.000439,1.570648,0.001072,-0.000000,-0.000002,0.000000,0.000013,0.000000,0.116262,-0.000551,-0.864838,-0.043822,0.418358,0.418358,0.443071,1.007151,0.000000,0.000000,0.000000,0.000000,0.000000,0.000000,0.000000,0.000000,0.000000,0.000000,0.000000,0.000000,1.242992,3,0
130000,0.000600,1.992956,0.003222,0.012866,24.897308,-0.009015,0.000111,-0.000509,1.570639,0.001286,-0.000000,-0.000015,0.000000,0.000016,0.000000,0.109031,-0.000642,-0.834943,0.053273,0.392369,0.392369,0.413797,1.007483,0.000000,0.000000,0.000000,0.000000,0.000000,0.000000,0.000000,0.000000,0.000000,0.000000,0.000000,0.000000,1.306944,3,0
140000,0.000690,2.190751,0.001377,0.013595,24.885601,-0.009820,0.000120,-0.000584,1.570623,0.001531,-0.000001,-0.000007,0.000000,0.000021,0.000000,0.107991,-0.000736,-0.830517,-0.027034,0.369666,0.369666,0.388393,1.007741,0.000000,0.000000,0.000000,0.000000,0.000000,0.000000,0.000000,0.000000,0.000000,0.000000,0.000000,0.000000,1.367575,3,0
150000,0.000784,2.402844,0.001810,0.014230,24.875891,-0.010374,0.000127,-0.000660,1.570603,0.001743,-0.000001,-0.000010,0.000000,0.000025,0.000000,0.062429,-0.000833,-0.630616,0.008817,0.349695,0.349695,0.366172,1.007918,0.000000,0.000000,0.000000,0.000000,0.000000,0.000000,0.000000,0.000000,0.000000,0.000000,0.000000,0.000000,1.413909,3,0
160000,0.000883,2.615964,0.004329,0.015069,24.865267,-0.010484,0.000136,-0.000731,1.570593,0.001988,-0.000001,-0.000027,0.000000,0.000031,0.000000,0.065587,-0.000935,-0.643821,0.045530,0.332020,0.332020,0.346600,1.008005,0.000000,0.000000,0.000000,0.000000,0.000000,0.000000,0.000000,0.000000,0.000000,0.000000,0.000000,0.000000,1.459214,3,0
170000,0.000989,2.834111,0.006023,0.016022,24.855453,-0.010781,0.000139,-0.000821,1.570573,0.002235,-0.000002,-0.000041,0.000000,0.000036,0.000000,0.053014,-0.001044,-0.578534,0.032921,0.316296,0.316296,0.329260,1.007995,0.000000,0.000000,0.000000,0.000000,0.000000,0.000000,0.000000,0.000000,0.000000,0.000000,0.000000,0.000000,1.499493,3,0
180000,0.001100,3.057549,0.004625,0.016956,24.846140,-0.011875,0.000155,-0.000904,1.570562,0.002472,-0.000002,-0.000030,0.000000,0.000042,0.000000,0.039409,-0.001158,-0.498396,-0.024523,0.302245,0.302245,0.313817,1.007879,0.000000,0.000000,0.000000,0.000000,0.000000,0.000000,0.000000,0.000000,0.000000,0.000000,0.000000,0.000000,1.534481,3,0
190000,0.001218,3.279796,0.002386,0.017957,24.835709,-0.013139,0.000155,-0.001002,1.570552,0.002759,-0.000003,-0.000008,0.000000,0.000050,0.000000,0.047024,-0.001280,-0.542830,-0.042293,0.289640,0.289640,0.300003,1.007650,0.000000,0.000000,0.000000,0.000000,0.000000,0.000000,0.000000,0.000000,0.000000,0.000000,0.000000,0.000000,1.570660,3,0
200000,0.001341,3.508335,0.000269,0.018738,24.826830,-0.014529,0.000170,-0.001088,1.570534,0.003008,-0.000004,0.000016,0.000000,0.000057,0.000001,0.029254,-0.001406,-0.427031,-0.041282,0.278294,0.278294,0.287598,1.007300,0.000000,0.000000,0.000000,0.000000,0.000000,0.000000,0.000000,0.000000,0.000000,0.000000,0.000000,0.000000,1.600547,3,0
210000,0.001469,3.736189,0.001429,0.019653,24.817007,-0.014837,0.000168,-0.001174,1.570522,0.003300,-0.000005,-0.000002,0.000000,0.000065,0.000001,0.033338,-0.001537,-0.456692,0.028511,0.268052,0.268052,0.276421,1.006822,0.000000,0.000000,0.000000,0.000000,0.000000,0.000000,0.000000,0.000000,0.000000,0.000000,0.000000,0.000000,1.631119,3,0
220000,0.001605,3.962546,0.002945,0.020808,24.805973,-0.014702,0.000175,-0.001292,1.570515,0.003654,-0.000006,-0.000028,0.000000,0.000076,0.000001,0.040984,-0.001677,-0.505540,0.037627,0.258785,0.258785,0.266321,1.006209,0.000000,0.000000,0.000000,0.000000,0.000000,0.000000,0.000000,0.000000,0.000000,0.000000,0.000000,0.000000,1.663188,3,0
230000,0.001747,4.194160,0.004114,0.021838,24.796728,-0.014561,0.000178,-0.001393,1.570497,0.003954,-0.000007,-0.000051,0.000000,0.000086,0.000001,0.024925,-0.001823,-0.393842,0.030812,0.250383,0.250383,0.257172,1.005453,0.000000,0.000000,0.000000,0.000000,0.000000,0.000000,0.000000,0.000000,0.000000,0.000000,0.000000,0.000000,1.690001,3,0
240000,0.001896,4.424860,0.003421,0.022844,24.786612,-0.015625,0.000187,-0.001510,1.570493,0.004306,-0.000009,-0.000041,0.000000,0.000098,0.000001,0.029129,-0.001976,-0.426577,-0.012997,0.242753,0.242753,0.248866,1.004549,0.000000,0.000000,0.000000,0.000000,0.000000,0.000000,0.000000,0.000000,0.000000,0.000000,0.000000,0.000000,1.717727,3,0
250000,0.002050,4.658606,0.004359,0.023745,24.777449,-0.015644,0.000187,-0.001627,1.570485,0.004626,-0.000011,-0.000065,0.000000,0.000109,0.000001,0.020755,-0.002134,-0.358990,0.027361,0.235815,0.235815,0.241314,1.003489,0.000000,0.000000,0.000000,0.000000,0.000000,0.000000,0.000000,0.000000,0.000000,0.000000,0.000000,0.000000,1.742407,3,0
260000,0.002209,4.893585,0.004616,0.024626,24.768545,-0.016382,0.000193,-0.001734,1.570471,0.004947,-0.000013,-0.000075,0.000000,0.000121,0.000001,0.017925,-0.002297,-0.334219,0.010841,0.229500,0.229500,0.234436,1.002268,0.000000,0.000000,0.000000,0.000000,0.000000,0.000000,0.000000,0.000000,0.000000,0.000000,0.000000,0.000000,1.765853,3,0
270000,0.002373,5.131155,0.005512,0.025541,24.760769,-0.016113,0.000202,-0.001827,1.570460,0.005226,-0.000015,-0.000104,0.000001,0.000131,0.000001,0.011904,-0.002465,-0.270924,0.027972,0.223749,0.223749,0.228165,1.000879,0.000000,0.000000,0.000000,0.000000,0.000000,0.000000,0.000000,0.000000,0.000000,0.000000,0.000000,0.000000,1.786709,3,0
280000,0.002540,5.366750,0.006513,0.026216,24.751175,-0.015820,0.000204,-0.001947,1.570450,0.005590,-0.000018,-0.000139,0.000001,0.000146,0.000001,0.017597,-0.002636,-0.329505,0.031480,0.218511,0.218511,0.222443,0.999318,0.000000,0.000000,0.000000,0.000000,0.000000,0.000000,0.000000,0.000000,0.000000,0.000000,0.000000,0.000000,1.809541,3,0
290000,0.002709,5.604746,0.006828,0.026854,24.743177,-0.015991,0.000220,-0.002061,1.570435,0.005904,-0.000021,-0.000154,0.000001,0.000158,0.000002,0.011472,-0.002809,-0.266822,0.013206,0.213738,0.213738,0.217219,0.997579,0.000000,0.000000,0.000000,0.000000,0.000000,0.000000,0.000000,0.000000,0.000000,0.000000,0.000000,0.000000,1.829971,3,0
300000,0.002882,5.844261,0.005931,0.027568,24.735697,-0.017244,0.000221,-0.002158,1.570442,0.006189,-0.000025,-0.000129,0.000001,0.000171,0.000002,0.008317,-0.002986,-0.226430,-0.020604,0.209392,0.209392,0.212447,0.995658,0.000000,0.000000,0.000000,0.000000,0.000000,0.000000,0.000000,0.000000,0.000000,0.000000,0.000000,0.000000,1.848882,3,0
310000,0.003057,6.083141,0.007163,0.028314,24.727552,-0.016727,0.000225,-0.002264,1.570430,0.006519,-0.000029,-0.000182,0.000001,0.000185,0.000002,0.010104,-0.003166,-0.247204,0.040653,0.205436,0.205436,0.208087,0.993550,0.000000,0.000000,0.000000,0.000000,0.000000,0.000000,0.000000,0.000000,0.000000,0.000000,0.000000,0.000000,1.868427,3,0
320000,0.003237,6.322752,0.006484,0.029187,24.720093,-0.018023,0.000241,-0.002380,1.570419,0.006841,-0.000034,-0.000162,0.000001,0.000200,0.000002,0.008379,-0.003350,-0.227580,-0.014756,0.201839,0.201839,0.204105,0.991251,0.000000,0.000000,0.000000,0.000000,0.000000,0.000000,0.000000,0.000000,0.000000,0.000000,0.000000,0.000000,1.887244,3,0
330000,0.003420,6.566321,0.004811,0.029919,24.715437,-0.019798,0.000253,-0.002436,1.570416,0.007005,-0.000039,-0.000096,0.000002,0.000208,0.000002,0.002246,-0.003537,-0.109291,-0.044516,0.198572,0.198572,0.200469,0.988759,0.000000,0.000000,0.000000,0.000000,0.000000,0.000000,0.000000,0.000000,0.000000,0.000000,0.000000,0.000000,1.902101,3,0
340000,0.003607,6.807145,0.004159,0.030664,24.708296,-0.020742,0.000258,-0.002541,1.570412,0.007311,-0.000045,-0.000075,0.000002,0.000222,0.000002,0.006087,-0.003728,-0.193783,-0.013640,0.195611,0.195611,0.197151,0.986069,0.000000,0.000000,0.000000,0.000000,0.000000,0.000000,0.000000,0.000000,0.000000,0.000000,0.000000,0.000000,1.919704,3,0
350000,0.003798,7.047914,0.005178,0.031656,24.701017,-0.020469,0.000261,-0.002659,1.570411,0.007638,-0.000052,-0.000138,0.000002,0.000239,0.000002,0.006433,-0.003924,-0.195990,0.038162,0.192932,0.192932,0.194126,0.983181,0.000000,0.000000,0.000000,0.000000,0.000000,0.000000,0.000000,0.000000,0.000000,0.000000,0.000000,0.000000,1.937361,3,0
360000,0.003995,7.288617,0.005970,0.032705,24.693218,-0.020343,0.000269,-0.002786,1.570398,0.007986,-0.000059,-0.000193,0.000003,0.000257,0.000002,0.006498,-0.004127,-0.198135,0.031514,0.190514,0.190514,0.191370,0.980091,0.000000,0.000000,0.000000,0.000000,0.000000,0.000000,0.000000,0.000000,0.000000,0.000000,0.000000,0.000000,1.955083,3,0
370000,0.004196,7.534870,0.004319,0.033450,24.691462,-0.022474,0.000280,-0.002804,1.570387,0.008025,-0.000067,-0.000109,0.000003,0.000259,0.000003,0.000414,-0.004331,-0.021308,-0.045743,0.188339,0.188339,0.188863,0.976799,0.000000,0.000000,0.000000,0.000000,0.000000,0.000000,0.000000,0.000000,0.000000,0.000000,0.000000,0.000000,1.967257,3,0
380000,0.004398,7.777782,0.003080,0.034200,24.685835,-0.024118,0.000275,-0.002895,1.570375,0.008273,-0.000075,-0.000047,0.000003,0.000272,0.000003,0.002835,-0.004539,-0.128388,-0.032383,0.186388,0.186388,0.186586,0.973302,0.000000,0.000000,0.000000,0.000000,0.000000,0.000000,0.000000,0.000000,0.000000,0.000000,0.000000,0.000000,1.982770,3,0
390000,0.004605,8.021769,0.002281,0.035166,24.681437,-0.025304,0.000277,-0.002965,1.570365,0.008462,-0.000085,-0.000011,0.000004,0.000283,0.000003,0.001451,-0.004751,-0.092941,-0.017926,0.184647,0.184647,0.184523,0.969602,0.000000,0.000000,0.000000,0.000000,0.000000,0.000000,0.000000,0.000000,0.000000,0.000000,0.000000,0.000000,1.997210,3,0
400000,0.004816,8.266176,0.002394,0.036021,24.677523,-0.025547,0.000277,-0.003034,1.570349,0.008628,-0.000096,-0.000037,0.000005,0.000293,0.000003,0.001023,-0.004967,-0.078458,0.012219,0.183101,0.183101,0.182656,0.965698,0.000000,0.000000,0.000000,0.000000,0.000000,0.000000,0.000000,0.000000,0.000000,0.000000,0.000000,0.000000,2.011230,3,0
410000,0.005027,8.510989,0.002580,0.036642,24.674004,-0.025973,0.000282,-0.003089,1.570331,0.008770,-0.000107,-0.000070,0.000005,0.000301,0.000003,0.000711,-0.005184,-0.064401,0.014952,0.181736,0.181736,0.180971,0.961590,0.000000,0.000000,0.000000,0.000000,0.000000,0.000000,0.000000,0.000000,0.000000,0.000000,0.000000,0.000000,2.024843,3,0
420000,0.005241,8.758582,0.001354,0.037510,24.673794,-0.027546,0.000278,-0.003081,1.570324,0.008704,-0.000119,0.000004,0.000006,0.000297,0.000003,0.000305,-0.005404,0.028764,-0.032136,0.180540,0.180540,0.179456,0.957280,0.000000,0.000000,0.000000,0.000000,0.000000,0.000000,0.000000,0.000000,0.000000,0.000000,0.000000,0.000000,2.035676,3,0
430000,0.005458,9.006492,0.000589,0.038310,24.674019,-0.028910,0.000284,-0.003059,1.570310,0.008609,-0.000133,0.000043,0.000007,0.000291,0.000003,0.000301,-0.005627,0.039599,-0.016245,0.179501,0.179501,0.178097,0.952769,0.000000,0.000000,0.000000,0.000000,0.000000,0.000000,0.000000,0.000000,0.000000,0.000000,0.000000,0.000000,2.046193,3,0
440000,0.005675,9.253527,0.001648,0.038917,24.673071,-0.027993,0.000281,-0.003060,1.570301,0.008583,-0.000148,-0.000072,0.000008,0.000289,0.000003,0.000365,-0.005850,0.010356,0.045964,0.178609,0.178609,0.176883,0.948060,0.000000,0.000000,0.000000,0.000000,0.000000,0.000000,0.000000,0.000000,0.000000,0.000000,0.000000,0.000000,2.057585,3,0
450000,0.005893,9.500890,0.002794,0.039595,24.672663,-0.026961,0.000281,-0.003053,1.570290,0.008526,-0.000163,-0.000198,0.000009,0.000286,0.000003,0.000469,-0.006074,0.021756,0.048897,0.177853,0.177853,0.175803,0.943155,0.000000,0.000000,0.000000,0.000000,0.000000,0.000000,0.000000,0.000000,0.000000,0.000000,0.000000,0.000000,2.068648,3,0
460000,0.006113,9.746223,0.001905,0.040321,24.669420,-0.028274,0.000271,-0.003104,1.570279,0.008652,-0.000180,-0.000142,0.000010,0.000294,0.000003,0.000431,-0.006299,-0.046692,-0.021054,0.177224,0.177223,0.174848,0.938057,0.000000,0.000000,0.000000,0.000000,0.000000,0.000000,0.000000,0.000000,0.000000,0.000000,0.000000,0.000000,2.081741,3,0
470000,0.006334,9.995429,0.000814,0.041010,24.671587,-0.030140,0.000282,-0.003030,1.570273,0.008413,-0.000198,-0.000065,0.000011,0.000278,0.000003,0.001318,-0.006526,0.085706,-0.027592,0.176712,0.176712,0.174007,0.932770,0.000000,0.000000,0.000000,0.000000,0.000000,0.000000,0.000000,0.000000,0.000000,0.000000,0.000000,0.000000,2.090961,3,0
480000,0.006555,10.241414,0.000329,0.041675,24.669144,-0.030953,0.000281,-0.003067,1.570267,0.008484,-0.000218,-0.000047,0.000013,0.000283,0.000003,0.000110,-0.006753,-0.024367,-0.006139,0.176311,0.176311,0.173272,0.927299,0.000000,0.000000,0.000000,0.000000,0.000000,0.000000,0.000000,0.000000,0.000000,0.000000,0.000000,0.000000,2.103403,3,0
490000,0.006774,10.487159,-0.001129,0.042073,24.666403,-0.033063,0.000289,-0.003111,1.570249,0.008578,-0.000239,0.000071,0.000014,0.000290,0.000003,0.000426,-0.006979,-0.031782,-0.039685,0.176011,0.176011,0.172635,0.921646,0.000000,0.000000,0.000000,0.000000,0.000000,0.000000,0.000000,0.000000,0.000000,0.000000,0.000000,0.000000,2.116086,3,0
500000,0.006992,10.733835,-0.000223,0.042630,24.665323,-0.031947,0.000296,-0.003109,1.570240,0.008576,-0.000261,-0.000062,0.000016,0.000289,0.000003,0.000312,-0.007203,0.000804,0.043270,0.175805,0.175805,0.172088,0.915818,0.000000,0.000000,0.000000,0.000000,0.000000,0.000000,0.000000,0.000000,0.000000,0.000000,0.000000,0.000000,2.127835,3,0
510000,0.007210,10.983171,-0.001687,0.043222,24.667942,-0.034169,0.000298,-0.003016,1.570231,0.008284,-0.000284,0.000065,0.000017,0.000267,0.000003,0.001637,-0.007427,0.092081,-0.039762,0.175687,0.175687,0.171623,0.909820,0.000000,0.000000,0.000000,0.000000,0.000000,0.000000,0.000000,0.000000,0.000000,0.000000,0.000000,0.000000,2.136926,3,0
520000,0.007427,11.231635,-0.002604,0.043769,24.669344,-0.035474,0.000299,-0.002959,1.570227,0.008083,-0.000309,0.000131,0.000019,0.000252,0.000003,0.000684,-0.007651,0.061386,-0.020018,0.175649,0.175649,0.171235,0.903658,0.000000,0.000000,0.000000,0.000000,0.000000,0.000000,0.000000,0.000000,0.000000,0.000000,0.000000,0.000000,2.146889,3,0
530000,0.007644,11.478659,-0.002806,0.044414,24.668636,-0.035997,0.000290,-0.002948,1.570220,0.008044,-0.000336,0.000112,0.000021,0.000249,0.000003,0.000037,-0.007875,0.011698,0.005623,0.175686,0.175686,0.170915,0.897337,0.000000,0.000000,0.000000,0.000000,0.000000,0.000000,0.000000,0.000000,0.000000,0.000000,0.000000,0.000000,2.158292,3,0
540000,0.007861,11.727175,-0.003472,0.044999,24.670240,-0.037136,0.000285,-0.002873,1.570212,0.007826,-0.000364,0.000149,0.000024,0.000232,0.000002,0.000668,-0.008098,0.062864,-0.010505,0.175791,0.175791,0.170659,0.890865,0.000000,0.000000,0.000000,0.000000,0.000000,0.000000,0.000000,0.000000,0.000000,0.000000,0.000000,0.000000,2.168202,3,0
550000,0.008076,11.977166,-0.004827,0.045479,24.674322,-0.039359,0.000276,-0.002735,1.570214,0.007426,-0.000394,0.000273,0.000026,0.000199,0.000002,0.002250,-0.008319,0.112513,-0.034362,0.175959,0.175958,0.170461,0.884247,0.000000,0.000000,0.000000,0.000000,0.000000,0.000000,0.000000,0.000000,0.000000,0.000000,0.000000,0.000000,2.176637,3,0
560000,0.008290,12.225693,-0.005918,0.046108,24.675598,-0.040885,0.000267,-0.002664,1.570212,0.007202,-0.000425,0.000364,0.000028,0.000180,0.000002,0.000716,-0.008541,0.061276,-0.024421,0.176183,0.176183,0.170315,0.877491,0.000000,0.000000,0.000000,0.000000,0.000000,0.000000,0.000000,0.000000,0.000000,0.000000,0.000000,0.000000,2.186537,3,0
570000,0.008507,12.476281,-0.006833,0.047006,24.680340,-0.042380,0.000266,-0.002491,1.570217,0.006712,-0.000458,0.000431,0.000031,0.000138,0.000002,0.002830,-0.008764,0.130798,-0.017616,0.176460,0.176460,0.170216,0.870605,0.000000,0.000000,0.000000,0.000000,0.000000,0.000000,0.000000,0.000000,0.000000,0.000000,0.000000,0.000000,2.194375,3,0
580000,0.008720,12.728327,-0.006951,0.047363,24.687510,-0.042672,0.000257,-0.002262,1.570213,0.006027,-0.000493,0.000390,0.000034,0.000079,0.000001,0.005177,-0.008985,0.178345,0.010964,0.176784,0.176784,0.170159,0.863595,0.000000,0.000000,0.000000,0.000000,0.000000,0.000000,0.000000,0.000000,0.000000,0.000000,0.000000,0.000000,2.200756,3,0
590000,0.008932,12.981816,-0.008279,0.047888,24.697077,-0.044619,0.000259,-0.001955,1.570222,0.005144,-0.000529,0.000518,0.000037,0.000000,0.000000,0.008321,-0.009203,0.224409,-0.031620,0.177151,0.177151,0.170139,0.856469,0.000000,0.000000,0.000000,0.000000,0.000000,0.000000,0.000000,0.000000,0.000000,0.000000,0.000000,0.000000,2.205694,3,0
600000,0.009142,13.232029,-0.007352,0.048452,24.701103,-0.043305,0.000254,-0.001807,1.570225,0.004701,-0.000567,0.000319,0.000041,-0.000040,0.000000,0.002353,-0.009421,0.109978,0.048583,0.177556,0.177556,0.170153,0.849236,0.000000,0.000000,0.000000,0.000000,0.000000,0.000000,0.000000,0.000000,0.000000,0.000000,0.000000,0.000000,2.213908,3,0
610000,0.009351,13.483123,-0.008649,0.048973,24.706673,-0.045361,0.000245,-0.001607,1.570226,0.004133,-0.000607,0.000447,0.000045,-0.000092,-0.000000,0.003244,-0.009636,0.138029,-0.030224,0.177995,0.177995,0.170197,0.841902,0.000000,0.000000,0.000000,0.000000,0.000000,0.000000,0.000000,0.000000,0.000000,0.000000,0.000000,0.000000,2.221241,3,0
620000,0.009557,13.733316,-0.008291,0.049504,24.710545,-0.044905,0.000239,-0.001451,1.570216,0.003689,-0.000649,0.000324,0.000049,-0.000134,-0.000001,0.001952,-0.009851,0.105549,0.028805,0.178465,0.178464,0.170266,0.834476,0.000000,0.000000,0.000000,0.000000,0.000000,0.000000,0.000000,0.000000,0.000000,0.000000,0.000000,0.000000,2.229474,3,0
630000,0.009763,13.983802,-0.009690,0.050095,24.714918,-0.046903,0.000231,-0.001283,1.570207,0.003200,-0.000692,0.000471,0.000053,-0.000181,-0.000001,0.002288,-0.010063,0.113742,-0.033299,0.178960,0.178960,0.170357,0.826967,0.000000,0.000000,0.000000,0.000000,0.000000,0.000000,0.000000,0.000000,0.000000,0.000000,0.000000,0.000000,2.237415,3,0
640000,0.009965,14.235174,-0.009437,0.050410,24.721010,-0.046656,0.000209,-0.001052,1.570195,0.002580,-0.000737,0.000357,0.000057,-0.000242,-0.000002,0.003361,-0.010273,0.141516,0.025613,0.179479,0.179479,0.170467,0.819381,0.000000,0.000000,0.000000,0.000000,0.000000,0.000000,0.000000,0.000000,0.000000,0.000000,0.000000,0.000000,2.244470,3,0
650000,0.010164,14.488617,-0.009618,0.050782,24.730206,-0.046789,0.000203,-0.000707,1.570199,0.001650,-0.000784,0.000313,0.000062,-0.000334,-0.000003,0.007039,-0.010478,0.208148,0.010095,0.180018,0.180018,0.170593,0.811728,0.000000,0.000000,0.000000,0.000000,0.000000,0.000000,0.000000,0.000000,0.000000,0.000000,0.000000,0.000000,2.249453,3,0
660000,0.010359,14.741124,-0.008987,0.051160,24.737991,-0.045749,0.000190,-0.000416,1.570200,0.000860,-0.000833,0.000133,0.000067,-0.000415,-0.000003,0.005115,-0.010681,0.173278,0.038724,0.180573,0.180573,0.170731,0.804016,0.000000,0.000000,0.000000,0.000000,0.000000,0.000000,0.000000,0.000000,0.000000,0.000000,0.000000,0.000000,2.255373,3,0
670000,0.010548,14.993904,-0.007941,0.051257,24.746296,-0.044215,0.000176,-0.000106,1.570207,0.000029,-0.000884,-0.000118,0.000073,-0.000501,-0.000004,0.005658,-0.010877,0.179116,0.052924,0.181142,0.181142,0.170879,0.796251,0.000000,0.000000,0.000000,0.000000,0.000000,0.000000,0.000000,0.000000,0.000000,0.000000,0.000000,0.000000,2.261019,3,0
680000,0.010735,15.245143,-0.009160,0.051634,24.751650,-0.045999,0.000170,0.000119,1.570203,-0.000561,-0.000936,0.000015,0.000078,-0.000562,-0.000005,0.002666,-0.011070,0.125047,-0.027129,0.181723,0.181722,0.171035,0.788444,0.000000,0.000000,0.000000,0.000000,0.000000,0.000000,0.000000,0.000000,0.000000,0.000000,0.000000,0.000000,2.268207,3,0
690000,0.010918,15.501499,-0.007795,0.051963,24.765770,-0.044089,0.000152,0.000658,1.570223,-0.001959,-0.000991,-0.000300,0.000084,-0.000712,-0.000006,0.014389,-0.011261,0.291211,0.064060,0.182311,0.182311,0.171196,0.780601,0.000000,0.000000,0.000000,0.000000,0.000000,0.000000,0.000000,0.000000,0.000000,0.000000,0.000000,0.000000,2.270278,3,0
700000,0.011096,15.757482,-0.006675,0.052230,24.779379,-0.042332,0.000140,0.001179,1.570225,-0.003292,-0.001047,-0.000574,0.000090,-0.000858,-0.000007,0.012570,-0.011446,0.273255,0.054647,0.182906,0.182905,0.171359,0.772729,0.000000,0.000000,0.000000,0.000000,0.000000,0.000000,0.000000,0.000000,0.000000,0.000000,0.000000,0.000000,2.272723,3,0
710000,0.011272,16.013088,-0.006769,0.052559,24.792103,-0.042585,0.000117,0.001677,1.570234,-0.004559,-0.001105,-0.000631,0.000097,-0.000998,-0.000009,0.010606,-0.011628,0.255684,0.011564,0.183505,0.183504,0.171524,0.764838,0.000000,0.000000,0.000000,0.000000,0.000000,0.000000,0.000000,0.000000,0.000000,0.000000,0.000000,0.000000,2.275542,3,0
720000,0.011445,16.268932,-0.007787,0.052790,24.805334,-0.044114,0.000104,0.002170,1.570241,-0.005859,-0.001165,-0.000520,0.000104,-0.001145,-0.000010,0.010877,-0.011806,0.258375,-0.020677,0.184105,0.184105,0.171688,0.756934,0.000000,0.000000,0.000000,0.000000,0.000000,0.000000,0.000000,0.000000,0.000000,0.000000,0.000000,0.000000,2.278126,3,0
730000,0.011614,16.523174,-0.006436,0.053319,24.815475,-0.041834,0.000098,0.002569,1.570247,-0.006886,-0.001226,-0.000851,0.000111,-0.001263,-0.000011,0.007195,-0.011984,0.201189,0.062565,0.184706,0.184705,0.171849,0.749025,0.000000,0.000000,0.000000,0.000000,0.000000,0.000000,0.000000,0.000000,0.000000,0.000000,0.000000,0.000000,2.282311,3,0
740000,0.011782,16.778278,-0.006845,0.053605,24.827009,-0.042631,0.000074,0.003030,1.570250,-0.008052,-0.001290,-0.000851,0.000118,-0.001399,-0.000012,0.008212,-0.012157,0.225149,0.000404,0.185305,0.185304,0.172006,0.741117,0.000000,0.000000,0.000000,0.000000,0.000000,0.000000,0.000000,0.000000,0.000000,0.000000,0.000000,0.000000,2.285633,3,0
750000,0.011944,17.031773,-0.006381,0.053867,24.835670,-0.042022,0.000051,0.003385,1.570256,-0.008937,-0.001355,-0.001020,0.000126,-0.001504,-0.000013,0.004779,-0.012327,0.168718,0.031123,0.185900,0.185900,0.172157,0.733219,0.000000,0.000000,0.000000,0.000000,0.000000,0.000000,0.000000,0.000000,0.000000,0.000000,0.000000,0.000000,2.290566,3,0
760000,0.012106,17.288609,-0.007317,0.054251,24.849882,-0.043627,0.000031,0.003978,1.570259,-0.010388,-0.001422,-0.000917,0.000134,-0.001679,-0.000015,0.012109,-0.012494,0.272959,-0.017909,0.186491,0.186490,0.172302,0.725336,0.000000,0.000000,0.000000,0.000000,0.000000,0.000000,0.000000,0.000000,0.000000,0.000000,0.000000,0.000000,2.292156,3,0
770000,0.012264,17.543797,-0.008595,0.054449,24.861048,-0.045572,0.000018,0.004457,1.570265,-0.011544,-0.001490,-0.000748,0.000142,-0.001821,-0.000016,0.007613,-0.012657,0.214771,-0.029267,0.187076,0.187075,0.172438,0.717475,0.000000,0.000000,0.000000,0.000000,0.000000,0.000000,0.000000,0.000000,0.000000,0.000000,0.000000,0.000000,2.295395,3,0
780000,0.012417,17.802326,-0.007714,0.054820,24.877989,-0.044188,-0.000009,0.005179,1.570276,-0.013273,-0.001561,-0.001012,0.000151,-0.002037,-0.000018,0.016629,-0.012819,0.317291,0.046403,0.187653,0.187652,0.172566,0.709642,0.000000,0.000000,0.000000,0.000000,0.000000,0.000000,0.000000,0.000000,0.000000,0.000000,0.000000,0.000000,2.295291,3,0
790000,0.012566,18.061050,-0.006906,0.054978,24.895063,-0.043087,-0.000029,0.005907,1.570287,-0.015020,-0.001633,-0.001261,0.000161,-0.002259,-0.000020,0.016556,-0.012974,0.317015,0.043357,0.188222,0.188221,0.172683,0.701843,0.000000,0.000000,0.000000,0.000000,0.000000,0.000000,0.000000,0.000000,0.000000,0.000000,0.000000,0.000000,2.294994,3,0
800000,0.012710,18.318085,-0.007745,0.054933,24.909269,-0.044326,-0.000062,0.006517,1.570293,-0.016451,-0.001706,-0.001174,0.000170,-0.002444,-0.000022,0.010715,-0.013123,0.256907,-0.014232,0.188782,0.188781,0.172790,0.694084,0.000000,0.000000,0.000000,0.000000,0.000000,0.000000,0.000000,0.000000,0.000000,0.000000,0.000000,0.000000,2.296386,3,0
810000,0.012848,18.575949,-0.007032,0.055014,24.924419,-0.042880,-0.000082,0.007188,1.570304,-0.018017,-0.001782,-0.001410,0.000180,-0.002649,-0.000023,0.012764,-0.013268,0.278038,0.039925,0.189331,0.189331,0.172885,0.686371,0.000000,0.000000,0.000000,0.000000,0.000000,0.000000,0.000000,0.000000,0.000000,0.000000,0.000000,0.000000,2.296949,3,0
820000,0.012984,18.830229,-0.008476,0.055112,24.933258,-0.045115,-0.000105,0.007579,1.570302,-0.018923,-0.001858,-0.001194,0.000190,-0.002770,-0.000025,0.004318,-0.013407,0.159172,-0.035136,0.189870,0.189869,0.172968,0.678708,0.000000,0.000000,0.000000,0.000000,0.000000,0.000000,0.000000,0.000000,0.000000,0.000000,0.000000,0.000000,2.301096,3,0
830000,0.013112,19.084742,-0.009002,0.055017,24.942331,-0.045839,-0.000135,0.007995,1.570314,-0.019861,-0.001936,-0.001176,0.000201,-0.002897,-0.000026,0.004330,-0.013541,0.163229,-0.002573,0.190398,0.190397,0.173038,0.671101,0.000000,0.000000,0.000000,0.000000,0.000000,0.000000,0.000000,0.000000,0.000000,0.000000,0.000000,0.000000,2.305009,3,0
840000,0.013235,19.342644,-0.009173,0.055023,24.957277,-0.045992,-0.000172,0.008681,1.570317,-0.021406,-0.002016,-0.001234,0.000212,-0.003109,-0.000028,0.011502,-0.013670,0.266445,0.009862,0.190913,0.190912,0.173095,0.663554,0.000000,0.000000,0.000000,0.000000,0.000000,0.000000,0.000000,0.000000,0.000000,0.000000,0.000000,0.000000,2.305534,3,0
850000,0.013355,19.597559,-0.010384,0.055143,24.966803,-0.047517,-0.000207,0.009129,1.570323,-0.022385,-0.002097,-0.001067,0.000223,-0.003246,-0.000029,0.004664,-0.013794,0.167423,-0.026077,0.191416,0.191415,0.173139,0.656073,0.000000,0.000000,0.000000,0.000000,0.000000,0.000000,0.000000,0.000000,0.000000,0.000000,0.000000,0.000000,2.309044,3,0
860000,0.013472,19.852692,-0.010507,0.055436,24.976431,-0.047343,-0.000248,0.009597,1.570326,-0.023394,-0.002180,-0.001142,0.000235,-0.003390,-0.000030,0.004764,-0.013917,0.170841,0.012096,0.191907,0.191906,0.173169,0.648661,0.000000,0.000000,0.000000,0.000000,0.000000,0.000000,0.000000,0.000000,0.000000,0.000000,0.000000,0.000000,2.312339,3,0
870000,0.013584,20.111225,-0.010536,0.055440,24.991911,-0.047404,-0.000271,0.010340,1.570346,-0.025021,-0.002264,-0.001238,0.000247,-0.003625,-0.000032,0.012131,-0.014034,0.273432,0.015322,0.192384,0.192383,0.173185,0.641322,0.000000,0.000000,0.000000,0.000000,0.000000,0.000000,0.000000,0.000000,0.000000,0.000000,0.000000,0.000000,2.312231,3,0
880000,0.013691,20.369930,-0.009895,0.055460,25.007811,-0.046419,-0.000310,0.011094,1.570355,-0.026659,-0.002349,-0.001486,0.000260,-0.003865,-0.000034,0.012309,-0.014146,0.273167,0.038493,0.192848,0.192847,0.173187,0.634059,0.000000,0.000000,0.000000,0.000000,0.000000,0.000000,0.000000,0.000000,0.000000,0.000000,0.000000,0.000000,2.311953,3,0
890000,0.013795,20.630722,-0.009838,0.055556,25.027195,-0.046333,-0.000352,0.012026,1.570377,-0.028667,-0.002436,-0.001600,0.000273,-0.004165,-0.000037,0.017902,-0.014255,0.332365,0.017893,0.193299,0.193298,0.173174,0.626876,0.000000,0.000000,0.000000,0.000000,0.000000,0.000000,0.000000,0.000000,0.000000,0.000000,0.000000,0.000000,2.309589,3,0
900000,0.013896,20.889725,-0.008439,0.055814,25.043068,-0.044270,-0.000382,0.012796,1.570385,-0.030311,-0.002524,-0.002027,0.000287,-0.004414,-0.000039,0.012477,-0.014361,0.270168,0.064399,0.193736,0.193735,0.173148,0.619778,0.000000,0.000000,0.000000,0.000000,0.000000,0.000000,0.000000,0.000000,0.000000,0.000000,0.000000,0.000000,2.309013,3,0
910000,0.013996,21.146305,-0.009733,0.055914,25.054394,-0.046138,-0.000417,0.013366,1.570400,-0.031475,-0.002613,-0.001825,0.000300,-0.004593,-0.000041,0.005992,-0.014463,0.189915,-0.029530,0.194160,0.194159,0.173107,0.612765,0.000000,0.000000,0.000000,0.000000,0.000000,0.000000,0.000000,0.000000,0.000000,0.000000,0.000000,0.000000,2.310858,3,0
920000,0.014091,21.407585,-0.009145,0.055927,25.074076,-0.045211,-0.000448,0.014343,1.570415,-0.033515,-0.002704,-0.002068,0.000315,-0.004911,-0.000044,0.017892,-0.014564,0.330799,0.036120,0.194571,0.194570,0.173052,0.605841,0.000000,0.000000,0.000000,0.000000,0.000000,0.000000,0.000000,0.000000,0.000000,0.000000,0.000000,0.000000,2.308005,3,0
930000,0.014182,21.665758,-0.008920,0.056016,25.088116,-0.044727,-0.000490,0.015037,1.570432,-0.034931,-0.002795,-0.002226,0.000329,-0.005136,-0.000046,0.008531,-0.014659,0.228352,0.023362,0.194968,0.194967,0.172983,0.599008,0.000000,0.000000,0.000000,0.000000,0.000000,0.000000,0.000000,0.000000,0.000000,0.000000,0.000000,0.000000,2.308260,3,0
940000,0.014270,21.926676,-0.008533,0.055971,25.106464,-0.043991,-0.000530,0.015973,1.570450,-0.036853,-0.002888,-0.002422,0.000345,-0.005446,-0.000049,0.015462,-0.014751,0.307981,0.028681,0.195352,0.195351,0.172900,0.592269,0.000000,0.000000,0.000000,0.000000,0.000000,0.000000,0.000000,0.000000,0.000000,0.000000,0.000000,0.000000,2.305767,3,0
950000,0.014352,22.188358,-0.008543,0.055803,25.126009,-0.044113,-0.000574,0.016987,1.570467,-0.038894,-0.002982,-0.002521,0.000360,-0.005780,-0.000052,0.017120,-0.014836,0.325184,0.014735,0.195723,0.195722,0.172803,0.585625,0.000000,0.000000,0.000000,0.000000,0.000000,0.000000,0.000000,0.000000,0.000000,0.000000,0.000000,0.000000,2.302510,3,0
960000,0.014431,22.449493,-0.008733,0.055777,25.144371,-0.044335,-0.000614,0.017936,1.570469,-0.040798,-0.003077,-0.002578,0.000376,-0.006096,-0.000054,0.014737,-0.014918,0.301851,0.008521,0.196082,0.196081,0.172693,0.579079,0.000000,0.000000,0.000000,0.000000,0.000000,0.000000,0.000000,0.000000,0.000000,0.000000,0.000000,0.000000,2.299802,3,0
970000,0.014504,22.706833,-0.007737,0.055667,25.155840,-0.042875,-0.000647,0.018535,1.570480,-0.041936,-0.003172,-0.002935,0.000393,-0.006288,-0.000056,0.005645,-0.014996,0.179684,0.049988,0.196428,0.196427,0.172570,0.572631,0.000000,0.000000,0.000000,0.000000,0.000000,0.000000,0.000000,0.000000,0.000000,0.000000,0.000000,0.000000,2.300888,3,0
980000,0.014574,22.967588,-0.008544,0.055526,25.173210,-0.043906,-0.000678,0.019444,1.570493,-0.043720,-0.003269,-0.002834,0.000409,-0.006594,-0.000059,0.012708,-0.015068,0.280048,-0.013394,0.196762,0.196762,0.172434,0.566284,0.000000,0.000000,0.000000,0.000000,0.000000,0.000000,0.000000,0.000000,0.000000,0.000000,0.000000,0.000000,2.298560,3,0
990000,0.014643,23.229755,-0.009708,0.055605,25.192837,-0.045849,-0.000724,0.020491,1.570510,-0.045749,-0.003367,-0.002645,0.000426,-0.006946,-0.000062,0.016370,-0.015139,0.317303,-0.025383,0.197085,0.197084,0.172284,0.560039,0.000000,0.000000,0.000000,0.000000,0.000000,0.000000,0.000000,0.000000,0.000000,0.000000,0.000000,0.000000,2.294818,3,0
1000000,0.014704,23.488089,-0.008693,0.055387,25.205725,-0.044723,-0.000771,0.021160,1.570514,-0.046995,-0.003465,-0.003022,0.000443,-0.007166,-0.000064,0.006537,-0.015206,0.194088,0.051425,0.197396,0.197395,0.172123,0.553895,0.000000,0.000000,0.000000,0.000000,0.000000,0.000000,0.000000,0.000000,0.000000,0.000000,0.000000,0.000000,2.294914,3,0
1010000,0.014762,23.749180,-0.008105,0.055324,25.223274,-0.043908,-0.000825,0.022106,1.570528,-0.048758,-0.003564,-0.003286,0.000461,-0.007483,-0.000067,0.012309,-0.015266,0.273567,0.035947,0.197695,0.197695,0.171950,0.547856,0.000000,0.000000,0.000000,0.000000,0.000000,0.000000,0.000000,0.000000,0.000000,0.000000,0.000000,0.000000,2.292249,3,0
1020000,0.014815,24.007084,-0.006986,0.055189,25.234793,-0.042357,-0.000877,0.022732,1.570541,-0.049866,-0.003663,-0.003692,0.000480,-0.007684,-0.000069,0.005248,-0.015323,0.171331,0.054396,0.197984,0.197984,0.171764,0.541920,0.000000,0.000000,0.000000,0.000000,0.000000,0.000000,0.000000,0.000000,0.000000,0.000000,0.000000,0.000000,2.292771,3,0
1030000,0.014868,24.269062,-0.007839,0.055094,25.253256,-0.043472,-0.000933,0.023762,1.570548,-0.051755,-0.003764,-0.003574,0.000499,-0.008033,-0.000072,0.013724,-0.015375,0.291016,-0.015259,0.198263,0.198263,0.171568,0.536090,0.000000,0.000000,0.000000,0.000000,0.000000,0.000000,0.000000,0.000000,0.000000,0.000000,0.000000,0.000000,2.289220,3,0
1040000,0.014915,24.530462,-0.008435,0.054795,25.270714,-0.044282,-0.000980,0.024735,1.570564,-0.053496,-0.003865,-0.003527,0.000517,-0.008359,-0.000075,0.011566,-0.015425,0.267395,-0.005819,0.198532,0.198532,0.171360,0.530363,0.000000,0.000000,0.000000,0.000000,0.000000,0.000000,0.000000,0.000000,0.000000,0.000000,0.000000,0.000000,2.286244,3,0
1050000,0.014957,24.789968,-0.007936,0.054711,25.284536,-0.043472,-0.001038,0.025501,1.570567,-0.054831,-0.003966,-0.003778,0.000537,-0.008613,-0.000077,0.006960,-0.015471,0.204611,0.032864,0.198792,0.198792,0.171142,0.524743,0.000000,0.000000,0.000000,0.000000,0.000000,0.000000,0.000000,0.000000,0.000000,0.000000,0.000000,0.000000,2.285165,3,0
1060000,0.014997,25.052879,-0.007613,0.054661,25.304163,-0.043293,-0.001093,0.026615,1.570572,-0.056813,-0.004068,-0.003980,0.000557,-0.008996,-0.000080,0.014925,-0.015513,0.302784,0.026470,0.199043,0.199042,0.170914,0.519227,0.000000,0.000000,0.000000,0.000000,0.000000,0.000000,0.000000,0.000000,0.000000,0.000000,0.000000,0.000000,2.280679,3,0
1070000,0.015036,25.315186,-0.008158,0.054584,25.322668,-0.044255,-0.001142,0.027652,1.570596,-0.058638,-0.004171,-0.003947,0.000577,-0.009353,-0.000084,0.012514,-0.015552,0.278221,-0.004033,0.199285,0.199285,0.170676,0.513817,0.000000,0.000000,0.000000,0.000000,0.000000,0.000000,0.000000,0.000000,0.000000,0.000000,0.000000,0.000000,2.276800,3,0
1080000,0.015120,25.598751,-0.007759,0.054244,25.334089,-0.043658,-0.001194,0.028279,1.570594,-0.059623,-0.004275,-0.004192,0.000598,-0.009549,-0.000085,0.003794,-0.015643,0.149431,0.031117,0.200193,0.200193,0.170882,0.508870,0.000000,0.000000,0.000000,0.000000,0.000000,0.000000,0.000000,0.000000,0.000000,0.000000,0.000000,0.000000,2.251661,3,0
1090000,0.015149,25.861092,-0.008897,0.054146,25.352259,-0.045338,-0.001239,0.029325,1.570608,-0.061399,-0.004379,-0.003994,0.000619,-0.009908,-0.000089,0.011778,-0.015670,0.268782,-0.024781,0.200398,0.200397,0.170610,0.503633,0.000000,0.000000,0.000000,0.000000,0.000000,0.000000,0.000000,0.000000,0.000000,0.000000,0.000000,0.000000,2.247747,3,0
1100000,0.015175,26.121494,-0.010280,0.054009,25.366934,-0.047336,-0.001303,0.030163,1.570618,-0.062757,-0.004484,-0.003731,0.000640,-0.010186,-0.000091,0.006987,-0.015698,0.205044,-0.032786,0.200596,0.200595,0.170330,0.498503,0.000000,0.000000,0.000000,0.000000,0.000000,0.000000,0.000000,0.000000,0.000000,0.000000,0.000000,0.000000,2.245769,3,0
1110000,0.015198,26.383312,-0.011020,0.053976,25.383801,-0.048507,-0.001369,0.031146,1.570630,-0.064365,-0.004589,-0.003654,0.000661,-0.010520,-0.000094,0.009541,-0.015724,0.242678,-0.009439,0.200787,0.200787,0.170042,0.493479,0.000000,0.000000,0.000000,0.000000,0.000000,0.000000,0.000000,0.000000,0.000000,0.000000,0.000000,0.000000,2.242380,3,0
1120000,0.015215,26.644524,-0.009884,0.053677,25.399515,-0.046728,-0.001431,0.032057,1.570635,-0.065817,-0.004694,-0.004117,0.000684,-0.010827,-0.000097,0.008311,-0.015744,0.219238,0.057141,0.200973,0.200972,0.169747,0.488560,0.000000,0.000000,0.000000,0.000000,0.000000,0.000000,0.000000,0.000000,0.000000,0.000000,0.000000,0.000000,2.239592,3,0
1130000,0.015228,26.904465,-0.009790,0.053308,25.412687,-0.046806,-0.001493,0.032826,1.570643,-0.066988,-0.004799,-0.004279,0.000707,-0.011078,-0.000099,0.005124,-0.015757,0.176538,0.019921,0.201154,0.201153,0.169445,0.483746,0.000000,0.000000,0.000000,0.000000,0.000000,0.000000,0.000000,0.000000,0.000000,0.000000,0.000000,0.000000,2.238079,3,0
1140000,0.015241,27.164488,-0.010920,0.053148,25.425924,-0.048459,-0.001551,0.033591,1.570650,-0.068150,-0.004904,-0.004087,0.000729,-0.011330,-0.000101,0.005056,-0.015769,0.174889,-0.023431,0.201329,0.201329,0.169137,0.479035,0.000000,0.000000,0.000000,0.000000,0.000000,0.000000,0.000000,0.000000,0.000000,0.000000,0.000000,0.000000,2.236481,3,0
1150000,0.015252,27.425259,-0.012219,0.053020,25.440371,-0.049975,-0.001611,0.034445,1.570653,-0.069434,-0.005010,-0.003847,0.000752,-0.011613,-0.000104,0.006179,-0.015780,0.193035,-0.029066,0.201501,0.201500,0.168822,0.474428,0.000000,0.000000,0.000000,0.000000,0.000000,0.000000,0.000000,0.000000,0.000000,0.000000,0.000000,0.000000,2.234137,3,0
1160000,0.015256,27.682762,-0.011255,0.052758,25.449158,-0.048761,-0.001661,0.034909,1.570657,-0.070038,-0.005114,-0.004282,0.000776,-0.011749,-0.000105,0.001821,-0.015789,0.091148,0.052261,0.201668,0.201667,0.168501,0.469922,0.000000,0.000000,0.000000,0.000000,0.000000,0.000000,0.000000,0.000000,0.000000,0.000000,0.000000,0.000000,2.235058,3,0
1170000,0.015262,27.941717,-0.012658,0.052633,25.460209,-0.050769,-0.001727,0.035531,1.570668,-0.070914,-0.005220,-0.004010,0.000800,-0.011947,-0.000106,0.003007,-0.015791,0.131742,-0.032537,0.201832,0.201830,0.168176,0.465517,0.000000,0.000000,0.000000,0.000000,0.000000,0.000000,0.000000,0.000000,0.000000,0.000000,0.000000,0.000000,2.234530,3,0
1180000,0.015262,28.204113,-0.011983,0.052416,25.477110,-0.049698,-0.001784,0.036556,1.570670,-0.072444,-0.005325,-0.004368,0.000825,-0.012300,-0.000109,0.008886,-0.015796,0.230499,0.042214,0.201992,0.201991,0.167845,0.461212,0.000000,0.000000,0.000000,0.000000,0.000000,0.000000,0.000000,0.000000,0.000000,0.000000,0.000000,0.000000,2.230559,3,0
1190000,0.015258,28.463196,-0.010894,0.052124,25.488077,-0.048397,-0.001855,0.037185,1.570678,-0.073285,-0.005430,-0.004852,0.000850,-0.012497,-0.000111,0.003161,-0.015793,0.126963,0.056931,0.202149,0.202148,0.167509,0.457005,0.000000,0.000000,0.000000,0.000000,0.000000,0.000000,0.000000,0.000000,0.000000,0.000000,0.000000,0.000000,2.229903,3,0
1200000,0.015252,28.721697,-0.010587,0.051830,25.497896,-0.048222,-0.001924,0.037729,1.570663,-0.073990,-0.005534,-0.005097,0.000875,-0.012664,-0.000113,0.001993,-0.015785,0.106318,0.028576,0.202305,0.202303,0.167169,0.452896,0.000000,0.000000,0.000000,0.000000,0.000000,0.000000,0.000000,0.000000,0.000000,0.000000,0.000000,0.000000,2.229829,3,0
1210000,0.015244,28.979624,-0.009785,0.051788,25.506601,-0.047182,-0.001994,0.038201,1.570661,-0.074560,-0.005638,-0.005496,0.000901,-0.012801,-0.000114,0.001586,-0.015779,0.086266,0.046304,0.202458,0.202456,0.166825,0.448883,0.000000,0.000000,0.000000,0.000000,0.000000,0.000000,0.000000,0.000000,0.000000,0.000000,0.000000,0.000000,2.230326,3,0
1220000,0.015236,29.239664,-0.011081,0.051365,25.518766,-0.048977,-0.002063,0.038929,1.570661,-0.075531,-0.005744,-0.005242,0.000926,-0.013038,-0.000116,0.003630,-0.015767,0.146315,-0.029595,0.202609,0.202607,0.166478,0.444964,0.000000,0.000000,0.000000,0.000000,0.000000,0.000000,0.000000,0.000000,0.000000,0.000000,0.000000,0.000000,2.228715,3,0
1230000,0.015220,29.500446,-0.009983,0.050970,25.532282,-0.047640,-0.002140,0.039738,1.570669,-0.076616,-0.005848,-0.005744,0.000953,-0.013307,-0.000118,0.004931,-0.015756,0.164455,0.057491,0.202759,0.202757,0.166127,0.441140,0.000000,0.000000,0.000000,0.000000,0.000000,0.000000,0.000000,0.000000,0.000000,0.000000,0.000000,0.000000,2.226355,3,0
1240000,0.015156,29.735918,-0.010305,0.050671,25.545694,-0.048280,-0.002203,0.040563,1.570670,-0.077720,-0.005951,-0.005782,0.000979,-0.013584,-0.000120,0.004567,-0.015685,0.167624,0.003961,0.202222,0.202219,0.165357,0.437027,0.000000,0.000000,0.000000,0.000000,0.000000,0.000000,0.000000,0.000000,0.000000,0.000000,0.000000,0.000000,2.249311,3,0
1250000,0.015141,30.000328,-0.009820,0.050607,25.565281,-0.047738,-0.002274,0.041816,1.570677,-0.079457,-0.006055,-0.006096,0.001006,-0.014026,-0.000124,0.011491,-0.015671,0.264297,0.035281,0.202392,0.202389,0.165014,0.433414,0.000000,0.000000,0.000000,0.000000,0.000000,0.000000,0.000000,0.000000,0.000000,0.000000,0.000000,0.000000,2.243326,3,0
1260000,0.015128,30.262051,-0.010782,0.050475,25.579971,-0.049191,-0.002340,0.042708,1.570685,-0.080631,-0.006158,-0.005946,0.001032,-0.014328,-0.000127,0.005226,-0.015655,0.178598,-0.017453,0.202561,0.202559,0.164669,0.429890,0.000000,0.000000,0.000000,0.000000,0.000000,0.000000,0.000000,0.000000,0.000000,0.000000,0.000000,0.000000,2.240030,3,0
1270000,0.015111,30.523136,-0.011517,0.050228,25.593155,-0.050239,-0.002412,0.043513,1.570691,-0.081649,-0.006262,-0.005872,0.001059,-0.014595,-0.000129,0.003935,-0.015639,0.155279,-0.008721,0.202730,0.202727,0.164322,0.426452,0.000000,0.000000,0.000000,0.000000,0.000000,0.000000,0.000000,0.000000,0.000000,0.000000,0.000000,0.000000,2.237367,3,0
1280000,0.015089,30.782923,-0.010706,0.049921,25.604038,-0.049173,-0.002482,0.044148,1.570700,-0.082385,-0.006363,-0.006305,0.001087,-0.014790,-0.000131,0.002463,-0.015620,0.112726,0.048228,0.202898,0.202895,0.163972,0.423099,0.000000,0.000000,0.000000,0.000000,0.000000,0.000000,0.000000,0.000000,0.000000,0.000000,0.000000,0.000000,2.236007,3,0
1290000,0.015063,31.044117,-0.009939,0.049532,25.617210,-0.048426,-0.002549,0.044965,1.570719,-0.083368,-0.006464,-0.006726,0.001115,-0.015056,-0.000133,0.004061,-0.015594,0.151014,0.046406,0.203066,0.203063,0.163621,0.419830,0.000000,0.000000,0.000000,0.000000,0.000000,0.000000,0.000000,0.000000,0.000000,0.000000,0.000000,0.000000,2.233239,3,0
1300000,0.015036,31.305351,-0.009563,0.049258,25.630766,-0.048023,-0.002621,0.045768,1.570730,-0.084331,-0.006566,-0.007018,0.001143,-0.015319,-0.000136,0.003735,-0.015565,0.148111,0.031807,0.203235,0.203230,0.163268,0.416644,0.000000,0.000000,0.000000,0.000000,0.000000,0.000000,0.000000,0.000000,0.000000,0.000000,0.000000,0.000000,2.230432,3,0
1310000,0.015006,31.569321,-0.008929,0.048887,25.648804,-0.047230,-0.002696,0.046916,1.570732,-0.085788,-0.006666,-0.007400,0.001172,-0.015723,-0.000139,0.008443,-0.015535,0.224684,0.041235,0.203403,0.203398,0.162915,0.413540,0.000000,0.000000,0.000000,0.000000,0.000000,0.000000,0.000000,0.000000,0.000000,0.000000,0.000000,0.000000,2.224885,3,0
1320000,0.014970,31.830585,-0.008117,0.048390,25.661865,-0.046269,-0.002775,0.047697,1.570741,-0.086689,-0.006766,-0.007840,0.001201,-0.015977,-0.000141,0.003537,-0.015499,0.139442,0.047619,0.203572,0.203567,0.162560,0.410515,0.000000,0.000000,0.000000,0.000000,0.000000,0.000000,0.000000,0.000000,0.000000,0.000000,0.000000,0.000000,2.222050,3,0
1330000,0.014933,32.091209,-0.006995,0.048129,25.673513,-0.045041,-0.002839,0.048380,1.570744,-0.087439,-0.006865,-0.008385,0.001230,-0.016191,-0.000143,0.002790,-0.015461,0.116596,0.058919,0.203741,0.203736,0.162204,0.407569,0.000000,0.000000,0.000000,0.000000,0.000000,0.000000,0.000000,0.000000,0.000000,0.000000,0.000000,0.000000,2.219849,3,0
1340000,0.014898,32.351875,-0.008092,0.047898,25.685020,-0.046559,-0.002919,0.049067,1.570737,-0.088176,-0.006965,-0.008171,0.001259,-0.016404,-0.000145,0.002232,-0.015421,0.114277,-0.023697,0.203912,0.203906,0.161849,0.404699,0.000000,0.000000,0.000000,0.000000,0.000000,0.000000,0.000000,0.000000,0.000000,0.000000,0.000000,0.000000,2.217610,3,0
1350000,0.014858,32.613255,-0.008106,0.047414,25.697741,-0.046576,-0.002995,0.049844,1.570732,-0.089021,-0.007064,-0.008334,0.001288,-0.016652,-0.000147,0.002882,-0.015382,0.131802,0.017001,0.204084,0.204077,0.161493,0.401905,0.000000,0.000000,0.000000,0.000000,0.000000,0.000000,0.000000,0.000000,0.000000,0.000000,0.000000,0.000000,2.214657,3,0
1360000,0.014815,32.874657,-0.007606,0.047214,25.710264,-0.046052,-0.003078,0.050612,1.570731,-0.089841,-0.007161,-0.008679,0.001318,-0.016897,-0.000149,0.002919,-0.015339,0.128723,0.036265,0.204256,0.204249,0.161137,0.399185,0.000000,0.000000,0.000000,0.000000,0.000000,0.000000,0.000000,0.000000,0.000000,0.000000,0.000000,0.000000,2.211681,3,0
1370000,0.014765,33.134735,-0.007067,0.046405,25.720530,-0.045591,-0.003155,0.051192,1.570724,-0.090386,-0.007258,-0.009036,0.001348,-0.017062,-0.000151,0.001454,-0.015288,0.085861,0.037648,0.204430,0.204422,0.160782,0.396537,0.000000,0.000000,0.000000,0.000000,0.000000,0.000000,0.000000,0.000000,0.000000,0.000000,0.000000,0.000000,2.210026,3,0
1380000,0.014711,33.398930,-0.006496,0.045903,25.738167,-0.044996,-0.003236,0.052330,1.570731,-0.091674,-0.007354,-0.009412,0.001379,-0.017457,-0.000154,0.006940,-0.015233,0.203373,0.038780,0.204606,0.204597,0.160427,0.393962,0.000000,0.000000,0.000000,0.000000,0.000000,0.000000,0.000000,0.000000,0.000000,0.000000,0.000000,0.000000,2.204257,3,0
1390000,0.014656,33.661747,-0.007200,0.045262,25.753029,-0.045930,-0.003315,0.053268,1.570736,-0.092671,-0.007450,-0.009334,0.001408,-0.017767,-0.000157,0.004053,-0.015173,0.157673,-0.009140,0.204783,0.204773,0.160073,0.391456,0.000000,0.000000,0.000000,0.000000,0.000000,0.000000,0.000000,0.000000,0.000000,0.000000,0.000000,0.000000,2.199866,3,0
1400000,0.014597,33.921162,-0.007368,0.044856,25.761395,-0.046364,-0.003390,0.053710,1.570728,-0.093008,-0.007545,-0.009444,0.001438,-0.017873,-0.000158,0.000522,-0.015114,0.053741,0.011252,0.204962,0.204951,0.159720,0.389018,0.000000,0.000000,0.000000,0.000000,0.000000,0.000000,0.000000,0.000000,0.000000,0.000000,0.000000,0.000000,2.198878,3,0
1410000,0.014535,34.186066,-0.007636,0.044407,25.779625,-0.046869,-0.003466,0.054925,1.570736,-0.094333,-0.007640,-0.009533,0.001469,-0.018298,-0.000162,0.007261,-0.015050,0.211697,0.007921,0.205142,0.205131,0.159369,0.386648,0.000000,0.000000,0.000000,0.000000,0.000000,0.000000,0.000000,0.000000,0.000000,0.000000,0.000000,0.000000,2.192400,3,0
1420000,0.014476,34.446854,-0.008979,0.044206,25.790289,-0.048790,-0.003544,0.055531,1.570737,-0.094870,-0.007735,-0.009225,0.001499,-0.018472,-0.000163,0.001392,-0.014986,0.085762,-0.032586,0.205325,0.205312,0.159018,0.384343,0.000000,0.000000,0.000000,0.000000,0.000000,0.000000,0.000000,0.000000,0.000000,0.000000,0.000000,0.000000,2.190035,3,0
1430000,0.014408,34.706299,-0.008064,0.043808,25.798428,-0.047866,-0.003629,0.055922,1.570740,-0.095136,-0.007826,-0.009744,0.001530,-0.018560,-0.000164,0.000804,-0.014923,0.043533,0.053399,0.205509,0.205496,0.158669,0.382103,0.000000,0.000000,0.000000,0.000000,0.000000,0.000000,0.000000,0.000000,0.000000,0.000000,0.000000,0.000000,2.189020,3,0
1440000,0.014341,34.966476,-0.008465,0.043276,25.808041,-0.048475,-0.003712,0.056426,1.570735,-0.095520,-0.007917,-0.009780,0.001561,-0.018688,-0.000165,0.000662,-0.014850,0.062309,0.003292,0.205695,0.205680,0.158322,0.379927,0.000000,0.000000,0.000000,0.000000,0.000000,0.000000,0.000000,0.000000,0.000000,0.000000,0.000000,0.000000,2.187265,3,0
1450000,0.014271,35.231457,-0.007829,0.043062,25.825695,-0.047947,-0.003801,0.057617,1.570742,-0.096742,-0.008007,-0.010218,0.001592,-0.019103,-0.000169,0.006752,-0.014781,0.199619,0.043249,0.205883,0.205867,0.157977,0.377810,0.000000,0.000000,0.000000,0.000000,0.000000,0.000000,0.000000,0.000000,0.000000,0.000000,0.000000,0.000000,2.180711,3,0
1460000,0.014200,35.492298,-0.008004,0.042668,25.835905,-0.048221,-0.003884,0.058177,1.570743,-0.097190,-0.008097,-0.010340,0.001624,-0.019257,-0.000170,0.000930,-0.014706,0.073612,0.011947,0.206072,0.206056,0.157633,0.375754,0.000000,0.000000,0.000000,0.000000,0.000000,0.000000,0.000000,0.000000,0.000000,0.000000,0.000000,0.000000,2.178296,3,0
1470000,0.014127,35.755890,-0.007320,0.042393,25.851048,-0.047650,-0.003982,0.059142,1.570740,-0.098100,-0.008184,-0.010798,0.001655,-0.019575,-0.000173,0.004016,-0.014634,0.150604,0.045171,0.206264,0.206246,0.157292,0.373757,0.000000,0.000000,0.000000,0.000000,0.000000,0.000000,0.000000,0.000000,0.000000,0.000000,0.000000,0.000000,2.173130,3,0
1480000,0.014056,36.018772,-0.008101,0.041942,25.864614,-0.048623,-0.004060,0.059974,1.570746,-0.098858,-0.008273,-0.010699,0.001686,-0.019843,-0.000175,0.002585,-0.014556,0.125412,-0.011125,0.206458,0.206439,0.156954,0.371817,0.000000,0.000000,0.000000,0.000000,0.000000,0.000000,0.000000,0.000000,0.000000,0.000000,0.000000,0.000000,2.168670,3,0
1490000,0.013978,36.283691,-0.008094,0.041357,25.881748,-0.048925,-0.004149,0.061100,1.570751,-0.099938,-0.008360,-0.010911,0.001718,-0.020232,-0.000179,0.005337,-0.014478,0.180454,0.019701,0.206653,0.206633,0.156617,0.369933,0.000000,0.000000,0.000000,0.000000,0.000000,0.000000,0.000000,0.000000,0.000000,0.000000,0.000000,0.000000,2.162178,3,0
1500000,0.013898,36.547192,-0.008206,0.040767,25.896284,-0.049143,-0.004239,0.062006,1.570743,-0.100734,-0.008445,-0.011075,0.001750,-0.020523,-0.000181,0.002961,-0.014395,0.134029,0.015136,0.206851,0.206829,0.156284,0.368105,0.000000,0.000000,0.000000,0.000000,0.000000,0.000000,0.000000,0.000000,0.000000,0.000000,0.000000,0.000000,2.157104,3,0
1510000,0.013815,36.809975,-0.008076,0.040380,25.909271,-0.049163,-0.004322,0.062779,1.570738,-0.101377,-0.008529,-0.011332,0.001782,-0.020761,-0.000183,0.002040,-0.014310,0.108929,0.024523,0.207050,0.207027,0.155953,0.366330,0.000000,0.000000,0.000000,0.000000,0.000000,0.000000,0.000000,0.000000,0.000000,0.000000,0.000000,0.000000,2.152747,3,0
1520000,0.013728,37.069988,-0.008067,0.039694,25.917137,-0.049212,-0.004405,0.063108,1.570735,-0.101521,-0.008612,-0.011532,0.001813,-0.020815,-0.000184,0.000195,-0.014221,0.024929,0.019596,0.207251,0.207227,0.155625,0.364607,0.000000,0.000000,0.000000,0.000000,0.000000,0.000000,0.000000,0.000000,0.000000,0.000000,0.000000,0.000000,2.151155,3,0
1530000,0.013641,37.334152,-0.008994,0.039160,25.932386,-0.050791,-0.004494,0.064075,1.570743,-0.102354,-0.008695,-0.011386,0.001845,-0.021133,-0.000187,0.003342,-0.014129,0.142532,-0.015907,0.207454,0.207428,0.155300,0.362935,0.000000,0.000000,0.000000,0.000000,0.000000,0.000000,0.000000,0.000000,0.000000,0.000000,0.000000,0.000000,2.145418,3,0
1540000,0.013549,37.598953,-0.008590,0.038730,25.948584,-0.050698,-0.004589,0.065121,1.570741,-0.103257,-0.008776,-0.011773,0.001877,-0.021483,-0.000190,0.004188,-0.014037,0.156521,0.036289,0.207658,0.207631,0.154978,0.361313,0.000000,0.000000,0.000000,0.000000,0.000000,0.000000,0.000000,0.000000,0.000000,0.000000,0.000000,0.000000,2.139043,3,0
1550000,0.013456,37.858879,-0.008823,0.038165,25.956009,-0.051056,-0.004676,0.065391,1.570733,-0.103318,-0.008855,-0.011885,0.001908,-0.021507,-0.000190,0.000069,-0.013939,0.010830,0.010921,0.207864,0.207835,0.154659,0.359741,0.000000,0.000000,0.000000,0.000000,0.000000,0.000000,0.000000,0.000000,0.000000,0.000000,0.000000,0.000000,2.137543,3,0
1560000,0.013357,38.120197,-0.008018,0.037604,25.965384,-0.050098,-0.004763,0.065866,1.570720,-0.103593,-0.008932,-0.012420,0.001941,-0.021616,-0.000191,0.000849,-0.013841,0.049015,0.051563,0.208072,0.208040,0.154343,0.358212,0.000000,0.000000,0.000000,0.000000,0.000000,0.000000,0.000000,0.000000,0.000000,0.000000,0.000000,0.000000,2.134647,3,0
1570000,0.013255,38.380817,-0.007410,0.036935,25.973566,-0.049674,-0.004846,0.066215,1.570713,-0.103737,-0.009008,-0.012873,0.001973,-0.021673,-0.000191,0.000450,-0.013735,0.026150,0.043649,0.208280,0.208247,0.154031,0.356731,0.000000,0.000000,0.000000,0.000000,0.000000,0.000000,0.000000,0.000000,0.000000,0.000000,0.000000,0.000000,2.132457,3,0
1580000,0.013151,38.642818,-0.006428,0.036509,25.984098,-0.048853,-0.004942,0.066781,1.570714,-0.104088,-0.009082,-0.013486,0.002006,-0.021817,-0.000193,0.001234,-0.013629,0.063633,0.058349,0.208490,0.208455,0.153722,0.355293,0.000000,0.000000,0.000000,0.000000,0.000000,0.000000,0.000000,0.000000,0.000000,0.000000,0.000000,0.000000,2.128878,3,0
1590000,0.013047,38.906876,-0.005833,0.036097,25.998062,-0.048376,-0.005028,0.067662,1.570726,-0.104749,-0.009155,-0.013952,0.002038,-0.022093,-0.000195,0.002635,-0.013521,0.119591,0.043295,0.208701,0.208664,0.153416,0.353898,0.000000,0.000000,0.000000,0.000000,0.000000,0.000000,0.000000,0.000000,0.000000,0.000000,0.000000,0.000000,2.123247,3,0
1600000,0.012944,39.170883,-0.006230,0.035532,26.011965,-0.049037,-0.005111,0.068518,1.570716,-0.105377,-0.009229,-0.014013,0.002069,-0.022359,-0.000198,0.002116,-0.013411,0.113815,0.004310,0.208913,0.208874,0.153114,0.352546,0.000000,0.000000,0.000000,0.000000,0.000000,0.000000,0.000000,0.000000,0.000000,0.000000,0.000000,0.000000,2.117666,3,0
1610000,0.012834,39.433445,-0.005592,0.034920,26.023281,-0.048465,-0.005202,0.069111,1.570719,-0.105746,-0.009300,-0.014494,0.002102,-0.022517,-0.000199,0.001108,-0.013301,0.068336,0.044934,0.209126,0.209085,0.152816,0.351237,0.000000,0.000000,0.000000,0.000000,0.000000,0.000000,0.000000,0.000000,0.000000,0.000000,0.000000,0.000000,2.113530,3,0
1620000,0.012724,39.693890,-0.004748,0.034523,26.030237,-0.047501,-0.005295,0.069353,1.570712,-0.105765,-0.009369,-0.015047,0.002134,-0.022525,-0.000199,0.000479,-0.013188,0.004452,0.052536,0.209340,0.209297,0.152522,0.349965,0.000000,0.000000,0.000000,0.000000,0.000000,0.000000,0.000000,0.000000,0.000000,0.000000,0.000000,0.000000,2.111511,3,0
1630000,0.012619,39.953655,-0.006119,0.034011,26.036221,-0.049271,-0.005395,0.069478,1.570697,-0.105674,-0.009441,-0.014671,0.002164,-0.022485,-0.000199,0.000278,-0.013073,-0.017521,-0.035214,0.209555,0.209509,0.152231,0.348735,0.000000,0.000000,0.000000,0.000000,0.000000,0.000000,0.000000,0.000000,0.000000,0.000000,0.000000,0.000000,2.110168,3,0
1640000,0.012504,40.216198,-0.005340,0.033433,26.047081,-0.048446,-0.005485,0.070035,1.570692,-0.105991,-0.009507,-0.015221,0.002196,-0.022627,-0.000200,0.001039,-0.012961,0.060596,0.050891,0.209770,0.209722,0.151944,0.347542,0.000000,0.000000,0.000000,0.000000,0.000000,0.000000,0.000000,0.000000,0.000000,0.000000,0.000000,0.000000,2.106051,3,0
1650000,0.012390,40.477318,-0.005579,0.032776,26.055071,-0.048939,-0.005566,0.070355,1.570672,-0.106077,-0.009574,-0.015330,0.002227,-0.022667,-0.000200,0.000087,-0.012841,0.016613,0.010069,0.209986,0.209935,0.151660,0.346383,0.000000,0.000000,0.000000,0.000000,0.000000,0.000000,0.000000,0.000000,0.000000,0.000000,0.000000,0.000000,2.103358,3,0
1660000,0.012277,40.737030,-0.006013,0.032425,26.060474,-0.049817,-0.005656,0.070411,1.570661,-0.105942,-0.009640,-0.015351,0.002258,-0.022604,-0.000200,0.000135,-0.012723,-0.025917,0.002375,0.210202,0.210149,0.151381,0.345261,0.000000,0.000000,0.000000,0.000000,0.000000,0.000000,0.000000,0.000000,0.000000,0.000000,0.000000,0.000000,2.102071,3,0
1670000,0.012162,40.996048,-0.006312,0.031923,26.064322,-0.050222,-0.005748,0.070353,1.570647,-0.105699,-0.009705,-0.015425,0.002289,-0.022488,-0.000199,0.000393,-0.012604,-0.047134,0.007740,0.210418,0.210362,0.151105,0.344171,0.000000,0.000000,0.000000,0.000000,0.000000,0.000000,0.000000,0.000000,0.000000,0.000000,0.000000,0.000000,2.101476,3,0
1680000,0.012045,41.256474,-0.006239,0.031524,26.070774,-0.050383,-0.005831,0.070516,1.570639,-0.105655,-0.009767,-0.015672,0.002320,-0.022467,-0.000199,0.000122,-0.012485,-0.008007,0.023132,0.210633,0.210575,0.150834,0.343115,0.000000,0.000000,0.000000,0.000000,0.000000,0.000000,0.000000,0.000000,0.000000,0.000000,0.000000,0.000000,2.099480,3,0
1690000,0.011924,41.516193,-0.006208,0.030623,26.075829,-0.050424,-0.005912,0.070561,1.570631,-0.105502,-0.009828,-0.015896,0.002351,-0.022392,-0.000198,0.000242,-0.012359,-0.029949,0.021304,0.210849,0.210788,0.150566,0.342089,0.000000,0.000000,0.000000,0.000000,0.000000,0.000000,0.000000,0.000000,0.000000,0.000000,0.000000,0.000000,2.098182,3,0
1700000,0.011800,41.780117,-0.006688,0.029863,26.088522,-0.051274,-0.006000,0.071307,1.570627,-0.105941,-0.009889,-0.015935,0.002381,-0.022609,-0.000200,0.001269,-0.012230,0.087975,0.002029,0.211064,0.211001,0.150303,0.341094,0.000000,0.000000,0.000000,0.000000,0.000000,0.000000,0.000000,0.000000,0.000000,0.000000,0.000000,0.000000,2.092685,3,0
1710000,0.011673,42.039066,-0.006415,0.029338,26.091873,-0.051081,-0.006090,0.071186,1.570617,-0.105658,-0.009947,-0.016263,0.002412,-0.022466,-0.000199,0.000700,-0.012101,-0.056801,0.031192,0.211279,0.211212,0.150043,0.340130,0.000000,0.000000,0.000000,0.000000,0.000000,0.000000,0.000000,0.000000,0.000000,0.000000,0.000000,0.000000,2.092161,3,0
