time_us,pos_x,pos_y,pos_z,vel_x,vel_y,vel_z,roll,pitch,yaw,bias_ax,bias_ay,bias_az,bias_gx,bias_gy,bias_gz,nis,innov_x,innov_y,innov_z,cov_pos_x,cov_pos_y,cov_pos_z,cov_yaw,des_speed,des_heading,des_climb,pid_speed,pid_yaw,pid_alt,speed_meas,yaw_meas,climb_meas,fwd_accel,yaw_rate,vert_accel,drift_m,nav_mode,mission_state
0,0.000001,0.149998,-0.000001,0.000186,24.999599,-0.000289,0.000007,0.000026,1.570793,0.000000,0.000000,0.000000,0.000000,0.000000,0.000000,0.006250,-0.000002,-0.249998,0.000003,2.400038,2.400038,3.600017,1.000518,0.000000,0.000000,0.000000,0.000000,0.000000,0.000000,0.000000,0.000000,0.000000,0.000000,0.000000,0.000000,0.149998,1,0
10000,0.000004,0.370902,-0.003068,0.000416,24.999262,-0.000367,0.000016,0.000043,1.570789,0.000000,-0.000000,0.000000,0.000000,0.000000,0.000000,0.001241,-0.000005,-0.101808,-0.008168,1.714420,1.714420,2.250079,1.001073,0.000000,0.000000,0.000000,0.000000,0.000000,0.000000,0.000000,0.000000,0.000000,0.000000,0.000000,0.000000,0.072718,3,0
20000,0.000007,0.580094,-0.007365,0.000513,24.998573,-0.000663,0.000024,0.000070,1.570794,0.000002,-0.000000,0.000000,-0.000000,0.000000,0.000000,0.004397,-0.000009,-0.183556,-0.015730,1.333616,1.333616,1.636554,1.001655,0.000000,0.000000,0.000000,0.000000,0.000000,0.000000,0.000000,0.000000,0.000000,0.000000,0.000000,0.000000,0.142757,3,0
30000,0.000012,0.816495,-0.005384,0.000772,24.998302,-0.000875,0.000039,0.000083,1.570789,0.000003,-0.000000,-0.000000,0.000000,0.000000,0.000000,0.000772,-0.000015,-0.074681,0.009285,1.091392,1.091392,1.286065,1.002257,0.000000,0.000000,0.000000,0.000000,0.000000,0.000000,0.000000,0.000000,0.000000,0.000000,0.000000,0.000000,0.061096,3,0
40000,0.000018,1.061431,-0.001463,0.000920,24.998028,-0.000808,0.000048,0.000105,1.570776,0.000004,-0.000000,-0.000001,0.000000,0.000000,0.000000,0.000219,-0.000021,-0.032773,0.022258,0.923811,0.923811,1.059385,1.002869,0.000000,0.000000,0.000000,0.000000,0.000000,0.000000,0.000000,0.000000,0.000000,0.000000,0.000000,0.000000,0.027727,3,0
50000,0.000025,1.308836,-0.001496,0.001102,24.997755,-0.000928,0.000060,0.000118,1.570765,0.000005,-0.000000,-0.000001,0.000000,0.000000,0.000000,0.000054,-0.000029,-0.019280,-0.000160,0.801036,0.801036,0.900822,1.003484,0.000000,0.000000,0.000000,0.000000,0.000000,0.000000,0.000000,0.000000,0.000000,0.000000,0.000000,0.000000,0.016706,3,0
60000,0.000033,1.553152,-0.000582,0.001277,24.997383,-0.000978,0.000068,0.000129,1.570761,0.000008,-0.000000,-0.000001,0.000000,0.000000,0.000000,0.000346,-0.000038,-0.048015,0.007075,0.707270,0.707270,0.783741,1.004094,0.000000,0.000000,0.000000,0.000000,0.000000,0.000000,0.000000,0.000000,0.000000,0.000000,0.000000,0.000000,0.042355,3,0
70000,0.000044,1.797448,0.000816,0.001569,24.996935,-0.000866,0.000077,0.000138,1.570760,0.000012,-0.000000,-0.000002,0.000000,0.000000,0.000000,0.000453,-0.000049,-0.053781,0.012170,0.633370,0.633370,0.693801,1.004688,0.000000,0.000000,0.000000,0.000000,0.000000,0.000000,0.000000,0.000000,0.000000,0.000000,0.000000,0.000000,0.048104,3,0
80000,0.000056,2.051229,0.008183,0.001802,24.997149,-0.000645,0.000079,0.000159,1.570753,0.000008,-0.000000,-0.000009,0.000000,0.000000,0.000000,0.000995,-0.000062,0.039870,0.071114,0.573673,0.573673,0.622594,1.005260,0.000000,0.000000,0.000000,0.000000,0.000000,0.000000,0.000000,0.000000,0.000000,0.000000,0.000000,0.000000,0.036058,3,0
90000,0.000069,2.299878,0.010288,0.001921,24.996981,-0.000536,0.000093,0.000167,1.570739,0.000010,-0.000000,-0.000012,0.000000,0.000000,0.000000,0.000111,-0.000075,-0.015125,0.022435,0.524488,0.524488,0.564865,1.005801,0.000000,0.000000,0.000000,0.000000,0.000000,0.000000,0.000000,0.000000,0.000000,0.000000,0.000000,0.000000,0.013803,3,0
100000,0.000083,2.551018,0.010240,0.002207,24.997055,-0.000538,0.000105,0.000188,1.570744,0.000008,-0.000000,-0.000012,0.000000,0.000000,0.000000,0.000032,-0.000091,0.014533,-0.000497,0.483303,0.483303,0.517162,1.006301,0.000000,0.000000,0.000000,0.000000,0.000000,0.000000,0.000000,0.000000,0.000000,0.000000,0.000000,0.000000,0.013363,3,0
110000,0.000100,2.801133,0.011383,0.002423,24.997038,-0.000687,0.000114,0.000198,1.570741,0.000007,-0.000000,-0.000014,0.000000,0.000000,0.000000,0.000033,-0.000108,0.001939,0.014481,0.448353,0.448353,0.477121,1.006754,0.000000,0.000000,0.000000,0.000000,0.000000,0.000000,0.000000,0.000000,0.000000,0.000000,0.000000,0.000000,0.001797,3,0
120000,0.000118,3.054589,0.016207,0.002672,24.997517,-0.000286,0.000112,0.000219,1.570746,-0.000004,-0.000000,-0.000028,0.000000,-0.000000,-0.000000,0.001049,-0.000126,0.050009,0.065455,0.418358,0.418358,0.443071,1.007150,0.000000,0.000000,0.000000,0.000000,0.000000,0.000000,0.000000,0.000000,0.000000,0.000000,0.000000,0.000000,0.046522,3,0
130000,0.000137,3.312059,0.019206,0.002901,24.998852,0.000185,0.000114,0.000239,1.570736,-0.000033,-0.000000,-0.000039,0.000000,-0.000001,-0.000000,0.002340,-0.000147,0.114610,0.043535,0.392369,0.392369,0.413797,1.007481,0.000000,0.000000,0.000000,0.000000,0.000000,0.000000,0.000000,0.000000,0.000000,0.000000,0.000000,0.000000,0.107115,3,0
140000,0.000157,3.569166,0.021586,0.003027,25.000277,0.000387,0.000128,0.000274,1.570726,-0.000067,-0.000000,-0.000050,0.000000,-0.000001,-0.000000,0.002299,-0.000167,0.115553,0.036774,0.369666,0.369666,0.388393,1.007739,0.000000,0.000000,0.000000,0.000000,0.000000,0.000000,0.000000,0.000000,0.000000,0.000000,0.000000,0.000000,0.108434,3,0
150000,0.000178,3.825979,0.021733,0.003200,25.001833,0.000397,0.000137,0.000304,1.570716,-0.000106,-0.000000,-0.000050,0.000000,-0.000002,-0.000000,0.002144,-0.000189,0.116857,0.002342,0.349695,0.349695,0.366172,1.007915,0.000000,0.000000,0.000000,0.000000,0.000000,0.000000,0.000000,0.000000,0.000000,0.000000,0.000000,0.000000,0.110047,3,0
160000,0.000201,4.079252,0.024789,0.003432,25.002735,0.001058,0.000145,0.000327,1.570715,-0.000129,-0.000000,-0.000070,0.000000,-0.000003,-0.000000,0.000983,-0.000212,0.058817,0.052843,0.332021,0.332021,0.346600,1.008002,0.000000,0.000000,0.000000,0.000000,0.000000,0.000000,0.000000,0.000000,0.000000,0.000000,0.000000,0.000000,0.055563,3,0
170000,0.000225,4.332651,0.023918,0.003684,25.003683,0.000521,0.000149,0.000361,1.570714,-0.000156,-0.000000,-0.000063,0.000000,-0.000003,-0.000000,0.000686,-0.000237,0.063962,-0.016004,0.316297,0.316297,0.329260,1.007991,0.000000,0.000000,0.000000,0.000000,0.000000,0.000000,0.000000,0.000000,0.000000,0.000000,0.000000,0.000000,0.060590,3,0
180000,0.000251,4.581155,0.022170,0.003881,25.003157,0.000047,0.000148,0.000364,1.570720,-0.000141,-0.000001,-0.000048,0.000000,-0.000003,-0.000000,0.000324,-0.000264,-0.030416,-0.033535,0.302246,0.302246,0.313817,1.007875,0.000000,0.000000,0.000000,0.000000,0.000000,0.000000,0.000000,0.000000,0.000000,0.000000,0.000000,0.000000,0.028885,3,0
190000,0.000277,4.835955,0.021010,0.004065,25.004747,-0.000561,0.000164,0.000394,1.570715,-0.000194,-0.000001,-0.000036,0.000000,-0.000004,-0.000000,0.001633,-0.000291,0.098785,-0.023164,0.289641,0.289641,0.300003,1.007645,0.000000,0.000000,0.000000,0.000000,0.000000,0.000000,0.000000,0.000000,0.000000,0.000000,0.000000,0.000000,0.094017,3,0
200000,0.000305,5.086141,0.019829,0.004282,25.004726,-0.000966,0.000170,0.000408,1.570721,-0.000195,-0.000001,-0.000022,0.000000,-0.000004,-0.000000,0.000097,-0.000320,0.003001,-0.024519,0.278295,0.278295,0.287598,1.007295,0.000000,0.000000,0.000000,0.000000,0.000000,0.000000,0.000000,0.000000,0.000000,0.000000,0.000000,0.000000,0.002878,3,0
210000,0.000334,5.340241,0.019746,0.004434,25.006327,-0.001145,0.000178,0.000442,1.570709,-0.000253,-0.000001,-0.000021,0.000000,-0.000006,-0.000000,0.001312,-0.000350,0.090758,-0.001568,0.268054,0.268054,0.276421,1.006816,0.000000,0.000000,0.000000,0.000000,0.000000,0.000000,0.000000,0.000000,0.000000,0.000000,0.000000,0.000000,0.086704,3,0
220000,0.000365,5.593547,0.020049,0.004704,25.007803,-0.001048,0.000188,0.000482,1.570713,-0.000306,-0.000001,-0.000026,0.000000,-0.000008,-0.000000,0.000910,-0.000381,0.075187,0.007110,0.258787,0.258787,0.266321,1.006202,0.000000,0.000000,0.000000,0.000000,0.000000,0.000000,0.000000,0.000000,0.000000,0.000000,0.000000,0.000000,0.071945,3,0
230000,0.000396,5.850294,0.020318,0.004867,25.011131,-0.001149,0.000190,0.000536,1.570705,-0.000428,-0.000002,-0.000030,0.000000,-0.000012,-0.000000,0.004086,-0.000413,0.159808,0.006576,0.250385,0.250385,0.257172,1.005446,0.000000,0.000000,0.000000,0.000000,0.000000,0.000000,0.000000,0.000000,0.000000,0.000000,0.000000,0.000000,0.153139,3,0
240000,0.000429,6.101308,0.022690,0.005109,25.011616,-0.000054,0.000202,0.000553,1.570693,-0.000446,-0.000002,-0.000077,0.000000,-0.000012,-0.000000,0.000607,-0.000447,0.022300,0.057463,0.242756,0.242756,0.248866,1.004541,0.000000,0.000000,0.000000,0.000000,0.000000,0.000000,0.000000,0.000000,0.000000,0.000000,0.000000,0.000000,0.021402,3,0
250000,0.000464,6.356498,0.024455,0.005336,25.014503,0.000782,0.000205,0.000604,1.570682,-0.000561,-0.000003,-0.000116,0.000000,-0.000016,-0.000000,0.002977,-0.000483,0.129103,0.043929,0.235818,0.235818,0.241314,1.003481,0.000000,0.000000,0.000000,0.000000,0.000000,0.000000,0.000000,0.000000,0.000000,0.000000,0.000000,0.000000,0.124030,3,0
260000,0.000500,6.608663,0.025275,0.005600,25.015814,0.001020,0.000216,0.000639,1.570682,-0.000612,-0.000003,-0.000136,0.000000,-0.000018,-0.000000,0.000516,-0.000520,0.052794,0.020851,0.229504,0.229504,0.234436,1.002258,0.000000,0.000000,0.000000,0.000000,0.000000,0.000000,0.000000,0.000000,0.000000,0.000000,0.000000,0.000000,0.050777,3,0
270000,0.000538,6.863987,0.024931,0.005852,25.019106,0.000856,0.000215,0.000693,1.570684,-0.000755,-0.000004,-0.000126,0.000000,-0.000024,-0.000000,0.003094,-0.000559,0.138558,-0.009327,0.223754,0.223754,0.228165,1.000869,0.000000,0.000000,0.000000,0.000000,0.000000,0.000000,0.000000,0.000000,0.000000,0.000000,0.000000,0.000000,0.133392,3,0
280000,0.000576,7.119337,0.023490,0.005994,25.022726,-0.000378,0.000215,0.000765,1.570686,-0.000911,-0.000004,-0.000084,0.000000,-0.000030,-0.000000,0.003466,-0.000598,0.141625,-0.039021,0.218516,0.218516,0.222443,0.999307,0.000000,0.000000,0.000000,0.000000,0.000000,0.000000,0.000000,0.000000,0.000000,0.000000,0.000000,0.000000,0.136469,3,0
290000,0.000615,7.373302,0.024365,0.006169,25.025454,0.000257,0.000223,0.000825,1.570673,-0.001035,-0.000005,-0.000112,0.000000,-0.000035,-0.000000,0.001864,-0.000638,0.104908,0.024262,0.213745,0.213745,0.217219,0.997567,0.000000,0.000000,0.000000,0.000000,0.000000,0.000000,0.000000,0.000000,0.000000,0.000000,0.000000,0.000000,0.101173,3,0
300000,0.000655,7.625291,0.025361,0.006377,25.026772,0.000767,0.000233,0.000863,1.570663,-0.001097,-0.000006,-0.000147,0.000000,-0.000038,-0.000000,0.000524,-0.000679,0.049706,0.028106,0.209399,0.209399,0.212446,0.995645,0.000000,0.000000,0.000000,0.000000,0.000000,0.000000,0.000000,0.000000,0.000000,0.000000,0.000000,0.000000,0.047975,3,0
310000,0.000697,7.880203,0.025318,0.006643,25.030563,0.000424,0.000241,0.000940,1.570661,-0.001278,-0.000007,-0.000145,0.000000,-0.000046,-0.000000,0.002962,-0.000722,0.135644,-0.001358,0.205444,0.205444,0.208087,0.993536,0.000000,0.000000,0.000000,0.000000,0.000000,0.000000,0.000000,0.000000,0.000000,0.000000,0.000000,0.000000,0.131001,3,0
320000,0.000741,8.133183,0.024479,0.006912,25.032871,-0.000215,0.000248,0.001001,1.570665,-0.001391,-0.000008,-0.000110,0.000000,-0.000051,-0.000000,0.001117,-0.000767,0.079483,-0.024791,0.201848,0.201848,0.204105,0.991236,0.000000,0.000000,0.000000,0.000000,0.000000,0.000000,0.000000,0.000000,0.000000,0.000000,0.000000,0.000000,0.076813,3,0
330000,0.000786,8.388953,0.025885,0.007171,25.037636,0.000823,0.000252,0.001088,1.570655,-0.001637,-0.000009,-0.000173,0.000000,-0.000062,-0.000000,0.004643,-0.000813,0.164422,0.042174,0.198583,0.198583,0.200469,0.988743,0.000000,0.000000,0.000000,0.000000,0.000000,0.000000,0.000000,0.000000,0.000000,0.000000,0.000000,0.000000,0.158982,3,0
340000,0.000832,8.644127,0.025795,0.007339,25.042019,0.000617,0.000257,0.001180,1.570659,-0.001870,-0.000011,-0.000169,0.000000,-0.000074,-0.000000,0.003493,-0.000860,0.147152,-0.002948,0.195623,0.195623,0.197151,0.986053,0.000000,0.000000,0.000000,0.000000,0.000000,0.000000,0.000000,0.000000,0.000000,0.000000,0.000000,0.000000,0.142356,3,0
350000,0.000878,8.896827,0.025873,0.007552,25.044342,0.000494,0.000269,0.001243,1.570650,-0.001988,-0.000012,-0.000172,0.000001,-0.000080,-0.000000,0.000811,-0.000907,0.070843,0.002280,0.192945,0.192945,0.194125,0.983163,0.000000,0.000000,0.000000,0.000000,0.000000,0.000000,0.000000,0.000000,0.000000,0.000000,0.000000,0.000000,0.068570,3,0
360000,0.000926,9.150332,0.026750,0.007784,25.047386,0.001293,0.000266,0.001320,1.570653,-0.002157,-0.000014,-0.000220,0.000001,-0.000089,-0.000000,0.001621,-0.000956,0.096426,0.027336,0.190528,0.190528,0.191370,0.980072,0.000000,0.000000,0.000000,0.000000,0.000000,0.000000,0.000000,0.000000,0.000000,0.000000,0.000000,0.000000,0.093368,3,0
370000,0.000975,9.407731,0.025242,0.007985,25.054583,-0.000383,0.000263,0.001464,1.570660,-0.002564,-0.000016,-0.000132,0.000001,-0.000110,-0.000000,0.008232,-0.001006,0.220589,-0.048270,0.188354,0.188354,0.188863,0.976778,0.000000,0.000000,0.000000,0.000000,0.000000,0.000000,0.000000,0.000000,0.000000,0.000000,0.000000,0.000000,0.213666,3,0
380000,0.001024,9.665159,0.024756,0.008210,25.062000,-0.000909,0.000268,0.001620,1.570663,-0.002992,-0.000018,-0.000102,0.000001,-0.000134,-0.000000,0.007965,-0.001057,0.221544,-0.015477,0.186406,0.186406,0.186586,0.973281,0.000000,0.000000,0.000000,0.000000,0.000000,0.000000,0.000000,0.000000,0.000000,0.000000,0.000000,0.000000,0.214664,3,0
390000,0.001075,9.920792,0.024734,0.008412,25.067657,-0.001217,0.000282,0.001742,1.570665,-0.003322,-0.000020,-0.000102,0.000001,-0.000153,-0.000000,0.004283,-0.001109,0.162830,-0.000336,0.184666,0.184666,0.184522,0.969579,0.000000,0.000000,0.000000,0.000000,0.000000,0.000000,0.000000,0.000000,0.000000,0.000000,0.000000,0.000000,0.157822,3,0
400000,0.001126,10.174704,0.024639,0.008617,25.071579,-0.001553,0.000285,0.001841,1.570658,-0.003546,-0.000022,-0.000096,0.000001,-0.000166,-0.000000,0.001814,-0.001161,0.105929,-0.002612,0.183122,0.183122,0.182656,0.965674,0.000000,0.000000,0.000000,0.000000,0.000000,0.000000,0.000000,0.000000,0.000000,0.000000,0.000000,0.000000,0.102703,3,0
410000,0.001178,10.431777,0.025664,0.008830,25.079285,-0.000657,0.000296,0.002006,1.570656,-0.004010,-0.000025,-0.000172,0.000001,-0.000193,-0.000000,0.007307,-0.001214,0.209798,0.034553,0.181759,0.181759,0.180971,0.961565,0.000000,0.000000,0.000000,0.000000,0.000000,0.000000,0.000000,0.000000,0.000000,0.000000,0.000000,0.000000,0.203446,3,0
420000,0.001229,10.686530,0.026001,0.008918,25.084196,-0.000516,0.000292,0.002119,1.570662,-0.004313,-0.000028,-0.000199,0.000001,-0.000212,-0.000000,0.002820,-0.001267,0.131560,0.011583,0.180565,0.180565,0.179456,0.957254,0.000000,0.000000,0.000000,0.000000,0.000000,0.000000,0.000000,0.000000,0.000000,0.000000,0.000000,0.000000,0.127607,3,0
430000,0.001280,10.940228,0.027524,0.009025,25.087875,0.001220,0.000297,0.002222,1.570660,-0.004542,-0.000031,-0.000323,0.000002,-0.000226,-0.000000,0.001901,-0.001320,0.095426,0.051483,0.179528,0.179528,0.178097,0.952742,0.000000,0.000000,0.000000,0.000000,0.000000,0.000000,0.000000,0.000000,0.000000,0.000000,0.000000,0.000000,0.092579,3,0
440000,0.001333,11.195865,0.027569,0.009266,25.094107,0.001043,0.000293,0.002372,1.570657,-0.004940,-0.000035,-0.000326,0.000002,-0.000252,-0.000001,0.004127,-0.001374,0.159753,0.001171,0.178638,0.178638,0.176883,0.948031,0.000000,0.000000,0.000000,0.000000,0.000000,0.000000,0.000000,0.000000,0.000000,0.000000,0.000000,0.000000,0.155003,3,0
450000,0.001386,11.453981,0.026728,0.009497,25.103605,0.000070,0.000293,0.002606,1.570664,-0.005567,-0.000039,-0.000251,0.000002,-0.000293,-0.000001,0.009608,-0.001428,0.241996,-0.029052,0.177884,0.177884,0.175803,0.943124,0.000000,0.000000,0.000000,0.000000,0.000000,0.000000,0.000000,0.000000,0.000000,0.000000,0.000000,0.000000,0.234825,3,0
460000,0.001439,11.711000,0.025665,0.009637,25.111790,-0.001513,0.000288,0.002805,1.570668,-0.006111,-0.000043,-0.000153,0.000002,-0.000330,-0.000001,0.006844,-0.001483,0.202452,-0.036435,0.177257,0.177257,0.174847,0.938025,0.000000,0.000000,0.000000,0.000000,0.000000,0.000000,0.000000,0.000000,0.000000,0.000000,0.000000,0.000000,0.196476,3,0
470000,0.001493,11.965196,0.024287,0.009862,25.116301,-0.003398,0.000290,0.002923,1.570663,-0.006402,-0.000047,-0.000022,0.000003,-0.000350,-0.000001,0.002119,-0.001538,0.104382,-0.046925,0.176749,0.176749,0.174006,0.932737,0.000000,0.000000,0.000000,0.000000,0.000000,0.000000,0.000000,0.000000,0.000000,0.000000,0.000000,0.000000,0.101318,3,0
480000,0.001546,12.219552,0.023161,0.009938,25.120956,-0.004736,0.000303,0.003057,1.570659,-0.006714,-0.000051,0.000087,0.000003,-0.000372,-0.000001,0.002138,-0.001593,0.108567,-0.037805,0.176350,0.176350,0.173271,0.927264,0.000000,0.000000,0.000000,0.000000,0.000000,0.000000,0.000000,0.000000,0.000000,0.000000,0.000000,0.000000,0.105388,3,0
490000,0.001600,12.474650,0.024165,0.010160,25.126665,-0.003416,0.000299,0.003212,1.570663,-0.007109,-0.000056,-0.000023,0.000003,-0.000401,-0.000001,0.003056,-0.001649,0.132470,0.036547,0.176053,0.176053,0.172634,0.921610,0.000000,0.000000,0.000000,0.000000,0.000000,0.000000,0.000000,0.000000,0.000000,0.000000,0.000000,0.000000,0.128593,3,0
500000,0.001654,12.730479,0.023164,0.010284,25.133442,-0.004970,0.000305,0.003400,1.570667,-0.007587,-0.000062,0.000081,0.000004,-0.000436,-0.000001,0.004101,-0.001704,0.155619,-0.033601,0.175850,0.175850,0.172087,0.915781,0.000000,0.000000,0.000000,0.000000,0.000000,0.000000,0.000000,0.000000,0.000000,0.000000,0.000000,0.000000,0.151067,3,0
510000,0.001707,12.985867,0.024199,0.010368,25.139774,-0.003742,0.000305,0.003567,1.570659,-0.008026,-0.000067,-0.000040,0.000004,-0.000470,-0.000001,0.003327,-0.001758,0.138268,0.037963,0.175735,0.175735,0.171622,0.909781,0.000000,0.000000,0.000000,0.000000,0.000000,0.000000,0.000000,0.000000,0.000000,0.000000,0.000000,0.000000,0.134230,3,0
520000,0.001760,13.244896,0.023990,0.010567,25.151443,-0.004165,0.000299,0.003884,1.570653,-0.008877,-0.000073,-0.000021,0.000005,-0.000535,-0.000001,0.010986,-0.001813,0.260516,-0.005929,0.175700,0.175700,0.171234,0.903617,0.000000,0.000000,0.000000,0.000000,0.000000,0.000000,0.000000,0.000000,0.000000,0.000000,0.000000,0.000000,0.252894,3,0
530000,0.001814,13.504023,0.024461,0.010764,25.163233,-0.003482,0.000299,0.004217,1.570650,-0.009752,-0.000080,-0.000083,0.000005,-0.000605,-0.000001,0.010972,-0.001869,0.259796,0.017984,0.175740,0.175740,0.170914,0.897295,0.000000,0.000000,0.000000,0.000000,0.000000,0.000000,0.000000,0.000000,0.000000,0.000000,0.000000,0.000000,0.252193,3,0
540000,0.001867,13.760919,0.024654,0.010862,25.171730,-0.003136,0.000298,0.004455,1.570651,-0.010373,-0.000086,-0.000111,0.000006,-0.000655,-0.000001,0.005221,-0.001923,0.179461,0.008020,0.175848,0.175848,0.170658,0.890821,0.000000,0.000000,0.000000,0.000000,0.000000,0.000000,0.000000,0.000000,0.000000,0.000000,0.000000,0.000000,0.174212,3,0
550000,0.001919,14.019114,0.023924,0.010907,25.182140,-0.004232,0.000297,0.004765,1.570655,-0.011158,-0.000093,-0.000024,0.000006,-0.000719,-0.000002,0.007976,-0.001977,0.220664,-0.024570,0.176019,0.176019,0.170460,0.884202,0.000000,0.000000,0.000000,0.000000,0.000000,0.000000,0.000000,0.000000,0.000000,0.000000,0.000000,0.000000,0.214199,3,0
560000,0.001970,14.276258,0.024836,0.010956,25.190979,-0.003186,0.000298,0.005017,1.570645,-0.011819,-0.000101,-0.000149,0.000007,-0.000775,-0.000002,0.005487,-0.002029,0.181032,0.033728,0.176247,0.176247,0.170314,0.877445,0.000000,0.000000,0.000000,0.000000,0.000000,0.000000,0.000000,0.000000,0.000000,0.000000,0.000000,0.000000,0.175726,3,0
570000,0.002020,14.532949,0.023519,0.011068,25.199150,-0.005077,0.000303,0.005264,1.570642,-0.012428,-0.000109,0.000023,0.000008,-0.000827,-0.000002,0.004596,-0.002081,0.162346,-0.045256,0.176528,0.176528,0.170214,0.870557,0.000000,0.000000,0.000000,0.000000,0.000000,0.000000,0.000000,0.000000,0.000000,0.000000,0.000000,0.000000,0.157583,3,0
580000,0.002070,14.792124,0.024044,0.011150,25.211130,-0.004233,0.000308,0.005624,1.570637,-0.013363,-0.000117,-0.000057,0.000008,-0.000909,-0.000002,0.009659,-0.002133,0.243514,0.020275,0.176855,0.176855,0.170157,0.863545,0.000000,0.000000,0.000000,0.000000,0.000000,0.000000,0.000000,0.000000,0.000000,0.000000,0.000000,0.000000,0.236346,3,0
590000,0.002119,15.047885,0.023732,0.011228,25.217548,-0.004861,0.000306,0.005826,1.570634,-0.013848,-0.000126,-0.000020,0.000009,-0.000953,-0.000002,0.002477,-0.002183,0.123371,-0.009423,0.177226,0.177226,0.170138,0.856418,0.000000,0.000000,0.000000,0.000000,0.000000,0.000000,0.000000,0.000000,0.000000,0.000000,0.000000,0.000000,0.119746,3,0
600000,0.002168,15.304973,0.022822,0.011413,25.226076,-0.006101,0.000310,0.006099,1.570624,-0.014516,-0.000135,0.000104,0.000010,-0.001013,-0.000002,0.004592,-0.002234,0.165731,-0.030370,0.177635,0.177635,0.170152,0.849183,0.000000,0.000000,0.000000,0.000000,0.000000,0.000000,0.000000,0.000000,0.000000,0.000000,0.000000,0.000000,0.160839,3,0
610000,0.002217,15.561015,0.023705,0.011576,25.232845,-0.004692,0.000320,0.006321,1.570617,-0.015039,-0.000144,-0.000036,0.000011,-0.001062,-0.000002,0.002798,-0.002285,0.127226,0.033263,0.178078,0.178078,0.170195,0.841848,0.000000,0.000000,0.000000,0.000000,0.000000,0.000000,0.000000,0.000000,0.000000,0.000000,0.000000,0.000000,0.123470,3,0
620000,0.002265,15.819571,0.024940,0.011686,25.243864,-0.003102,0.000313,0.006673,1.570616,-0.015918,-0.000154,-0.000231,0.000012,-0.001145,-0.000002,0.007400,-0.002335,0.209055,0.045290,0.178551,0.178551,0.170264,0.834421,0.000000,0.000000,0.000000,0.000000,0.000000,0.000000,0.000000,0.000000,0.000000,0.000000,0.000000,0.000000,0.202847,3,0
630000,0.002312,16.075874,0.025333,0.011708,25.250904,-0.002706,0.000314,0.006911,1.570616,-0.016474,-0.000164,-0.000298,0.000013,-0.001199,-0.000003,0.002741,-0.002383,0.129301,0.015014,0.179051,0.179051,0.170355,0.826910,0.000000,0.000000,0.000000,0.000000,0.000000,0.000000,0.000000,0.000000,0.000000,0.000000,0.000000,0.000000,0.125464,3,0
640000,0.002359,16.336489,0.026561,0.011827,25.265251,-0.001146,0.000322,0.007385,1.570611,-0.017659,-0.000175,-0.000498,0.000014,-0.001315,-0.000003,0.012149,-0.002432,0.270504,0.044277,0.179574,0.179574,0.170465,0.819323,0.000000,0.000000,0.000000,0.000000,0.000000,0.000000,0.000000,0.000000,0.000000,0.000000,0.000000,0.000000,0.262418,3,0
650000,0.002405,16.595409,0.025850,0.011969,25.276619,-0.002169,0.000315,0.007770,1.570601,-0.018591,-0.000186,-0.000386,0.000015,-0.001409,-0.000003,0.007129,-0.002480,0.208534,-0.024623,0.180117,0.180117,0.170591,0.811669,0.000000,0.000000,0.000000,0.000000,0.000000,0.000000,0.000000,0.000000,0.000000,0.000000,0.000000,0.000000,0.202289,3,0
660000,0.002452,16.854445,0.025749,0.012132,25.287989,-0.002350,0.000326,0.008158,1.570609,-0.019537,-0.000198,-0.000374,0.000016,-0.001505,-0.000003,0.006991,-0.002528,0.207928,-0.002735,0.180676,0.180676,0.170729,0.803955,0.000000,0.000000,0.000000,0.000000,0.000000,0.000000,0.000000,0.000000,0.000000,0.000000,0.000000,0.000000,0.201681,3,0
670000,0.002498,17.115395,0.025547,0.012256,25.302614,-0.002673,0.000327,0.008659,1.570603,-0.020775,-0.000210,-0.000346,0.000017,-0.001634,-0.000004,0.011516,-0.002576,0.266838,-0.006269,0.181250,0.181250,0.170877,0.796190,0.000000,0.000000,0.000000,0.000000,0.000000,0.000000,0.000000,0.000000,0.000000,0.000000,0.000000,0.000000,0.258790,3,0
680000,0.002542,17.375231,0.026215,0.012263,25.315144,-0.001902,0.000319,0.009093,1.570603,-0.021833,-0.000222,-0.000467,0.000019,-0.001745,-0.000004,0.008237,-0.002622,0.224411,0.024481,0.181834,0.181834,0.171032,0.788382,0.000000,0.000000,0.000000,0.000000,0.000000,0.000000,0.000000,0.000000,0.000000,0.000000,0.000000,0.000000,0.217624,3,0
690000,0.002587,17.635775,0.025071,0.012426,25.328901,-0.003587,0.000319,0.009578,1.570598,-0.022998,-0.000235,-0.000272,0.000020,-0.001871,-0.000004,0.009776,-0.002668,0.242754,-0.039417,0.182427,0.182427,0.171193,0.780538,0.000000,0.000000,0.000000,0.000000,0.000000,0.000000,0.000000,0.000000,0.000000,0.000000,0.000000,0.000000,0.235387,3,0
700000,0.002631,17.893988,0.025899,0.012493,25.338503,-0.002489,0.000312,0.009917,1.570600,-0.023783,-0.000249,-0.000427,0.000021,-0.001957,-0.000004,0.004337,-0.002713,0.160980,0.030315,0.183026,0.183026,0.171357,0.772666,0.000000,0.000000,0.000000,0.000000,0.000000,0.000000,0.000000,0.000000,0.000000,0.000000,0.000000,0.000000,0.156091,3,0
710000,0.002673,18.151098,0.026407,0.012594,25.346094,-0.001882,0.000307,0.010186,1.570608,-0.024384,-0.000262,-0.000524,0.000023,-0.002024,-0.000004,0.002437,-0.002758,0.121340,0.018732,0.183629,0.183629,0.171521,0.764775,0.000000,0.000000,0.000000,0.000000,0.000000,0.000000,0.000000,0.000000,0.000000,0.000000,0.000000,0.000000,0.117657,3,0
720000,0.002715,18.408945,0.027274,0.012641,25.354874,-0.000763,0.000310,0.010502,1.570616,-0.025100,-0.000277,-0.000688,0.000025,-0.002105,-0.000005,0.003436,-0.002801,0.142458,0.031024,0.184234,0.184234,0.171685,0.756871,0.000000,0.000000,0.000000,0.000000,0.000000,0.000000,0.000000,0.000000,0.000000,0.000000,0.000000,0.000000,0.138111,3,0
730000,0.002756,18.669359,0.026089,0.012708,25.368025,-0.002847,0.000317,0.010996,1.570611,-0.026236,-0.000291,-0.000471,0.000026,-0.002236,-0.000005,0.008267,-0.002844,0.222464,-0.040971,0.184839,0.184839,0.171846,0.748962,0.000000,0.000000,0.000000,0.000000,0.000000,0.000000,0.000000,0.000000,0.000000,0.000000,0.000000,0.000000,0.215628,3,0
740000,0.002796,18.927404,0.027023,0.012703,25.376890,-0.001729,0.000311,0.011320,1.570619,-0.026964,-0.000306,-0.000655,0.000028,-0.002321,-0.000005,0.003389,-0.002885,0.140829,0.033705,0.185443,0.185443,0.172003,0.741054,0.000000,0.000000,0.000000,0.000000,0.000000,0.000000,0.000000,0.000000,0.000000,0.000000,0.000000,0.000000,0.136505,3,0
750000,0.002834,19.185562,0.027859,0.012790,25.385784,-0.000723,0.000304,0.011658,1.570609,-0.027704,-0.000322,-0.000821,0.000030,-0.002410,-0.000005,0.003362,-0.002925,0.141121,0.029825,0.186043,0.186043,0.172154,0.733156,0.000000,0.000000,0.000000,0.000000,0.000000,0.000000,0.000000,0.000000,0.000000,0.000000,0.000000,0.000000,0.136775,3,0
760000,0.002872,19.444448,0.028480,0.012878,25.395906,0.000064,0.000303,0.012047,1.570608,-0.028560,-0.000338,-0.000945,0.000032,-0.002514,-0.000005,0.004275,-0.002965,0.161177,0.021974,0.186638,0.186638,0.172299,0.725273,0.000000,0.000000,0.000000,0.000000,0.000000,0.000000,0.000000,0.000000,0.000000,0.000000,0.000000,0.000000,0.156189,3,0
770000,0.002911,19.702814,0.027314,0.013032,25.404985,-0.001950,0.000305,0.012403,1.570604,-0.029318,-0.000354,-0.000717,0.000034,-0.002607,-0.000006,0.003465,-0.003004,0.140738,-0.040480,0.187227,0.187227,0.172435,0.717413,0.000000,0.000000,0.000000,0.000000,0.000000,0.000000,0.000000,0.000000,0.000000,0.000000,0.000000,0.000000,0.136376,3,0
780000,0.002947,19.960039,0.026821,0.012993,25.411922,-0.002856,0.000301,0.012667,1.570598,-0.029867,-0.000370,-0.000623,0.000036,-0.002676,-0.000006,0.001690,-0.003042,0.100948,-0.016409,0.187808,0.187808,0.172562,0.709580,0.000000,0.000000,0.000000,0.000000,0.000000,0.000000,0.000000,0.000000,0.000000,0.000000,0.000000,0.000000,0.097832,3,0
790000,0.002982,20.218628,0.026918,0.012967,25.421267,-0.002935,0.000299,0.013030,1.570596,-0.030648,-0.000387,-0.000651,0.000038,-0.002776,-0.000006,0.003252,-0.003079,0.141836,0.004504,0.188382,0.188382,0.172680,0.701782,0.000000,0.000000,0.000000,0.000000,0.000000,0.000000,0.000000,0.000000,0.000000,0.000000,0.000000,0.000000,0.137415,3,0
800000,0.003015,20.479818,0.026591,0.012972,25.435026,-0.003401,0.000306,0.013584,1.570602,-0.031880,-0.000405,-0.000593,0.000040,-0.002936,-0.000006,0.007909,-0.003113,0.221096,-0.010304,0.188946,0.188946,0.172786,0.694025,0.000000,0.000000,0.000000,0.000000,0.000000,0.000000,0.000000,0.000000,0.000000,0.000000,0.000000,0.000000,0.214155,3,0
810000,0.003049,20.739820,0.025174,0.013060,25.446577,-0.005596,0.000308,0.014049,1.570593,-0.032885,-0.000423,-0.000307,0.000043,-0.003068,-0.000007,0.005512,-0.003148,0.178434,-0.047928,0.189500,0.189500,0.172881,0.686313,0.000000,0.000000,0.000000,0.000000,0.000000,0.000000,0.000000,0.000000,0.000000,0.000000,0.000000,0.000000,0.172825,3,0
820000,0.003081,20.998642,0.025557,0.013128,25.455784,-0.004953,0.000303,0.014427,1.570597,-0.033663,-0.000441,-0.000402,0.000045,-0.003172,-0.000007,0.003068,-0.003182,0.136986,0.015258,0.190043,0.190043,0.172964,0.678652,0.000000,0.000000,0.000000,0.000000,0.000000,0.000000,0.000000,0.000000,0.000000,0.000000,0.000000,0.000000,0.132682,3,0
830000,0.003113,21.260710,0.024212,0.013215,25.470713,-0.006856,0.000295,0.015053,1.570595,-0.035018,-0.000459,-0.000129,0.000048,-0.003357,-0.000007,0.009307,-0.003215,0.235891,-0.044888,0.190574,0.190574,0.173034,0.671047,0.000000,0.000000,0.000000,0.000000,0.000000,0.000000,0.000000,0.000000,0.000000,0.000000,0.000000,0.000000,0.228420,3,0
840000,0.003143,21.518394,0.023332,0.013166,25.477644,-0.008253,0.000298,0.015336,1.570592,-0.035557,-0.000478,0.000045,0.000050,-0.003432,-0.000007,0.001523,-0.003246,0.092947,-0.028028,0.191094,0.191094,0.173091,0.663502,0.000000,0.000000,0.000000,0.000000,0.000000,0.000000,0.000000,0.000000,0.000000,0.000000,0.000000,0.000000,0.090042,3,0
850000,0.003171,21.776812,0.024585,0.013100,25.485760,-0.006590,0.000296,0.015681,1.570598,-0.036220,-0.000498,-0.000251,0.000053,-0.003525,-0.000008,0.002429,-0.003276,0.113501,0.046410,0.191601,0.191601,0.173135,0.656023,0.000000,0.000000,0.000000,0.000000,0.000000,0.000000,0.000000,0.000000,0.000000,0.000000,0.000000,0.000000,0.109922,3,0
860000,0.003199,22.039137,0.023633,0.013166,25.500706,-0.008118,0.000302,0.016324,1.570591,-0.037593,-0.000517,-0.000059,0.000056,-0.003721,-0.000008,0.008889,-0.003305,0.232698,-0.030561,0.192096,0.192095,0.173165,0.648613,0.000000,0.000000,0.000000,0.000000,0.000000,0.000000,0.000000,0.000000,0.000000,0.000000,0.000000,0.000000,0.225271,3,0
870000,0.003225,22.298950,0.022642,0.013134,25.510925,-0.009587,0.000295,0.016772,1.570586,-0.038480,-0.000537,0.000142,0.000058,-0.003850,-0.000008,0.003750,-0.003332,0.149134,-0.031448,0.192577,0.192577,0.173181,0.641276,0.000000,0.000000,0.000000,0.000000,0.000000,0.000000,0.000000,0.000000,0.000000,0.000000,0.000000,0.000000,0.144382,3,0
880000,0.003250,22.558189,0.023720,0.013120,25.520035,-0.007860,0.000297,0.017166,1.570589,-0.039245,-0.000557,-0.000127,0.000062,-0.003963,-0.000009,0.002903,-0.003359,0.127764,0.040724,0.193045,0.193045,0.173183,0.634016,0.000000,0.000000,0.000000,0.000000,0.000000,0.000000,0.000000,0.000000,0.000000,0.000000,0.000000,0.000000,0.123696,3,0
890000,0.003274,22.819424,0.023657,0.013049,25.532707,-0.008108,0.000300,0.017719,1.570583,-0.040371,-0.000578,-0.000135,0.000065,-0.004131,-0.000009,0.005612,-0.003383,0.186497,0.000707,0.193500,0.193499,0.173170,0.626836,0.000000,0.000000,0.000000,0.000000,0.000000,0.000000,0.000000,0.000000,0.000000,0.000000,0.000000,0.000000,0.180513,3,0
900000,0.003296,23.080063,0.023087,0.013024,25.544111,-0.009101,0.000286,0.018234,1.570587,-0.041366,-0.000599,-0.000026,0.000068,-0.004283,-0.000009,0.004369,-0.003406,0.163681,-0.016810,0.193941,0.193941,0.173144,0.619740,0.000000,0.000000,0.000000,0.000000,0.000000,0.000000,0.000000,0.000000,0.000000,0.000000,0.000000,0.000000,0.158424,3,0
910000,0.003317,23.342041,0.022784,0.013028,25.557659,-0.009438,0.000283,0.018850,1.570595,-0.042597,-0.000620,0.000018,0.000071,-0.004473,-0.000010,0.006533,-0.003428,0.201111,-0.007235,0.194369,0.194368,0.173103,0.612731,0.000000,0.000000,0.000000,0.000000,0.000000,0.000000,0.000000,0.000000,0.000000,0.000000,0.000000,0.000000,0.194624,3,0
920000,0.003338,23.600176,0.023204,0.013102,25.564251,-0.008690,0.000279,0.019137,1.570590,-0.043078,-0.000641,-0.000105,0.000074,-0.004549,-0.000010,0.001038,-0.003450,0.078150,0.017855,0.194783,0.194782,0.173048,0.605810,0.000000,0.000000,0.000000,0.000000,0.000000,0.000000,0.000000,0.000000,0.000000,0.000000,0.000000,0.000000,0.075687,3,0
930000,0.003359,23.858391,0.022680,0.013189,25.570908,-0.009568,0.000264,0.019429,1.570593,-0.043564,-0.000663,-0.000004,0.000078,-0.004626,-0.000010,0.001029,-0.003472,0.078373,-0.015040,0.195184,0.195183,0.172979,0.598982,0.000000,0.000000,0.000000,0.000000,0.000000,0.000000,0.000000,0.000000,0.000000,0.000000,0.000000,0.000000,0.075897,3,0
940000,0.003378,24.119921,0.022379,0.013119,25.583393,-0.009930,0.000252,0.020004,1.570591,-0.044673,-0.000685,0.000041,0.000081,-0.004806,-0.000010,0.005113,-0.003492,0.177912,-0.006998,0.195572,0.195571,0.172896,0.592246,0.000000,0.000000,0.000000,0.000000,0.000000,0.000000,0.000000,0.000000,0.000000,0.000000,0.000000,0.000000,0.172147,3,0
950000,0.003397,24.378237,0.021779,0.013139,25.590031,-0.010820,0.000249,0.020297,1.570598,-0.045146,-0.000707,0.000161,0.000085,-0.004884,-0.000011,0.000964,-0.003512,0.075289,-0.017304,0.195947,0.195946,0.172800,0.585607,0.000000,0.000000,0.000000,0.000000,0.000000,0.000000,0.000000,0.000000,0.000000,0.000000,0.000000,0.000000,0.072909,3,0
960000,0.003414,24.641178,0.022144,0.013079,25.604742,-0.010204,0.000243,0.020998,1.570608,-0.046496,-0.000729,0.000037,0.000089,-0.005109,-0.000011,0.007463,-0.003530,0.214485,0.016576,0.196310,0.196308,0.172689,0.579065,0.000000,0.000000,0.000000,0.000000,0.000000,0.000000,0.000000,0.000000,0.000000,0.000000,0.000000,0.000000,0.207496,3,0
970000,0.003431,24.900867,0.022713,0.013117,25.613443,-0.009465,0.000245,0.021397,1.570615,-0.047195,-0.000752,-0.000135,0.000093,-0.005228,-0.000011,0.002057,-0.003548,0.110426,0.023495,0.196659,0.196658,0.172566,0.572623,0.000000,0.000000,0.000000,0.000000,0.000000,0.000000,0.000000,0.000000,0.000000,0.000000,0.000000,0.000000,0.106863,3,0
980000,0.003448,25.161261,0.023550,0.013212,25.623440,-0.008200,0.000245,0.021861,1.570605,-0.048014,-0.000774,-0.000374,0.000097,-0.005369,-0.000012,0.002854,-0.003565,0.128954,0.032501,0.196997,0.196996,0.172430,0.566281,0.000000,0.000000,0.000000,0.000000,0.000000,0.000000,0.000000,0.000000,0.000000,0.000000,0.000000,0.000000,0.124769,3,0
990000,0.003465,25.420387,0.022485,0.013248,25.631006,-0.009922,0.000243,0.022207,1.570608,-0.048572,-0.000797,-0.000128,0.000100,-0.005466,-0.000012,0.001414,-0.003582,0.087130,-0.034061,0.197323,0.197322,0.172281,0.560041,0.000000,0.000000,0.000000,0.000000,0.000000,0.000000,0.000000,0.000000,0.000000,0.000000,0.000000,0.000000,0.084334,3,0
1000000,0.003482,25.680876,0.021979,0.013321,25.640825,-0.010628,0.000240,0.022685,1.570611,-0.049381,-0.000821,-0.000028,0.000105,-0.005610,-0.000012,0.002597,-0.003600,0.126112,-0.014040,0.197637,0.197636,0.172119,0.553903,0.000000,0.000000,0.000000,0.000000,0.000000,0.000000,0.000000,0.000000,0.000000,0.000000,0.000000,0.000000,0.122007,3,0
1010000,0.003497,25.942709,0.021983,0.013254,25.652849,-0.010801,0.000237,0.023294,1.570611,-0.050434,-0.000844,-0.000064,0.000109,-0.005800,-0.000012,0.004324,-0.003616,0.163708,0.004079,0.197941,0.197939,0.171946,0.547869,0.000000,0.000000,0.000000,0.000000,0.000000,0.000000,0.000000,0.000000,0.000000,0.000000,0.000000,0.000000,0.158347,3,0
1020000,0.003512,26.201271,0.022955,0.013290,25.659086,-0.009665,0.000238,0.023577,1.570603,-0.050826,-0.000868,-0.000350,0.000113,-0.005871,-0.000013,0.000830,-0.003632,0.060783,0.037926,0.198233,0.198231,0.171761,0.541939,0.000000,0.000000,0.000000,0.000000,0.000000,0.000000,0.000000,0.000000,0.000000,0.000000,0.000000,0.000000,0.058882,3,0
1030000,0.003527,26.461210,0.021939,0.013377,25.667645,-0.011093,0.000225,0.023978,1.570611,-0.051477,-0.000891,-0.000112,0.000117,-0.005992,-0.000013,0.001791,-0.003648,0.100344,-0.032017,0.198516,0.198513,0.171564,0.536115,0.000000,0.000000,0.000000,0.000000,0.000000,0.000000,0.000000,0.000000,0.000000,0.000000,0.000000,0.000000,0.097087,3,0
1040000,0.003542,26.723818,0.022361,0.013464,25.680702,-0.010702,0.000219,0.024643,1.570605,-0.052635,-0.000915,-0.000263,0.000122,-0.006210,-0.000013,0.005181,-0.003664,0.178261,0.018937,0.198788,0.198786,0.171357,0.530395,0.000000,0.000000,0.000000,0.000000,0.000000,0.000000,0.000000,0.000000,0.000000,0.000000,0.000000,0.000000,0.172392,3,0
1050000,0.003557,26.983126,0.022664,0.013433,25.687906,-0.010325,0.000204,0.024971,1.570600,-0.053121,-0.000939,-0.000378,0.000127,-0.006303,-0.000014,0.000932,-0.003679,0.074553,0.014538,0.199051,0.199048,0.171139,0.524780,0.000000,0.000000,0.000000,0.000000,0.000000,0.000000,0.000000,0.000000,0.000000,0.000000,0.000000,0.000000,0.072168,3,0
1060000,0.003569,27.247099,0.023753,0.013365,25.703218,-0.008975,0.000196,0.025772,1.570600,-0.054510,-0.000964,-0.000713,0.000131,-0.006572,-0.000014,0.007583,-0.003692,0.212749,0.042145,0.199305,0.199302,0.170911,0.519271,0.000000,0.000000,0.000000,0.000000,0.000000,0.000000,0.000000,0.000000,0.000000,0.000000,0.000000,0.000000,0.205716,3,0
1070000,0.003582,27.507744,0.022360,0.013278,25.712545,-0.011114,0.000198,0.026226,1.570598,-0.055216,-0.000988,-0.000362,0.000136,-0.006712,-0.000014,0.002205,-0.003704,0.107651,-0.045548,0.199550,0.199547,0.170673,0.513868,0.000000,0.000000,0.000000,0.000000,0.000000,0.000000,0.000000,0.000000,0.000000,0.000000,0.000000,0.000000,0.104130,3,0
1080000,0.003591,27.769728,0.023338,0.013189,25.724012,-0.009829,0.000194,0.026830,1.570591,-0.056167,-0.001013,-0.000671,0.000141,-0.006902,-0.000015,0.003635,-0.003716,0.145102,0.038566,0.199787,0.199784,0.170426,0.508569,0.000000,0.000000,0.000000,0.000000,0.000000,0.000000,0.000000,0.000000,0.000000,0.000000,0.000000,0.000000,0.140318,3,0
1090000,0.003602,28.033037,0.023970,0.013268,25.737711,-0.009173,0.000192,0.027558,1.570597,-0.057357,-0.001037,-0.000886,0.000146,-0.007143,-0.000015,0.005401,-0.003726,0.181185,0.026078,0.200017,0.200013,0.170170,0.503375,0.000000,0.000000,0.000000,0.000000,0.000000,0.000000,0.000000,0.000000,0.000000,0.000000,0.000000,0.000000,0.175183,3,0
1100000,0.003613,28.292345,0.023052,0.013320,25.744167,-0.010404,0.000184,0.027846,1.570601,-0.057733,-0.001062,-0.000657,0.000151,-0.007220,-0.000016,0.000660,-0.003737,0.056889,-0.029065,0.200239,0.200235,0.169905,0.498286,0.000000,0.000000,0.000000,0.000000,0.000000,0.000000,0.000000,0.000000,0.000000,0.000000,0.000000,0.000000,0.055107,3,0
1110000,0.003623,28.551689,0.021756,0.013254,25.750683,-0.012146,0.000181,0.028142,1.570608,-0.058103,-0.001087,-0.000323,0.000156,-0.007298,-0.000016,0.000792,-0.003748,0.055943,-0.042028,0.200455,0.200450,0.169632,0.493301,0.000000,0.000000,0.000000,0.000000,0.000000,0.000000,0.000000,0.000000,0.000000,0.000000,0.000000,0.000000,0.054193,3,0
1120000,0.003632,28.815720,0.020633,0.013199,25.765268,-0.013549,0.000174,0.028944,1.570614,-0.059386,-0.001112,-0.000048,0.000161,-0.007570,-0.000016,0.006273,-0.003757,0.194111,-0.035195,0.200664,0.200659,0.169352,0.488419,0.000000,0.000000,0.000000,0.000000,0.000000,0.000000,0.000000,0.000000,0.000000,0.000000,0.000000,0.000000,0.187653,3,0
1130000,0.003641,29.079046,0.020203,0.013265,25.778622,-0.014298,0.000159,0.029666,1.570612,-0.060499,-0.001137,0.000025,0.000167,-0.007810,-0.000017,0.004591,-0.003767,0.168480,-0.010053,0.200867,0.200863,0.169064,0.483640,0.000000,0.000000,0.000000,0.000000,0.000000,0.000000,0.000000,0.000000,0.000000,0.000000,0.000000,0.000000,0.162881,3,0
1140000,0.003648,29.337681,0.020094,0.013159,25.783537,-0.014593,0.000151,0.029855,1.570608,-0.060660,-0.001162,0.000012,0.000172,-0.007845,-0.000017,0.000098,-0.003774,0.024294,0.001356,0.201065,0.201060,0.168769,0.478963,0.000000,0.000000,0.000000,0.000000,0.000000,0.000000,0.000000,0.000000,0.000000,0.000000,0.000000,0.000000,0.023761,3,0
1150000,0.003655,29.601692,0.019607,0.013125,25.797829,-0.015464,0.000139,0.030654,1.570600,-0.061871,-0.001187,0.000099,0.000178,-0.008114,-0.000017,0.005423,-0.003781,0.183067,-0.011704,0.201258,0.201253,0.168468,0.474388,0.000000,0.000000,0.000000,0.000000,0.000000,0.000000,0.000000,0.000000,0.000000,0.000000,0.000000,0.000000,0.176963,3,0
1160000,0.003660,29.864323,0.020706,0.013105,25.809528,-0.014069,0.000125,0.031288,1.570604,-0.062780,-0.001212,-0.000284,0.000184,-0.008317,-0.000018,0.003380,-0.003788,0.137579,0.045080,0.201447,0.201441,0.168160,0.469912,0.000000,0.000000,0.000000,0.000000,0.000000,0.000000,0.000000,0.000000,0.000000,0.000000,0.000000,0.000000,0.133014,3,0
1170000,0.003666,30.124931,0.019798,0.013072,25.817575,-0.015320,0.000121,0.031686,1.570602,-0.063268,-0.001237,-0.000061,0.000189,-0.008429,-0.000018,0.000995,-0.003793,0.073620,-0.027239,0.201631,0.201625,0.167847,0.465536,0.000000,0.000000,0.000000,0.000000,0.000000,0.000000,0.000000,0.000000,0.000000,0.000000,0.000000,0.000000,0.071238,3,0
1180000,0.003670,30.388885,0.020753,0.013040,25.831337,-0.014128,0.000106,0.032467,1.570609,-0.064396,-0.001263,-0.000409,0.000195,-0.008689,-0.000019,0.004959,-0.003799,0.170750,0.040107,0.201812,0.201805,0.167528,0.461258,0.000000,0.000000,0.000000,0.000000,0.000000,0.000000,0.000000,0.000000,0.000000,0.000000,0.000000,0.000000,0.165049,3,0
1190000,0.003674,30.650784,0.021689,0.012987,25.841263,-0.013077,0.000091,0.032986,1.570606,-0.065092,-0.001288,-0.000747,0.000201,-0.008852,-0.000019,0.002040,-0.003803,0.105446,0.039017,0.201989,0.201982,0.167205,0.457078,0.000000,0.000000,0.000000,0.000000,0.000000,0.000000,0.000000,0.000000,0.000000,0.000000,0.000000,0.000000,0.101964,3,0
1200000,0.003677,30.909985,0.022275,0.012964,25.846298,-0.012223,0.000081,0.033174,1.570603,-0.065238,-0.001313,-0.000969,0.000207,-0.008887,-0.000019,0.000191,-0.003806,0.022362,0.025827,0.202163,0.202155,0.166876,0.452993,0.000000,0.000000,0.000000,0.000000,0.000000,0.000000,0.000000,0.000000,0.000000,0.000000,0.000000,0.000000,0.021921,3,0
1210000,0.003679,31.173904,0.022804,0.012851,25.859753,-0.011668,0.000071,0.033929,1.570604,-0.066299,-0.001338,-0.001186,0.000213,-0.009143,-0.000020,0.004254,-0.003808,0.160685,0.023949,0.202335,0.202327,0.166544,0.449003,0.000000,0.000000,0.000000,0.000000,0.000000,0.000000,0.000000,0.000000,0.000000,0.000000,0.000000,0.000000,0.155311,3,0
1220000,0.003682,31.436430,0.023643,0.012899,25.870514,-0.010589,0.000063,0.034510,1.570598,-0.067058,-0.001363,-0.001494,0.000220,-0.009328,-0.000020,0.002339,-0.003811,0.115299,0.034793,0.202504,0.202495,0.166207,0.445107,0.000000,0.000000,0.000000,0.000000,0.000000,0.000000,0.000000,0.000000,0.000000,0.000000,0.000000,0.000000,0.111471,3,0
1230000,0.003682,31.696909,0.024858,0.012778,25.877533,-0.008959,0.000049,0.034830,1.570599,-0.067395,-0.001388,-0.001915,0.000226,-0.009411,-0.000020,0.000801,-0.003812,0.051455,0.047956,0.202671,0.202662,0.165867,0.441303,0.000000,0.000000,0.000000,0.000000,0.000000,0.000000,0.000000,0.000000,0.000000,0.000000,0.000000,0.000000,0.049857,3,0
1240000,0.003684,31.955376,0.024313,0.012819,25.880831,-0.009788,0.000036,0.034892,1.570600,-0.067328,-0.001414,-0.001770,0.000232,-0.009395,-0.000020,0.000063,-0.003813,-0.010303,-0.016450,0.202837,0.202828,0.165524,0.437590,0.000000,0.000000,0.000000,0.000000,0.000000,0.000000,0.000000,0.000000,0.000000,0.000000,0.000000,0.000000,0.010616,3,0
1250000,0.003685,32.214542,0.025077,0.012799,25.885313,-0.008744,0.000028,0.035032,1.570606,-0.067388,-0.001439,-0.002046,0.000239,-0.009410,-0.000020,0.000176,-0.003814,0.009499,0.031341,0.203002,0.202992,0.165178,0.433967,0.000000,0.000000,0.000000,0.000000,0.000000,0.000000,0.000000,0.000000,0.000000,0.000000,0.000000,0.000000,0.009890,3,0
1260000,0.003685,32.477093,0.025168,0.012677,25.895733,-0.008843,0.000023,0.035615,1.570607,-0.068097,-0.001464,-0.002116,0.000246,-0.009594,-0.000021,0.001892,-0.003814,0.108109,0.006912,0.203166,0.203155,0.164830,0.430432,0.000000,0.000000,0.000000,0.000000,0.000000,0.000000,0.000000,0.000000,0.000000,0.000000,0.000000,0.000000,0.104515,3,0
1270000,0.003684,32.736916,0.025756,0.012660,25.901180,-0.008339,0.000006,0.035825,1.570599,-0.068256,-0.001489,-0.002340,0.000252,-0.009635,-0.000021,0.000198,-0.003813,0.024361,0.024858,0.203329,0.203318,0.164479,0.426983,0.000000,0.000000,0.000000,0.000000,0.000000,0.000000,0.000000,0.000000,0.000000,0.000000,0.000000,0.000000,0.023823,3,0
1280000,0.003682,32.997417,0.026249,0.012522,25.907784,-0.007753,-0.000006,0.036117,1.570596,-0.068534,-0.001513,-0.002534,0.000259,-0.009709,-0.000021,0.000371,-0.003811,0.042793,0.021265,0.203492,0.203480,0.164126,0.423621,0.000000,0.000000,0.000000,0.000000,0.000000,0.000000,0.000000,0.000000,0.000000,0.000000,0.000000,0.000000,0.041507,3,0
1290000,0.003680,33.256569,0.025077,0.012494,25.911947,-0.009455,-0.000013,0.036229,1.570600,-0.068542,-0.001538,-0.002174,0.000266,-0.009712,-0.000021,0.000261,-0.003809,0.000893,-0.039966,0.203654,0.203641,0.163772,0.420343,0.000000,0.000000,0.000000,0.000000,0.000000,0.000000,0.000000,0.000000,0.000000,0.000000,0.000000,0.000000,0.003779,3,0
1300000,0.003677,33.518436,0.024045,0.012369,25.920832,-0.010809,-0.000031,0.036710,1.570595,-0.069062,-0.001563,-0.001873,0.000272,-0.009856,-0.000021,0.001212,-0.003806,0.079639,-0.034113,0.203817,0.203803,0.163416,0.417147,0.000000,0.000000,0.000000,0.000000,0.000000,0.000000,0.000000,0.000000,0.000000,0.000000,0.000000,0.000000,0.077019,3,0
1310000,0.003673,33.780949,0.024713,0.012314,25.930899,-0.010264,-0.000052,0.037258,1.570586,-0.069683,-0.001588,-0.002146,0.000279,-0.010028,-0.000022,0.001622,-0.003803,0.095989,0.029025,0.203980,0.203965,0.163059,0.414034,0.000000,0.000000,0.000000,0.000000,0.000000,0.000000,0.000000,0.000000,0.000000,0.000000,0.000000,0.000000,0.092800,3,0
1320000,0.003668,34.042068,0.025241,0.012181,25.938227,-0.009873,-0.000076,0.037610,1.570585,-0.070018,-0.001613,-0.002367,0.000286,-0.010123,-0.000022,0.000529,-0.003797,0.052040,0.023582,0.204143,0.204128,0.162701,0.410999,0.000000,0.000000,0.000000,0.000000,0.000000,0.000000,0.000000,0.000000,0.000000,0.000000,0.000000,0.000000,0.050404,3,0
1330000,0.003662,34.305882,0.024701,0.012098,25.950380,-0.010849,-0.000096,0.038324,1.570594,-0.070850,-0.001637,-0.002236,0.000293,-0.010362,-0.000023,0.002712,-0.003791,0.128788,-0.015685,0.204307,0.204291,0.162343,0.408044,0.000000,0.000000,0.000000,0.000000,0.000000,0.000000,0.000000,0.000000,0.000000,0.000000,0.000000,0.000000,0.124455,3,0
1340000,0.003655,34.564884,0.025836,0.012068,25.953798,-0.009340,-0.000115,0.038362,1.570588,-0.070745,-0.001661,-0.002660,0.000301,-0.010330,-0.000023,0.000387,-0.003785,-0.015873,0.046035,0.204472,0.204455,0.161985,0.405166,0.000000,0.000000,0.000000,0.000000,0.000000,0.000000,0.000000,0.000000,0.000000,0.000000,0.000000,0.000000,0.015757,3,0
1350000,0.003650,34.825260,0.025766,0.012067,25.959700,-0.009471,-0.000137,0.038593,1.570578,-0.070894,-0.001686,-0.002672,0.000308,-0.010374,-0.000023,0.000090,-0.003778,0.023273,0.001011,0.204638,0.204620,0.161626,0.402364,0.000000,0.000000,0.000000,0.000000,0.000000,0.000000,0.000000,0.000000,0.000000,0.000000,0.000000,0.000000,0.022774,3,0
1360000,0.003642,35.089016,0.026625,0.011958,25.971430,-0.008708,-0.000149,0.039271,1.570573,-0.071662,-0.001710,-0.003023,0.000315,-0.010604,-0.000023,0.002558,-0.003771,0.120663,0.036129,0.204805,0.204787,0.161268,0.399635,0.000000,0.000000,0.000000,0.000000,0.000000,0.000000,0.000000,0.000000,0.000000,0.000000,0.000000,0.000000,0.116604,3,0
1370000,0.003635,35.348629,0.027619,0.011968,25.975716,-0.007680,-0.000160,0.039370,1.570578,-0.071633,-0.001733,-0.003402,0.000323,-0.010594,-0.000023,0.000270,-0.003764,-0.004063,0.040420,0.204974,0.204954,0.160910,0.396980,0.000000,0.000000,0.000000,0.000000,0.000000,0.000000,0.000000,0.000000,0.000000,0.000000,0.000000,0.000000,0.005344,3,0
1380000,0.003629,35.612328,0.026967,0.011967,25.987112,-0.008614,-0.000173,0.040041,1.570570,-0.072356,-0.001757,-0.003218,0.000330,-0.010818,-0.000024,0.002165,-0.003757,0.113983,-0.020949,0.205144,0.205123,0.160553,0.394395,0.000000,0.000000,0.000000,0.000000,0.000000,0.000000,0.000000,0.000000,0.000000,0.000000,0.000000,0.000000,0.110144,3,0
1390000,0.003621,35.873920,0.026884,0.011882,25.994686,-0.008915,-0.000187,0.040411,1.570578,-0.072665,-0.001781,-0.003228,0.000337,-0.010914,-0.000024,0.000388,-0.003750,0.048958,0.000448,0.205315,0.205294,0.160196,0.391880,0.000000,0.000000,0.000000,0.000000,0.000000,0.000000,0.000000,0.000000,0.000000,0.000000,0.000000,0.000000,0.047422,3,0
1400000,0.003613,36.137516,0.027753,0.011841,26.005653,-0.008152,-0.000197,0.041058,1.570583,-0.073323,-0.001805,-0.003590,0.000345,-0.011123,-0.000024,0.002007,-0.003742,0.105354,0.036628,0.205489,0.205466,0.159841,0.389433,0.000000,0.000000,0.000000,0.000000,0.000000,0.000000,0.000000,0.000000,0.000000,0.000000,0.000000,0.000000,0.101814,3,0
1410000,0.003605,36.396957,0.028049,0.011792,26.009102,-0.007981,-0.000223,0.041093,1.570574,-0.073203,-0.001828,-0.003724,0.000352,-0.011083,-0.000024,0.000094,-0.003734,-0.019199,0.014207,0.205664,0.205640,0.159487,0.387054,0.000000,0.000000,0.000000,0.000000,0.000000,0.000000,0.000000,0.000000,0.000000,0.000000,0.000000,0.000000,0.018887,3,0
1420000,0.003597,36.655724,0.026757,0.011646,26.011234,-0.009780,-0.000242,0.041024,1.570569,-0.072956,-0.001851,-0.003277,0.000360,-0.011004,-0.000024,0.000602,-0.003724,-0.040131,-0.045790,0.205840,0.205816,0.159134,0.384739,0.000000,0.000000,0.000000,0.000000,0.000000,0.000000,0.000000,0.000000,0.000000,0.000000,0.000000,0.000000,0.038928,3,0
1430000,0.003589,36.917229,0.025715,0.011633,26.018379,-0.011149,-0.000257,0.041343,1.570563,-0.073200,-0.001874,-0.002940,0.000367,-0.011086,-0.000025,0.000450,-0.003716,0.039024,-0.035386,0.206019,0.205993,0.158783,0.382489,0.000000,0.000000,0.000000,0.000000,0.000000,0.000000,0.000000,0.000000,0.000000,0.000000,0.000000,0.000000,0.037848,3,0
1440000,0.003579,37.176643,0.025362,0.011493,26.021690,-0.011681,-0.000278,0.041347,1.570551,-0.073054,-0.001897,-0.002847,0.000375,-0.011037,-0.000024,0.000107,-0.003706,-0.023766,-0.009176,0.206199,0.206173,0.158433,0.380302,0.000000,0.000000,0.000000,0.000000,0.000000,0.000000,0.000000,0.000000,0.000000,0.000000,0.000000,0.000000,0.023227,3,0
1450000,0.003567,37.435371,0.025511,0.011366,26.023664,-0.011653,-0.000291,0.041253,1.570549,-0.072780,-0.001920,-0.002938,0.000383,-0.010943,-0.000024,0.000339,-0.003695,-0.044666,0.009964,0.206382,0.206354,0.158086,0.378175,0.000000,0.000000,0.000000,0.000000,0.000000,0.000000,0.000000,0.000000,0.000000,0.000000,0.000000,0.000000,0.043276,3,0
1460000,0.003556,37.693420,0.026119,0.011369,26.024271,-0.010790,-0.000310,0.041051,1.570540,-0.072384,-0.001942,-0.003196,0.000391,-0.010805,-0.000024,0.000799,-0.003683,-0.064865,0.027177,0.206566,0.206537,0.157741,0.376108,0.000000,0.000000,0.000000,0.000000,0.000000,0.000000,0.000000,0.000000,0.000000,0.000000,0.000000,0.000000,0.062731,3,0
1470000,0.003546,37.956970,0.025075,0.011347,26.034803,-0.012172,-0.000321,0.041666,1.570548,-0.072958,-0.001964,-0.002864,0.000398,-0.011008,-0.000025,0.001640,-0.003672,0.094540,-0.035040,0.206753,0.206722,0.157398,0.374098,0.000000,0.000000,0.000000,0.000000,0.000000,0.000000,0.000000,0.000000,0.000000,0.000000,0.000000,0.000000,0.091347,3,0
1480000,0.003535,38.217709,0.023907,0.011285,26.040220,-0.013794,-0.000332,0.041849,1.570550,-0.073019,-0.001987,-0.002471,0.000406,-0.011031,-0.000025,0.000274,-0.003661,0.009792,-0.039760,0.206941,0.206909,0.157057,0.372146,0.000000,0.000000,0.000000,0.000000,0.000000,0.000000,0.000000,0.000000,0.000000,0.000000,0.000000,0.000000,0.010089,3,0
1490000,0.003522,38.477032,0.025056,0.011131,26.042841,-0.012270,-0.000349,0.041807,1.570553,-0.072823,-0.002008,-0.002955,0.000414,-0.010958,-0.000025,0.000561,-0.003649,-0.032333,0.049081,0.207131,0.207098,0.156719,0.370249,0.000000,0.000000,0.000000,0.000000,0.000000,0.000000,0.000000,0.000000,0.000000,0.000000,0.000000,0.000000,0.031406,3,0
1500000,0.003509,38.739796,0.024304,0.011014,26.051640,-0.013311,-0.000376,0.042286,1.570548,-0.073217,-0.002030,-0.002729,0.000422,-0.011104,-0.000025,0.000796,-0.003635,0.066135,-0.023611,0.207323,0.207289,0.156383,0.368406,0.000000,0.000000,0.000000,0.000000,0.000000,0.000000,0.000000,0.000000,0.000000,0.000000,0.000000,0.000000,0.063943,3,0
1510000,0.003496,38.999062,0.023968,0.010888,26.054163,-0.013583,-0.000388,0.042221,1.570550,-0.072995,-0.002051,-0.002642,0.000430,-0.011022,-0.000025,0.000241,-0.003621,-0.037685,-0.008048,0.207517,0.207482,0.156050,0.366617,0.000000,0.000000,0.000000,0.000000,0.000000,0.000000,0.000000,0.000000,0.000000,0.000000,0.000000,0.000000,0.036552,3,0
1520000,0.003481,39.259697,0.023240,0.010746,26.059099,-0.014379,-0.000403,0.042358,1.570544,-0.073004,-0.002072,-0.002412,0.000438,-0.011026,-0.000025,0.000087,-0.003605,0.001209,-0.022802,0.207713,0.207677,0.155720,0.364880,0.000000,0.000000,0.000000,0.000000,0.000000,0.000000,0.000000,0.000000,0.000000,0.000000,0.000000,0.000000,0.003670,3,0
1530000,0.003464,39.518921,0.023405,0.010570,26.061226,-0.014216,-0.000412,0.042262,1.570543,-0.072766,-0.002093,-0.002524,0.000446,-0.010934,-0.000025,0.000292,-0.003589,-0.040810,0.011709,0.207911,0.207873,0.155394,0.363191,0.000000,0.000000,0.000000,0.000000,0.000000,0.000000,0.000000,0.000000,0.000000,0.000000,0.000000,0.000000,0.039546,3,0
1540000,0.003447,39.778133,0.024255,0.010488,26.063456,-0.013154,-0.000422,0.042166,1.570530,-0.072523,-0.002113,-0.002905,0.000454,-0.010838,-0.000025,0.000517,-0.003571,-0.041630,0.038156,0.208111,0.208071,0.155070,0.361553,0.000000,0.000000,0.000000,0.000000,0.000000,0.000000,0.000000,0.000000,0.000000,0.000000,0.000000,0.000000,0.040328,3,0
1550000,0.003430,40.038727,0.023333,0.010366,26.068121,-0.014495,-0.000449,0.042287,1.570517,-0.072510,-0.002134,-0.002593,0.000462,-0.010834,-0.000025,0.000154,-0.003553,-0.002678,-0.030511,0.208312,0.208271,0.154749,0.359962,0.000000,0.000000,0.000000,0.000000,0.000000,0.000000,0.000000,0.000000,0.000000,0.000000,0.000000,0.000000,0.004298,3,0
1560000,0.003412,40.296528,0.022466,0.010176,26.067497,-0.015382,-0.000475,0.041946,1.570514,-0.072033,-0.002154,-0.002282,0.000470,-0.010643,-0.000024,0.001282,-0.003534,-0.084404,-0.028725,0.208514,0.208472,0.154432,0.358416,0.000000,0.000000,0.000000,0.000000,0.000000,0.000000,0.000000,0.000000,0.000000,0.000000,0.000000,0.000000,0.081550,3,0
1570000,0.003393,40.557796,0.021988,0.010111,26.073158,-0.015950,-0.000497,0.042168,1.570512,-0.072122,-0.002174,-0.002157,0.000478,-0.010680,-0.000024,0.000066,-0.003515,0.015617,-0.012400,0.208718,0.208675,0.154117,0.356915,0.000000,0.000000,0.000000,0.000000,0.000000,0.000000,0.000000,0.000000,0.000000,0.000000,0.000000,0.000000,0.015449,3,0
1580000,0.003372,40.817627,0.022802,0.009915,26.076180,-0.014854,-0.000506,0.042134,1.570514,-0.071968,-0.002193,-0.002543,0.000486,-0.010615,-0.000024,0.000351,-0.003494,-0.027042,0.037778,0.208924,0.208878,0.153807,0.355458,0.000000,0.000000,0.000000,0.000000,0.000000,0.000000,0.000000,0.000000,0.000000,0.000000,0.000000,0.000000,0.026310,3,0
1590000,0.003351,41.079533,0.021841,0.009751,26.082956,-0.016194,-0.000530,0.042433,1.570521,-0.072143,-0.002213,-0.002223,0.000494,-0.010689,-0.000025,0.000318,-0.003472,0.031162,-0.031368,0.209130,0.209084,0.153500,0.354044,0.000000,0.000000,0.000000,0.000000,0.000000,0.000000,0.000000,0.000000,0.000000,0.000000,0.000000,0.000000,0.030254,3,0
1600000,0.003329,41.340679,0.021826,0.009570,26.088314,-0.016329,-0.000544,0.042603,1.570512,-0.072185,-0.002232,-0.002286,0.000502,-0.010707,-0.000025,0.000017,-0.003449,0.007732,0.005938,0.209338,0.209290,0.153196,0.352672,0.000000,0.000000,0.000000,0.000000,0.000000,0.000000,0.000000,0.000000,0.000000,0.000000,0.000000,0.000000,0.008174,3,0
1610000,0.003305,41.603168,0.022266,0.009432,26.095959,-0.015840,-0.000568,0.042969,1.570509,-0.072426,-0.002250,-0.002549,0.000510,-0.010811,-0.000025,0.000418,-0.003425,0.044716,0.024159,0.209547,0.209497,0.152896,0.351340,0.000000,0.000000,0.000000,0.000000,0.000000,0.000000,0.000000,0.000000,0.000000,0.000000,0.000000,0.000000,0.043286,3,0
1620000,0.003281,41.863506,0.022769,0.009319,26.099640,-0.015224,-0.000592,0.042987,1.570502,-0.072322,-0.002268,-0.002818,0.000518,-0.010764,-0.000025,0.000169,-0.003401,-0.019058,0.025889,0.209756,0.209705,0.152600,0.350048,0.000000,0.000000,0.000000,0.000000,0.000000,0.000000,0.000000,0.000000,0.000000,0.000000,0.000000,0.000000,0.018677,3,0
1630000,0.003258,42.124508,0.022683,0.009296,26.104454,-0.015241,-0.000610,0.043100,1.570500,-0.072316,-0.002286,-0.002845,0.000527,-0.010761,-0.000025,0.000003,-0.003376,-0.001129,0.002649,0.209966,0.209913,0.152307,0.348794,0.000000,0.000000,0.000000,0.000000,0.000000,0.000000,0.000000,0.000000,0.000000,0.000000,0.000000,0.000000,0.003435,3,0
1640000,0.003236,42.384781,0.021730,0.009271,26.107761,-0.016545,-0.000620,0.043102,1.570503,-0.072193,-0.002304,-0.002504,0.000534,-0.010706,-0.000025,0.000255,-0.003353,-0.023632,-0.031675,0.210177,0.210122,0.152018,0.347575,0.000000,0.000000,0.000000,0.000000,0.000000,0.000000,0.000000,0.000000,0.000000,0.000000,0.000000,0.000000,0.023040,3,0
1650000,0.003215,42.642235,0.020594,0.009221,26.105822,-0.017872,-0.000649,0.042627,1.570488,-0.071646,-0.002322,-0.002062,0.000542,-0.010456,-0.000024,0.002028,-0.003331,-0.105030,-0.039346,0.210388,0.210332,0.151733,0.346393,0.000000,0.000000,0.000000,0.000000,0.000000,0.000000,0.000000,0.000000,0.000000,0.000000,0.000000,0.000000,0.101407,3,0
1660000,0.003190,42.900375,0.021499,0.009058,26.105122,-0.016905,-0.000667,0.042244,1.570490,-0.071207,-0.002339,-0.002494,0.000551,-0.010248,-0.000024,0.001430,-0.003307,-0.084152,0.042211,0.210599,0.210541,0.151452,0.345244,0.000000,0.000000,0.000000,0.000000,0.000000,0.000000,0.000000,0.000000,0.000000,0.000000,0.000000,0.000000,0.081251,3,0
1670000,0.003167,43.159229,0.021406,0.008980,26.105743,-0.017061,-0.000684,0.041985,1.570478,-0.070879,-0.002355,-0.002506,0.000559,-0.010091,-0.000024,0.000661,-0.003282,-0.063988,0.002488,0.210810,0.210751,0.151175,0.344130,0.000000,0.000000,0.000000,0.000000,0.000000,0.000000,0.000000,0.000000,0.000000,0.000000,0.000000,0.000000,0.061822,3,0
1680000,0.003144,43.417362,0.021881,0.008949,26.105003,-0.016363,-0.000696,0.041594,1.570475,-0.070451,-0.002371,-0.002754,0.000567,-0.009882,-0.000023,0.001244,-0.003259,-0.084297,0.024792,0.211022,0.210961,0.150902,0.343047,0.000000,0.000000,0.000000,0.000000,0.000000,0.000000,0.000000,0.000000,0.000000,0.000000,0.000000,0.000000,0.081386,3,0
1690000,0.003121,43.676907,0.021393,0.008932,26.106800,-0.017092,-0.000713,0.041454,1.570466,-0.070230,-0.002388,-0.002600,0.000575,-0.009774,-0.000023,0.000345,-0.003235,-0.044239,-0.013230,0.211233,0.211170,0.150633,0.341995,0.000000,0.000000,0.000000,0.000000,0.000000,0.000000,0.000000,0.000000,0.000000,0.000000,0.000000,0.000000,0.042800,3,0
1700000,0.003100,43.938530,0.020368,0.008907,26.112347,-0.018316,-0.000733,0.041662,1.570462,-0.070302,-0.002404,-0.002236,0.000582,-0.009812,-0.000023,0.000221,-0.003213,0.014267,-0.033848,0.211443,0.211379,0.150367,0.340973,0.000000,0.000000,0.000000,0.000000,0.000000,0.000000,0.000000,0.000000,0.000000,0.000000,0.000000,0.000000,0.014101,3,0
1710000,0.003076,44.200073,0.021271,0.008697,26.117786,-0.017224,-0.000758,0.041831,1.570454,-0.070354,-0.002419,-0.002714,0.000591,-0.009836,-0.000024,0.000331,-0.003189,0.011009,0.043631,0.211654,0.211588,0.150106,0.339981,0.000000,0.000000,0.000000,0.000000,0.000000,0.000000,0.000000,0.000000,0.000000,0.000000,0.000000,0.000000,0.011071,3,0
1720000,0.003051,44.458050,0.022397,0.008631,26.116425,-0.015867,-0.000767,0.041393,1.570457,-0.069908,-0.002434,-0.003249,0.000599,-0.009603,-0.000023,0.001771,-0.003164,-0.091557,0.050988,0.211863,0.211796,0.149848,0.339017,0.000000,0.000000,0.000000,0.000000,0.000000,0.000000,0.000000,0.000000,0.000000,0.000000,0.000000,0.000000,0.088363,3,0
