time_us,pos_x,pos_y,pos_z,vel_x,vel_y,vel_z,roll,pitch,yaw,bias_ax,bias_ay,bias_az,bias_gx,bias_gy,bias_gz,nis,innov_x,innov_y,innov_z,cov_pos_x,cov_pos_y,cov_pos_z,cov_yaw,des_speed,des_heading,des_climb,pid_speed,pid_yaw,pid_alt,speed_meas,yaw_meas,climb_meas,fwd_accel,yaw_rate,vert_accel,drift_m,nav_mode,mission_state
0,0.000003,0.149998,0.000010,0.000498,24.999609,0.002495,-0.000002,-0.000003,1.570797,0.000000,0.000000,0.000000,0.000000,0.000000,0.000000,0.006250,-0.000005,-0.249999,-0.000025,2.400038,2.400038,3.600017,1.000518,0.000000,0.000000,0.000000,0.000000,0.000000,0.000000,0.000000,0.000000,0.000000,0.000000,0.000000,0.000000,0.070482,1,0
10000,0.000010,0.297061,0.022044,0.001045,24.998888,0.005053,0.000002,-0.000008,1.570809,0.000001,-0.000000,-0.000000,0.000000,0.000000,0.000000,0.015806,-0.000013,-0.360235,0.058623,1.714420,1.714420,2.250079,1.001073,0.000000,0.000000,0.000000,0.000000,0.000000,0.000000,0.000000,0.000000,0.000000,0.000000,0.000000,0.000000,0.040881,3,0
20000,0.000019,0.447549,0.011046,0.001464,24.997517,0.007430,0.000015,0.000003,1.570827,0.000005,-0.000000,0.000000,-0.000000,0.000000,0.000000,0.026175,-0.000024,-0.447654,-0.040599,1.333616,1.333616,1.636554,1.001655,0.000000,0.000000,0.000000,0.000000,0.000000,0.000000,0.000000,0.000000,0.000000,0.000000,0.000000,0.000000,0.148819,3,0
30000,0.000030,0.595956,0.023531,0.001724,24.995386,0.009803,0.000016,0.000016,1.570833,0.000015,-0.000000,-0.000001,0.000000,0.000000,0.000000,0.042948,-0.000036,-0.558370,0.057798,1.091392,1.091392,1.286065,1.002257,0.000000,0.000000,0.000000,0.000000,0.000000,0.000000,0.000000,0.000000,0.000000,0.000000,0.000000,0.000000,0.258837,3,0
40000,0.000043,0.715666,0.028319,0.002140,24.991537,0.012063,0.000029,0.000017,1.570849,0.000039,-0.000000,-0.000001,0.000000,0.000000,0.000000,0.100994,-0.000051,-0.845909,0.026441,0.923811,0.923811,1.059385,1.002869,0.000000,0.000000,0.000000,0.000000,0.000000,0.000000,0.000000,0.000000,0.000000,0.000000,0.000000,0.000000,0.397553,3,0
50000,0.000057,0.836669,0.033416,0.002301,24.986204,0.014437,0.000038,0.000010,1.570860,0.000081,-0.000000,-0.000003,0.000000,0.000000,0.000000,0.134799,-0.000066,-0.965580,0.032998,0.801036,0.801036,0.900822,1.003484,0.000000,0.000000,0.000000,0.000000,0.000000,0.000000,0.000000,0.000000,0.000000,0.000000,0.000000,0.000000,0.534976,3,0
60000,0.000073,0.972508,0.038058,0.002543,24.979746,0.017143,0.000048,-0.000012,1.570870,0.000139,-0.000000,-0.000005,0.000000,0.000001,0.000000,0.137719,-0.000083,-0.967253,0.034242,0.707270,0.707270,0.783741,1.004094,0.000000,0.000000,0.000000,0.000000,0.000000,0.000000,0.000000,0.000000,0.000000,0.000000,0.000000,0.000000,0.657563,3,0
70000,0.000091,1.101669,0.036778,0.002869,24.971519,0.019368,0.000057,-0.000030,1.570873,0.000230,-0.000000,-0.000004,0.000000,0.000002,0.000000,0.194708,-0.000102,-1.142788,-0.012755,0.633370,0.633370,0.693801,1.004688,0.000000,0.000000,0.000000,0.000000,0.000000,0.000000,0.000000,0.000000,0.000000,0.000000,0.000000,0.000000,0.786828,3,0
80000,0.000111,1.225973,0.037612,0.003219,24.960703,0.021486,0.000070,-0.000068,1.570892,0.000364,-0.000000,-0.000004,0.000000,0.000003,0.000000,0.259316,-0.000123,-1.311622,0.005974,0.573673,0.573673,0.622594,1.005260,0.000000,0.000000,0.000000,0.000000,0.000000,0.000000,0.000000,0.000000,0.000000,0.000000,0.000000,0.000000,0.920950,3,0
90000,0.000133,1.377871,0.036317,0.003424,24.950911,0.023831,0.000086,-0.000101,1.570906,0.000507,-0.000000,-0.000002,0.000000,0.000005,0.000000,0.190069,-0.000146,-1.117759,-0.016300,0.524488,0.524488,0.564865,1.005801,0.000000,0.000000,0.000000,0.000000,0.000000,0.000000,0.000000,0.000000,0.000000,0.000000,0.000000,0.000000,1.027477,3,0
100000,0.000156,1.549133,0.039324,0.003669,24.941294,0.026537,0.000087,-0.000143,1.570920,0.000658,-0.000000,-0.000007,0.000000,0.000007,0.000000,0.144748,-0.000170,-0.971373,0.031837,0.483304,0.483304,0.517162,1.006301,0.000000,0.000000,0.000000,0.000000,0.000000,0.000000,0.000000,0.000000,0.000000,0.000000,0.000000,0.000000,1.114642,3,0
110000,0.000183,1.728021,0.034350,0.004175,24.931194,0.028129,0.000093,-0.000198,1.570929,0.000833,-0.000000,0.000005,0.000000,0.000009,0.000000,0.138023,-0.000198,-0.943750,-0.066162,0.448354,0.448354,0.477121,1.006754,0.000000,0.000000,0.000000,0.000000,0.000000,0.000000,0.000000,0.000000,0.000000,0.000000,0.000000,0.000000,1.194179,3,0
120000,0.000211,1.915694,0.034258,0.004421,24.920986,0.030219,0.000094,-0.000248,1.570937,0.001028,-0.000000,0.000006,0.000000,0.000013,0.000000,0.121163,-0.000227,-0.883991,-0.005348,0.418359,0.418359,0.443071,1.007150,0.000000,0.000000,0.000000,0.000000,0.000000,0.000000,0.000000,0.000000,0.000000,0.000000,0.000000,0.000000,1.264933,3,0
130000,0.000240,2.110426,0.034971,0.004569,24.910593,0.032761,0.000094,-0.000312,1.570950,0.001241,-0.000000,0.000005,0.000000,0.000016,0.000000,0.108094,-0.000257,-0.833014,0.005594,0.392370,0.392370,0.413797,1.007481,0.000000,0.000000,0.000000,0.000000,0.000000,0.000000,0.000000,0.000000,0.000000,0.000000,0.000000,0.000000,1.328626,3,0
140000,0.000271,2.315812,0.034767,0.004872,24.901146,0.034896,0.000103,-0.000377,1.570951,0.001450,-0.000000,0.000007,0.000000,0.000021,0.000000,0.078758,-0.000289,-0.709580,-0.008551,0.369668,0.369668,0.388393,1.007739,0.000000,0.000000,0.000000,0.000000,0.000000,0.000000,0.000000,0.000000,0.000000,0.000000,0.000000,0.000000,1.381667,3,0
150000,0.000304,2.521928,0.034542,0.005194,24.890743,0.037097,0.000110,-0.000451,1.570964,0.001697,-0.000001,0.000010,0.000000,0.000026,0.000000,0.085027,-0.000323,-0.735961,-0.009785,0.349698,0.349698,0.366172,1.007915,0.000000,0.000000,0.000000,0.000000,0.000000,0.000000,0.000000,0.000000,0.000000,0.000000,0.000000,0.000000,1.433977,3,0
160000,0.000340,2.738509,0.032501,0.005510,24.882006,0.038811,0.000119,-0.000502,1.570982,0.001920,-0.000001,0.000026,0.000000,0.000031,0.000000,0.054004,-0.000359,-0.584153,-0.042153,0.332024,0.332024,0.346600,1.008002,0.000000,0.000000,0.000000,0.000000,0.000000,0.000000,0.000000,0.000000,0.000000,0.000000,0.000000,0.000000,1.475821,3,0
170000,0.000377,2.954553,0.033580,0.005835,24.872347,0.041383,0.000128,-0.000561,1.570996,0.002185,-0.000001,0.000021,0.000000,0.000037,0.000000,0.061053,-0.000398,-0.621738,0.012143,0.316301,0.316301,0.329260,1.007991,0.000000,0.000000,0.000000,0.000000,0.000000,0.000000,0.000000,0.000000,0.000000,0.000000,0.000000,0.000000,1.518203,3,0
180000,0.000419,3.179102,0.033912,0.006385,24.864305,0.043696,0.000139,-0.000628,1.571005,0.002414,-0.000001,0.000022,0.000000,0.000043,0.000000,0.036446,-0.000441,-0.479864,-0.001999,0.302251,0.302251,0.313817,1.007875,0.000000,0.000000,0.000000,0.000000,0.000000,0.000000,0.000000,0.000000,0.000000,0.000000,0.000000,0.000000,1.552080,3,0
190000,0.000462,3.407177,0.036091,0.006679,24.856684,0.046504,0.000148,-0.000693,1.571014,0.002639,-0.000001,0.000004,0.000000,0.000049,0.000000,0.028977,-0.000486,-0.426027,0.034382,0.289647,0.289647,0.300003,1.007645,0.000000,0.000000,0.000000,0.000000,0.000000,0.000000,0.000000,0.000000,0.000000,0.000000,0.000000,0.000000,1.582431,3,0
200000,0.000507,3.630938,0.034997,0.006899,24.846725,0.048244,0.000153,-0.000793,1.571018,0.002951,-0.000002,0.000023,0.000000,0.000058,0.000000,0.045622,-0.000531,-0.534752,-0.033003,0.278303,0.278303,0.287598,1.007295,0.000000,0.000000,0.000000,0.000000,0.000000,0.000000,0.000000,0.000000,0.000000,0.000000,0.000000,0.000000,1.617096,3,0
210000,0.000554,3.862396,0.033402,0.007327,24.839455,0.049633,0.000162,-0.000860,1.571019,0.003194,-0.000002,0.000051,0.000000,0.000065,0.000000,0.023408,-0.000580,-0.380716,-0.045580,0.268063,0.268063,0.276421,1.006816,0.000000,0.000000,0.000000,0.000000,0.000000,0.000000,0.000000,0.000000,0.000000,0.000000,0.000000,0.000000,1.644064,3,0
220000,0.000603,4.092103,0.033879,0.007547,24.830505,0.051732,0.000170,-0.000960,1.571029,0.003497,-0.000003,0.000052,0.000000,0.000075,0.000000,0.029927,-0.000630,-0.433188,-0.000904,0.258798,0.258798,0.266321,1.006202,0.000000,0.000000,0.000000,0.000000,0.000000,0.000000,0.000000,0.000000,0.000000,0.000000,0.000000,0.000000,1.672783,3,0
230000,0.000653,4.321868,0.034206,0.007888,24.820812,0.053909,0.000178,-0.001054,1.571027,0.003835,-0.000003,0.000056,0.000000,0.000086,0.000000,0.031508,-0.000682,-0.444136,-0.004976,0.250398,0.250398,0.257172,1.005446,0.000000,0.000000,0.000000,0.000000,0.000000,0.000000,0.000000,0.000000,0.000000,0.000000,0.000000,0.000000,1.701444,3,0
240000,0.000704,4.557287,0.033947,0.008068,24.813574,0.055623,0.000182,-0.001122,1.571038,0.004096,-0.000004,0.000072,0.000000,0.000095,0.000000,0.016030,-0.000734,-0.315984,-0.019735,0.242771,0.242771,0.248866,1.004541,0.000000,0.000000,0.000000,0.000000,0.000000,0.000000,0.000000,0.000000,0.000000,0.000000,0.000000,0.000000,1.724451,3,0
250000,0.000758,4.791564,0.035894,0.008457,24.805418,0.058684,0.000181,-0.001222,1.571052,0.004410,-0.000004,0.000042,0.000000,0.000106,0.000000,0.020085,-0.000789,-0.352543,0.033976,0.235836,0.235836,0.241314,1.003480,0.000000,0.000000,0.000000,0.000000,0.000000,0.000000,0.000000,0.000000,0.000000,0.000000,0.000000,0.000000,1.748600,3,0
260000,0.000813,5.026295,0.036252,0.008720,24.796986,0.060495,0.000202,-0.001323,1.571063,0.004745,-0.000005,0.000048,0.000000,0.000119,0.000000,0.019440,-0.000845,-0.348191,-0.006337,0.229524,0.229524,0.234436,1.002258,0.000000,0.000000,0.000000,0.000000,0.000000,0.000000,0.000000,0.000000,0.000000,0.000000,0.000000,0.000000,1.772294,3,0
270000,0.000871,5.263648,0.035323,0.009172,24.790003,0.061628,0.000204,-0.001415,1.571066,0.005038,-0.000006,0.000089,0.000000,0.000131,0.000000,0.013269,-0.000905,-0.284656,-0.040878,0.223778,0.223778,0.228165,1.000869,0.000000,0.000000,0.000000,0.000000,0.000000,0.000000,0.000000,0.000000,0.000000,0.000000,0.000000,0.000000,1.793368,3,0
280000,0.000932,5.502667,0.036173,0.009528,24.783247,0.064069,0.000203,-0.001495,1.571072,0.005307,-0.000007,0.000083,0.000000,0.000142,0.000000,0.009537,-0.000967,-0.243629,0.005673,0.218543,0.218543,0.222443,0.999307,0.000000,0.000000,0.000000,0.000000,0.000000,0.000000,0.000000,0.000000,0.000000,0.000000,0.000000,0.000000,1.812774,3,0
290000,0.000995,5.741803,0.035700,0.009944,24.776617,0.065523,0.000201,-0.001584,1.571070,0.005595,-0.000009,0.000120,0.000000,0.000154,0.000000,0.009730,-0.001031,-0.244038,-0.031384,0.213775,0.213775,0.217219,0.997567,0.000000,0.000000,0.000000,0.000000,0.000000,0.000000,0.000000,0.000000,0.000000,0.000000,0.000000,0.000000,1.832065,3,0
300000,0.001057,5.982416,0.035521,0.010023,24.770689,0.067210,0.000210,-0.001668,1.571085,0.005852,-0.000010,0.000150,0.000000,0.000165,0.000001,0.006841,-0.001095,-0.204800,-0.024188,0.209433,0.209433,0.212446,0.995645,0.000000,0.000000,0.000000,0.000000,0.000000,0.000000,0.000000,0.000000,0.000000,0.000000,0.000000,0.000000,1.849878,3,0
310000,0.001122,6.221676,0.034605,0.010459,24.763607,0.068508,0.000222,-0.001760,1.571090,0.006181,-0.000012,0.000211,0.000000,0.000180,0.000001,0.010134,-0.001162,-0.246567,-0.046527,0.205483,0.205483,0.208087,0.993536,0.000000,0.000000,0.000000,0.000000,0.000000,0.000000,0.000000,0.000000,0.000000,0.000000,0.000000,0.000000,1.869044,3,0
320000,0.001189,6.462326,0.034973,0.010798,24.757124,0.070492,0.000226,-0.001857,1.571101,0.006475,-0.000013,0.000225,0.000000,0.000194,0.000001,0.006947,-0.001230,-0.207448,-0.009960,0.201892,0.201892,0.204105,0.991237,0.000000,0.000000,0.000000,0.000000,0.000000,0.000000,0.000000,0.000000,0.000000,0.000000,0.000000,0.000000,1.886819,3,0
330000,0.001258,6.702959,0.034333,0.011195,24.750669,0.071646,0.000244,-0.001957,1.571109,0.006789,-0.000015,0.000286,0.000001,0.000209,0.000001,0.007342,-0.001301,-0.209488,-0.040944,0.198632,0.198632,0.200469,0.988743,0.000000,0.000000,0.000000,0.000000,0.000000,0.000000,0.000000,0.000000,0.000000,0.000000,0.000000,0.000000,1.904612,3,0
340000,0.001328,6.942918,0.034557,0.011465,24.743496,0.073384,0.000256,-0.002075,1.571118,0.007155,-0.000018,0.000310,0.000001,0.000227,0.000001,0.008672,-0.001373,-0.231390,-0.015660,0.195677,0.195677,0.197151,0.986053,0.000000,0.000000,0.000000,0.000000,0.000000,0.000000,0.000000,0.000000,0.000000,0.000000,0.000000,0.000000,1.923079,3,0
350000,0.001402,7.184142,0.034222,0.011916,24.737167,0.074842,0.000255,-0.002177,1.571128,0.007476,-0.000020,0.000366,0.000001,0.000244,0.000001,0.006191,-0.001448,-0.192971,-0.033763,0.193006,0.193006,0.194125,0.983163,0.000000,0.000000,0.000000,0.000000,0.000000,0.000000,0.000000,0.000000,0.000000,0.000000,0.000000,0.000000,1.940280,3,0
360000,0.001475,7.427823,0.034979,0.012109,24.733057,0.076967,0.000253,-0.002243,1.571135,0.007680,-0.000023,0.000366,0.000001,0.000255,0.000001,0.002174,-0.001523,-0.116068,-0.000395,0.190596,0.190596,0.191370,0.980072,0.000000,0.000000,0.000000,0.000000,0.000000,0.000000,0.000000,0.000000,0.000000,0.000000,0.000000,0.000000,1.955025,3,0
370000,0.001550,7.673215,0.035250,0.012501,24.730421,0.078694,0.000258,-0.002282,1.571145,0.007794,-0.000026,0.000397,0.000001,0.000261,0.000001,0.000656,-0.001600,-0.061523,-0.016566,0.188429,0.188429,0.188863,0.976779,0.000000,0.000000,0.000000,0.000000,0.000000,0.000000,0.000000,0.000000,0.000000,0.000000,0.000000,0.000000,1.968060,3,0
380000,0.001628,7.917773,0.034990,0.012936,24.727015,0.079833,0.000256,-0.002337,1.571164,0.007964,-0.000029,0.000463,0.000001,0.000271,0.000001,0.001448,-0.001680,-0.088222,-0.034354,0.186488,0.186488,0.186586,0.973282,0.000000,0.000000,0.000000,0.000000,0.000000,0.000000,0.000000,0.000000,0.000000,0.000000,0.000000,0.000000,1.981928,3,0
390000,0.001707,8.163974,0.035914,0.013250,24.725372,0.082047,0.000268,-0.002355,1.571172,0.008034,-0.000033,0.000456,0.000001,0.000275,0.000001,0.000195,-0.001761,-0.034562,0.003377,0.184756,0.184756,0.184522,0.969580,0.000000,0.000000,0.000000,0.000000,0.000000,0.000000,0.000000,0.000000,0.000000,0.000000,0.000000,0.000000,1.994154,3,0
400000,0.001783,8.411149,0.035759,0.013178,24.724834,0.083239,0.000283,-0.002351,1.571186,0.008039,-0.000036,0.000525,0.000002,0.000275,0.000001,0.000175,-0.001839,-0.002441,-0.032755,0.183220,0.183221,0.182655,0.965675,0.000000,0.000000,0.000000,0.000000,0.000000,0.000000,0.000000,0.000000,0.000000,0.000000,0.000000,0.000000,2.005404,3,0
410000,0.001861,8.656249,0.036017,0.013513,24.721794,0.084891,0.000282,-0.002395,1.571200,0.008196,-0.000041,0.000569,0.000002,0.000285,0.000001,0.000872,-0.001919,-0.070700,-0.019812,0.181866,0.181866,0.180971,0.961566,0.000000,0.000000,0.000000,0.000000,0.000000,0.000000,0.000000,0.000000,0.000000,0.000000,0.000000,0.000000,2.018730,3,0
420000,0.001941,8.904127,0.036929,0.013963,24.721842,0.087259,0.000283,-0.002378,1.571199,0.008144,-0.000045,0.000565,0.000002,0.000281,0.000001,0.000080,-0.002001,0.022174,0.001345,0.180682,0.180682,0.179456,0.957255,0.000000,0.000000,0.000000,0.000000,0.000000,0.000000,0.000000,0.000000,0.000000,0.000000,0.000000,0.000000,2.029278,3,0
430000,0.002022,9.150533,0.038382,0.014246,24.720139,0.090310,0.000276,-0.002396,1.571212,0.008209,-0.000050,0.000521,0.000003,0.000285,0.000001,0.000175,-0.002084,-0.026917,0.018729,0.179655,0.179655,0.178097,0.952743,0.000000,0.000000,0.000000,0.000000,0.000000,0.000000,0.000000,0.000000,0.000000,0.000000,0.000000,0.000000,2.041298,3,0
440000,0.002102,9.396102,0.039522,0.014374,24.717651,0.092915,0.000284,-0.002443,1.571210,0.008345,-0.000056,0.000502,0.000003,0.000294,0.000001,0.000492,-0.002166,-0.054639,0.007238,0.178775,0.178775,0.176883,0.948033,0.000000,0.000000,0.000000,0.000000,0.000000,0.000000,0.000000,0.000000,0.000000,0.000000,0.000000,0.000000,2.054154,3,0
450000,0.002182,9.645574,0.040427,0.014663,24.720203,0.095138,0.000288,-0.002370,1.571217,0.008144,-0.000062,0.000507,0.000003,0.000281,0.000001,0.000973,-0.002249,0.077518,-0.001609,0.178033,0.178033,0.175803,0.943127,0.000000,0.000000,0.000000,0.000000,0.000000,0.000000,0.000000,0.000000,0.000000,0.000000,0.000000,0.000000,2.063109,3,0
460000,0.002262,9.890623,0.040244,0.014769,24.716722,0.096063,0.000288,-0.002431,1.571230,0.008340,-0.000068,0.000613,0.000004,0.000294,0.000001,0.001108,-0.002331,-0.072585,-0.039735,0.177418,0.177418,0.174847,0.938028,0.000000,0.000000,0.000000,0.000000,0.000000,0.000000,0.000000,0.000000,0.000000,0.000000,0.000000,0.000000,2.076485,3,0
470000,0.002342,10.138972,0.042010,0.015008,24.717909,0.099283,0.000288,-0.002387,1.571244,0.008228,-0.000075,0.000538,0.000004,0.000286,0.000001,0.000380,-0.002413,0.040219,0.026986,0.176921,0.176921,0.174006,0.932739,0.000000,0.000000,0.000000,0.000000,0.000000,0.000000,0.000000,0.000000,0.000000,0.000000,0.000000,0.000000,2.086563,3,0
480000,0.002421,10.387041,0.042456,0.015112,24.718660,0.100881,0.000298,-0.002356,1.571252,0.008140,-0.000082,0.000595,0.000005,0.000280,0.000001,0.000213,-0.002494,0.030406,-0.019720,0.176535,0.176535,0.173271,0.927266,0.000000,0.000000,0.000000,0.000000,0.000000,0.000000,0.000000,0.000000,0.000000,0.000000,0.000000,0.000000,2.096920,3,0
490000,0.002500,10.636005,0.043680,0.015429,24.720846,0.103505,0.000297,-0.002286,1.571266,0.007960,-0.000089,0.000576,0.000005,0.000267,0.000001,0.000603,-0.002576,0.060633,0.006630,0.176251,0.176251,0.172634,0.921613,0.000000,0.000000,0.000000,0.000000,0.000000,0.000000,0.000000,0.000000,0.000000,0.000000,0.000000,0.000000,2.106382,3,0
500000,0.002580,10.887015,0.045279,0.015673,24.725935,0.106639,0.000301,-0.002147,1.571282,0.007561,-0.000097,0.000518,0.000006,0.000236,0.000001,0.002780,-0.002658,0.129710,0.018820,0.176062,0.176062,0.172087,0.915784,0.000000,0.000000,0.000000,0.000000,0.000000,0.000000,0.000000,0.000000,0.000000,0.000000,0.000000,0.000000,2.113798,3,0
510000,0.002661,11.134208,0.046563,0.015999,24.725285,0.109115,0.000299,-0.002148,1.571295,0.007567,-0.000106,0.000496,0.000007,0.000237,0.000001,0.000009,-0.002741,-0.002076,0.006841,0.175960,0.175960,0.171622,0.909784,0.000000,0.000000,0.000000,0.000000,0.000000,0.000000,0.000000,0.000000,0.000000,0.000000,0.000000,0.000000,2.125031,3,0
520000,0.002741,11.385805,0.048051,0.016141,24.731354,0.111794,0.000303,-0.001978,1.571312,0.007083,-0.000115,0.000453,0.000007,0.000198,0.000001,0.003588,-0.002824,0.148314,0.013128,0.175940,0.175940,0.171234,0.903621,0.000000,0.000000,0.000000,0.000000,0.000000,0.000000,0.000000,0.000000,0.000000,0.000000,0.000000,0.000000,2.131860,3,0
530000,0.002819,11.633581,0.047667,0.016238,24.731579,0.112135,0.000306,-0.001954,1.571318,0.007029,-0.000125,0.000635,0.000008,0.000194,0.000001,0.000507,-0.002904,0.015931,-0.053592,0.175995,0.175995,0.170914,0.897299,0.000000,0.000000,0.000000,0.000000,0.000000,0.000000,0.000000,0.000000,0.000000,0.000000,0.000000,0.000000,2.142509,3,0
540000,0.002899,11.881674,0.048903,0.016586,24.732466,0.114570,0.000311,-0.001918,1.571329,0.006937,-0.000135,0.000624,0.000009,0.000187,0.000001,0.000117,-0.002987,0.026577,0.003222,0.176119,0.176119,0.170658,0.890825,0.000000,0.000000,0.000000,0.000000,0.000000,0.000000,0.000000,0.000000,0.000000,0.000000,0.000000,0.000000,2.152843,3,0
550000,0.002979,12.134164,0.048769,0.016838,24.739813,0.114992,0.000317,-0.001680,1.571345,0.006312,-0.000146,0.000789,0.000010,0.000134,0.000000,0.005356,-0.003069,0.176058,-0.045818,0.176306,0.176306,0.170460,0.884206,0.000000,0.000000,0.000000,0.000000,0.000000,0.000000,0.000000,0.000000,0.000000,0.000000,0.000000,0.000000,2.158778,3,0
560000,0.003059,12.383986,0.049002,0.017130,24.743195,0.116285,0.000325,-0.001568,1.571361,0.006010,-0.000157,0.000912,0.000011,0.000108,0.000000,0.001282,-0.003151,0.082522,-0.033232,0.176550,0.176550,0.170314,0.877449,0.000000,0.000000,0.000000,0.000000,0.000000,0.000000,0.000000,0.000000,0.000000,0.000000,0.000000,0.000000,2.167383,3,0
570000,0.003142,12.635856,0.049283,0.017704,24.749819,0.117416,0.000318,-0.001358,1.571383,0.005446,-0.000169,0.001034,0.000012,0.000058,0.000000,0.003842,-0.003237,0.150729,-0.031986,0.176847,0.176847,0.170214,0.870561,0.000000,0.000000,0.000000,0.000000,0.000000,0.000000,0.000000,0.000000,0.000000,0.000000,0.000000,0.000000,2.173939,3,0
580000,0.003226,12.886232,0.048427,0.018053,24.754160,0.116631,0.000320,-0.001224,1.571399,0.005072,-0.000182,0.001317,0.000013,0.000025,0.000000,0.002389,-0.003324,0.097581,-0.072335,0.177192,0.177192,0.170157,0.863550,0.000000,0.000000,0.000000,0.000000,0.000000,0.000000,0.000000,0.000000,0.000000,0.000000,0.000000,0.000000,2.181988,3,0
590000,0.003311,13.139249,0.048597,0.018340,24.762714,0.117299,0.000315,-0.000943,1.571415,0.004345,-0.000195,0.001461,0.000014,-0.000042,-0.000000,0.005752,-0.003411,0.185103,-0.035928,0.177580,0.177580,0.170138,0.856423,0.000000,0.000000,0.000000,0.000000,0.000000,0.000000,0.000000,0.000000,0.000000,0.000000,0.000000,0.000000,2.187398,3,0
600000,0.003395,13.392522,0.049028,0.018690,24.771610,0.118578,0.000317,-0.000657,1.571429,0.003579,-0.000209,0.001573,0.000015,-0.000113,-0.000000,0.005985,-0.003499,0.190428,-0.027002,0.178007,0.178007,0.170152,0.849188,0.000000,0.000000,0.000000,0.000000,0.000000,0.000000,0.000000,0.000000,0.000000,0.000000,0.000000,0.000000,2.192550,3,0
610000,0.003481,13.646049,0.049829,0.019025,24.780806,0.120327,0.000311,-0.000358,1.571442,0.002775,-0.000224,0.001634,0.000017,-0.000190,-0.000001,0.006216,-0.003587,0.195492,-0.014416,0.178468,0.178468,0.170195,0.841853,0.000000,0.000000,0.000000,0.000000,0.000000,0.000000,0.000000,0.000000,0.000000,0.000000,0.000000,0.000000,2.197449,3,0
620000,0.003565,13.899236,0.049744,0.019195,24.789610,0.120736,0.000305,-0.000062,1.571452,0.002017,-0.000239,0.001834,0.000018,-0.000263,-0.000001,0.005612,-0.003675,0.180417,-0.046273,0.178959,0.178960,0.170264,0.834426,0.000000,0.000000,0.000000,0.000000,0.000000,0.000000,0.000000,0.000000,0.000000,0.000000,0.000000,0.000000,2.202690,3,0
630000,0.003648,14.153275,0.049308,0.019338,24.799669,0.120661,0.000311,0.000278,1.571472,0.001136,-0.000255,0.002093,0.000020,-0.000350,-0.000001,0.007385,-0.003760,0.205447,-0.058733,0.179478,0.179478,0.170355,0.826915,0.000000,0.000000,0.000000,0.000000,0.000000,0.000000,0.000000,0.000000,0.000000,0.000000,0.000000,0.000000,2.207077,3,0
640000,0.003730,14.404580,0.050073,0.019534,24.804993,0.122141,0.000303,0.000462,1.571487,0.000653,-0.000272,0.002166,0.000021,-0.000399,-0.000001,0.002014,-0.003846,0.110339,-0.016316,0.180020,0.180020,0.170465,0.819328,0.000000,0.000000,0.000000,0.000000,0.000000,0.000000,0.000000,0.000000,0.000000,0.000000,0.000000,0.000000,2.214197,3,0
650000,0.003812,14.657356,0.050324,0.019763,24.812614,0.123112,0.000303,0.000737,1.571500,-0.000048,-0.000289,0.002328,0.000023,-0.000471,-0.000002,0.004194,-0.003930,0.157166,-0.035043,0.180582,0.180582,0.170591,0.811674,0.000000,0.000000,0.000000,0.000000,0.000000,0.000000,0.000000,0.000000,0.000000,0.000000,0.000000,0.000000,2.219848,3,0
660000,0.003891,14.912194,0.051580,0.019794,24.823786,0.125444,0.000305,0.001141,1.571518,-0.001059,-0.000307,0.002329,0.000025,-0.000576,-0.000002,0.007996,-0.004012,0.222375,0.000030,0.181161,0.181161,0.170729,0.803960,0.000000,0.000000,0.000000,0.000000,0.000000,0.000000,0.000000,0.000000,0.000000,0.000000,0.000000,0.000000,2.223435,3,0
670000,0.003966,15.166672,0.052791,0.019740,24.834513,0.127511,0.000299,0.001533,1.571532,-0.002013,-0.000326,0.002341,0.000027,-0.000678,-0.000002,0.006860,-0.004090,0.205970,-0.002329,0.181754,0.181754,0.170877,0.796195,0.000000,0.000000,0.000000,0.000000,0.000000,0.000000,0.000000,0.000000,0.000000,0.000000,0.000000,0.000000,2.227384,3,0
680000,0.004041,15.422603,0.051795,0.019842,24.847628,0.126284,0.000301,0.002008,1.571554,-0.003188,-0.000345,0.002735,0.000029,-0.000805,-0.000003,0.011117,-0.004167,0.249568,-0.080483,0.182358,0.182358,0.171033,0.788386,0.000000,0.000000,0.000000,0.000000,0.000000,0.000000,0.000000,0.000000,0.000000,0.000000,0.000000,0.000000,2.229878,3,0
690000,0.004113,15.678155,0.053053,0.019921,24.859785,0.128746,0.000303,0.002451,1.571570,-0.004299,-0.000365,0.002742,0.000031,-0.000928,-0.000003,0.008704,-0.004242,0.232054,-0.001094,0.182971,0.182971,0.171193,0.780542,0.000000,0.000000,0.000000,0.000000,0.000000,0.000000,0.000000,0.000000,0.000000,0.000000,0.000000,0.000000,2.232753,3,0
700000,0.004184,15.932114,0.054578,0.020052,24.869205,0.131365,0.000303,0.002800,1.571586,-0.005152,-0.000386,0.002705,0.000033,-0.001023,-0.000003,0.004970,-0.004316,0.175169,0.007473,0.183590,0.183590,0.171357,0.772670,0.000000,0.000000,0.000000,0.000000,0.000000,0.000000,0.000000,0.000000,0.000000,0.000000,0.000000,0.000000,2.237219,3,0
710000,0.004254,16.186319,0.055850,0.020302,24.878937,0.133589,0.000300,0.003174,1.571597,-0.006040,-0.000407,0.002718,0.000036,-0.001125,-0.000004,0.005212,-0.004389,0.179543,-0.002337,0.184213,0.184213,0.171522,0.764778,0.000000,0.000000,0.000000,0.000000,0.000000,0.000000,0.000000,0.000000,0.000000,0.000000,0.000000,0.000000,2.241440,3,0
720000,0.004322,16.439547,0.055342,0.020256,24.887133,0.132796,0.000302,0.003490,1.571616,-0.006762,-0.000429,0.003060,0.000038,-0.001209,-0.000004,0.004035,-0.004459,0.143902,-0.065152,0.184838,0.184838,0.171685,0.756873,0.000000,0.000000,0.000000,0.000000,0.000000,0.000000,0.000000,0.000000,0.000000,0.000000,0.000000,0.000000,2.246639,3,0
730000,0.004390,16.694254,0.054558,0.020429,24.897366,0.131867,0.000288,0.003900,1.571633,-0.007722,-0.000452,0.003458,0.000041,-0.001322,-0.000004,0.006660,-0.004529,0.188782,-0.074567,0.185463,0.185463,0.171846,0.748963,0.000000,0.000000,0.000000,0.000000,0.000000,0.000000,0.000000,0.000000,0.000000,0.000000,0.000000,0.000000,2.250357,3,0
740000,0.004457,16.949198,0.055705,0.020730,24.908136,0.133944,0.000283,0.004326,1.571654,-0.008716,-0.000475,0.003497,0.000044,-0.001442,-0.000005,0.005989,-0.004599,0.192394,-0.006885,0.186086,0.186087,0.172003,0.741056,0.000000,0.000000,0.000000,0.000000,0.000000,0.000000,0.000000,0.000000,0.000000,0.000000,0.000000,0.000000,2.253840,3,0
750000,0.004520,17.202518,0.056481,0.020568,24.915949,0.135414,0.000279,0.004637,1.571667,-0.009428,-0.000500,0.003611,0.000047,-0.001529,-0.000005,0.003064,-0.004665,0.136133,-0.020494,0.186706,0.186707,0.172155,0.733156,0.000000,0.000000,0.000000,0.000000,0.000000,0.000000,0.000000,0.000000,0.000000,0.000000,0.000000,0.000000,2.258944,3,0
760000,0.004583,17.458570,0.055669,0.020721,24.928408,0.134388,0.000282,0.005148,1.571674,-0.010597,-0.000524,0.004038,0.000049,-0.001674,-0.000006,0.008808,-0.004730,0.220675,-0.076281,0.187322,0.187322,0.172299,0.725273,0.000000,0.000000,0.000000,0.000000,0.000000,0.000000,0.000000,0.000000,0.000000,0.000000,0.000000,0.000000,2.261319,3,0
770000,0.004641,17.714842,0.057323,0.020603,24.941223,0.137247,0.000279,0.005668,1.571687,-0.011793,-0.000550,0.003984,0.000053,-0.001826,-0.000006,0.008043,-0.004792,0.222923,0.009886,0.187931,0.187931,0.172435,0.717411,0.000000,0.000000,0.000000,0.000000,0.000000,0.000000,0.000000,0.000000,0.000000,0.000000,0.000000,0.000000,2.263473,3,0
780000,0.004696,17.973202,0.057878,0.020372,24.957596,0.138349,0.000268,0.006334,1.571694,-0.013339,-0.000575,0.004154,0.000056,-0.002024,-0.000007,0.013217,-0.004848,0.284584,-0.029317,0.188533,0.188533,0.172563,0.709578,0.000000,0.000000,0.000000,0.000000,0.000000,0.000000,0.000000,0.000000,0.000000,0.000000,0.000000,0.000000,2.263539,3,0
790000,0.004748,18.226738,0.058880,0.020408,24.965126,0.140345,0.000262,0.006650,1.571707,-0.014027,-0.000602,0.004238,0.000059,-0.002115,-0.000007,0.002577,-0.004903,0.125456,-0.014193,0.189126,0.189127,0.172680,0.701779,0.000000,0.000000,0.000000,0.000000,0.000000,0.000000,0.000000,0.000000,0.000000,0.000000,0.000000,0.000000,2.268430,3,0
800000,0.004800,18.481771,0.058505,0.020492,24.975323,0.139849,0.000254,0.007073,1.571717,-0.014971,-0.000629,0.004610,0.000063,-0.002240,-0.000008,0.005303,-0.004956,0.170027,-0.062562,0.189711,0.189711,0.172786,0.694020,0.000000,0.000000,0.000000,0.000000,0.000000,0.000000,0.000000,0.000000,0.000000,0.000000,0.000000,0.000000,2.271821,3,0
810000,0.004850,18.738918,0.057658,0.020520,24.989025,0.139024,0.000254,0.007661,1.571735,-0.016278,-0.000657,0.005085,0.000066,-0.002417,-0.000008,0.009769,-0.005008,0.232956,-0.078888,0.190285,0.190285,0.172881,0.686307,0.000000,0.000000,0.000000,0.000000,0.000000,0.000000,0.000000,0.000000,0.000000,0.000000,0.000000,0.000000,2.273101,3,0
820000,0.004897,18.997528,0.058619,0.020507,25.005287,0.140596,0.000250,0.008361,1.571757,-0.017830,-0.000685,0.005182,0.000070,-0.002630,-0.000009,0.012146,-0.005058,0.273853,-0.015734,0.190848,0.190848,0.172964,0.678645,0.000000,0.000000,0.000000,0.000000,0.000000,0.000000,0.000000,0.000000,0.000000,0.000000,0.000000,0.000000,2.272916,3,0
830000,0.004942,19.255045,0.057488,0.020456,25.019270,0.138926,0.000239,0.008971,1.571777,-0.019167,-0.000714,0.005731,0.000074,-0.002816,-0.000010,0.010096,-0.005104,0.233749,-0.088776,0.191399,0.191400,0.173034,0.671038,0.000000,0.000000,0.000000,0.000000,0.000000,0.000000,0.000000,0.000000,0.000000,0.000000,0.000000,0.000000,2.273828,3,0
840000,0.004987,19.511477,0.057987,0.020574,25.031225,0.139595,0.000240,0.009498,1.571805,-0.020291,-0.000743,0.005929,0.000078,-0.002976,-0.000010,0.006286,-0.005151,0.194759,-0.031635,0.191939,0.191939,0.173092,0.663492,0.000000,0.000000,0.000000,0.000000,0.000000,0.000000,0.000000,0.000000,0.000000,0.000000,0.000000,0.000000,2.275821,3,0
850000,0.005030,19.766190,0.058318,0.020653,25.039707,0.140341,0.000235,0.009888,1.571829,-0.021089,-0.000773,0.006169,0.000082,-0.003091,-0.000011,0.003263,-0.005196,0.137001,-0.037773,0.192465,0.192466,0.173135,0.656012,0.000000,0.000000,0.000000,0.000000,0.000000,0.000000,0.000000,0.000000,0.000000,0.000000,0.000000,0.000000,2.279535,3,0
860000,0.005072,20.021759,0.059825,0.020810,25.049761,0.142688,0.000230,0.010353,1.571847,-0.022032,-0.000804,0.006152,0.000087,-0.003229,-0.000011,0.004161,-0.005241,0.160503,0.002784,0.192979,0.192979,0.173165,0.648600,0.000000,0.000000,0.000000,0.000000,0.000000,0.000000,0.000000,0.000000,0.000000,0.000000,0.000000,0.000000,2.282390,3,0
870000,0.005114,20.282022,0.060922,0.020912,25.068361,0.144456,0.000226,0.011204,1.571873,-0.023823,-0.000834,0.006233,0.000091,-0.003496,-0.000012,0.014779,-0.005285,0.302408,-0.012300,0.193479,0.193480,0.173181,0.641261,0.000000,0.000000,0.000000,0.000000,0.000000,0.000000,0.000000,0.000000,0.000000,0.000000,0.000000,0.000000,2.280554,3,0
880000,0.005157,20.541784,0.060219,0.021076,25.085579,0.143697,0.000217,0.012010,1.571885,-0.025496,-0.000865,0.006727,0.000096,-0.003749,-0.000013,0.013613,-0.005328,0.280508,-0.075323,0.193966,0.193967,0.173183,0.634000,0.000000,0.000000,0.000000,0.000000,0.000000,0.000000,0.000000,0.000000,0.000000,0.000000,0.000000,0.000000,2.279217,3,0
890000,0.005198,20.797827,0.059081,0.021132,25.096037,0.142010,0.000206,0.012487,1.571901,-0.026456,-0.000897,0.007324,0.000101,-0.003897,-0.000013,0.005430,-0.005371,0.159727,-0.089992,0.194440,0.194440,0.173171,0.626818,0.000000,0.000000,0.000000,0.000000,0.000000,0.000000,0.000000,0.000000,0.000000,0.000000,0.000000,0.000000,2.281601,3,0
900000,0.005236,21.054064,0.058825,0.021016,25.106821,0.141735,0.000199,0.012991,1.571916,-0.027436,-0.000930,0.007719,0.000105,-0.004050,-0.000014,0.004798,-0.005411,0.162003,-0.058906,0.194900,0.194900,0.173144,0.619720,0.000000,0.000000,0.000000,0.000000,0.000000,0.000000,0.000000,0.000000,0.000000,0.000000,0.000000,0.000000,2.283791,3,0
910000,0.005272,21.314373,0.058529,0.020936,25.124613,0.141344,0.000189,0.013849,1.571933,-0.029163,-0.000962,0.008127,0.000110,-0.004324,-0.000015,0.013537,-0.005449,0.283356,-0.060192,0.195346,0.195346,0.173103,0.612709,0.000000,0.000000,0.000000,0.000000,0.000000,0.000000,0.000000,0.000000,0.000000,0.000000,0.000000,0.000000,2.281906,3,0
920000,0.005306,21.572220,0.060095,0.020971,25.137989,0.143909,0.000177,0.014489,1.571957,-0.030399,-0.000996,0.008097,0.000116,-0.004523,-0.000015,0.006572,-0.005485,0.201778,0.004381,0.195778,0.195778,0.173048,0.605786,0.000000,0.000000,0.000000,0.000000,0.000000,0.000000,0.000000,0.000000,0.000000,0.000000,0.000000,0.000000,2.282486,3,0
930000,0.005339,21.832829,0.059667,0.020869,25.155890,0.143389,0.000163,0.015360,1.571975,-0.032137,-0.001029,0.008551,0.000121,-0.004807,-0.000016,0.013498,-0.005518,0.281738,-0.065581,0.196197,0.196197,0.172979,0.598955,0.000000,0.000000,0.000000,0.000000,0.000000,0.000000,0.000000,0.000000,0.000000,0.000000,0.000000,0.000000,2.280303,3,0
940000,0.005372,22.093557,0.059270,0.021110,25.173861,0.143024,0.000162,0.016255,1.572011,-0.033869,-0.001063,0.009000,0.000126,-0.005095,-0.000017,0.013259,-0.005553,0.279377,-0.064417,0.196602,0.196603,0.172896,0.592218,0.000000,0.000000,0.000000,0.000000,0.000000,0.000000,0.000000,0.000000,0.000000,0.000000,0.000000,0.000000,2.278003,3,0
950000,0.005403,22.350491,0.060780,0.021096,25.184944,0.145429,0.000144,0.016780,1.572042,-0.034851,-0.001097,0.008987,0.000132,-0.005261,-0.000018,0.004010,-0.005586,0.157618,0.001934,0.196995,0.196995,0.172799,0.585576,0.000000,0.000000,0.000000,0.000000,0.000000,0.000000,0.000000,0.000000,0.000000,0.000000,0.000000,0.000000,2.279492,3,0
960000,0.005434,22.608242,0.060082,0.021152,25.197149,0.144472,0.000126,0.017394,1.572044,-0.035972,-0.001132,0.009524,0.000138,-0.005453,-0.000018,0.006087,-0.005617,0.178881,-0.075583,0.197374,0.197375,0.172689,0.579032,0.000000,0.000000,0.000000,0.000000,0.000000,0.000000,0.000000,0.000000,0.000000,0.000000,0.000000,0.000000,2.280169,3,0
970000,0.005464,22.868767,0.059170,0.021224,25.214188,0.143139,0.000123,0.018263,1.572065,-0.037602,-0.001167,0.010118,0.000144,-0.005736,-0.000019,0.011920,-0.005649,0.258945,-0.082719,0.197741,0.197741,0.172566,0.572587,0.000000,0.000000,0.000000,0.000000,0.000000,0.000000,0.000000,0.000000,0.000000,0.000000,0.000000,0.000000,2.278069,3,0
980000,0.005492,23.126122,0.058829,0.021089,25.225422,0.142797,0.000103,0.018823,1.572089,-0.038597,-0.001202,0.010570,0.000150,-0.005912,-0.000020,0.004624,-0.005678,0.157282,-0.062477,0.198095,0.198096,0.172429,0.566243,0.000000,0.000000,0.000000,0.000000,0.000000,0.000000,0.000000,0.000000,0.000000,0.000000,0.000000,0.000000,2.279141,3,0
990000,0.005517,23.383633,0.059036,0.021021,25.236914,0.143232,0.000092,0.019390,1.572094,-0.039601,-0.001238,0.010886,0.000156,-0.006092,-0.000021,0.004344,-0.005705,0.158237,-0.043310,0.198437,0.198438,0.172280,0.560000,0.000000,0.000000,0.000000,0.000000,0.000000,0.000000,0.000000,0.000000,0.000000,0.000000,0.000000,0.000000,2.280055,3,0
1000000,0.005542,23.643927,0.059584,0.021075,25.253120,0.144170,0.000082,0.020224,1.572106,-0.041121,-0.001274,0.011119,0.000162,-0.006369,-0.000022,0.009338,-0.005731,0.238554,-0.031634,0.198768,0.198768,0.172119,0.553860,0.000000,0.000000,0.000000,0.000000,0.000000,0.000000,0.000000,0.000000,0.000000,0.000000,0.000000,0.000000,2.278188,3,0
1010000,0.005564,23.905647,0.058916,0.020838,25.271610,0.143214,0.000075,0.021202,1.572133,-0.042888,-0.001310,0.011671,0.000169,-0.006696,-0.000023,0.013200,-0.005754,0.276279,-0.074367,0.199087,0.199087,0.171945,0.547823,0.000000,0.000000,0.000000,0.000000,0.000000,0.000000,0.000000,0.000000,0.000000,0.000000,0.000000,0.000000,2.274892,3,0
1020000,0.005586,24.165472,0.058148,0.020874,25.286573,0.142067,0.000066,0.021979,1.572150,-0.044256,-0.001347,0.012251,0.000175,-0.006953,-0.000023,0.008301,-0.005776,0.213165,-0.077565,0.199395,0.199395,0.171760,0.541891,0.000000,0.000000,0.000000,0.000000,0.000000,0.000000,0.000000,0.000000,0.000000,0.000000,0.000000,0.000000,2.273494,3,0
1030000,0.005608,24.427391,0.057971,0.021079,25.305124,0.141989,0.000053,0.022964,1.572179,-0.046002,-0.001383,0.012678,0.000182,-0.007286,-0.000025,0.012380,-0.005800,0.271250,-0.056664,0.199693,0.199693,0.171564,0.536063,0.000000,0.000000,0.000000,0.000000,0.000000,0.000000,0.000000,0.000000,0.000000,0.000000,0.000000,0.000000,2.270000,3,0
1040000,0.005628,24.688059,0.058689,0.021075,25.320971,0.143233,0.000040,0.023823,1.572195,-0.047472,-0.001420,0.012870,0.000189,-0.007570,-0.000026,0.008471,-0.005822,0.227816,-0.025369,0.199980,0.199980,0.171356,0.530341,0.000000,0.000000,0.000000,0.000000,0.000000,0.000000,0.000000,0.000000,0.000000,0.000000,0.000000,0.000000,2.267759,3,0
1050000,0.005647,24.946829,0.059991,0.021001,25.333391,0.145115,0.000017,0.024477,1.572212,-0.048544,-0.001457,0.012909,0.000197,-0.007781,-0.000026,0.004437,-0.005842,0.165773,-0.005292,0.200258,0.200258,0.171138,0.524724,0.000000,0.000000,0.000000,0.000000,0.000000,0.000000,0.000000,0.000000,0.000000,0.000000,0.000000,0.000000,2.267413,3,0
1060000,0.005663,25.209038,0.059371,0.020770,25.351921,0.144293,0.000007,0.025475,1.572237,-0.050261,-0.001494,0.013475,0.000204,-0.008123,-0.000027,0.012166,-0.005858,0.264700,-0.073435,0.200526,0.200526,0.170910,0.519212,0.000000,0.000000,0.000000,0.000000,0.000000,0.000000,0.000000,0.000000,0.000000,0.000000,0.000000,0.000000,2.263631,3,0
1070000,0.005658,25.447433,0.060673,0.020739,25.372692,0.146094,-0.000020,0.026632,1.572252,-0.052242,-0.001531,0.013476,0.000211,-0.008523,-0.000029,0.015088,-0.005853,0.305965,-0.000464,0.200103,0.200103,0.170218,0.513449,0.000000,0.000000,0.000000,0.000000,0.000000,0.000000,0.000000,0.000000,0.000000,0.000000,0.000000,0.000000,2.283660,3,0
1080000,0.005674,25.707241,0.061032,0.020753,25.386543,0.146609,-0.000036,0.027370,1.572267,-0.053418,-0.001569,0.013785,0.000219,-0.008765,-0.000030,0.005546,-0.005869,0.181158,-0.039590,0.200377,0.200376,0.169986,0.508185,0.000000,0.000000,0.000000,0.000000,0.000000,0.000000,0.000000,0.000000,0.000000,0.000000,0.000000,0.000000,2.282281,3,0
1090000,0.005687,25.967146,0.062078,0.020589,25.400299,0.147972,-0.000037,0.028115,1.572279,-0.054585,-0.001606,0.013905,0.000227,-0.009008,-0.000030,0.005243,-0.005883,0.179638,-0.015547,0.200642,0.200641,0.169745,0.503023,0.000000,0.000000,0.000000,0.000000,0.000000,0.000000,0.000000,0.000000,0.000000,0.000000,0.000000,0.000000,2.280799,3,0
1100000,0.005698,26.229805,0.061315,0.020431,25.418840,0.146781,-0.000050,0.029156,1.572303,-0.056263,-0.001644,0.014538,0.000234,-0.009362,-0.000032,0.011725,-0.005894,0.257534,-0.079980,0.200899,0.200898,0.169494,0.497964,0.000000,0.000000,0.000000,0.000000,0.000000,0.000000,0.000000,0.000000,0.000000,0.000000,0.000000,0.000000,2.276569,3,0
1110000,0.005709,26.489182,0.060413,0.020377,25.431339,0.145911,-0.000062,0.029825,1.572316,-0.057266,-0.001682,0.015215,0.000242,-0.009577,-0.000032,0.004978,-0.005906,0.153721,-0.084842,0.201149,0.201147,0.169236,0.493007,0.000000,0.000000,0.000000,0.000000,0.000000,0.000000,0.000000,0.000000,0.000000,0.000000,0.000000,0.000000,2.275617,3,0
1120000,0.005719,26.749987,0.059799,0.020309,25.446226,0.145050,-0.000083,0.030654,1.572339,-0.058522,-0.001720,0.015811,0.000250,-0.009851,-0.000033,0.006861,-0.005916,0.192404,-0.074254,0.201391,0.201390,0.168969,0.488152,0.000000,0.000000,0.000000,0.000000,0.000000,0.000000,0.000000,0.000000,0.000000,0.000000,0.000000,0.000000,2.273239,3,0
1130000,0.005728,27.013540,0.059513,0.020335,25.465900,0.144689,-0.000095,0.031780,1.572360,-0.060282,-0.001758,0.016313,0.000258,-0.010240,-0.000035,0.012325,-0.005925,0.269388,-0.062411,0.201627,0.201626,0.168694,0.483398,0.000000,0.000000,0.000000,0.000000,0.000000,0.000000,0.000000,0.000000,0.000000,0.000000,0.000000,0.000000,2.268110,3,0
1140000,0.005733,27.275784,0.060469,0.020100,25.482943,0.145989,-0.000103,0.032740,1.572377,-0.061747,-0.001796,0.016457,0.000266,-0.010568,-0.000036,0.008162,-0.005932,0.224306,-0.018094,0.201857,0.201855,0.168412,0.478744,0.000000,0.000000,0.000000,0.000000,0.000000,0.000000,0.000000,0.000000,0.000000,0.000000,0.000000,0.000000,2.264293,3,0
1150000,0.005739,27.536737,0.060950,0.020190,25.497887,0.146484,-0.000119,0.033555,1.572406,-0.062928,-0.001834,0.016745,0.000275,-0.010837,-0.000037,0.005460,-0.005938,0.180555,-0.035492,0.202081,0.202079,0.168123,0.474191,0.000000,0.000000,0.000000,0.000000,0.000000,0.000000,0.000000,0.000000,0.000000,0.000000,0.000000,0.000000,2.261766,3,0
1160000,0.005744,27.799091,0.062401,0.020219,25.514658,0.148575,-0.000134,0.034529,1.572432,-0.064350,-0.001872,0.016750,0.000284,-0.011165,-0.000038,0.007634,-0.005945,0.217640,-0.001179,0.202300,0.202298,0.167828,0.469736,0.000000,0.000000,0.000000,0.000000,0.000000,0.000000,0.000000,0.000000,0.000000,0.000000,0.000000,0.000000,2.257837,3,0
1170000,0.005749,28.062828,0.061878,0.020057,25.533758,0.147853,-0.000151,0.035657,1.572445,-0.066007,-0.001911,0.017349,0.000292,-0.011554,-0.000039,0.011189,-0.005948,0.253300,-0.072468,0.202514,0.202511,0.167527,0.465379,0.000000,0.000000,0.000000,0.000000,0.000000,0.000000,0.000000,0.000000,0.000000,0.000000,0.000000,0.000000,2.252527,3,0
1180000,0.005751,28.323895,0.061422,0.019826,25.547884,0.147302,-0.000171,0.036438,1.572458,-0.067108,-0.001949,0.017933,0.000301,-0.011816,-0.000040,0.005361,-0.005951,0.168280,-0.070059,0.202724,0.202720,0.167220,0.461119,0.000000,0.000000,0.000000,0.000000,0.000000,0.000000,0.000000,0.000000,0.000000,0.000000,0.000000,0.000000,2.249885,3,0
1190000,0.005750,28.584341,0.062838,0.019663,25.560856,0.149276,-0.000188,0.037155,1.572473,-0.068060,-0.001987,0.017952,0.000310,-0.012045,-0.000041,0.003421,-0.005951,0.145618,-0.002667,0.202929,0.202925,0.166907,0.456955,0.000000,0.000000,0.000000,0.000000,0.000000,0.000000,0.000000,0.000000,0.000000,0.000000,0.000000,0.000000,2.247867,3,0
1200000,0.005750,28.845522,0.062444,0.019591,25.574783,0.149027,-0.000211,0.037952,1.572490,-0.069127,-0.002026,0.018531,0.000319,-0.012307,-0.000041,0.005066,-0.005950,0.163347,-0.068642,0.203131,0.203126,0.166590,0.452886,0.000000,0.000000,0.000000,0.000000,0.000000,0.000000,0.000000,0.000000,0.000000,0.000000,0.000000,0.000000,2.245109,3,0
1210000,0.005747,29.106752,0.061454,0.019346,25.588791,0.147741,-0.000221,0.038741,1.572500,-0.070176,-0.002064,0.019297,0.000328,-0.012568,-0.000042,0.005466,-0.005947,0.160454,-0.090083,0.203329,0.203324,0.166268,0.448911,0.000000,0.000000,0.000000,0.000000,0.000000,0.000000,0.000000,0.000000,0.000000,0.000000,0.000000,0.000000,2.242307,3,0
1220000,0.005745,29.370050,0.061225,0.019487,25.606110,0.147462,-0.000239,0.039780,1.572511,-0.071592,-0.002102,0.019826,0.000338,-0.012925,-0.000044,0.008224,-0.005945,0.217146,-0.062188,0.203524,0.203519,0.165942,0.445028,0.000000,0.000000,0.000000,0.000000,0.000000,0.000000,0.000000,0.000000,0.000000,0.000000,0.000000,0.000000,2.237434,3,0
1230000,0.005742,29.634033,0.062551,0.019477,25.624678,0.149154,-0.000258,0.040879,1.572525,-0.073101,-0.002140,0.019868,0.000347,-0.013310,-0.000045,0.008675,-0.005943,0.231974,-0.005823,0.203717,0.203712,0.165612,0.441238,0.000000,0.000000,0.000000,0.000000,0.000000,0.000000,0.000000,0.000000,0.000000,0.000000,0.000000,0.000000,2.231878,3,0
1240000,0.005739,29.893286,0.064093,0.019600,25.634657,0.151196,-0.000280,0.041383,1.572539,-0.073666,-0.002178,0.019854,0.000357,-0.013457,-0.000045,0.001227,-0.005941,0.087078,0.001187,0.203908,0.203902,0.165278,0.437538,0.000000,0.000000,0.000000,0.000000,0.000000,0.000000,0.000000,0.000000,0.000000,0.000000,0.000000,0.000000,2.231050,3,0
1250000,0.005737,30.156670,0.064779,0.019506,25.651936,0.152131,-0.000309,0.042403,1.572553,-0.074999,-0.002216,0.020113,0.000367,-0.013808,-0.000047,0.006950,-0.005938,0.205423,-0.030486,0.204096,0.204090,0.164942,0.433927,0.000000,0.000000,0.000000,0.000000,0.000000,0.000000,0.000000,0.000000,0.000000,0.000000,0.000000,0.000000,2.226093,3,0
1260000,0.005732,30.420057,0.065018,0.019308,25.668945,0.152376,-0.000329,0.043419,1.572574,-0.076297,-0.002253,0.020521,0.000377,-0.014155,-0.000048,0.006825,-0.005933,0.200294,-0.047184,0.204283,0.204276,0.164602,0.430404,0.000000,0.000000,0.000000,0.000000,0.000000,0.000000,0.000000,0.000000,0.000000,0.000000,0.000000,0.000000,2.221128,3,0
1270000,0.005726,30.680063,0.065368,0.019117,25.679850,0.152821,-0.000356,0.043979,1.572583,-0.076917,-0.002292,0.020902,0.000387,-0.014323,-0.000048,0.001788,-0.005927,0.095764,-0.043440,0.204469,0.204461,0.164260,0.426968,0.000000,0.000000,0.000000,0.000000,0.000000,0.000000,0.000000,0.000000,0.000000,0.000000,0.000000,0.000000,2.219553,3,0
1280000,0.005720,30.942156,0.065643,0.019174,25.694183,0.153238,-0.000371,0.044810,1.572596,-0.077909,-0.002329,0.021309,0.000397,-0.014596,-0.000049,0.004158,-0.005921,0.153713,-0.046377,0.204653,0.204644,0.163916,0.423617,0.000000,0.000000,0.000000,0.000000,0.000000,0.000000,0.000000,0.000000,0.000000,0.000000,0.000000,0.000000,2.215883,3,0
1290000,0.005712,31.206303,0.066568,0.018934,25.712023,0.154432,-0.000396,0.045902,1.572628,-0.079256,-0.002366,0.021501,0.000407,-0.014972,-0.000050,0.007157,-0.005913,0.209539,-0.022624,0.204837,0.204827,0.163570,0.420350,0.000000,0.000000,0.000000,0.000000,0.000000,0.000000,0.000000,0.000000,0.000000,0.000000,0.000000,0.000000,2.210163,3,0
1300000,0.005705,31.470436,0.066890,0.018993,25.729746,0.154602,-0.000413,0.046976,1.572648,-0.080563,-0.002403,0.021899,0.000417,-0.015342,-0.000052,0.007012,-0.005905,0.203638,-0.045208,0.205020,0.205010,0.163222,0.417166,0.000000,0.000000,0.000000,0.000000,0.000000,0.000000,0.000000,0.000000,0.000000,0.000000,0.000000,0.000000,2.204456,3,0
1310000,0.005698,31.729792,0.067534,0.019044,25.738565,0.155165,-0.000429,0.047406,1.572668,-0.080938,-0.002441,0.022202,0.000428,-0.015450,-0.000052,0.000743,-0.005899,0.058603,-0.033747,0.205203,0.205191,0.162873,0.414062,0.000000,0.000000,0.000000,0.000000,0.000000,0.000000,0.000000,0.000000,0.000000,0.000000,0.000000,0.000000,2.203527,3,0
1320000,0.005691,31.993969,0.067932,0.019045,25.756161,0.155633,-0.000461,0.048464,1.572686,-0.082193,-0.002478,0.022582,0.000438,-0.015816,-0.000053,0.006533,-0.005892,0.196735,-0.042872,0.205385,0.205373,0.162522,0.411039,0.000000,0.000000,0.000000,0.000000,0.000000,0.000000,0.000000,0.000000,0.000000,0.000000,0.000000,0.000000,2.197773,3,0
1330000,0.005684,32.253353,0.068773,0.019029,25.764725,0.156600,-0.000489,0.048874,1.572693,-0.082522,-0.002515,0.022827,0.000449,-0.015914,-0.000054,0.000554,-0.005885,0.051659,-0.027062,0.205568,0.205554,0.162171,0.408094,0.000000,0.000000,0.000000,0.000000,0.000000,0.000000,0.000000,0.000000,0.000000,0.000000,0.000000,0.000000,2.196815,3,0
1340000,0.005673,32.514156,0.068913,0.018562,25.775953,0.156842,-0.000521,0.049464,1.572703,-0.083096,-0.002552,0.023314,0.000460,-0.016087,-0.000054,0.001783,-0.005873,0.090370,-0.053425,0.205751,0.205736,0.161820,0.405226,0.000000,0.000000,0.000000,0.000000,0.000000,0.000000,0.000000,0.000000,0.000000,0.000000,0.000000,0.000000,2.194439,3,0
1350000,0.005644,32.748714,0.070009,0.018543,25.785744,0.158125,-0.000550,0.049957,1.572708,-0.083561,-0.002589,0.023421,0.000471,-0.016228,-0.000055,0.000908,-0.005843,0.073906,-0.012107,0.205225,0.205209,0.161075,0.402040,0.000000,0.000000,0.000000,0.000000,0.000000,0.000000,0.000000,0.000000,0.000000,0.000000,0.000000,0.000000,2.218307,3,0
1360000,0.005633,33.014534,0.070403,0.018404,25.805527,0.158561,-0.000576,0.051220,1.572708,-0.085009,-0.002624,0.023818,0.000482,-0.016675,-0.000056,0.008909,-0.005831,0.230923,-0.044433,0.205432,0.205415,0.160735,0.399346,0.000000,0.000000,0.000000,0.000000,0.000000,0.000000,0.000000,0.000000,0.000000,0.000000,0.000000,0.000000,2.210914,3,0
1370000,0.005620,33.277580,0.070314,0.018219,25.820353,0.158174,-0.000588,0.052078,1.572720,-0.085908,-0.002660,0.024395,0.000492,-0.016958,-0.000057,0.003975,-0.005818,0.143810,-0.062862,0.205639,0.205622,0.160396,0.396725,0.000000,0.000000,0.000000,0.000000,0.000000,0.000000,0.000000,0.000000,0.000000,0.000000,0.000000,0.000000,2.206291,3,0
1380000,0.005611,33.543346,0.070212,0.018426,25.839783,0.157974,-0.000613,0.053310,1.572753,-0.087268,-0.002696,0.024971,0.000503,-0.017390,-0.000059,0.008340,-0.005808,0.218559,-0.063153,0.205847,0.205828,0.160057,0.394174,0.000000,0.000000,0.000000,0.000000,0.000000,0.000000,0.000000,0.000000,0.000000,0.000000,0.000000,0.000000,2.198955,3,0
1390000,0.005599,33.805641,0.070564,0.018286,25.852705,0.158202,-0.000639,0.054041,1.572773,-0.087960,-0.002731,0.025401,0.000514,-0.017614,-0.000060,0.002360,-0.005797,0.111626,-0.046426,0.206055,0.206035,0.159718,0.391691,0.000000,0.000000,0.000000,0.000000,0.000000,0.000000,0.000000,0.000000,0.000000,0.000000,0.000000,0.000000,2.195083,3,0
1400000,0.005587,34.067932,0.071700,0.018253,25.865614,0.159378,-0.000662,0.054754,1.572790,-0.088624,-0.002766,0.025554,0.000526,-0.017831,-0.000060,0.001917,-0.005785,0.107628,-0.017073,0.206263,0.206242,0.159379,0.389277,0.000000,0.000000,0.000000,0.000000,0.000000,0.000000,0.000000,0.000000,0.000000,0.000000,0.000000,0.000000,2.191219,3,0
1410000,0.005575,34.329540,0.071600,0.018148,25.877123,0.159042,-0.000687,0.055354,1.572813,-0.089140,-0.002802,0.026160,0.000537,-0.018004,-0.000061,0.001804,-0.005772,0.083752,-0.064243,0.206472,0.206449,0.159041,0.386929,0.000000,0.000000,0.000000,0.000000,0.000000,0.000000,0.000000,0.000000,0.000000,0.000000,0.000000,0.000000,2.188037,3,0
1420000,0.005561,34.593197,0.072724,0.018050,25.892006,0.160031,-0.000708,0.056242,1.572835,-0.089994,-0.002836,0.026317,0.000549,-0.018292,-0.000062,0.003215,-0.005759,0.140095,-0.017702,0.206682,0.206657,0.158704,0.384644,0.000000,0.000000,0.000000,0.000000,0.000000,0.000000,0.000000,0.000000,0.000000,0.000000,0.000000,0.000000,2.182807,3,0
1430000,0.005544,34.854771,0.074160,0.017755,25.903131,0.161656,-0.000744,0.056810,1.572851,-0.090450,-0.002871,0.026373,0.000560,-0.018447,-0.000062,0.000919,-0.005742,0.075073,-0.006621,0.206893,0.206866,0.158369,0.382424,0.000000,0.000000,0.000000,0.000000,0.000000,0.000000,0.000000,0.000000,0.000000,0.000000,0.000000,0.000000,2.179656,3,0
1440000,0.005528,35.116348,0.074394,0.017664,25.913862,0.161928,-0.000775,0.057371,1.572869,-0.090885,-0.002905,0.026879,0.000572,-0.018600,-0.000063,0.001290,-0.005724,0.071815,-0.052933,0.207104,0.207076,0.158034,0.380264,0.000000,0.000000,0.000000,0.000000,0.000000,0.000000,0.000000,0.000000,0.000000,0.000000,0.000000,0.000000,2.176505,3,0
1450000,0.005509,35.376549,0.075168,0.017375,25.922041,0.162493,-0.000798,0.057719,1.572882,-0.091060,-0.002940,0.027195,0.000584,-0.018662,-0.000063,0.000312,-0.005705,0.028801,-0.032679,0.207316,0.207286,0.157702,0.378165,0.000000,0.000000,0.000000,0.000000,0.000000,0.000000,0.000000,0.000000,0.000000,0.000000,0.000000,0.000000,2.174731,3,0
1460000,0.005488,35.642273,0.075417,0.017017,25.940218,0.162314,-0.000829,0.058879,1.572905,-0.092171,-0.002973,0.027685,0.000595,-0.019060,-0.000065,0.006011,-0.005683,0.185974,-0.052149,0.207529,0.207497,0.157370,0.376126,0.000000,0.000000,0.000000,0.000000,0.000000,0.000000,0.000000,0.000000,0.000000,0.000000,0.000000,0.000000,2.167434,3,0
1470000,0.005465,35.903107,0.076690,0.016978,25.949486,0.163543,-0.000843,0.059284,1.572923,-0.092404,-0.003007,0.027816,0.000607,-0.019145,-0.000065,0.000285,-0.005661,0.039337,-0.013821,0.207742,0.207709,0.157041,0.374147,0.000000,0.000000,0.000000,0.000000,0.000000,0.000000,0.000000,0.000000,0.000000,0.000000,0.000000,0.000000,2.165023,3,0
1480000,0.005444,36.164650,0.076060,0.016781,25.960037,0.162315,-0.000874,0.059781,1.572942,-0.092743,-0.003040,0.028670,0.000619,-0.019272,-0.000065,0.001752,-0.005637,0.056717,-0.087047,0.207957,0.207922,0.156714,0.372225,0.000000,0.000000,0.000000,0.000000,0.000000,0.000000,0.000000,0.000000,0.000000,0.000000,0.000000,0.000000,2.161906,3,0
1490000,0.005420,36.428253,0.076404,0.016626,25.974028,0.162574,-0.000901,0.060580,1.572950,-0.093407,-0.003073,0.029144,0.000630,-0.019521,-0.000066,0.002456,-0.005613,0.113129,-0.049151,0.208172,0.208135,0.156388,0.370358,0.000000,0.000000,0.000000,0.000000,0.000000,0.000000,0.000000,0.000000,0.000000,0.000000,0.000000,0.000000,2.156730,3,0
1500000,0.005396,36.692505,0.076822,0.016585,25.989147,0.162664,-0.000920,0.061459,1.572974,-0.094151,-0.003105,0.029590,0.000642,-0.019804,-0.000067,0.002976,-0.005589,0.127689,-0.046328,0.208388,0.208349,0.156065,0.368545,0.000000,0.000000,0.000000,0.000000,0.000000,0.000000,0.000000,0.000000,0.000000,0.000000,0.000000,0.000000,2.150905,3,0
1510000,0.005371,36.952553,0.077801,0.016348,25.996254,0.163911,-0.000941,0.061686,1.572986,-0.094167,-0.003138,0.029848,0.000654,-0.019811,-0.000067,0.000113,-0.005563,0.002441,-0.025728,0.208605,0.208564,0.155745,0.366785,0.000000,0.000000,0.000000,0.000000,0.000000,0.000000,0.000000,0.000000,0.000000,0.000000,0.000000,0.000000,2.149280,3,0
1520000,0.005343,37.216770,0.078252,0.016039,26.010849,0.164323,-0.000964,0.062540,1.573009,-0.094857,-0.003169,0.030293,0.000666,-0.020082,-0.000068,0.002663,-0.005534,0.120018,-0.045843,0.208823,0.208779,0.155427,0.365075,0.000000,0.000000,0.000000,0.000000,0.000000,0.000000,0.000000,0.000000,0.000000,0.000000,0.000000,0.000000,2.143493,3,0
1530000,0.005318,37.480244,0.077652,0.016049,26.023935,0.163112,-0.000995,0.063265,1.573020,-0.095397,-0.003201,0.031158,0.000678,-0.020299,-0.000069,0.002654,-0.005507,0.094204,-0.086773,0.209042,0.208996,0.155111,0.363416,0.000000,0.000000,0.000000,0.000000,0.000000,0.000000,0.000000,0.000000,0.000000,0.000000,0.000000,0.000000,2.138442,3,0
1540000,0.005288,37.744354,0.078474,0.015750,26.037865,0.163739,-0.001025,0.064068,1.573035,-0.096013,-0.003232,0.031459,0.000690,-0.020548,-0.000070,0.002071,-0.005479,0.108906,-0.031257,0.209261,0.209213,0.154799,0.361804,0.000000,0.000000,0.000000,0.000000,0.000000,0.000000,0.000000,0.000000,0.000000,0.000000,0.000000,0.000000,2.132758,3,0
1550000,0.005259,38.009113,0.077907,0.015468,26.053102,0.162711,-0.001057,0.064962,1.573041,-0.096706,-0.003262,0.032312,0.000702,-0.020835,-0.000071,0.003619,-0.005446,0.122955,-0.085378,0.209481,0.209430,0.154489,0.360243,0.000000,0.000000,0.000000,0.000000,0.000000,0.000000,0.000000,0.000000,0.000000,0.000000,0.000000,0.000000,2.126426,3,0
1560000,0.005228,38.272408,0.078256,0.015367,26.065405,0.162674,-0.001091,0.065599,1.573057,-0.097134,-0.003293,0.032810,0.000714,-0.021014,-0.000072,0.001353,-0.005416,0.076714,-0.049767,0.209701,0.209648,0.154182,0.358729,0.000000,0.000000,0.000000,0.000000,0.000000,0.000000,0.000000,0.000000,0.000000,0.000000,0.000000,0.000000,2.121558,3,0
1570000,0.005196,38.537735,0.079639,0.015301,26.081446,0.163890,-0.001128,0.066539,1.573074,-0.097857,-0.003321,0.032882,0.000726,-0.021319,-0.000073,0.002793,-0.005384,0.131355,-0.009132,0.209922,0.209867,0.153878,0.357261,0.000000,0.000000,0.000000,0.000000,0.000000,0.000000,0.000000,0.000000,0.000000,0.000000,0.000000,0.000000,2.114657,3,0
1580000,0.005162,38.800198,0.080643,0.014890,26.091909,0.164532,-0.001151,0.067019,1.573089,-0.098103,-0.003351,0.033133,0.000738,-0.021426,-0.000073,0.000429,-0.005348,0.044777,-0.025006,0.210143,0.210085,0.153577,0.355837,0.000000,0.000000,0.000000,0.000000,0.000000,0.000000,0.000000,0.000000,0.000000,0.000000,0.000000,0.000000,2.110617,3,0
1590000,0.005130,39.064030,0.080030,0.014821,26.104630,0.163562,-0.001169,0.067693,1.573117,-0.098543,-0.003380,0.034037,0.000750,-0.021621,-0.000074,0.002313,-0.005313,0.080395,-0.088405,0.210365,0.210304,0.153280,0.354455,0.000000,0.000000,0.000000,0.000000,0.000000,0.000000,0.000000,0.000000,0.000000,0.000000,0.000000,0.000000,2.105212,3,0
1600000,0.005096,39.323612,0.079858,0.014587,26.109478,0.163207,-0.001194,0.067657,1.573126,-0.098309,-0.003410,0.034797,0.000762,-0.021521,-0.000074,0.001165,-0.005279,-0.044415,-0.072028,0.210587,0.210523,0.152986,0.353115,0.000000,0.000000,0.000000,0.000000,0.000000,0.000000,0.000000,0.000000,0.000000,0.000000,0.000000,0.000000,2.104056,3,0
1610000,0.005060,39.583195,0.080414,0.014431,26.114286,0.163510,-0.001226,0.067621,1.573133,-0.098070,-0.003439,0.035260,0.000774,-0.021416,-0.000074,0.000644,-0.005243,-0.045620,-0.043316,0.210808,0.210741,0.152695,0.351817,0.000000,0.000000,0.000000,0.000000,0.000000,0.000000,0.000000,0.000000,0.000000,0.000000,0.000000,0.000000,2.102900,3,0
1620000,0.005022,39.846268,0.081757,0.014120,26.125534,0.164838,-0.001252,0.068135,1.573147,-0.098347,-0.003466,0.035372,0.000786,-0.021543,-0.000074,0.000471,-0.005205,0.052567,-0.011679,0.211030,0.210960,0.152408,0.350559,0.000000,0.000000,0.000000,0.000000,0.000000,0.000000,0.000000,0.000000,0.000000,0.000000,0.000000,0.000000,2.098250,3,0
1630000,0.004983,40.107201,0.081835,0.013754,26.132507,0.164851,-0.001282,0.068300,1.573157,-0.098289,-0.003494,0.036038,0.000798,-0.021519,-0.000074,0.000668,-0.005163,-0.011826,-0.062802,0.211252,0.211179,0.152124,0.349337,0.000000,0.000000,0.000000,0.000000,0.000000,0.000000,0.000000,0.000000,0.000000,0.000000,0.000000,0.000000,2.095747,3,0
1640000,0.004941,40.371601,0.083003,0.013456,26.145590,0.165944,-0.001306,0.069015,1.573189,-0.098728,-0.003520,0.036220,0.000810,-0.021726,-0.000075,0.001223,-0.005121,0.084991,-0.018841,0.211473,0.211397,0.151844,0.348150,0.000000,0.000000,0.000000,0.000000,0.000000,0.000000,0.000000,0.000000,0.000000,0.000000,0.000000,0.000000,2.089769,3,0
1650000,0.004901,40.632439,0.082218,0.013256,26.152214,0.165035,-0.001340,0.069134,1.573206,-0.098629,-0.003548,0.037265,0.000822,-0.021685,-0.000075,0.001625,-0.005077,-0.020512,-0.097758,0.211694,0.211615,0.151567,0.347002,0.000000,0.000000,0.000000,0.000000,0.000000,0.000000,0.000000,0.000000,0.000000,0.000000,0.000000,0.000000,2.087358,3,0
1660000,0.004859,40.896065,0.081092,0.013002,26.163696,0.163397,-0.001365,0.069709,1.573218,-0.098920,-0.003574,0.038430,0.000834,-0.021833,-0.000075,0.002490,-0.005034,0.056530,-0.110193,0.211915,0.211833,0.151294,0.345887,0.000000,0.000000,0.000000,0.000000,0.000000,0.000000,0.000000,0.000000,0.000000,0.000000,0.000000,0.000000,2.082159,3,0
1670000,0.004818,41.158203,0.081095,0.012954,26.172169,0.162948,-0.001395,0.070011,1.573235,-0.098981,-0.003600,0.039128,0.000845,-0.021867,-0.000076,0.000718,-0.004992,0.011456,-0.065286,0.212135,0.212049,0.151025,0.344804,0.000000,0.000000,0.000000,0.000000,0.000000,0.000000,0.000000,0.000000,0.000000,0.000000,0.000000,0.000000,2.078447,3,0
1680000,0.004774,41.422405,0.080832,0.012580,26.184387,0.162220,-0.001434,0.070648,1.573251,-0.099317,-0.003626,0.039922,0.000857,-0.022040,-0.000076,0.001650,-0.004947,0.067299,-0.075191,0.212355,0.212265,0.150759,0.343755,0.000000,0.000000,0.000000,0.000000,0.000000,0.000000,0.000000,0.000000,0.000000,0.000000,0.000000,0.000000,2.072668,3,0
1690000,0.004732,41.684422,0.079683,0.012595,26.192345,0.160545,-0.001472,0.070897,1.573257,-0.099332,-0.003652,0.041122,0.000868,-0.022054,-0.000076,0.002010,-0.004903,0.001762,-0.111107,0.212573,0.212480,0.150497,0.342737,0.000000,0.000000,0.000000,0.000000,0.000000,0.000000,0.000000,0.000000,0.000000,0.000000,0.000000,0.000000,2.069078,3,0
1700000,0.004689,41.945663,0.080615,0.012465,26.198992,0.161184,-0.001513,0.071003,1.573265,-0.099229,-0.003676,0.041429,0.000880,-0.022003,-0.000076,0.000205,-0.004860,-0.021793,-0.027739,0.212790,0.212694,0.150239,0.341753,0.000000,0.000000,0.000000,0.000000,0.000000,0.000000,0.000000,0.000000,0.000000,0.000000,0.000000,0.000000,2.066263,3,0
1710000,0.004645,42.209698,0.080925,0.012276,26.210676,0.161229,-0.001545,0.071569,1.573282,-0.099493,-0.003699,0.041981,0.000892,-0.022145,-0.000077,0.000927,-0.004815,0.054844,-0.052056,0.213006,0.212906,0.149985,0.340798,0.000000,0.000000,0.000000,0.000000,0.000000,0.000000,0.000000,0.000000,0.000000,0.000000,0.000000,0.000000,2.060655,3,0
1720000,0.004604,42.473660,0.080078,0.012218,26.221878,0.159575,-0.001569,0.072104,1.573291,-0.099729,-0.003723,0.043044,0.000903,-0.022279,-0.000078,0.001965,-0.004770,0.049122,-0.098431,0.213221,0.213117,0.149735,0.339868,0.000000,0.000000,0.000000,0.000000,0.000000,0.000000,0.000000,0.000000,0.000000,0.000000,0.000000,0.000000,2.055116,3,0
1730000,0.004560,42.736099,0.081153,0.012102,26.230377,0.160453,-0.001608,0.072355,1.573304,-0.099747,-0.003745,0.043278,0.000915,-0.022290,-0.000078,0.000081,-0.004728,0.003708,-0.021448,0.213434,0.213327,0.149488,0.338972,0.000000,0.000000,0.000000,0.000000,0.000000,0.000000,0.000000,0.000000,0.000000,0.000000,0.000000,0.000000,2.051103,3,0
