time_us,pos_x,pos_y,pos_z,vel_x,vel_y,vel_z,roll,pitch,yaw,bias_ax,bias_ay,bias_az,bias_gx,bias_gy,bias_gz,nis,innov_x,innov_y,innov_z,cov_pos_x,cov_pos_y,cov_pos_z,cov_yaw,des_speed,des_heading,des_climb,pid_speed,pid_yaw,pid_alt,speed_meas,yaw_meas,climb_meas,fwd_accel,yaw_rate,vert_accel,drift_m,nav_mode,mission_state
0,-0.000003,0.150001,0.000003,-0.000486,25.000233,0.000644,0.000012,-0.000017,1.570794,0.000000,0.000000,0.000000,0.000000,0.000000,0.000000,0.006250,0.000005,-0.250005,-0.000006,2.400038,2.400038,3.600017,1.000518,0.000000,0.000000,0.000000,0.000000,0.000000,0.000000,0.000000,0.000000,0.000000,0.000000,0.000000,0.000000,0.150001,1,0
10000,-0.000009,0.342513,-0.019569,-0.000979,25.000435,0.000943,0.000023,-0.000035,1.570782,0.000001,0.000000,0.000000,0.000000,0.000000,0.000000,0.005104,0.000013,-0.201220,-0.052217,1.714420,1.714420,2.250079,1.001073,0.000000,0.000000,0.000000,0.000000,0.000000,0.000000,0.000000,0.000000,0.000000,0.000000,0.000000,0.000000,0.143724,3,0
20000,-0.000017,0.575703,-0.031969,-0.001332,25.000700,0.001419,0.000036,-0.000046,1.570774,0.000001,0.000000,0.000000,0.000000,0.000000,-0.000000,0.000993,0.000022,-0.075671,-0.045518,1.333616,1.333616,1.636554,1.001655,0.000000,0.000000,0.000000,0.000000,0.000000,0.000000,0.000000,0.000000,0.000000,0.000000,0.000000,0.000000,0.058851,3,0
30000,-0.000029,0.805693,-0.038782,-0.001803,25.000797,0.001824,0.000045,-0.000054,1.570770,0.000003,0.000000,0.000001,0.000000,0.000000,-0.000000,0.001785,0.000035,-0.110074,-0.031874,1.091392,1.091392,1.286065,1.002257,0.000000,0.000000,0.000000,0.000000,0.000000,0.000000,0.000000,0.000000,0.000000,0.000000,0.000000,0.000000,0.090052,3,0
40000,-0.000043,1.040075,-0.033011,-0.002202,25.000790,0.002494,0.000047,-0.000070,1.570764,0.000006,0.000000,0.000000,-0.000000,0.000000,-0.000000,0.001599,0.000051,-0.101517,0.032551,0.923811,0.923811,1.059385,1.002869,0.000000,0.000000,0.000000,0.000000,0.000000,0.000000,0.000000,0.000000,0.000000,0.000000,0.000000,0.000000,0.085887,3,0
50000,-0.000061,1.279745,-0.025072,-0.002670,25.000893,0.003171,0.000060,-0.000087,1.570755,0.000009,0.000000,-0.000002,-0.000000,0.000000,-0.000000,0.001260,0.000070,-0.077474,0.052689,0.801036,0.801036,0.900822,1.003484,0.000000,0.000000,0.000000,0.000000,0.000000,0.000000,0.000000,0.000000,0.000000,0.000000,0.000000,0.000000,0.067131,3,0
60000,-0.000081,1.534553,-0.029646,-0.003117,25.001554,0.003614,0.000060,-0.000094,1.570736,0.000007,0.000000,0.000000,-0.000000,0.000000,-0.000000,0.000424,0.000092,0.040677,-0.035315,0.707270,0.707270,0.783741,1.004094,0.000000,0.000000,0.000000,0.000000,0.000000,0.000000,0.000000,0.000000,0.000000,0.000000,0.000000,0.000000,0.035882,3,0
70000,-0.000105,1.785050,-0.025549,-0.003603,25.001980,0.004268,0.000060,-0.000114,1.570731,0.000007,0.000000,-0.000003,-0.000000,0.000000,-0.000000,0.000185,0.000117,0.004530,0.035087,0.633370,0.633370,0.693801,1.004688,0.000000,0.000000,0.000000,0.000000,0.000000,0.000000,0.000000,0.000000,0.000000,0.000000,0.000000,0.000000,0.004054,3,0
80000,-0.000131,2.028663,-0.029136,-0.004013,25.001900,0.004489,0.000075,-0.000127,1.570714,0.000013,0.000000,0.000001,-0.000000,0.000000,-0.000000,0.000861,0.000145,-0.067062,-0.035025,0.573673,0.573673,0.622594,1.005260,0.000000,0.000000,0.000000,0.000000,0.000000,0.000000,0.000000,0.000000,0.000000,0.000000,0.000000,0.000000,0.060650,3,0
90000,-0.000160,2.274119,-0.032568,-0.004473,25.001934,0.004610,0.000073,-0.000143,1.570702,0.000020,0.000000,0.000005,-0.000000,0.000000,-0.000000,0.000622,0.000176,-0.052248,-0.036982,0.524488,0.524488,0.564865,1.005801,0.000000,0.000000,0.000000,0.000000,0.000000,0.000000,0.000000,0.000000,0.000000,0.000000,0.000000,0.000000,0.047681,3,0
100000,-0.000193,2.520980,-0.027970,-0.004920,25.002100,0.005698,0.000072,-0.000161,1.570692,0.000026,0.000000,-0.000003,-0.000000,0.000000,-0.000000,0.000660,0.000210,-0.039280,0.052748,0.483304,0.483304,0.517162,1.006301,0.000000,0.000000,0.000000,0.000000,0.000000,0.000000,0.000000,0.000000,0.000000,0.000000,0.000000,0.000000,0.036116,3,0
110000,-0.000228,2.779333,-0.026748,-0.005406,25.003769,0.006276,0.000083,-0.000162,1.570670,0.000006,0.000000,-0.000005,-0.000000,-0.000000,0.000000,0.001948,0.000247,0.111437,0.014593,0.448354,0.448354,0.477121,1.006754,0.000000,0.000000,0.000000,0.000000,0.000000,0.000000,0.000000,0.000000,0.000000,0.000000,0.000000,0.000000,0.103110,3,0
120000,-0.000267,3.026061,-0.028354,-0.005861,25.003696,0.006549,0.000094,-0.000181,1.570651,0.000016,0.000000,-0.000000,-0.000000,0.000000,-0.000000,0.000430,0.000287,-0.047538,-0.022668,0.418359,0.418359,0.443071,1.007150,0.000000,0.000000,0.000000,0.000000,0.000000,0.000000,0.000000,0.000000,0.000000,0.000000,0.000000,0.000000,0.044224,3,0
130000,-0.000309,3.281559,-0.030968,-0.006339,25.005154,0.006751,0.000109,-0.000186,1.570641,-0.000005,0.000000,0.000009,-0.000000,-0.000000,0.000000,0.001320,0.000330,0.083435,-0.038952,0.392369,0.392369,0.413797,1.007481,0.000000,0.000000,0.000000,0.000000,0.000000,0.000000,0.000000,0.000000,0.000000,0.000000,0.000000,0.000000,0.077979,3,0
140000,-0.000352,3.539385,-0.032001,-0.006658,25.007324,0.007074,0.000110,-0.000181,1.570625,-0.000043,0.000000,0.000014,-0.000000,-0.000001,0.000000,0.002533,0.000375,0.126105,-0.017080,0.369667,0.369667,0.388393,1.007739,0.000000,0.000000,0.000000,0.000000,0.000000,0.000000,0.000000,0.000000,0.000000,0.000000,0.000000,0.000000,0.118336,3,0
150000,-0.000398,3.793371,-0.029046,-0.007005,25.008720,0.008144,0.000111,-0.000182,1.570604,-0.000065,0.000001,-0.000001,-0.000000,-0.000001,0.000000,0.001054,0.000422,0.067047,0.047185,0.349696,0.349696,0.366172,1.007915,0.000000,0.000000,0.000000,0.000000,0.000000,0.000000,0.000000,0.000000,0.000000,0.000000,0.000000,0.000000,0.063140,3,0
160000,-0.000445,4.049617,-0.028554,-0.007368,25.010809,0.008570,0.000121,-0.000189,1.570587,-0.000107,0.000001,-0.000004,-0.000000,-0.000002,0.000000,0.001956,0.000471,0.111231,0.007052,0.332021,0.332021,0.346600,1.008002,0.000000,0.000000,0.000000,0.000000,0.000000,0.000000,0.000000,0.000000,0.000000,0.000000,0.000000,0.000000,0.105077,3,0
170000,-0.000496,4.304659,-0.027944,-0.007767,25.012716,0.009188,0.000120,-0.000196,1.570584,-0.000147,0.000001,-0.000008,-0.000000,-0.000003,0.000000,0.001395,0.000523,0.093511,0.009464,0.316298,0.316298,0.329260,1.007991,0.000000,0.000000,0.000000,0.000000,0.000000,0.000000,0.000000,0.000000,0.000000,0.000000,0.000000,0.000000,0.088582,3,0
180000,-0.000549,4.559671,-0.025884,-0.008248,25.014746,0.010408,0.000123,-0.000187,1.570577,-0.000194,0.000001,-0.000025,-0.000000,-0.000004,0.000000,0.001708,0.000578,0.096876,0.037503,0.302247,0.302247,0.313817,1.007875,0.000000,0.000000,0.000000,0.000000,0.000000,0.000000,0.000000,0.000000,0.000000,0.000000,0.000000,0.000000,0.091997,3,0
190000,-0.000604,4.816582,-0.027333,-0.008562,25.017578,0.010302,0.000138,-0.000167,1.570569,-0.000268,0.000002,-0.000009,-0.000000,-0.000006,0.000000,0.003264,0.000635,0.140028,-0.031134,0.289643,0.289643,0.300003,1.007645,0.000000,0.000000,0.000000,0.000000,0.000000,0.000000,0.000000,0.000000,0.000000,0.000000,0.000000,0.000000,0.133269,3,0
200000,-0.000662,5.073326,-0.028170,-0.009010,25.020576,0.010263,0.000154,-0.000159,1.570558,-0.000350,0.000002,0.000002,-0.000000,-0.000009,0.000000,0.003244,0.000694,0.141514,-0.019668,0.278297,0.278297,0.287598,1.007295,0.000000,0.000000,0.000000,0.000000,0.000000,0.000000,0.000000,0.000000,0.000000,0.000000,0.000000,0.000000,0.134952,3,0
210000,-0.000723,5.322827,-0.028331,-0.009464,25.020699,0.010671,0.000158,-0.000174,1.570538,-0.000340,0.000002,0.000006,-0.000000,-0.000008,0.000000,0.000046,0.000757,-0.015865,-0.005848,0.268056,0.268056,0.276421,1.006816,0.000000,0.000000,0.000000,0.000000,0.000000,0.000000,0.000000,0.000000,0.000000,0.000000,0.000000,0.000000,0.015174,3,0
220000,-0.000785,5.577028,-0.026832,-0.009762,25.023098,0.011612,0.000171,-0.000170,1.570530,-0.000405,0.000003,-0.000016,-0.000000,-0.000010,0.000000,0.001519,0.000821,0.092451,0.031291,0.258790,0.258790,0.266321,1.006202,0.000000,0.000000,0.000000,0.000000,0.000000,0.000000,0.000000,0.000000,0.000000,0.000000,0.000000,0.000000,0.088467,3,0
230000,-0.000850,5.832127,-0.025255,-0.010113,25.026011,0.012574,0.000173,-0.000158,1.570509,-0.000493,0.000004,-0.000041,-0.000000,-0.000013,0.000000,0.002354,0.000887,0.116532,0.034026,0.250389,0.250389,0.257172,1.005446,0.000000,0.000000,0.000000,0.000000,0.000000,0.000000,0.000000,0.000000,0.000000,0.000000,0.000000,0.000000,0.111672,3,0
240000,-0.000916,6.084827,-0.025326,-0.010490,25.027779,0.012833,0.000179,-0.000150,1.570491,-0.000543,0.000004,-0.000037,-0.000000,-0.000015,0.000000,0.000583,0.000955,0.060194,-0.004837,0.242760,0.242760,0.248866,1.004541,0.000000,0.000000,0.000000,0.000000,0.000000,0.000000,0.000000,0.000000,0.000000,0.000000,0.000000,0.000000,0.057766,3,0
250000,-0.000985,6.338482,-0.026271,-0.010930,25.030279,0.012895,0.000189,-0.000133,1.570477,-0.000619,0.000005,-0.000014,-0.000000,-0.000018,0.000000,0.001293,0.001026,0.085779,-0.026832,0.235823,0.235823,0.241314,1.003481,0.000000,0.000000,0.000000,0.000000,0.000000,0.000000,0.000000,0.000000,0.000000,0.000000,0.000000,0.000000,0.082414,3,0
260000,-0.001056,6.593773,-0.026317,-0.011203,25.033798,0.013218,0.000203,-0.000098,1.570455,-0.000744,0.000006,-0.000009,-0.000000,-0.000022,0.000000,0.002724,0.001098,0.130285,-0.004594,0.229510,0.229510,0.234436,1.002258,0.000000,0.000000,0.000000,0.000000,0.000000,0.000000,0.000000,0.000000,0.000000,0.000000,0.000000,0.000000,0.125306,3,0
270000,-0.001129,6.844642,-0.027933,-0.011649,25.034578,0.012736,0.000201,-0.000115,1.570446,-0.000759,0.000008,0.000038,-0.000000,-0.000023,0.000000,0.000373,0.001173,0.014111,-0.046126,0.223760,0.223760,0.228165,1.000869,0.000000,0.000000,0.000000,0.000000,0.000000,0.000000,0.000000,0.000000,0.000000,0.000000,0.000000,0.000000,0.013631,3,0
280000,-0.001204,7.100124,-0.027620,-0.011996,25.038528,0.013380,0.000214,-0.000078,1.570442,-0.000915,0.000009,0.000032,-0.000000,-0.000029,0.000000,0.003194,0.001249,0.140934,0.004879,0.218523,0.218523,0.222443,0.999307,0.000000,0.000000,0.000000,0.000000,0.000000,0.000000,0.000000,0.000000,0.000000,0.000000,0.000000,0.000000,0.135807,3,0
290000,-0.001280,7.351389,-0.027518,-0.012360,25.039606,0.013791,0.000225,-0.000089,1.570425,-0.000944,0.000011,0.000033,-0.000000,-0.000030,0.000000,0.000097,0.001328,0.024564,-0.001008,0.213752,0.213752,0.217219,0.997567,0.000000,0.000000,0.000000,0.000000,0.000000,0.000000,0.000000,0.000000,0.000000,0.000000,0.000000,0.000000,0.023723,3,0
300000,-0.001359,7.607059,-0.028093,-0.012736,25.044123,0.013705,0.000236,-0.000036,1.570403,-0.001133,0.000012,0.000059,-0.000000,-0.000039,0.000000,0.003733,0.001408,0.150988,-0.020261,0.209408,0.209408,0.212446,0.995645,0.000000,0.000000,0.000000,0.000000,0.000000,0.000000,0.000000,0.000000,0.000000,0.000000,0.000000,0.000000,0.145725,3,0
310000,-0.001439,7.859365,-0.027858,-0.013044,25.046131,0.014094,0.000251,-0.000029,1.570388,-0.001206,0.000014,0.000055,-0.000001,-0.000042,0.000000,0.000476,0.001490,0.054304,0.002761,0.205454,0.205454,0.208087,0.993536,0.000000,0.000000,0.000000,0.000000,0.000000,0.000000,0.000000,0.000000,0.000000,0.000000,0.000000,0.000000,0.052464,3,0
320000,-0.001520,8.115876,-0.026500,-0.013377,25.051693,0.015458,0.000254,0.000034,1.570378,-0.001460,0.000016,0.000005,-0.000001,-0.000054,0.000000,0.005405,0.001573,0.179677,0.035652,0.201859,0.201859,0.204105,0.991237,0.000000,0.000000,0.000000,0.000000,0.000000,0.000000,0.000000,0.000000,0.000000,0.000000,0.000000,0.000000,0.173638,3,0
330000,-0.001604,8.368460,-0.027056,-0.013803,25.054062,0.015451,0.000256,0.000055,1.570356,-0.001553,0.000019,0.000037,-0.000001,-0.000058,0.000000,0.000699,0.001659,0.062262,-0.021442,0.198595,0.198595,0.200469,0.988744,0.000000,0.000000,0.000000,0.000000,0.000000,0.000000,0.000000,0.000000,0.000000,0.000000,0.000000,0.000000,0.060222,3,0
340000,-0.001689,8.623171,-0.027898,-0.014162,25.058506,0.014910,0.000269,0.000104,1.570345,-0.001755,0.000022,0.000085,-0.000001,-0.000068,0.000000,0.002780,0.001746,0.127717,-0.030418,0.195637,0.195637,0.197151,0.986054,0.000000,0.000000,0.000000,0.000000,0.000000,0.000000,0.000000,0.000000,0.000000,0.000000,0.000000,0.000000,0.123564,3,0
350000,-0.001774,8.877987,-0.028328,-0.014394,25.063086,0.014931,0.000276,0.000157,1.570323,-0.001974,0.000025,0.000115,-0.000001,-0.000079,0.000000,0.002838,0.001833,0.131388,-0.018072,0.192960,0.192960,0.194125,0.983164,0.000000,0.000000,0.000000,0.000000,0.000000,0.000000,0.000000,0.000000,0.000000,0.000000,0.000000,0.000000,0.127174,3,0
360000,-0.001862,9.134171,-0.029745,-0.014807,25.069151,0.013765,0.000281,0.000245,1.570300,-0.002281,0.000028,0.000200,-0.000001,-0.000095,0.000000,0.005317,0.001923,0.174710,-0.049180,0.190545,0.190545,0.191370,0.980074,0.000000,0.000000,0.000000,0.000000,0.000000,0.000000,0.000000,0.000000,0.000000,0.000000,0.000000,0.000000,0.169172,3,0
370000,-0.001950,9.387926,-0.030828,-0.015045,25.072882,0.013242,0.000278,0.000296,1.570280,-0.002461,0.000032,0.000272,-0.000001,-0.000105,0.000000,0.001777,0.002013,0.097375,-0.038990,0.188373,0.188373,0.188863,0.976780,0.000000,0.000000,0.000000,0.000000,0.000000,0.000000,0.000000,0.000000,0.000000,0.000000,0.000000,0.000000,0.094338,3,0
380000,-0.002038,9.644917,-0.029610,-0.015304,25.080107,0.014660,0.000295,0.000422,1.570274,-0.002850,0.000036,0.000205,-0.000002,-0.000126,0.000001,0.006747,0.002104,0.201405,0.034789,0.186426,0.186426,0.186586,0.973283,0.000000,0.000000,0.000000,0.000000,0.000000,0.000000,0.000000,0.000000,0.000000,0.000000,0.000000,0.000000,0.195157,3,0
390000,-0.002128,9.898907,-0.030140,-0.015636,25.084295,0.014383,0.000312,0.000475,1.570259,-0.003059,0.000040,0.000250,-0.000002,-0.000138,0.000001,0.001806,0.002195,0.103370,-0.022123,0.184689,0.184689,0.184522,0.969582,0.000000,0.000000,0.000000,0.000000,0.000000,0.000000,0.000000,0.000000,0.000000,0.000000,0.000000,0.000000,0.100211,3,0
400000,-0.002219,10.155473,-0.031220,-0.016016,25.091520,0.013500,0.000324,0.000600,1.570246,-0.003456,0.000045,0.000335,-0.000002,-0.000161,0.000001,0.005931,0.002289,0.187280,-0.040315,0.183147,0.183147,0.182656,0.965677,0.000000,0.000000,0.000000,0.000000,0.000000,0.000000,0.000000,0.000000,0.000000,0.000000,0.000000,0.000000,0.181577,3,0
410000,-0.002310,10.409714,-0.030617,-0.016269,25.096117,0.014465,0.000338,0.000669,1.570231,-0.003698,0.000050,0.000301,-0.000002,-0.000176,0.000001,0.001979,0.002383,0.109551,0.015354,0.181786,0.181786,0.180971,0.961568,0.000000,0.000000,0.000000,0.000000,0.000000,0.000000,0.000000,0.000000,0.000000,0.000000,0.000000,0.000000,0.106258,3,0
420000,-0.002402,10.667095,-0.029587,-0.016510,25.104549,0.016070,0.000356,0.000831,1.570223,-0.004189,0.000056,0.000233,-0.000003,-0.000206,0.000001,0.007481,0.002476,0.213085,0.029399,0.180594,0.180594,0.179456,0.957257,0.000000,0.000000,0.000000,0.000000,0.000000,0.000000,0.000000,0.000000,0.000000,0.000000,0.000000,0.000000,0.206686,3,0
430000,-0.002494,10.924553,-0.029771,-0.016859,25.113184,0.016125,0.000370,0.000990,1.570206,-0.004702,0.000062,0.000262,-0.000003,-0.000239,0.000001,0.007431,0.002571,0.214046,-0.011750,0.179560,0.179560,0.178097,0.952745,0.000000,0.000000,0.000000,0.000000,0.000000,0.000000,0.000000,0.000000,0.000000,0.000000,0.000000,0.000000,0.207655,3,0
440000,-0.002588,11.180907,-0.030314,-0.017216,25.120464,0.015683,0.000382,0.001121,1.570186,-0.005139,0.000068,0.000321,-0.000004,-0.000267,0.000001,0.005056,0.002668,0.175171,-0.024004,0.178673,0.178673,0.176883,0.948035,0.000000,0.000000,0.000000,0.000000,0.000000,0.000000,0.000000,0.000000,0.000000,0.000000,0.000000,0.000000,0.169974,3,0
450000,-0.002682,11.438551,-0.031199,-0.017435,25.129574,0.015073,0.000399,0.001307,1.570179,-0.005701,0.000075,0.000414,-0.000004,-0.000304,0.000001,0.007818,0.002764,0.216927,-0.035765,0.177922,0.177922,0.175803,0.943129,0.000000,0.000000,0.000000,0.000000,0.000000,0.000000,0.000000,0.000000,0.000000,0.000000,0.000000,0.000000,0.210511,3,0
460000,-0.002774,11.693934,-0.029547,-0.017614,25.135698,0.017450,0.000412,0.001432,1.570163,-0.006072,0.000083,0.000276,-0.000005,-0.000329,0.000001,0.003513,0.002859,0.138102,0.051338,0.177298,0.177298,0.174847,0.938030,0.000000,0.000000,0.000000,0.000000,0.000000,0.000000,0.000000,0.000000,0.000000,0.000000,0.000000,0.000000,0.134050,3,0
470000,-0.002867,11.952384,-0.029876,-0.017807,25.146057,0.017398,0.000415,0.001658,1.570142,-0.006741,0.000091,0.000325,-0.000005,-0.000376,0.000002,0.009405,0.002954,0.240479,-0.017526,0.176792,0.176792,0.174006,0.932742,0.000000,0.000000,0.000000,0.000000,0.000000,0.000000,0.000000,0.000000,0.000000,0.000000,0.000000,0.000000,0.233410,3,0
480000,-0.002959,12.210335,-0.030960,-0.018033,25.155901,0.016095,0.000422,0.001864,1.570129,-0.007376,0.000100,0.000451,-0.000006,-0.000421,0.000002,0.008173,0.003048,0.220470,-0.043633,0.176396,0.176396,0.173271,0.927269,0.000000,0.000000,0.000000,0.000000,0.000000,0.000000,0.000000,0.000000,0.000000,0.000000,0.000000,0.000000,0.214009,3,0
490000,-0.003050,12.467216,-0.029639,-0.018192,25.164263,0.017872,0.000427,0.002046,1.570119,-0.007915,0.000109,0.000331,-0.000006,-0.000461,0.000002,0.005569,0.003142,0.181089,0.040225,0.176103,0.176103,0.172634,0.921616,0.000000,0.000000,0.000000,0.000000,0.000000,0.000000,0.000000,0.000000,0.000000,0.000000,0.000000,0.000000,0.175801,3,0
500000,-0.003140,12.725966,-0.028484,-0.018422,25.175280,0.019716,0.000434,0.002289,1.570099,-0.008660,0.000119,0.000226,-0.000007,-0.000516,0.000002,0.009677,0.003235,0.242188,0.033889,0.175903,0.175903,0.172087,0.915787,0.000000,0.000000,0.000000,0.000000,0.000000,0.000000,0.000000,0.000000,0.000000,0.000000,0.000000,0.000000,0.235108,3,0
510000,-0.003231,12.981316,-0.029582,-0.018631,25.181337,0.018411,0.000443,0.002423,1.570087,-0.009048,0.000129,0.000371,-0.000008,-0.000546,0.000002,0.002763,0.003328,0.122478,-0.045437,0.175792,0.175792,0.171622,0.909788,0.000000,0.000000,0.000000,0.000000,0.000000,0.000000,0.000000,0.000000,0.000000,0.000000,0.000000,0.000000,0.118934,3,0
520000,-0.003320,13.236230,-0.028410,-0.018799,25.186691,0.020277,0.000451,0.002545,1.570082,-0.009393,0.000140,0.000258,-0.000009,-0.000573,0.000002,0.001999,0.003420,0.105616,0.034453,0.175761,0.175761,0.171234,0.903625,0.000000,0.000000,0.000000,0.000000,0.000000,0.000000,0.000000,0.000000,0.000000,0.000000,0.000000,0.000000,0.102576,3,0
530000,-0.003408,13.493631,-0.029112,-0.018919,25.195950,0.019349,0.000468,0.002770,1.570071,-0.010028,0.000152,0.000366,-0.000010,-0.000623,0.000003,0.005920,0.003511,0.188589,-0.031861,0.175804,0.175804,0.170914,0.897303,0.000000,0.000000,0.000000,0.000000,0.000000,0.000000,0.000000,0.000000,0.000000,0.000000,0.000000,0.000000,0.183095,3,0
540000,-0.003495,13.748824,-0.028837,-0.019151,25.201675,0.019872,0.000475,0.002895,1.570063,-0.010409,0.000164,0.000356,-0.000011,-0.000654,0.000003,0.001961,0.003601,0.110006,0.002766,0.175916,0.175916,0.170658,0.890829,0.000000,0.000000,0.000000,0.000000,0.000000,0.000000,0.000000,0.000000,0.000000,0.000000,0.000000,0.000000,0.106838,3,0
550000,-0.003583,14.005338,-0.028541,-0.019444,25.209457,0.020568,0.000479,0.003081,1.570056,-0.010953,0.000177,0.000344,-0.000012,-0.000699,0.000003,0.003788,0.003691,0.152940,0.003249,0.176091,0.176091,0.170460,0.884211,0.000000,0.000000,0.000000,0.000000,0.000000,0.000000,0.000000,0.000000,0.000000,0.000000,0.000000,0.000000,0.148494,3,0
560000,-0.003670,14.260822,-0.029450,-0.019590,25.215731,0.019604,0.000487,0.003230,1.570050,-0.011373,0.000191,0.000490,-0.000013,-0.000735,0.000003,0.002395,0.003781,0.115014,-0.039475,0.176323,0.176323,0.170314,0.877454,0.000000,0.000000,0.000000,0.000000,0.000000,0.000000,0.000000,0.000000,0.000000,0.000000,0.000000,0.000000,0.111695,3,0
570000,-0.003756,14.519971,-0.028083,-0.019811,25.227802,0.021512,0.000494,0.003543,1.570035,-0.012261,0.000205,0.000333,-0.000014,-0.000812,0.000003,0.009376,0.003870,0.237165,0.041236,0.176608,0.176608,0.170214,0.870566,0.000000,0.000000,0.000000,0.000000,0.000000,0.000000,0.000000,0.000000,0.000000,0.000000,0.000000,0.000000,0.230215,3,0
580000,-0.003841,14.776883,-0.028282,-0.019996,25.236198,0.021525,0.000507,0.003748,1.570022,-0.012864,0.000220,0.000391,-0.000016,-0.000865,0.000004,0.004015,0.003957,0.156807,-0.014812,0.176940,0.176940,0.170157,0.863555,0.000000,0.000000,0.000000,0.000000,0.000000,0.000000,0.000000,0.000000,0.000000,0.000000,0.000000,0.000000,0.152231,3,0
590000,-0.003926,15.032169,-0.027023,-0.020259,25.241953,0.023429,0.000513,0.003882,1.570003,-0.013251,0.000236,0.000244,-0.000017,-0.000899,0.000004,0.001793,0.004045,0.098599,0.036700,0.177315,0.177315,0.170138,0.856429,0.000000,0.000000,0.000000,0.000000,0.000000,0.000000,0.000000,0.000000,0.000000,0.000000,0.000000,0.000000,0.095766,3,0
600000,-0.004010,15.290556,-0.027298,-0.020477,25.252737,0.023219,0.000524,0.004170,1.569982,-0.014061,0.000252,0.000318,-0.000018,-0.000974,0.000004,0.006595,0.004132,0.201077,-0.018101,0.177728,0.177728,0.170152,0.849194,0.000000,0.000000,0.000000,0.000000,0.000000,0.000000,0.000000,0.000000,0.000000,0.000000,0.000000,0.000000,0.195161,3,0
610000,-0.004094,15.548472,-0.028460,-0.020659,25.262606,0.021671,0.000546,0.004437,1.569961,-0.014806,0.000270,0.000525,-0.000020,-0.001043,0.000004,0.005702,0.004219,0.181129,-0.049277,0.178175,0.178175,0.170195,0.841860,0.000000,0.000000,0.000000,0.000000,0.000000,0.000000,0.000000,0.000000,0.000000,0.000000,0.000000,0.000000,0.175798,3,0
620000,-0.004175,15.808290,-0.029494,-0.020750,25.275572,0.020249,0.000557,0.004803,1.569946,-0.015820,0.000287,0.000714,-0.000022,-0.001140,0.000005,0.009725,0.004303,0.241177,-0.044179,0.178653,0.178653,0.170265,0.834433,0.000000,0.000000,0.000000,0.000000,0.000000,0.000000,0.000000,0.000000,0.000000,0.000000,0.000000,0.000000,0.234033,3,0
630000,-0.004256,16.064651,-0.029306,-0.020955,25.282616,0.020658,0.000566,0.004991,1.569931,-0.016337,0.000306,0.000717,-0.000023,-0.001190,0.000005,0.002346,0.004387,0.120382,-0.000605,0.179158,0.179158,0.170356,0.826923,0.000000,0.000000,0.000000,0.000000,0.000000,0.000000,0.000000,0.000000,0.000000,0.000000,0.000000,0.000000,0.116864,3,0
640000,-0.004336,16.323536,-0.029962,-0.021117,25.293854,0.019779,0.000589,0.005321,1.569919,-0.017222,0.000325,0.000853,-0.000025,-0.001278,0.000005,0.006743,0.004469,0.201891,-0.030444,0.179686,0.179685,0.170465,0.819337,0.000000,0.000000,0.000000,0.000000,0.000000,0.000000,0.000000,0.000000,0.000000,0.000000,0.000000,0.000000,0.195893,3,0
650000,-0.004413,16.579548,-0.030476,-0.021199,25.300232,0.019064,0.000608,0.005498,1.569897,-0.017677,0.000346,0.000968,-0.000027,-0.001324,0.000006,0.001785,0.004550,0.101923,-0.025128,0.180233,0.180233,0.170591,0.811683,0.000000,0.000000,0.000000,0.000000,0.000000,0.000000,0.000000,0.000000,0.000000,0.000000,0.000000,0.000000,0.098960,3,0
660000,-0.004489,16.838102,-0.031077,-0.021275,25.310904,0.018239,0.000623,0.005815,1.569881,-0.018514,0.000366,0.001098,-0.000029,-0.001410,0.000006,0.005590,0.004629,0.183788,-0.027903,0.180798,0.180797,0.170729,0.803970,0.000000,0.000000,0.000000,0.000000,0.000000,0.000000,0.000000,0.000000,0.000000,0.000000,0.000000,0.000000,0.178306,3,0
670000,-0.004564,17.098574,-0.031179,-0.021419,25.324602,0.018155,0.000633,0.006244,1.569857,-0.019641,0.000388,0.001145,-0.000032,-0.001527,0.000006,0.009579,0.004706,0.243193,-0.010007,0.181376,0.181375,0.170877,0.796206,0.000000,0.000000,0.000000,0.000000,0.000000,0.000000,0.000000,0.000000,0.000000,0.000000,0.000000,0.000000,0.235886,3,0
680000,-0.004637,17.355526,-0.030550,-0.021591,25.332277,0.019146,0.000651,0.006474,1.569832,-0.020215,0.000410,0.001069,-0.000034,-0.001588,0.000007,0.002438,0.004782,0.121735,0.015599,0.181965,0.181965,0.171033,0.788398,0.000000,0.000000,0.000000,0.000000,0.000000,0.000000,0.000000,0.000000,0.000000,0.000000,0.000000,0.000000,0.118133,3,0
690000,-0.004707,17.616240,-0.029177,-0.021608,25.346352,0.021200,0.000668,0.006934,1.569821,-0.021377,0.000433,0.000862,-0.000037,-0.001714,0.000007,0.009777,0.004856,0.242403,0.041424,0.182563,0.182562,0.171194,0.780555,0.000000,0.000000,0.000000,0.000000,0.000000,0.000000,0.000000,0.000000,0.000000,0.000000,0.000000,0.000000,0.235074,3,0
700000,-0.004776,17.873404,-0.029261,-0.021605,25.354177,0.021166,0.000677,0.007160,1.569797,-0.021966,0.000457,0.000915,-0.000039,-0.001779,0.000008,0.002376,0.004926,0.120701,-0.010465,0.183167,0.183166,0.171357,0.772684,0.000000,0.000000,0.000000,0.000000,0.000000,0.000000,0.000000,0.000000,0.000000,0.000000,0.000000,0.000000,0.117113,3,0
710000,-0.004841,18.130085,-0.028935,-0.021604,25.361088,0.021644,0.000695,0.007371,1.569773,-0.022471,0.000481,0.000894,-0.000042,-0.001836,0.000008,0.001688,0.004994,0.102005,0.003900,0.183775,0.183774,0.171522,0.764793,0.000000,0.000000,0.000000,0.000000,0.000000,0.000000,0.000000,0.000000,0.000000,0.000000,0.000000,0.000000,0.098999,3,0
720000,-0.004905,18.388119,-0.029312,-0.021602,25.370182,0.021365,0.000702,0.007656,1.569750,-0.023192,0.000506,0.001003,-0.000045,-0.001918,0.000008,0.003398,0.005060,0.143438,-0.020871,0.184384,0.184384,0.171686,0.756890,0.000000,0.000000,0.000000,0.000000,0.000000,0.000000,0.000000,0.000000,0.000000,0.000000,0.000000,0.000000,0.139117,3,0
730000,-0.004967,18.646881,-0.029767,-0.021750,25.380413,0.020825,0.000728,0.007988,1.569732,-0.024026,0.000532,0.001127,-0.000048,-0.002015,0.000009,0.004418,0.005125,0.163620,-0.023459,0.184994,0.184994,0.171847,0.748981,0.000000,0.000000,0.000000,0.000000,0.000000,0.000000,0.000000,0.000000,0.000000,0.000000,0.000000,0.000000,0.158653,3,0
740000,-0.005027,18.906979,-0.028667,-0.021736,25.392872,0.022544,0.000744,0.008425,1.569716,-0.025076,0.000559,0.000958,-0.000051,-0.002139,0.000009,0.006812,0.005187,0.202936,0.031058,0.185602,0.185602,0.172004,0.741075,0.000000,0.000000,0.000000,0.000000,0.000000,0.000000,0.000000,0.000000,0.000000,0.000000,0.000000,0.000000,0.196723,3,0
750000,-0.005083,19.168398,-0.027252,-0.021723,25.407427,0.024795,0.000752,0.008936,1.569692,-0.026338,0.000586,0.000729,-0.000054,-0.002290,0.000010,0.009654,0.005247,0.240898,0.041410,0.186207,0.186207,0.172155,0.733177,0.000000,0.000000,0.000000,0.000000,0.000000,0.000000,0.000000,0.000000,0.000000,0.000000,0.000000,0.000000,0.233479,3,0
760000,-0.005140,19.427416,-0.027726,-0.021865,25.417776,0.024254,0.000770,0.009298,1.569676,-0.027179,0.000613,0.000869,-0.000058,-0.002393,0.000010,0.004151,0.005305,0.158243,-0.025249,0.186807,0.186807,0.172299,0.725295,0.000000,0.000000,0.000000,0.000000,0.000000,0.000000,0.000000,0.000000,0.000000,0.000000,0.000000,0.000000,0.153403,3,0
770000,-0.005194,19.685913,-0.028857,-0.021823,25.427090,0.022700,0.000784,0.009608,1.569668,-0.027919,0.000642,0.001139,-0.000061,-0.002485,0.000010,0.003436,0.005361,0.137667,-0.047868,0.187401,0.187401,0.172436,0.717435,0.000000,0.000000,0.000000,0.000000,0.000000,0.000000,0.000000,0.000000,0.000000,0.000000,0.000000,0.000000,0.133467,3,0
780000,-0.005246,19.947002,-0.029117,-0.021821,25.440817,0.022220,0.000804,0.010100,1.569656,-0.029100,0.000671,0.001235,-0.000065,-0.002634,0.000011,0.007655,0.005415,0.217018,-0.016909,0.187988,0.187987,0.172563,0.709604,0.000000,0.000000,0.000000,0.000000,0.000000,0.000000,0.000000,0.000000,0.000000,0.000000,0.000000,0.000000,0.210284,3,0
790000,-0.005295,20.206909,-0.027899,-0.021817,25.452127,0.023924,0.000828,0.010504,1.569638,-0.030060,0.000701,0.001032,-0.000069,-0.002757,0.000012,0.005112,0.005467,0.174461,0.034619,0.188566,0.188566,0.172681,0.701807,0.000000,0.000000,0.000000,0.000000,0.000000,0.000000,0.000000,0.000000,0.000000,0.000000,0.000000,0.000000,0.169063,3,0
800000,-0.005342,20.468151,-0.027892,-0.021776,25.465769,0.023819,0.000847,0.011025,1.569614,-0.031243,0.000731,0.001077,-0.000073,-0.002912,0.000012,0.007313,0.005516,0.212624,-0.008036,0.189135,0.189134,0.172787,0.694050,0.000000,0.000000,0.000000,0.000000,0.000000,0.000000,0.000000,0.000000,0.000000,0.000000,0.000000,0.000000,0.205990,3,0
810000,-0.005386,20.730085,-0.026774,-0.021692,25.480371,0.025581,0.000876,0.011595,1.569590,-0.032534,0.000761,0.000892,-0.000077,-0.003083,0.000013,0.008661,0.005562,0.229551,0.030530,0.189694,0.189693,0.172882,0.686339,0.000000,0.000000,0.000000,0.000000,0.000000,0.000000,0.000000,0.000000,0.000000,0.000000,0.000000,0.000000,0.222359,3,0
820000,-0.005428,20.992071,-0.026164,-0.021699,25.494934,0.026340,0.000887,0.012161,1.569571,-0.033817,0.000793,0.000815,-0.000081,-0.003256,0.000014,0.008265,0.005606,0.225895,0.012355,0.190242,0.190241,0.172965,0.678679,0.000000,0.000000,0.000000,0.000000,0.000000,0.000000,0.000000,0.000000,0.000000,0.000000,0.000000,0.000000,0.218800,3,0
830000,-0.005469,21.249681,-0.027031,-0.021765,25.501570,0.025219,0.000903,0.012378,1.569554,-0.034294,0.000825,0.001056,-0.000085,-0.003321,0.000014,0.001368,0.005649,0.083036,-0.039351,0.190778,0.190777,0.173035,0.671075,0.000000,0.000000,0.000000,0.000000,0.000000,0.000000,0.000000,0.000000,0.000000,0.000000,0.000000,0.000000,0.080581,3,0
840000,-0.005508,21.509291,-0.025544,-0.021784,25.511728,0.027630,0.000933,0.012767,1.569544,-0.035124,0.000857,0.000788,-0.000090,-0.003437,0.000014,0.003620,0.005690,0.143421,0.042723,0.191303,0.191302,0.173092,0.663532,0.000000,0.000000,0.000000,0.000000,0.000000,0.000000,0.000000,0.000000,0.000000,0.000000,0.000000,0.000000,0.138958,3,0
850000,-0.005546,21.768337,-0.025137,-0.021772,25.520679,0.028375,0.000946,0.013102,1.569524,-0.035838,0.000890,0.000759,-0.000095,-0.003538,0.000015,0.002420,0.005729,0.122259,0.004406,0.191815,0.191813,0.173136,0.656053,0.000000,0.000000,0.000000,0.000000,0.000000,0.000000,0.000000,0.000000,0.000000,0.000000,0.000000,0.000000,0.118481,3,0
860000,-0.005582,22.030647,-0.025628,-0.021719,25.535318,0.027562,0.000961,0.013692,1.569504,-0.037140,0.000924,0.000927,-0.000099,-0.003725,0.000016,0.007997,0.005767,0.220942,-0.026788,0.192314,0.192312,0.173166,0.648644,0.000000,0.000000,0.000000,0.000000,0.000000,0.000000,0.000000,0.000000,0.000000,0.000000,0.000000,0.000000,0.213932,3,0
870000,-0.005617,22.292355,-0.026312,-0.021790,25.548628,0.026408,0.000977,0.014244,1.569483,-0.038310,0.000958,0.001139,-0.000104,-0.003897,0.000016,0.006446,0.005803,0.197031,-0.033173,0.192800,0.192798,0.173182,0.641309,0.000000,0.000000,0.000000,0.000000,0.000000,0.000000,0.000000,0.000000,0.000000,0.000000,0.000000,0.000000,0.190781,3,0
880000,-0.005650,22.552181,-0.026572,-0.021765,25.558620,0.026237,0.000999,0.014633,1.569469,-0.039112,0.000993,0.001256,-0.000109,-0.004016,0.000017,0.002955,0.005838,0.133978,-0.018226,0.193273,0.193271,0.173184,0.634050,0.000000,0.000000,0.000000,0.000000,0.000000,0.000000,0.000000,0.000000,0.000000,0.000000,0.000000,0.000000,0.129785,3,0
890000,-0.005681,22.813351,-0.025400,-0.021722,25.570747,0.027929,0.001017,0.015129,1.569444,-0.040151,0.001027,0.001045,-0.000115,-0.004172,0.000018,0.004951,0.005871,0.172237,0.031514,0.193732,0.193730,0.173172,0.626872,0.000000,0.000000,0.000000,0.000000,0.000000,0.000000,0.000000,0.000000,0.000000,0.000000,0.000000,0.000000,0.166774,3,0
900000,-0.005709,23.072632,-0.023902,-0.021629,25.579418,0.029986,0.001036,0.015463,1.569427,-0.040817,0.001063,0.000761,-0.000120,-0.004274,0.000018,0.002237,0.005900,0.109734,0.042255,0.194177,0.194176,0.173145,0.619777,0.000000,0.000000,0.000000,0.000000,0.000000,0.000000,0.000000,0.000000,0.000000,0.000000,0.000000,0.000000,0.106337,3,0
910000,-0.005735,23.334558,-0.022965,-0.021536,25.592699,0.031183,0.001062,0.016018,1.569419,-0.041968,0.001098,0.000608,-0.000126,-0.004453,0.000019,0.005803,0.005928,0.188307,0.022158,0.194610,0.194608,0.173105,0.612769,0.000000,0.000000,0.000000,0.000000,0.000000,0.000000,0.000000,0.000000,0.000000,0.000000,0.000000,0.000000,0.182290,3,0
920000,-0.005759,23.594576,-0.022702,-0.021435,25.602421,0.031479,0.001080,0.016408,1.569407,-0.042737,0.001134,0.000617,-0.000132,-0.004574,0.000019,0.002527,0.005953,0.125036,-0.001683,0.195028,0.195026,0.173050,0.605850,0.000000,0.000000,0.000000,0.000000,0.000000,0.000000,0.000000,0.000000,0.000000,0.000000,0.000000,0.000000,0.121109,3,0
930000,-0.005782,23.857233,-0.022957,-0.021320,25.616528,0.031071,0.001095,0.017035,1.569379,-0.043993,0.001171,0.000749,-0.000138,-0.004776,0.000020,0.006704,0.005976,0.202866,-0.019721,0.195434,0.195431,0.172981,0.599022,0.000000,0.000000,0.000000,0.000000,0.000000,0.000000,0.000000,0.000000,0.000000,0.000000,0.000000,0.000000,0.196342,3,0
940000,-0.005803,24.115360,-0.022834,-0.021349,25.622604,0.031121,0.001115,0.017254,1.569362,-0.044363,0.001208,0.000793,-0.000144,-0.004836,0.000020,0.000580,0.005998,0.059336,-0.006549,0.195826,0.195823,0.172898,0.592289,0.000000,0.000000,0.000000,0.000000,0.000000,0.000000,0.000000,0.000000,0.000000,0.000000,0.000000,0.000000,0.057692,3,0
950000,-0.005821,24.376812,-0.022639,-0.021193,25.634317,0.031337,0.001138,0.017759,1.569340,-0.045358,0.001245,0.000818,-0.000150,-0.005001,0.000021,0.004083,0.006018,0.158970,-0.004007,0.196205,0.196202,0.172801,0.585651,0.000000,0.000000,0.000000,0.000000,0.000000,0.000000,0.000000,0.000000,0.000000,0.000000,0.000000,0.000000,0.153881,3,0
960000,-0.005838,24.640242,-0.022405,-0.021091,25.649467,0.031754,0.001160,0.018445,1.569330,-0.046713,0.001282,0.000832,-0.000156,-0.005229,0.000022,0.007491,0.006036,0.215464,-0.002693,0.196571,0.196568,0.172691,0.579110,0.000000,0.000000,0.000000,0.000000,0.000000,0.000000,0.000000,0.000000,0.000000,0.000000,0.000000,0.000000,0.208486,3,0
970000,-0.005852,24.903013,-0.020929,-0.021010,25.663338,0.033692,0.001192,0.019071,1.569301,-0.047917,0.001319,0.000538,-0.000163,-0.005434,0.000023,0.006116,0.006052,0.190428,0.040430,0.196925,0.196922,0.172568,0.572669,0.000000,0.000000,0.000000,0.000000,0.000000,0.000000,0.000000,0.000000,0.000000,0.000000,0.000000,0.000000,0.184272,3,0
980000,-0.005866,25.165787,-0.020869,-0.020964,25.676912,0.033857,0.001226,0.019699,1.569291,-0.049098,0.001357,0.000603,-0.000169,-0.005638,0.000024,0.005594,0.006066,0.185944,-0.009606,0.197267,0.197263,0.172432,0.566329,0.000000,0.000000,0.000000,0.000000,0.000000,0.000000,0.000000,0.000000,0.000000,0.000000,0.000000,0.000000,0.179926,3,0
990000,-0.005879,25.424637,-0.021789,-0.020928,25.683521,0.032297,0.001258,0.019948,1.569270,-0.049495,0.001396,0.000921,-0.000176,-0.005709,0.000024,0.000940,0.006079,0.062185,-0.043812,0.197597,0.197593,0.172283,0.560091,0.000000,0.000000,0.000000,0.000000,0.000000,0.000000,0.000000,0.000000,0.000000,0.000000,0.000000,0.000000,0.060422,3,0
1000000,-0.005890,25.682882,-0.022857,-0.020764,25.688957,0.030710,0.001294,0.020134,1.569254,-0.049763,0.001435,0.001278,-0.000183,-0.005757,0.000024,0.000670,0.006091,0.041817,-0.048560,0.197915,0.197911,0.172121,0.553955,0.000000,0.000000,0.000000,0.000000,0.000000,0.000000,0.000000,0.000000,0.000000,0.000000,0.000000,0.000000,0.040863,3,0
1010000,-0.005898,25.943811,-0.021317,-0.020652,25.698921,0.032922,0.001331,0.020565,1.569235,-0.050543,0.001474,0.000954,-0.000190,-0.005898,0.000025,0.002683,0.006101,0.121458,0.043028,0.198222,0.198218,0.171948,0.547922,0.000000,0.000000,0.000000,0.000000,0.000000,0.000000,0.000000,0.000000,0.000000,0.000000,0.000000,0.000000,0.117595,3,0
1020000,-0.005905,26.207392,-0.020019,-0.020601,25.713434,0.034796,0.001354,0.021268,1.569221,-0.051822,0.001512,0.000694,-0.000197,-0.006133,0.000026,0.006534,0.006108,0.198370,0.033939,0.198518,0.198514,0.171763,0.541994,0.000000,0.000000,0.000000,0.000000,0.000000,0.000000,0.000000,0.000000,0.000000,0.000000,0.000000,0.000000,0.191900,3,0
1030000,-0.005910,26.469635,-0.018684,-0.020452,25.725439,0.036704,0.001376,0.021822,1.569195,-0.052813,0.001551,0.000428,-0.000204,-0.006318,0.000026,0.003987,0.006113,0.153311,0.034583,0.198804,0.198799,0.171567,0.536171,0.000000,0.000000,0.000000,0.000000,0.000000,0.000000,0.000000,0.000000,0.000000,0.000000,0.000000,0.000000,0.148351,3,0
1040000,-0.005914,26.733194,-0.017351,-0.020383,25.739737,0.038453,0.001404,0.022516,1.569179,-0.054040,0.001589,0.000163,-0.000212,-0.006550,0.000027,0.005957,0.006118,0.189131,0.033962,0.199081,0.199075,0.171359,0.530453,0.000000,0.000000,0.000000,0.000000,0.000000,0.000000,0.000000,0.000000,0.000000,0.000000,0.000000,0.000000,0.182953,3,0
1050000,-0.005918,26.993429,-0.016765,-0.020373,25.747896,0.039175,0.001435,0.022861,1.569159,-0.054589,0.001629,0.000105,-0.000220,-0.006656,0.000028,0.001164,0.006121,0.084461,0.007070,0.199347,0.199342,0.171142,0.524841,0.000000,0.000000,0.000000,0.000000,0.000000,0.000000,0.000000,0.000000,0.000000,0.000000,0.000000,0.000000,0.081870,3,0
1060000,-0.005921,27.251707,-0.018078,-0.020282,25.752460,0.037142,0.001461,0.022994,1.569155,-0.054740,0.001669,0.000568,-0.000227,-0.006686,0.000028,0.000673,0.006124,0.022934,-0.059941,0.199605,0.199599,0.170914,0.519333,0.000000,0.000000,0.000000,0.000000,0.000000,0.000000,0.000000,0.000000,0.000000,0.000000,0.000000,0.000000,0.022944,3,0
1070000,-0.005924,27.513346,-0.019059,-0.020232,25.763025,0.035763,0.001496,0.023477,1.569136,-0.055541,0.001709,0.000934,-0.000235,-0.006846,0.000029,0.002786,0.006127,0.122427,-0.047496,0.199854,0.199848,0.170676,0.513932,0.000000,0.000000,0.000000,0.000000,0.000000,0.000000,0.000000,0.000000,0.000000,0.000000,0.000000,0.000000,0.118495,3,0
1080000,-0.005923,27.776970,-0.018370,-0.020054,25.776796,0.036697,0.001524,0.024171,1.569127,-0.056712,0.001748,0.000834,-0.000243,-0.007081,0.000030,0.005176,0.006128,0.178745,0.011837,0.200095,0.200089,0.170429,0.508635,0.000000,0.000000,0.000000,0.000000,0.000000,0.000000,0.000000,0.000000,0.000000,0.000000,0.000000,0.000000,0.172886,3,0
1090000,-0.005922,28.037909,-0.018356,-0.019933,25.785816,0.036730,0.001562,0.024566,1.569116,-0.057328,0.001788,0.000928,-0.000251,-0.007207,0.000030,0.001451,0.006126,0.093895,-0.012442,0.200328,0.200322,0.170173,0.503443,0.000000,0.000000,0.000000,0.000000,0.000000,0.000000,0.000000,0.000000,0.000000,0.000000,0.000000,0.000000,0.090952,3,0
1100000,-0.005920,28.300850,-0.019719,-0.019853,25.798197,0.034866,0.001598,0.025177,1.569091,-0.058321,0.001828,0.001407,-0.000259,-0.007414,0.000031,0.004277,0.006124,0.150927,-0.060952,0.200555,0.200547,0.169908,0.498356,0.000000,0.000000,0.000000,0.000000,0.000000,0.000000,0.000000,0.000000,0.000000,0.000000,0.000000,0.000000,0.145998,3,0
1110000,-0.005915,28.561102,-0.018630,-0.019651,25.805681,0.036028,0.001637,0.025477,1.569069,-0.058759,0.001868,0.001193,-0.000267,-0.007506,0.000031,0.000836,0.006121,0.066772,0.026265,0.200774,0.200766,0.169635,0.493373,0.000000,0.000000,0.000000,0.000000,0.000000,0.000000,0.000000,0.000000,0.000000,0.000000,0.000000,0.000000,0.064809,3,0
1120000,-0.005908,28.822699,-0.017700,-0.019449,25.815437,0.037021,0.001670,0.025927,1.569059,-0.059448,0.001907,0.001024,-0.000276,-0.007652,0.000032,0.001836,0.006113,0.104630,0.020326,0.200987,0.200979,0.169355,0.488493,0.000000,0.000000,0.000000,0.000000,0.000000,0.000000,0.000000,0.000000,0.000000,0.000000,0.000000,0.000000,0.101298,3,0
1130000,-0.005901,29.083622,-0.017704,-0.019373,25.823851,0.036879,0.001701,0.026304,1.569052,-0.059986,0.001947,0.001128,-0.000285,-0.007769,0.000033,0.001104,0.006106,0.081482,-0.013231,0.201194,0.201185,0.169067,0.483716,0.000000,0.000000,0.000000,0.000000,0.000000,0.000000,0.000000,0.000000,0.000000,0.000000,0.000000,0.000000,0.078969,3,0
1140000,-0.005892,29.343212,-0.017620,-0.019139,25.829947,0.036943,0.001741,0.026519,1.569029,-0.060244,0.001987,0.001209,-0.000293,-0.007826,0.000033,0.000270,0.006096,0.039141,-0.010191,0.201396,0.201386,0.168772,0.479041,0.000000,0.000000,0.000000,0.000000,0.000000,0.000000,0.000000,0.000000,0.000000,0.000000,0.000000,0.000000,0.038283,3,0
1150000,-0.005880,29.603489,-0.016215,-0.019017,25.837151,0.038598,0.001768,0.026808,1.569023,-0.060625,0.002027,0.000901,-0.000302,-0.007910,0.000033,0.000765,0.006085,0.057795,0.036910,0.201592,0.201582,0.168471,0.474468,0.000000,0.000000,0.000000,0.000000,0.000000,0.000000,0.000000,0.000000,0.000000,0.000000,0.000000,0.000000,0.056163,3,0
1160000,-0.005868,29.865782,-0.015539,-0.018854,25.847721,0.039210,0.001791,0.027322,1.569007,-0.061387,0.002066,0.000807,-0.000312,-0.008082,0.000034,0.002173,0.006072,0.115507,0.010551,0.201784,0.201774,0.168164,0.469994,0.000000,0.000000,0.000000,0.000000,0.000000,0.000000,0.000000,0.000000,0.000000,0.000000,0.000000,0.000000,0.111778,3,0
1170000,-0.005856,30.128727,-0.016860,-0.018777,25.859406,0.037201,0.001815,0.027904,1.568997,-0.062255,0.002106,0.001309,-0.000320,-0.008283,0.000035,0.003389,0.006059,0.131413,-0.060958,0.201972,0.201961,0.167851,0.465620,0.000000,0.000000,0.000000,0.000000,0.000000,0.000000,0.000000,0.000000,0.000000,0.000000,0.000000,0.000000,0.127119,3,0
1180000,-0.005841,30.386940,-0.015615,-0.018525,25.862591,0.038803,0.001846,0.027920,1.568978,-0.062173,0.002145,0.001049,-0.000330,-0.008263,0.000035,0.000187,0.006045,-0.012375,0.031055,0.202155,0.202144,0.167532,0.461344,0.000000,0.000000,0.000000,0.000000,0.000000,0.000000,0.000000,0.000000,0.000000,0.000000,0.000000,0.000000,0.013306,3,0
1190000,-0.005825,30.645868,-0.016848,-0.018298,25.867031,0.036960,0.001883,0.028023,1.568974,-0.062225,0.002186,0.001542,-0.000339,-0.008277,0.000035,0.000565,0.006027,0.007683,-0.058244,0.202336,0.202324,0.167209,0.457165,0.000000,0.000000,0.000000,0.000000,0.000000,0.000000,0.000000,0.000000,0.000000,0.000000,0.000000,0.000000,0.009433,3,0
1200000,-0.005808,30.908848,-0.017520,-0.018110,25.878473,0.036025,0.001917,0.028605,1.568964,-0.063060,0.002225,0.001851,-0.000348,-0.008478,0.000036,0.002804,0.006010,0.126411,-0.037232,0.202513,0.202501,0.166880,0.453081,0.000000,0.000000,0.000000,0.000000,0.000000,0.000000,0.000000,0.000000,0.000000,0.000000,0.000000,0.000000,0.122279,3,0
1210000,-0.005790,31.169106,-0.018744,-0.017969,25.884979,0.034437,0.001942,0.028852,1.568946,-0.063339,0.002265,0.002338,-0.000357,-0.008547,0.000036,0.000822,0.005991,0.042225,-0.057140,0.202688,0.202675,0.166548,0.449093,0.000000,0.000000,0.000000,0.000000,0.000000,0.000000,0.000000,0.000000,0.000000,0.000000,0.000000,0.000000,0.041201,3,0
1220000,-0.005771,31.432722,-0.019140,-0.017861,25.897305,0.033753,0.001981,0.029501,1.568931,-0.064259,0.002304,0.002556,-0.000367,-0.008775,0.000037,0.003262,0.005972,0.139725,-0.026377,0.202860,0.202847,0.166212,0.445198,0.000000,0.000000,0.000000,0.000000,0.000000,0.000000,0.000000,0.000000,0.000000,0.000000,0.000000,0.000000,0.135122,3,0
1230000,-0.005749,31.694935,-0.018224,-0.017701,25.906950,0.034907,0.002009,0.029968,1.568915,-0.064881,0.002342,0.002366,-0.000377,-0.008930,0.000038,0.001520,0.005951,0.094654,0.021080,0.203031,0.203016,0.165872,0.441395,0.000000,0.000000,0.000000,0.000000,0.000000,0.000000,0.000000,0.000000,0.000000,0.000000,0.000000,0.000000,0.091634,3,0
1240000,-0.005727,31.954428,-0.017925,-0.017514,25.911791,0.035075,0.002048,0.030096,1.568909,-0.064955,0.002381,0.002382,-0.000386,-0.008949,0.000038,0.000027,0.005928,0.011251,-0.001868,0.203200,0.203185,0.165529,0.437684,0.000000,0.000000,0.000000,0.000000,0.000000,0.000000,0.000000,0.000000,0.000000,0.000000,0.000000,0.000000,0.012287,3,0
1250000,-0.005705,32.214607,-0.017617,-0.017423,25.917751,0.035390,0.002084,0.030297,1.568885,-0.065152,0.002420,0.002394,-0.000396,-0.008999,0.000038,0.000151,0.005905,0.030014,-0.001595,0.203367,0.203351,0.165183,0.434063,0.000000,0.000000,0.000000,0.000000,0.000000,0.000000,0.000000,0.000000,0.000000,0.000000,0.000000,0.000000,0.029551,3,0
1260000,-0.005682,32.472763,-0.018033,-0.017217,25.920053,0.034740,0.002113,0.030235,1.568880,-0.064947,0.002459,0.002646,-0.000406,-0.008947,0.000038,0.000294,0.005881,-0.031437,-0.028245,0.203534,0.203517,0.164835,0.430530,0.000000,0.000000,0.000000,0.000000,0.000000,0.000000,0.000000,0.000000,0.000000,0.000000,0.000000,0.000000,0.030899,3,0
1270000,-0.005657,32.735676,-0.018765,-0.017019,25.930746,0.033560,0.002153,0.030793,1.568857,-0.065653,0.002497,0.002984,-0.000416,-0.009135,0.000039,0.002130,0.005855,0.107964,-0.039070,0.203700,0.203682,0.164484,0.427083,0.000000,0.000000,0.000000,0.000000,0.000000,0.000000,0.000000,0.000000,0.000000,0.000000,0.000000,0.000000,0.104447,3,0
1280000,-0.005631,32.997192,-0.019641,-0.016741,25.938709,0.032218,0.002181,0.031149,1.568847,-0.066068,0.002535,0.003373,-0.000426,-0.009248,0.000039,0.000972,0.005828,0.063610,-0.044087,0.203865,0.203847,0.164131,0.423721,0.000000,0.000000,0.000000,0.000000,0.000000,0.000000,0.000000,0.000000,0.000000,0.000000,0.000000,0.000000,0.061701,3,0
1290000,-0.005603,33.256653,-0.020495,-0.016486,25.943096,0.030970,0.002220,0.031235,1.568840,-0.066075,0.002573,0.003762,-0.000436,-0.009251,0.000039,0.000308,0.005800,0.000805,-0.043203,0.204030,0.204011,0.163777,0.420445,0.000000,0.000000,0.000000,0.000000,0.000000,0.000000,0.000000,0.000000,0.000000,0.000000,0.000000,0.000000,0.005657,3,0
1300000,-0.005573,33.517464,-0.019084,-0.016327,25.949717,0.032820,0.002263,0.031493,1.568820,-0.066330,0.002610,0.003393,-0.000447,-0.009321,0.000040,0.000521,0.005770,0.039486,0.040427,0.204195,0.204175,0.163421,0.417251,0.000000,0.000000,0.000000,0.000000,0.000000,0.000000,0.000000,0.000000,0.000000,0.000000,0.000000,0.000000,0.038552,3,0
1310000,-0.005543,33.778267,-0.019341,-0.016203,25.956331,0.032296,0.002303,0.031742,1.568804,-0.066570,0.002647,0.003584,-0.000457,-0.009389,0.000040,0.000301,0.005738,0.037033,-0.021441,0.204360,0.204339,0.163065,0.414139,0.000000,0.000000,0.000000,0.000000,0.000000,0.000000,0.000000,0.000000,0.000000,0.000000,0.000000,0.000000,0.036197,3,0
1320000,-0.005511,34.039722,-0.018066,-0.015980,25.963882,0.033917,0.002329,0.032068,1.568783,-0.066920,0.002683,0.003257,-0.000467,-0.009487,0.000041,0.000684,0.005707,0.054466,0.035187,0.204526,0.204504,0.162707,0.411105,0.000000,0.000000,0.000000,0.000000,0.000000,0.000000,0.000000,0.000000,0.000000,0.000000,0.000000,0.000000,0.052904,3,0
1330000,-0.005478,34.303192,-0.017679,-0.015713,25.974888,0.034102,0.002360,0.032663,1.568770,-0.067633,0.002718,0.003225,-0.000478,-0.009694,0.000041,0.001989,0.005672,0.111000,0.002225,0.204692,0.204669,0.162349,0.408150,0.000000,0.000000,0.000000,0.000000,0.000000,0.000000,0.000000,0.000000,0.000000,0.000000,0.000000,0.000000,0.107352,3,0
1340000,-0.005445,34.563889,-0.018487,-0.015517,25.980846,0.033023,0.002401,0.032884,1.568766,-0.067802,0.002755,0.003616,-0.000488,-0.009745,0.000042,0.000411,0.005637,0.026329,-0.042581,0.204859,0.204835,0.161991,0.405272,0.000000,0.000000,0.000000,0.000000,0.000000,0.000000,0.000000,0.000000,0.000000,0.000000,0.000000,0.000000,0.026002,3,0
1350000,-0.005410,34.825916,-0.017634,-0.015299,25.989191,0.034021,0.002433,0.033274,1.568761,-0.068209,0.002790,0.003427,-0.000499,-0.009865,0.000042,0.000722,0.005602,0.063755,0.019600,0.205027,0.205002,0.161632,0.402470,0.000000,0.000000,0.000000,0.000000,0.000000,0.000000,0.000000,0.000000,0.000000,0.000000,0.000000,0.000000,0.061818,3,0
1360000,-0.005375,35.089272,-0.018368,-0.015067,25.999702,0.032977,0.002465,0.033845,1.568736,-0.068844,0.002825,0.003787,-0.000509,-0.010059,0.000043,0.001863,0.005564,0.099827,-0.039604,0.205196,0.205171,0.161274,0.399742,0.000000,0.000000,0.000000,0.000000,0.000000,0.000000,0.000000,0.000000,0.000000,0.000000,0.000000,0.000000,0.096559,3,0
1370000,-0.005337,35.349155,-0.017450,-0.014899,26.003983,0.033865,0.002497,0.033901,1.568720,-0.068814,0.002860,0.003582,-0.000520,-0.010049,0.000043,0.000086,0.005527,-0.004604,0.021855,0.205367,0.205340,0.160916,0.397087,0.000000,0.000000,0.000000,0.000000,0.000000,0.000000,0.000000,0.000000,0.000000,0.000000,0.000000,0.000000,0.006945,3,0
1380000,-0.005301,35.609035,-0.017777,-0.014790,26.008099,0.033495,0.002526,0.033965,1.568715,-0.068777,0.002895,0.003819,-0.000531,-0.010038,0.000043,0.000113,0.005488,-0.006104,-0.025076,0.205539,0.205511,0.160559,0.394502,0.000000,0.000000,0.000000,0.000000,0.000000,0.000000,0.000000,0.000000,0.000000,0.000000,0.000000,0.000000,0.007930,3,0
1390000,-0.005264,35.867542,-0.017766,-0.014661,26.009779,0.033493,0.002570,0.033816,1.568695,-0.068480,0.002930,0.003944,-0.000541,-0.009945,0.000043,0.000391,0.005451,-0.047356,-0.012540,0.205712,0.205683,0.160203,0.391988,0.000000,0.000000,0.000000,0.000000,0.000000,0.000000,0.000000,0.000000,0.000000,0.000000,0.000000,0.000000,0.046036,3,0
1400000,-0.005227,36.126736,-0.016633,-0.014536,26.012638,0.034667,0.002611,0.033758,1.568673,-0.068307,0.002963,0.003664,-0.000553,-0.009888,0.000043,0.000270,0.005413,-0.027573,0.029720,0.205887,0.205857,0.159848,0.389541,0.000000,0.000000,0.000000,0.000000,0.000000,0.000000,0.000000,0.000000,0.000000,0.000000,0.000000,0.000000,0.027131,3,0
1410000,-0.005189,36.389351,-0.017568,-0.014277,26.021547,0.033182,0.002639,0.034203,1.568653,-0.068750,0.002997,0.004114,-0.000563,-0.010034,0.000044,0.001188,0.005373,0.071026,-0.047860,0.206064,0.206033,0.159494,0.387161,0.000000,0.000000,0.000000,0.000000,0.000000,0.000000,0.000000,0.000000,0.000000,0.000000,0.000000,0.000000,0.068777,3,0
1420000,-0.005151,36.650539,-0.017431,-0.014143,26.027771,0.033162,0.002672,0.034432,1.568638,-0.068917,0.003030,0.004180,-0.000574,-0.010089,0.000044,0.000130,0.005334,0.026989,-0.007252,0.206242,0.206210,0.159141,0.384846,0.000000,0.000000,0.000000,0.000000,0.000000,0.000000,0.000000,0.000000,0.000000,0.000000,0.000000,0.000000,0.026566,3,0
1430000,-0.005110,36.908272,-0.016447,-0.013869,26.027596,0.034152,0.002715,0.034139,1.568624,-0.068453,0.003063,0.003957,-0.000585,-0.009933,0.000043,0.001009,0.005293,-0.075230,0.024087,0.206422,0.206389,0.158790,0.382595,0.000000,0.000000,0.000000,0.000000,0.000000,0.000000,0.000000,0.000000,0.000000,0.000000,0.000000,0.000000,0.072819,3,0
1440000,-0.005071,37.166718,-0.016915,-0.013734,26.028713,0.033675,0.002759,0.033950,1.568622,-0.068120,0.003096,0.004268,-0.000596,-0.009822,0.000043,0.000643,0.005251,-0.054661,-0.031184,0.206604,0.206569,0.158441,0.380406,0.000000,0.000000,0.000000,0.000000,0.000000,0.000000,0.000000,0.000000,0.000000,0.000000,0.000000,0.000000,0.053027,3,0
1450000,-0.005030,37.429970,-0.018028,-0.013474,26.038481,0.032061,0.002799,0.034471,1.568612,-0.068636,0.003128,0.004790,-0.000606,-0.010002,0.000044,0.001635,0.005209,0.084469,-0.054558,0.206787,0.206752,0.158094,0.378277,0.000000,0.000000,0.000000,0.000000,0.000000,0.000000,0.000000,0.000000,0.000000,0.000000,0.000000,0.000000,0.081702,3,0
1460000,-0.004988,37.691090,-0.018095,-0.013235,26.044373,0.032029,0.002836,0.034662,1.568606,-0.068757,0.003159,0.004932,-0.000617,-0.010045,0.000044,0.000104,0.005166,0.019905,-0.014787,0.206973,0.206936,0.157748,0.376209,0.000000,0.000000,0.000000,0.000000,0.000000,0.000000,0.000000,0.000000,0.000000,0.000000,0.000000,0.000000,0.019852,3,0
1470000,-0.004945,37.952179,-0.018764,-0.012994,26.050089,0.031067,0.002878,0.034836,1.568596,-0.068861,0.003191,0.005301,-0.000628,-0.010083,0.000044,0.000282,0.005121,0.017151,-0.037663,0.207160,0.207122,0.157405,0.374199,0.000000,0.000000,0.000000,0.000000,0.000000,0.000000,0.000000,0.000000,0.000000,0.000000,0.000000,0.000000,0.017275,3,0
1480000,-0.004900,38.213905,-0.017517,-0.012781,26.056866,0.032477,0.002907,0.035093,1.568572,-0.069065,0.003220,0.004940,-0.000639,-0.010155,0.000045,0.000403,0.005076,0.034309,0.035883,0.207349,0.207310,0.157065,0.372246,0.000000,0.000000,0.000000,0.000000,0.000000,0.000000,0.000000,0.000000,0.000000,0.000000,0.000000,0.000000,0.033491,3,0
1490000,-0.004855,38.476284,-0.017708,-0.012527,26.064764,0.032066,0.002939,0.035453,1.568558,-0.069368,0.003250,0.005126,-0.000650,-0.010267,0.000045,0.000481,0.005028,0.050819,-0.019440,0.207540,0.207500,0.156727,0.370349,0.000000,0.000000,0.000000,0.000000,0.000000,0.000000,0.000000,0.000000,0.000000,0.000000,0.000000,0.000000,0.049297,3,0
1500000,-0.004809,38.736534,-0.017520,-0.012313,26.068567,0.032376,0.002983,0.035483,1.568543,-0.069292,0.003280,0.005182,-0.000660,-0.010239,0.000045,0.000035,0.004981,-0.012848,-0.005363,0.207733,0.207691,0.156391,0.368505,0.000000,0.000000,0.000000,0.000000,0.000000,0.000000,0.000000,0.000000,0.000000,0.000000,0.000000,0.000000,0.013305,3,0
1510000,-0.004763,38.999512,-0.017335,-0.012154,26.077303,0.032289,0.003018,0.035927,1.568530,-0.069672,0.003308,0.005220,-0.000671,-0.010382,0.000046,0.000683,0.004934,0.064808,-0.004869,0.207928,0.207885,0.156059,0.366714,0.000000,0.000000,0.000000,0.000000,0.000000,0.000000,0.000000,0.000000,0.000000,0.000000,0.000000,0.000000,0.062742,3,0
1520000,-0.004716,39.261044,-0.017910,-0.011923,26.083326,0.031356,0.003061,0.036130,1.568519,-0.069792,0.003337,0.005565,-0.000682,-0.010430,0.000046,0.000264,0.004885,0.020409,-0.034508,0.208124,0.208080,0.155729,0.364975,0.000000,0.000000,0.000000,0.000000,0.000000,0.000000,0.000000,0.000000,0.000000,0.000000,0.000000,0.000000,0.020252,3,0
1530000,-0.004669,39.518391,-0.018761,-0.011678,26.081697,0.030177,0.003100,0.035679,1.568509,-0.069204,0.003367,0.006048,-0.000693,-0.010204,0.000046,0.002021,0.004836,-0.102032,-0.045887,0.208322,0.208276,0.155402,0.363287,0.000000,0.000000,0.000000,0.000000,0.000000,0.000000,0.000000,0.000000,0.000000,0.000000,0.000000,0.000000,0.098610,3,0
1540000,-0.004622,39.777138,-0.019350,-0.011500,26.082474,0.029384,0.003138,0.035435,1.568501,-0.068854,0.003396,0.006416,-0.000703,-0.010069,0.000045,0.000806,0.004787,-0.061180,-0.035081,0.208521,0.208474,0.155078,0.361646,0.000000,0.000000,0.000000,0.000000,0.000000,0.000000,0.000000,0.000000,0.000000,0.000000,0.000000,0.000000,0.059244,3,0
1550000,-0.004573,40.039333,-0.019583,-0.011244,26.089497,0.029046,0.003187,0.035737,1.568492,-0.069070,0.003423,0.006617,-0.000714,-0.010156,0.000046,0.000301,0.004737,0.037884,-0.020257,0.208722,0.208673,0.154757,0.360052,0.000000,0.000000,0.000000,0.000000,0.000000,0.000000,0.000000,0.000000,0.000000,0.000000,0.000000,0.000000,0.036845,3,0
1560000,-0.004524,40.296623,-0.019816,-0.011001,26.087608,0.028822,0.003230,0.035251,1.568487,-0.068477,0.003451,0.006856,-0.000725,-0.009917,0.000045,0.001855,0.004686,-0.105110,-0.021422,0.208924,0.208874,0.154440,0.358506,0.000000,0.000000,0.000000,0.000000,0.000000,0.000000,0.000000,0.000000,0.000000,0.000000,0.000000,0.000000,0.101556,3,0
1570000,-0.004474,40.557400,-0.021046,-0.010797,26.092054,0.027308,0.003263,0.035314,1.568476,-0.068453,0.003478,0.007468,-0.000735,-0.009911,0.000045,0.000577,0.004634,-0.004555,-0.059251,0.209128,0.209076,0.154126,0.357005,0.000000,0.000000,0.000000,0.000000,0.000000,0.000000,0.000000,0.000000,0.000000,0.000000,0.000000,0.000000,0.006282,3,0
1580000,-0.004422,40.818810,-0.020047,-0.010479,26.097462,0.028399,0.003297,0.035462,1.568454,-0.068524,0.003503,0.007172,-0.000746,-0.009939,0.000045,0.000161,0.004582,0.012928,0.028345,0.209333,0.209280,0.153816,0.355546,0.000000,0.000000,0.000000,0.000000,0.000000,0.000000,0.000000,0.000000,0.000000,0.000000,0.000000,0.000000,0.013245,3,0
1590000,-0.004369,41.081570,-0.020464,-0.010236,26.105349,0.027755,0.003344,0.035830,1.568446,-0.068798,0.003528,0.007443,-0.000756,-0.010057,0.000046,0.000518,0.004527,0.049648,-0.027015,0.209539,0.209484,0.153508,0.354131,0.000000,0.000000,0.000000,0.000000,0.000000,0.000000,0.000000,0.000000,0.000000,0.000000,0.000000,0.000000,0.048108,3,0
1600000,-0.004316,41.340088,-0.020496,-0.009998,26.105383,0.027729,0.003387,0.035494,1.568427,-0.068394,0.003553,0.007594,-0.000767,-0.009884,0.000045,0.000912,0.004472,-0.074039,-0.012970,0.209745,0.209689,0.153205,0.352757,0.000000,0.000000,0.000000,0.000000,0.000000,0.000000,0.000000,0.000000,0.000000,0.000000,0.000000,0.000000,0.071587,3,0
1610000,-0.004262,41.598598,-0.020670,-0.009702,26.105259,0.027422,0.003434,0.035171,1.568407,-0.067994,0.003578,0.007803,-0.000777,-0.009710,0.000045,0.000943,0.004416,-0.074135,-0.018553,0.209953,0.209896,0.152905,0.351423,0.000000,0.000000,0.000000,0.000000,0.000000,0.000000,0.000000,0.000000,0.000000,0.000000,0.000000,0.000000,0.071671,3,0
1620000,-0.004206,41.859890,-0.020899,-0.009364,26.110260,0.027172,0.003481,0.035281,1.568399,-0.068023,0.003602,0.008012,-0.000787,-0.009724,0.000045,0.000072,0.004358,0.005299,-0.019885,0.210161,0.210103,0.152609,0.350127,0.000000,0.000000,0.000000,0.000000,0.000000,0.000000,0.000000,0.000000,0.000000,0.000000,0.000000,0.000000,0.006617,3,0
1630000,-0.004149,42.122520,-0.020831,-0.009015,26.117653,0.027048,0.003525,0.035611,1.568377,-0.068246,0.003625,0.008084,-0.000798,-0.009826,0.000045,0.000298,0.004299,0.042141,-0.007636,0.210370,0.210310,0.152316,0.348870,0.000000,0.000000,0.000000,0.000000,0.000000,0.000000,0.000000,0.000000,0.000000,0.000000,0.000000,0.000000,0.040872,3,0
1640000,-0.004089,42.380882,-0.020173,-0.008698,26.117098,0.027679,0.003564,0.035219,1.568370,-0.067819,0.003647,0.007949,-0.000808,-0.009628,0.000045,0.001102,0.004238,-0.081409,0.014379,0.210580,0.210518,0.152027,0.347650,0.000000,0.000000,0.000000,0.000000,0.000000,0.000000,0.000000,0.000000,0.000000,0.000000,0.000000,0.000000,0.078655,3,0
1650000,-0.004031,42.642033,-0.019974,-0.008536,26.121569,0.027956,0.003611,0.035290,1.568359,-0.067809,0.003669,0.007984,-0.000818,-0.009624,0.000045,0.000005,0.004177,-0.001820,-0.003237,0.210789,0.210726,0.151742,0.346465,0.000000,0.000000,0.000000,0.000000,0.000000,0.000000,0.000000,0.000000,0.000000,0.000000,0.000000,0.000000,0.004396,3,0
1660000,-0.003971,42.901043,-0.020406,-0.008186,26.122046,0.027553,0.003653,0.035008,1.568340,-0.067479,0.003692,0.008309,-0.000828,-0.009470,0.000045,0.000804,0.004115,-0.064228,-0.029106,0.210999,0.210934,0.151461,0.345314,0.000000,0.000000,0.000000,0.000000,0.000000,0.000000,0.000000,0.000000,0.000000,0.000000,0.000000,0.000000,0.062104,3,0
1670000,-0.003910,43.161434,-0.020831,-0.007850,26.125017,0.026996,0.003696,0.034942,1.568331,-0.067352,0.003713,0.008618,-0.000838,-0.009411,0.000045,0.000233,0.004052,-0.025059,-0.028177,0.211209,0.211143,0.151184,0.344196,0.000000,0.000000,0.000000,0.000000,0.000000,0.000000,0.000000,0.000000,0.000000,0.000000,0.000000,0.000000,0.024499,3,0
1680000,-0.003848,43.421066,-0.019806,-0.007567,26.126564,0.028078,0.003745,0.034749,1.568324,-0.067116,0.003733,0.008312,-0.000848,-0.009293,0.000044,0.000497,0.003989,-0.046936,0.029410,0.211419,0.211351,0.150911,0.343111,0.000000,0.000000,0.000000,0.000000,0.000000,0.000000,0.000000,0.000000,0.000000,0.000000,0.000000,0.000000,0.045436,3,0
1690000,-0.003785,43.683487,-0.019951,-0.007338,26.133289,0.028004,0.003791,0.035012,1.568311,-0.067272,0.003753,0.008486,-0.000858,-0.009372,0.000045,0.000206,0.003923,0.031361,-0.016771,0.211629,0.211559,0.150641,0.342058,0.000000,0.000000,0.000000,0.000000,0.000000,0.000000,0.000000,0.000000,0.000000,0.000000,0.000000,0.000000,0.030486,3,0
1700000,-0.003721,43.943718,-0.019064,-0.006993,26.135830,0.029130,0.003825,0.034896,1.568306,-0.067113,0.003771,0.008237,-0.000867,-0.009290,0.000045,0.000261,0.003858,-0.032341,0.023660,0.211838,0.211767,0.150376,0.341036,0.000000,0.000000,0.000000,0.000000,0.000000,0.000000,0.000000,0.000000,0.000000,0.000000,0.000000,0.000000,0.031414,3,0
1710000,-0.003657,44.202515,-0.019353,-0.006684,26.135563,0.028990,0.003857,0.034544,1.568291,-0.066754,0.003791,0.008519,-0.000877,-0.009108,0.000044,0.000977,0.003790,-0.073925,-0.024296,0.212047,0.211974,0.150115,0.340041,0.000000,0.000000,0.000000,0.000000,0.000000,0.000000,0.000000,0.000000,0.000000,0.000000,0.000000,0.000000,0.071413,3,0
1720000,-0.003592,44.462700,-0.019365,-0.006340,26.137800,0.028829,0.003897,0.034415,1.568288,-0.066588,0.003809,0.008666,-0.000886,-0.009022,0.000044,0.000220,0.003723,-0.034538,-0.012632,0.212255,0.212181,0.149857,0.339074,0.000000,0.000000,0.000000,0.000000,0.000000,0.000000,0.000000,0.000000,0.000000,0.000000,0.000000,0.000000,0.033514,3,0
