time_us,pos_x,pos_y,pos_z,vel_x,vel_y,vel_z,roll,pitch,yaw,bias_ax,bias_ay,bias_az,bias_gx,bias_gy,bias_gz,nis,innov_x,innov_y,innov_z,cov_pos_x,cov_pos_y,cov_pos_z,cov_yaw,des_speed,des_heading,des_climb,pid_speed,pid_yaw,pid_alt,speed_meas,yaw_meas,climb_meas,fwd_accel,yaw_rate,vert_accel,drift_m,nav_mode,mission_state
0,-0.000003,0.150000,-0.000001,-0.000550,24.999960,-0.000286,0.000005,-0.000002,1.570785,0.000000,0.000000,0.000000,0.000000,0.000000,0.000000,0.006250,0.000006,-0.250002,0.000003,2.400038,2.400038,3.600017,1.000518,0.000000,0.000000,0.000000,0.000000,0.000000,0.000000,0.000000,0.000000,0.000000,0.000000,0.000000,0.000000,0.150000,1,0
10000,-0.000011,0.353868,0.000012,-0.001163,24.999863,-0.000355,0.000004,-0.000001,1.570764,0.000000,0.000000,-0.000000,0.000000,0.000000,0.000000,0.003103,0.000015,-0.161454,0.000044,1.714420,1.714420,2.250079,1.001073,0.000000,0.000000,0.000000,0.000000,0.000000,0.000000,0.000000,0.000000,0.000000,0.000000,0.000000,0.000000,0.115321,3,0
20000,-0.000022,0.588946,0.013492,-0.001777,24.999908,-0.000507,-0.000008,0.000006,1.570749,0.000001,0.000000,-0.000000,-0.000000,0.000000,-0.000000,0.000881,0.000028,-0.067138,0.049443,1.333616,1.333616,1.636554,1.001655,0.000000,0.000000,0.000000,0.000000,0.000000,0.000000,0.000000,0.000000,0.000000,0.000000,0.000000,0.000000,0.052215,3,0
30000,-0.000037,0.823750,0.013219,-0.002342,24.999805,-0.000688,-0.000005,0.000012,1.570730,0.000003,0.000000,-0.000000,-0.000000,0.000000,-0.000000,0.000952,0.000046,-0.083549,-0.001243,1.091392,1.091392,1.286065,1.002257,0.000000,0.000000,0.000000,0.000000,0.000000,0.000000,0.000000,0.000000,0.000000,0.000000,0.000000,0.000000,0.068351,3,0
40000,-0.000056,1.064524,0.011215,-0.002915,24.999792,-0.001062,-0.000009,0.000005,1.570723,0.000004,0.000000,-0.000000,-0.000000,0.000000,-0.000000,0.000524,0.000066,-0.059926,-0.011288,0.923811,0.923811,1.059385,1.002869,0.000000,0.000000,0.000000,0.000000,0.000000,0.000000,0.000000,0.000000,0.000000,0.000000,0.000000,0.000000,0.050699,3,0
50000,-0.000079,1.308881,0.009132,-0.003471,24.999849,-0.001233,-0.000005,-0.000003,1.570713,0.000006,0.000000,0.000000,-0.000000,0.000000,-0.000000,0.000285,0.000091,-0.042274,-0.013798,0.801036,0.801036,0.900822,1.003484,0.000000,0.000000,0.000000,0.000000,0.000000,0.000000,0.000000,0.000000,0.000000,0.000000,0.000000,0.000000,0.036630,3,0
60000,-0.000105,1.557900,0.014443,-0.004080,25.000050,-0.001252,-0.000003,-0.000003,1.570694,0.000007,0.000000,-0.000002,-0.000000,0.000000,-0.000000,0.000251,0.000120,-0.008326,0.040770,0.707270,0.707270,0.783741,1.004094,0.000000,0.000000,0.000000,0.000000,0.000000,0.000000,0.000000,0.000000,0.000000,0.000000,0.000000,0.000000,0.007346,3,0
70000,-0.000136,1.801722,0.012311,-0.004601,24.999916,-0.001521,-0.000008,0.000004,1.570678,0.000011,0.000000,-0.000000,-0.000000,0.000000,-0.000000,0.000561,0.000151,-0.058559,-0.018319,0.633370,0.633370,0.693801,1.004688,0.000000,0.000000,0.000000,0.000000,0.000000,0.000000,0.000000,0.000000,0.000000,0.000000,0.000000,0.000000,0.052378,3,0
80000,-0.000169,2.043719,0.019308,-0.005095,24.999372,-0.001378,-0.000015,0.000004,1.570667,0.000020,0.000000,-0.000007,-0.000000,0.000000,-0.000000,0.001739,0.000186,-0.083710,0.067611,0.573673,0.573673,0.622594,1.005260,0.000000,0.000000,0.000000,0.000000,0.000000,0.000000,0.000000,0.000000,0.000000,0.000000,0.000000,0.000000,0.075706,3,0
90000,-0.000206,2.293047,0.020491,-0.005663,24.999498,-0.001455,-0.000028,0.000006,1.570661,0.000021,0.000000,-0.000009,-0.000000,0.000000,-0.000000,0.000033,0.000225,-0.007639,0.012739,0.524488,0.524488,0.564865,1.005801,0.000000,0.000000,0.000000,0.000000,0.000000,0.000000,0.000000,0.000000,0.000000,0.000000,0.000000,0.000000,0.006974,3,0
100000,-0.000246,2.538357,0.021208,-0.006163,24.999067,-0.001684,-0.000038,0.000002,1.570641,0.000030,0.000000,-0.000010,-0.000000,0.000000,-0.000000,0.000530,0.000267,-0.058178,0.008519,0.483303,0.483303,0.517162,1.006301,0.000000,0.000000,0.000000,0.000000,0.000000,0.000000,0.000000,0.000000,0.000000,0.000000,0.000000,0.000000,0.053493,3,0
110000,-0.000290,2.786467,0.018445,-0.006729,24.998928,-0.002410,-0.000039,0.000002,1.570628,0.000035,0.000000,-0.000004,-0.000000,0.000000,-0.000000,0.000280,0.000313,-0.025179,-0.034481,0.448353,0.448353,0.477121,1.006754,0.000000,0.000000,0.000000,0.000000,0.000000,0.000000,0.000000,0.000000,0.000000,0.000000,0.000000,0.000000,0.023299,3,0
120000,-0.000338,3.039580,0.020304,-0.007310,24.999594,-0.002328,-0.000047,0.000004,1.570608,0.000025,0.000000,-0.000009,-0.000000,0.000000,-0.000000,0.000411,0.000363,0.044774,0.025526,0.418358,0.418358,0.443071,1.007150,0.000000,0.000000,0.000000,0.000000,0.000000,0.000000,0.000000,0.000000,0.000000,0.000000,0.000000,0.000000,0.041654,3,0
130000,-0.000388,3.294152,0.017932,-0.007782,25.000593,-0.002988,-0.000052,0.000010,1.570599,0.000007,0.000000,-0.000001,-0.000000,-0.000000,0.000000,0.000942,0.000415,0.069960,-0.034022,0.392369,0.392369,0.413797,1.007481,0.000000,0.000000,0.000000,0.000000,0.000000,0.000000,0.000000,0.000000,0.000000,0.000000,0.000000,0.000000,0.065386,3,0
140000,-0.000444,3.549933,0.018553,-0.008437,25.002119,-0.003220,-0.000052,0.000029,1.570582,-0.000021,0.000000,-0.000004,-0.000000,-0.000001,0.000000,0.001389,0.000473,0.093681,0.010116,0.369666,0.369666,0.388393,1.007739,0.000000,0.000000,0.000000,0.000000,0.000000,0.000000,0.000000,0.000000,0.000000,0.000000,0.000000,0.000000,0.087910,3,0
150000,-0.000503,3.804411,0.021737,-0.009051,25.003391,-0.002718,-0.000064,0.000035,1.570573,-0.000047,0.000001,-0.000021,-0.000000,-0.000001,0.000000,0.001352,0.000534,0.076432,0.052732,0.349695,0.349695,0.366172,1.007915,0.000000,0.000000,0.000000,0.000000,0.000000,0.000000,0.000000,0.000000,0.000000,0.000000,0.000000,0.000000,0.071980,3,0
160000,-0.000566,4.062195,0.024604,-0.009558,25.005733,-0.002247,-0.000076,0.000048,1.570556,-0.000100,0.000001,-0.000040,-0.000000,-0.000002,0.000000,0.003481,0.000599,0.140004,0.050135,0.332020,0.332020,0.346600,1.008002,0.000000,0.000000,0.000000,0.000000,0.000000,0.000000,0.000000,0.000000,0.000000,0.000000,0.000000,0.000000,0.132258,3,0
170000,-0.000631,4.315476,0.023876,-0.010101,25.006908,-0.002707,-0.000082,0.000068,1.570549,-0.000126,0.000001,-0.000034,-0.000000,-0.000003,0.000000,0.000615,0.000667,0.061107,-0.012799,0.316297,0.316297,0.329260,1.007991,0.000000,0.000000,0.000000,0.000000,0.000000,0.000000,0.000000,0.000000,0.000000,0.000000,0.000000,0.000000,0.057889,3,0
180000,-0.000702,4.569886,0.022520,-0.010729,25.008585,-0.003233,-0.000088,0.000088,1.570533,-0.000167,0.000002,-0.000022,-0.000000,-0.000004,0.000000,0.001276,0.000739,0.086119,-0.025385,0.302246,0.302246,0.313817,1.007875,0.000000,0.000000,0.000000,0.000000,0.000000,0.000000,0.000000,0.000000,0.000000,0.000000,0.000000,0.000000,0.081784,3,0
190000,-0.000775,4.821445,0.021317,-0.011280,25.009312,-0.003805,-0.000091,0.000087,1.570510,-0.000183,0.000002,-0.000010,-0.000000,-0.000004,0.000000,0.000234,0.000815,0.030482,-0.023383,0.289641,0.289641,0.300003,1.007645,0.000000,0.000000,0.000000,0.000000,0.000000,0.000000,0.000000,0.000000,0.000000,0.000000,0.000000,0.000000,0.029021,3,0
200000,-0.000851,5.072351,0.022079,-0.011745,25.009939,-0.003909,-0.000094,0.000097,1.570485,-0.000193,0.000002,-0.000020,-0.000000,-0.000005,0.000000,0.000093,0.000893,0.017461,0.016763,0.278295,0.278295,0.287598,1.007295,0.000000,0.000000,0.000000,0.000000,0.000000,0.000000,0.000000,0.000000,0.000000,0.000000,0.000000,0.000000,0.016673,3,0
210000,-0.000931,5.325345,0.021261,-0.012309,25.011423,-0.004383,-0.000093,0.000103,1.570462,-0.000235,0.000003,-0.000009,-0.000000,-0.000006,0.000000,0.000713,0.000975,0.064733,-0.016856,0.268053,0.268053,0.276421,1.006816,0.000000,0.000000,0.000000,0.000000,0.000000,0.000000,0.000000,0.000000,0.000000,0.000000,0.000000,0.000000,0.061848,3,0
220000,-0.001014,5.577631,0.019726,-0.012875,25.012749,-0.005286,-0.000095,0.000116,1.570438,-0.000270,0.000004,0.000014,-0.000000,-0.000007,0.000000,0.000582,0.001060,0.050271,-0.033549,0.258786,0.258787,0.266321,1.006203,0.000000,0.000000,0.000000,0.000000,0.000000,0.000000,0.000000,0.000000,0.000000,0.000000,0.000000,0.000000,0.048114,3,0
230000,-0.001102,5.833431,0.021845,-0.013512,25.015705,-0.004380,-0.000092,0.000156,1.570428,-0.000373,0.000005,-0.000024,-0.000000,-0.000010,0.000000,0.003361,0.001150,0.135916,0.050709,0.250385,0.250385,0.257172,1.005447,0.000000,0.000000,0.000000,0.000000,0.000000,0.000000,0.000000,0.000000,0.000000,0.000000,0.000000,0.000000,0.130248,3,0
240000,-0.001192,6.087586,0.023145,-0.014049,25.018091,-0.003857,-0.000088,0.000181,1.570409,-0.000455,0.000006,-0.000051,-0.000000,-0.000013,0.000000,0.001728,0.001243,0.098752,0.032438,0.242755,0.242755,0.248866,1.004542,0.000000,0.000000,0.000000,0.000000,0.000000,0.000000,0.000000,0.000000,0.000000,0.000000,0.000000,0.000000,0.094764,3,0
250000,-0.001285,6.344944,0.024349,-0.014528,25.022480,-0.003642,-0.000083,0.000225,1.570386,-0.000617,0.000007,-0.000078,-0.000000,-0.000019,0.000000,0.005488,0.001338,0.182515,0.030993,0.235818,0.235818,0.241314,1.003481,0.000000,0.000000,0.000000,0.000000,0.000000,0.000000,0.000000,0.000000,0.000000,0.000000,0.000000,0.000000,0.175346,3,0
260000,-0.001382,6.601431,0.023633,-0.015138,25.026588,-0.004184,-0.000082,0.000275,1.570374,-0.000775,0.000008,-0.000061,-0.000000,-0.000025,0.000000,0.004342,0.001437,0.163661,-0.017362,0.229504,0.229504,0.234436,1.002259,0.000000,0.000000,0.000000,0.000000,0.000000,0.000000,0.000000,0.000000,0.000000,0.000000,0.000000,0.000000,0.157407,3,0
270000,-0.001482,6.857132,0.024623,-0.015748,25.030445,-0.003718,-0.000083,0.000333,1.570351,-0.000925,0.000010,-0.000089,-0.000000,-0.000030,0.000000,0.003524,0.001540,0.145679,0.027179,0.223753,0.223753,0.228165,1.000870,0.000000,0.000000,0.000000,0.000000,0.000000,0.000000,0.000000,0.000000,0.000000,0.000000,0.000000,0.000000,0.140254,3,0
280000,-0.001585,7.112843,0.025819,-0.016196,25.034397,-0.003043,-0.000092,0.000379,1.570334,-0.001089,0.000012,-0.000125,-0.000000,-0.000037,0.000000,0.003714,0.001645,0.148365,0.033313,0.218515,0.218515,0.222443,0.999308,0.000000,0.000000,0.000000,0.000000,0.000000,0.000000,0.000000,0.000000,0.000000,0.000000,0.000000,0.000000,0.142971,3,0
290000,-0.001690,7.365736,0.025844,-0.016666,25.036419,-0.003206,-0.000090,0.000399,1.570314,-0.001173,0.000014,-0.000127,-0.000000,-0.000040,0.000000,0.000823,0.001752,0.071527,0.001583,0.213743,0.213743,0.217219,0.997569,0.000000,0.000000,0.000000,0.000000,0.000000,0.000000,0.000000,0.000000,0.000000,0.000000,0.000000,0.000000,0.068999,3,0
300000,-0.001797,7.618099,0.027111,-0.017221,25.038313,-0.002552,-0.000090,0.000430,1.570301,-0.001245,0.000016,-0.000173,-0.000001,-0.000043,0.000000,0.000743,0.001862,0.057158,0.036772,0.209398,0.209398,0.212446,0.995647,0.000000,0.000000,0.000000,0.000000,0.000000,0.000000,0.000000,0.000000,0.000000,0.000000,0.000000,0.000000,0.055192,3,0
310000,-0.001907,7.872691,0.028013,-0.017667,25.041956,-0.002109,-0.000090,0.000487,1.570289,-0.001409,0.000019,-0.000208,-0.000001,-0.000051,0.000000,0.002545,0.001975,0.122840,0.026809,0.205442,0.205443,0.208087,0.993538,0.000000,0.000000,0.000000,0.000000,0.000000,0.000000,0.000000,0.000000,0.000000,0.000000,0.000000,0.000000,0.118649,3,0
320000,-0.002019,8.128711,0.027447,-0.018185,25.046963,-0.002973,-0.000098,0.000575,1.570276,-0.001644,0.000021,-0.000186,-0.000001,-0.000061,0.000000,0.004501,0.002089,0.166395,-0.015900,0.201846,0.201846,0.204105,0.991238,0.000000,0.000000,0.000000,0.000000,0.000000,0.000000,0.000000,0.000000,0.000000,0.000000,0.000000,0.000000,0.160810,3,0
330000,-0.002133,8.382136,0.026454,-0.018596,25.049835,-0.003912,-0.000104,0.000614,1.570266,-0.001778,0.000025,-0.000143,-0.000001,-0.000068,0.000000,0.001417,0.002206,0.089236,-0.028762,0.198581,0.198581,0.200469,0.988745,0.000000,0.000000,0.000000,0.000000,0.000000,0.000000,0.000000,0.000000,0.000000,0.000000,0.000000,0.000000,0.086309,3,0
340000,-0.002248,8.637653,0.025636,-0.019073,25.054831,-0.004780,-0.000104,0.000697,1.570258,-0.002021,0.000028,-0.000106,-0.000001,-0.000080,0.000000,0.003907,0.002324,0.153843,-0.023652,0.195620,0.195621,0.197151,0.986055,0.000000,0.000000,0.000000,0.000000,0.000000,0.000000,0.000000,0.000000,0.000000,0.000000,0.000000,0.000000,0.148845,3,0
350000,-0.002367,8.890047,0.024895,-0.019607,25.056875,-0.005777,-0.000115,0.000721,1.570249,-0.002117,0.000032,-0.000071,-0.000001,-0.000084,0.000000,0.000604,0.002445,0.057307,-0.021316,0.192942,0.192942,0.194125,0.983165,0.000000,0.000000,0.000000,0.000000,0.000000,0.000000,0.000000,0.000000,0.000000,0.000000,0.000000,0.000000,0.055515,3,0
360000,-0.002487,9.145785,0.024018,-0.020151,25.062338,-0.006916,-0.000126,0.000819,1.570225,-0.002402,0.000037,-0.000026,-0.000002,-0.000099,0.000001,0.004379,0.002569,0.162715,-0.025564,0.190525,0.190526,0.191370,0.980075,0.000000,0.000000,0.000000,0.000000,0.000000,0.000000,0.000000,0.000000,0.000000,0.000000,0.000000,0.000000,0.157568,3,0
370000,-0.002610,9.398481,0.025041,-0.020645,25.064709,-0.006075,-0.000137,0.000857,1.570207,-0.002524,0.000042,-0.000090,-0.000002,-0.000106,0.000001,0.000899,0.002695,0.065953,0.034769,0.188351,0.188351,0.188863,0.976781,0.000000,0.000000,0.000000,0.000000,0.000000,0.000000,0.000000,0.000000,0.000000,0.000000,0.000000,0.000000,0.063936,3,0
380000,-0.002736,9.655681,0.025608,-0.021226,25.072041,-0.005641,-0.000145,0.000985,1.570192,-0.002932,0.000047,-0.000129,-0.000002,-0.000128,0.000001,0.007244,0.002823,0.210811,0.020258,0.186402,0.186403,0.186586,0.973284,0.000000,0.000000,0.000000,0.000000,0.000000,0.000000,0.000000,0.000000,0.000000,0.000000,0.000000,0.000000,0.204280,3,0
390000,-0.002862,9.909256,0.025460,-0.021610,25.075455,-0.006162,-0.000147,0.001056,1.570177,-0.003119,0.000053,-0.000123,-0.000003,-0.000139,0.000001,0.001391,0.002953,0.092691,-0.002840,0.184663,0.184663,0.184522,0.969583,0.000000,0.000000,0.000000,0.000000,0.000000,0.000000,0.000000,0.000000,0.000000,0.000000,0.000000,0.000000,0.089885,3,0
400000,-0.002990,10.163597,0.024335,-0.022107,25.079891,-0.007505,-0.000152,0.001151,1.570170,-0.003368,0.000060,-0.000050,-0.000003,-0.000153,0.000001,0.002424,0.003084,0.117386,-0.034840,0.183118,0.183118,0.182656,0.965677,0.000000,0.000000,0.000000,0.000000,0.000000,0.000000,0.000000,0.000000,0.000000,0.000000,0.000000,0.000000,0.113842,3,0
410000,-0.003119,10.420487,0.025844,-0.022546,25.087475,-0.006062,-0.000150,0.001310,1.570144,-0.003812,0.000067,-0.000166,-0.000003,-0.000180,0.000001,0.006975,0.003216,0.200941,0.052609,0.181755,0.181755,0.180971,0.961569,0.000000,0.000000,0.000000,0.000000,0.000000,0.000000,0.000000,0.000000,0.000000,0.000000,0.000000,0.000000,0.194879,3,0
420000,-0.003248,10.678055,0.027156,-0.022902,25.095922,-0.004619,-0.000157,0.001485,1.570128,-0.004324,0.000074,-0.000272,-0.000004,-0.000211,0.000001,0.008330,0.003349,0.222281,0.045927,0.180560,0.180560,0.179456,0.957257,0.000000,0.000000,0.000000,0.000000,0.000000,0.000000,0.000000,0.000000,0.000000,0.000000,0.000000,0.000000,0.215616,3,0
430000,-0.003380,10.931528,0.026388,-0.023416,25.099421,-0.005631,-0.000149,0.001553,1.570106,-0.004525,0.000083,-0.000214,-0.000004,-0.000224,0.000001,0.001235,0.003484,0.083901,-0.024258,0.179523,0.179523,0.178097,0.952746,0.000000,0.000000,0.000000,0.000000,0.000000,0.000000,0.000000,0.000000,0.000000,0.000000,0.000000,0.000000,0.081461,3,0
440000,-0.003512,11.185172,0.026179,-0.023843,25.103285,-0.006220,-0.000149,0.001632,1.570096,-0.004747,0.000091,-0.000201,-0.000005,-0.000238,0.000001,0.001282,0.003619,0.088818,-0.005020,0.178632,0.178633,0.176883,0.948035,0.000000,0.000000,0.000000,0.000000,0.000000,0.000000,0.000000,0.000000,0.000000,0.000000,0.000000,0.000000,0.086245,3,0
450000,-0.003645,11.442518,0.027611,-0.024305,25.111963,-0.004744,-0.000142,0.001814,1.570084,-0.005298,0.000101,-0.000334,-0.000006,-0.000274,0.000002,0.007751,0.003756,0.212836,0.051089,0.177878,0.177878,0.175803,0.943129,0.000000,0.000000,0.000000,0.000000,0.000000,0.000000,0.000000,0.000000,0.000000,0.000000,0.000000,0.000000,0.206559,3,0
460000,-0.003778,11.700546,0.026791,-0.024695,25.121584,-0.005854,-0.000140,0.002027,1.570061,-0.005926,0.000111,-0.000263,-0.000006,-0.000317,0.000002,0.008950,0.003893,0.233708,-0.026439,0.177251,0.177251,0.174847,0.938030,0.000000,0.000000,0.000000,0.000000,0.000000,0.000000,0.000000,0.000000,0.000000,0.000000,0.000000,0.000000,0.226835,3,0
470000,-0.003913,11.958660,0.027348,-0.025179,25.131445,-0.005424,-0.000141,0.002260,1.570049,-0.006577,0.000122,-0.000322,-0.000007,-0.000362,0.000002,0.008934,0.004032,0.234010,0.021357,0.176742,0.176742,0.174006,0.932743,0.000000,0.000000,0.000000,0.000000,0.000000,0.000000,0.000000,0.000000,0.000000,0.000000,0.000000,0.000000,0.227150,3,0
480000,-0.004048,12.216279,0.026902,-0.025621,25.140703,-0.006315,-0.000137,0.002476,1.570037,-0.007195,0.000134,-0.000284,-0.000008,-0.000405,0.000002,0.007464,0.004171,0.214344,-0.013421,0.176342,0.176343,0.173271,0.927270,0.000000,0.000000,0.000000,0.000000,0.000000,0.000000,0.000000,0.000000,0.000000,0.000000,0.000000,0.000000,0.208083,3,0
490000,-0.004183,12.473417,0.028309,-0.025992,25.149277,-0.004521,-0.000131,0.002679,1.570023,-0.007776,0.000147,-0.000437,-0.000009,-0.000447,0.000003,0.006589,0.004310,0.195179,0.051125,0.176044,0.176045,0.172634,0.921616,0.000000,0.000000,0.000000,0.000000,0.000000,0.000000,0.000000,0.000000,0.000000,0.000000,0.000000,0.000000,0.189498,3,0
500000,-0.004319,12.731836,0.027309,-0.026425,25.159838,-0.006048,-0.000124,0.002933,1.570003,-0.008502,0.000160,-0.000334,-0.000010,-0.000501,0.000003,0.009202,0.004449,0.236138,-0.033165,0.175841,0.175842,0.172087,0.915787,0.000000,0.000000,0.000000,0.000000,0.000000,0.000000,0.000000,0.000000,0.000000,0.000000,0.000000,0.000000,0.229258,3,0
510000,-0.004455,12.989189,0.026936,-0.026857,25.168791,-0.006752,-0.000119,0.003146,1.569980,-0.009125,0.000175,-0.000300,-0.000011,-0.000548,0.000003,0.006255,0.004590,0.196280,-0.010808,0.175725,0.175726,0.171622,0.909788,0.000000,0.000000,0.000000,0.000000,0.000000,0.000000,0.000000,0.000000,0.000000,0.000000,0.000000,0.000000,0.190584,3,0
520000,-0.004592,13.246659,0.028341,-0.027322,25.177975,-0.005077,-0.000109,0.003382,1.569960,-0.009769,0.000190,-0.000470,-0.000012,-0.000598,0.000003,0.006732,0.004731,0.197266,0.051700,0.175690,0.175691,0.171234,0.903625,0.000000,0.000000,0.000000,0.000000,0.000000,0.000000,0.000000,0.000000,0.000000,0.000000,0.000000,0.000000,0.191544,3,0
530000,-0.004727,13.503665,0.028163,-0.027584,25.186432,-0.005420,-0.000103,0.003604,1.569947,-0.010369,0.000206,-0.000456,-0.000013,-0.000645,0.000004,0.005147,0.004870,0.178250,-0.004363,0.175729,0.175730,0.170914,0.897303,0.000000,0.000000,0.000000,0.000000,0.000000,0.000000,0.000000,0.000000,0.000000,0.000000,0.000000,0.000000,0.173094,3,0
540000,-0.004862,13.761381,0.027692,-0.027961,25.195959,-0.006304,-0.000109,0.003854,1.569918,-0.011060,0.000223,-0.000405,-0.000015,-0.000701,0.000004,0.006475,0.005009,0.199465,-0.014533,0.175837,0.175837,0.170658,0.890829,0.000000,0.000000,0.000000,0.000000,0.000000,0.000000,0.000000,0.000000,0.000000,0.000000,0.000000,0.000000,0.193680,3,0
550000,-0.004997,14.019799,0.026704,-0.028348,25.206556,-0.007925,-0.000106,0.004143,1.569903,-0.011842,0.000241,-0.000289,-0.000016,-0.000766,0.000004,0.008002,0.005148,0.219957,-0.032437,0.176007,0.176008,0.170460,0.884210,0.000000,0.000000,0.000000,0.000000,0.000000,0.000000,0.000000,0.000000,0.000000,0.000000,0.000000,0.000000,0.213563,3,0
560000,-0.005132,14.275410,0.025721,-0.028709,25.212803,-0.009470,-0.000102,0.004310,1.569894,-0.012283,0.000260,-0.000172,-0.000018,-0.000803,0.000005,0.002515,0.005287,0.120463,-0.031733,0.176234,0.176235,0.170314,0.877454,0.000000,0.000000,0.000000,0.000000,0.000000,0.000000,0.000000,0.000000,0.000000,0.000000,0.000000,0.000000,0.117038,3,0
570000,-0.005265,14.531170,0.025922,-0.029042,25.219236,-0.009111,-0.000103,0.004486,1.569885,-0.012744,0.000281,-0.000212,-0.000020,-0.000842,0.000005,0.002478,0.005425,0.123216,0.010459,0.176514,0.176515,0.170214,0.870566,0.000000,0.000000,0.000000,0.000000,0.000000,0.000000,0.000000,0.000000,0.000000,0.000000,0.000000,0.000000,0.119707,3,0
580000,-0.005396,14.788250,0.025963,-0.029254,25.227827,-0.009139,-0.000103,0.004730,1.569857,-0.013380,0.000302,-0.000231,-0.000021,-0.000898,0.000005,0.004443,0.005560,0.165576,0.004768,0.176841,0.176842,0.170157,0.863555,0.000000,0.000000,0.000000,0.000000,0.000000,0.000000,0.000000,0.000000,0.000000,0.000000,0.000000,0.000000,0.160787,3,0
590000,-0.005526,15.046638,0.027344,-0.029597,25.238487,-0.007143,-0.000099,0.005041,1.569841,-0.014193,0.000324,-0.000439,-0.000023,-0.000970,0.000006,0.007346,0.005695,0.206592,0.051975,0.177210,0.177211,0.170138,0.856428,0.000000,0.000000,0.000000,0.000000,0.000000,0.000000,0.000000,0.000000,0.000000,0.000000,0.000000,0.000000,0.200566,3,0
600000,-0.005655,15.305146,0.027964,-0.029847,25.249315,-0.006305,-0.000094,0.005351,1.569824,-0.015024,0.000347,-0.000540,-0.000026,-0.001046,0.000006,0.007001,0.005828,0.206523,0.024475,0.177619,0.177619,0.170152,0.849193,0.000000,0.000000,0.000000,0.000000,0.000000,0.000000,0.000000,0.000000,0.000000,0.000000,0.000000,0.000000,0.200489,3,0
610000,-0.005782,15.561413,0.029083,-0.030162,25.256468,-0.004867,-0.000081,0.005562,1.569814,-0.015546,0.000371,-0.000715,-0.000028,-0.001094,0.000006,0.002889,0.005959,0.126816,0.041770,0.178061,0.178062,0.170196,0.841859,0.000000,0.000000,0.000000,0.000000,0.000000,0.000000,0.000000,0.000000,0.000000,0.000000,0.000000,0.000000,0.123188,3,0
620000,-0.005908,15.820781,0.028707,-0.030435,25.268684,-0.005454,-0.000075,0.005925,1.569799,-0.016507,0.000397,-0.000667,-0.000030,-0.001185,0.000007,0.008455,0.006090,0.228298,-0.011450,0.178533,0.178534,0.170265,0.834432,0.000000,0.000000,0.000000,0.000000,0.000000,0.000000,0.000000,0.000000,0.000000,0.000000,0.000000,0.000000,0.221584,3,0
630000,-0.006033,16.079071,0.029095,-0.030764,25.278927,-0.005143,-0.000067,0.006228,1.569771,-0.017312,0.000423,-0.000736,-0.000033,-0.001263,0.000007,0.005729,0.006219,0.187475,0.015731,0.179032,0.179033,0.170356,0.826922,0.000000,0.000000,0.000000,0.000000,0.000000,0.000000,0.000000,0.000000,0.000000,0.000000,0.000000,0.000000,0.181981,3,0
640000,-0.006157,16.336887,0.029598,-0.031014,25.288359,-0.004673,-0.000056,0.006522,1.569741,-0.018046,0.000451,-0.000825,-0.000036,-0.001335,0.000008,0.004612,0.006347,0.167629,0.019645,0.179555,0.179556,0.170466,0.819335,0.000000,0.000000,0.000000,0.000000,0.000000,0.000000,0.000000,0.000000,0.000000,0.000000,0.000000,0.000000,0.162729,3,0
650000,-0.006277,16.596619,0.029954,-0.031174,25.300907,-0.004488,-0.000039,0.006919,1.569720,-0.019064,0.000479,-0.000892,-0.000039,-0.001436,0.000008,0.008428,0.006472,0.227783,0.014371,0.180097,0.180098,0.170591,0.811682,0.000000,0.000000,0.000000,0.000000,0.000000,0.000000,0.000000,0.000000,0.000000,0.000000,0.000000,0.000000,0.221035,3,0
660000,-0.006396,16.857052,0.030607,-0.031436,25.314474,-0.003751,-0.000025,0.007366,1.569695,-0.020185,0.000509,-0.001008,-0.000042,-0.001551,0.000009,0.009906,0.006595,0.246229,0.024646,0.180655,0.180656,0.170729,0.803968,0.000000,0.000000,0.000000,0.000000,0.000000,0.000000,0.000000,0.000000,0.000000,0.000000,0.000000,0.000000,0.238901,3,0
670000,-0.006514,17.116381,0.029380,-0.031664,25.326181,-0.005865,-0.000023,0.007753,1.569678,-0.021133,0.000539,-0.000810,-0.000045,-0.001649,0.000010,0.007035,0.006716,0.204327,-0.041589,0.181228,0.181229,0.170877,0.796204,0.000000,0.000000,0.000000,0.000000,0.000000,0.000000,0.000000,0.000000,0.000000,0.000000,0.000000,0.000000,0.198261,3,0
680000,-0.006629,17.376417,0.030149,-0.031902,25.338814,-0.004870,-0.000005,0.008183,1.569659,-0.022186,0.000571,-0.000953,-0.000048,-0.001760,0.000010,0.008196,0.006836,0.223186,0.029168,0.181811,0.181812,0.171033,0.788396,0.000000,0.000000,0.000000,0.000000,0.000000,0.000000,0.000000,0.000000,0.000000,0.000000,0.000000,0.000000,0.216525,3,0
690000,-0.006741,17.635340,0.030740,-0.032016,25.349419,-0.004281,0.000006,0.008531,1.569642,-0.023057,0.000604,-0.001066,-0.000052,-0.001854,0.000011,0.005425,0.006953,0.181694,0.022572,0.182403,0.182404,0.171194,0.780552,0.000000,0.000000,0.000000,0.000000,0.000000,0.000000,0.000000,0.000000,0.000000,0.000000,0.000000,0.000000,0.176299,3,0
700000,-0.006851,17.892551,0.031176,-0.032246,25.357069,-0.003647,0.000009,0.008789,1.569617,-0.023650,0.000638,-0.001152,-0.000056,-0.001918,0.000011,0.002437,0.007067,0.121450,0.016814,0.183001,0.183002,0.171357,0.772681,0.000000,0.000000,0.000000,0.000000,0.000000,0.000000,0.000000,0.000000,0.000000,0.000000,0.000000,0.000000,0.117946,3,0
710000,-0.006959,18.153536,0.031670,-0.032372,25.371199,-0.003293,0.000019,0.009282,1.569601,-0.024848,0.000673,-0.001250,-0.000060,-0.002052,0.000012,0.009517,0.007179,0.241863,0.018764,0.183603,0.183605,0.171522,0.764790,0.000000,0.000000,0.000000,0.000000,0.000000,0.000000,0.000000,0.000000,0.000000,0.000000,0.000000,0.000000,0.234566,3,0
720000,-0.007065,18.411552,0.032164,-0.032582,25.379887,-0.002838,0.000027,0.009580,1.569583,-0.025551,0.000710,-0.001348,-0.000064,-0.002131,0.000013,0.003220,0.007289,0.139769,0.018584,0.184207,0.184209,0.171686,0.756886,0.000000,0.000000,0.000000,0.000000,0.000000,0.000000,0.000000,0.000000,0.000000,0.000000,0.000000,0.000000,0.135661,3,0
730000,-0.007168,18.673353,0.033396,-0.032808,25.395086,-0.001338,0.000035,0.010119,1.569568,-0.026874,0.000747,-0.001585,-0.000068,-0.002284,0.000013,0.011191,0.007397,0.259363,0.044210,0.184811,0.184813,0.171847,0.748978,0.000000,0.000000,0.000000,0.000000,0.000000,0.000000,0.000000,0.000000,0.000000,0.000000,0.000000,0.000000,0.251477,3,0
740000,-0.007271,18.932154,0.033289,-0.033001,25.405005,-0.001628,0.000041,0.010473,1.569553,-0.027684,0.000785,-0.001569,-0.000073,-0.002379,0.000014,0.003964,0.007502,0.156441,-0.003194,0.185414,0.185415,0.172004,0.741071,0.000000,0.000000,0.000000,0.000000,0.000000,0.000000,0.000000,0.000000,0.000000,0.000000,0.000000,0.000000,0.151780,3,0
750000,-0.007370,19.192286,0.032450,-0.033061,25.417103,-0.002985,0.000051,0.010903,1.569532,-0.028710,0.000825,-0.001413,-0.000077,-0.002501,0.000015,0.006328,0.007605,0.195726,-0.028577,0.186013,0.186014,0.172155,0.733173,0.000000,0.000000,0.000000,0.000000,0.000000,0.000000,0.000000,0.000000,0.000000,0.000000,0.000000,0.000000,0.189802,3,0
760000,-0.007466,19.452501,0.033556,-0.033247,25.429230,-0.001594,0.000063,0.011338,1.569510,-0.029741,0.000865,-0.001637,-0.000082,-0.002626,0.000016,0.006336,0.007707,0.193897,0.039734,0.186607,0.186608,0.172299,0.725291,0.000000,0.000000,0.000000,0.000000,0.000000,0.000000,0.000000,0.000000,0.000000,0.000000,0.000000,0.000000,0.188016,3,0
770000,-0.007561,19.712799,0.033698,-0.033394,25.441303,-0.001518,0.000075,0.011778,1.569487,-0.030773,0.000906,-0.001671,-0.000088,-0.002753,0.000016,0.005966,0.007804,0.191986,0.005615,0.187195,0.187196,0.172436,0.717431,0.000000,0.000000,0.000000,0.000000,0.000000,0.000000,0.000000,0.000000,0.000000,0.000000,0.000000,0.000000,0.186151,3,0
780000,-0.007651,19.970064,0.034998,-0.033410,25.447954,0.000009,0.000085,0.012019,1.569475,-0.031266,0.000949,-0.001936,-0.000093,-0.002815,0.000017,0.001676,0.007899,0.090597,0.045907,0.187776,0.187777,0.172563,0.709600,0.000000,0.000000,0.000000,0.000000,0.000000,0.000000,0.000000,0.000000,0.000000,0.000000,0.000000,0.000000,0.088096,3,0
790000,-0.007740,20.230560,0.034911,-0.033456,25.460163,-0.000529,0.000102,0.012482,1.569448,-0.032319,0.000993,-0.001921,-0.000099,-0.002949,0.000017,0.005906,0.007990,0.191086,-0.002821,0.188348,0.188350,0.172680,0.701802,0.000000,0.000000,0.000000,0.000000,0.000000,0.000000,0.000000,0.000000,0.000000,0.000000,0.000000,0.000000,0.185249,3,0
800000,-0.007825,20.491127,0.036083,-0.033591,25.472296,0.001073,0.000114,0.012945,1.569418,-0.033371,0.001037,-0.002166,-0.000105,-0.003085,0.000018,0.006042,0.008080,0.188892,0.041013,0.188912,0.188913,0.172787,0.694045,0.000000,0.000000,0.000000,0.000000,0.000000,0.000000,0.000000,0.000000,0.000000,0.000000,0.000000,0.000000,0.183113,3,0
810000,-0.007909,20.753645,0.035073,-0.033747,25.487806,-0.000539,0.000126,0.013566,1.569398,-0.034757,0.001082,-0.001957,-0.000110,-0.003268,0.000019,0.010001,0.008167,0.246267,-0.035293,0.189465,0.189466,0.172882,0.686334,0.000000,0.000000,0.000000,0.000000,0.000000,0.000000,0.000000,0.000000,0.000000,0.000000,0.000000,0.000000,0.238622,3,0
820000,-0.007990,21.011799,0.035503,-0.033752,25.495398,-0.000316,0.000149,0.013841,1.569371,-0.035342,0.001129,-0.002051,-0.000117,-0.003346,0.000020,0.001757,0.008252,0.102869,0.015282,0.190007,0.190008,0.172965,0.678674,0.000000,0.000000,0.000000,0.000000,0.000000,0.000000,0.000000,0.000000,0.000000,0.000000,0.000000,0.000000,0.099931,3,0
830000,-0.008070,21.270044,0.034196,-0.033879,25.502996,-0.002445,0.000160,0.014126,1.569348,-0.035934,0.001176,-0.001775,-0.000123,-0.003427,0.000020,0.002054,0.008333,0.103064,-0.045093,0.190538,0.190539,0.173035,0.671069,0.000000,0.000000,0.000000,0.000000,0.000000,0.000000,0.000000,0.000000,0.000000,0.000000,0.000000,0.000000,0.100116,3,0
840000,-0.008147,21.529644,0.033997,-0.034026,25.512901,-0.002953,0.000168,0.014520,1.569322,-0.036763,0.001225,-0.001740,-0.000130,-0.003541,0.000021,0.003313,0.008415,0.142925,-0.005878,0.191057,0.191058,0.173092,0.663525,0.000000,0.000000,0.000000,0.000000,0.000000,0.000000,0.000000,0.000000,0.000000,0.000000,0.000000,0.000000,0.138614,3,0
850000,-0.008222,21.789949,0.033779,-0.034172,25.523949,-0.003548,0.000184,0.014960,1.569303,-0.037707,0.001274,-0.001702,-0.000137,-0.003674,0.000022,0.004228,0.008493,0.161531,-0.006344,0.191563,0.191564,0.173136,0.656047,0.000000,0.000000,0.000000,0.000000,0.000000,0.000000,0.000000,0.000000,0.000000,0.000000,0.000000,0.000000,0.156590,3,0
860000,-0.008294,22.049679,0.034178,-0.034133,25.533787,-0.003116,0.000204,0.015365,1.569280,-0.038531,0.001324,-0.001801,-0.000144,-0.003792,0.000023,0.003196,0.008568,0.139662,0.015188,0.192056,0.192057,0.173166,0.648637,0.000000,0.000000,0.000000,0.000000,0.000000,0.000000,0.000000,0.000000,0.000000,0.000000,0.000000,0.000000,0.135445,3,0
870000,-0.008362,22.310749,0.033958,-0.034078,25.545885,-0.003689,0.000232,0.015869,1.569251,-0.039590,0.001375,-0.001763,-0.000151,-0.003945,0.000023,0.005131,0.008639,0.178017,-0.006350,0.192537,0.192538,0.173182,0.641301,0.000000,0.000000,0.000000,0.000000,0.000000,0.000000,0.000000,0.000000,0.000000,0.000000,0.000000,0.000000,0.172507,3,0
880000,-0.008428,22.569948,0.033522,-0.034037,25.554508,-0.004699,0.000261,0.016225,1.569229,-0.040283,0.001426,-0.001676,-0.000159,-0.004047,0.000024,0.002198,0.008707,0.115614,-0.013608,0.193004,0.193005,0.173184,0.634042,0.000000,0.000000,0.000000,0.000000,0.000000,0.000000,0.000000,0.000000,0.000000,0.000000,0.000000,0.000000,0.112212,3,0
890000,-0.008490,22.831779,0.033364,-0.033993,25.567698,-0.005248,0.000284,0.016800,1.569199,-0.041456,0.001479,-0.001656,-0.000167,-0.004223,0.000025,0.006102,0.008772,0.194269,-0.003599,0.193458,0.193459,0.173172,0.626863,0.000000,0.000000,0.000000,0.000000,0.000000,0.000000,0.000000,0.000000,0.000000,0.000000,0.000000,0.000000,0.188197,3,0
900000,-0.008548,23.093643,0.033103,-0.033915,25.580832,-0.005995,0.000310,0.017375,1.569166,-0.042616,0.001532,-0.001613,-0.000175,-0.004399,0.000026,0.005888,0.008834,0.190733,-0.006950,0.193898,0.193899,0.173145,0.619768,0.000000,0.000000,0.000000,0.000000,0.000000,0.000000,0.000000,0.000000,0.000000,0.000000,0.000000,0.000000,0.184766,3,0
910000,-0.008604,23.354895,0.032403,-0.033839,25.592779,-0.007320,0.000328,0.017898,1.569134,-0.043640,0.001586,-0.001468,-0.000183,-0.004558,0.000027,0.004603,0.008892,0.167282,-0.021936,0.194325,0.194326,0.173104,0.612759,0.000000,0.000000,0.000000,0.000000,0.000000,0.000000,0.000000,0.000000,0.000000,0.000000,0.000000,0.000000,0.162092,3,0
920000,-0.008657,23.613600,0.032344,-0.033832,25.600067,-0.007630,0.000344,0.018178,1.569119,-0.044163,0.001640,-0.001474,-0.000191,-0.004640,0.000028,0.001173,0.008948,0.084820,0.000667,0.194739,0.194739,0.173049,0.605840,0.000000,0.000000,0.000000,0.000000,0.000000,0.000000,0.000000,0.000000,0.000000,0.000000,0.000000,0.000000,0.082523,3,0
930000,-0.008709,23.875607,0.030975,-0.033790,25.613012,-0.009871,0.000368,0.018752,1.569102,-0.045303,0.001696,-0.001171,-0.000200,-0.004822,0.000029,0.005785,0.009000,0.183865,-0.044545,0.195139,0.195139,0.172980,0.599012,0.000000,0.000000,0.000000,0.000000,0.000000,0.000000,0.000000,0.000000,0.000000,0.000000,0.000000,0.000000,0.178096,3,0
940000,-0.008758,24.136337,0.029946,-0.033860,25.623627,-0.011552,0.000387,0.019222,1.569078,-0.046179,0.001751,-0.000951,-0.000209,-0.004963,0.000030,0.003358,0.009052,0.140394,-0.032066,0.195526,0.195526,0.172898,0.592278,0.000000,0.000000,0.000000,0.000000,0.000000,0.000000,0.000000,0.000000,0.000000,0.000000,0.000000,0.000000,0.136101,3,0
950000,-0.008804,24.396456,0.029519,-0.033817,25.633053,-0.012227,0.000402,0.019623,1.569053,-0.046920,0.001808,-0.000879,-0.000218,-0.005085,0.000030,0.002281,0.009101,0.118105,-0.010630,0.195900,0.195900,0.172801,0.585640,0.000000,0.000000,0.000000,0.000000,0.000000,0.000000,0.000000,0.000000,0.000000,0.000000,0.000000,0.000000,0.114587,3,0
960000,-0.008847,24.655317,0.029565,-0.033710,25.640066,-0.012393,0.000434,0.019907,1.569032,-0.047402,0.001865,-0.000924,-0.000228,-0.005166,0.000031,0.000964,0.009147,0.076559,0.006053,0.196261,0.196261,0.172691,0.579099,0.000000,0.000000,0.000000,0.000000,0.000000,0.000000,0.000000,0.000000,0.000000,0.000000,0.000000,0.000000,0.074581,3,0
970000,-0.008889,24.917494,0.029784,-0.033770,25.652868,-0.012352,0.000468,0.020494,1.569011,-0.048513,0.001923,-0.001016,-0.000238,-0.005354,0.000032,0.005000,0.009190,0.175447,0.012231,0.196610,0.196610,0.172568,0.572658,0.000000,0.000000,0.000000,0.000000,0.000000,0.000000,0.000000,0.000000,0.000000,0.000000,0.000000,0.000000,0.169931,3,0
980000,-0.008928,25.179029,0.030287,-0.033681,25.664408,-0.011906,0.000488,0.021020,1.568980,-0.049478,0.001981,-0.001180,-0.000248,-0.005519,0.000033,0.003802,0.009231,0.151688,0.022100,0.196946,0.196946,0.172431,0.566317,0.000000,0.000000,0.000000,0.000000,0.000000,0.000000,0.000000,0.000000,0.000000,0.000000,0.000000,0.000000,0.146981,3,0
990000,-0.008965,25.440584,0.029269,-0.033611,25.675823,-0.013532,0.000505,0.021543,1.568961,-0.050427,0.002039,-0.000958,-0.000258,-0.005685,0.000034,0.003723,0.009269,0.148464,-0.031041,0.197271,0.197271,0.172282,0.560078,0.000000,0.000000,0.000000,0.000000,0.000000,0.000000,0.000000,0.000000,0.000000,0.000000,0.000000,0.000000,0.143861,3,0
1000000,-0.008999,25.700188,0.029853,-0.033537,25.683510,-0.012856,0.000541,0.021873,1.568942,-0.050975,0.002098,-0.001147,-0.000268,-0.005782,0.000035,0.001298,0.009306,0.085585,0.025275,0.197584,0.197584,0.172121,0.553941,0.000000,0.000000,0.000000,0.000000,0.000000,0.000000,0.000000,0.000000,0.000000,0.000000,0.000000,0.000000,0.083255,3,0
1010000,-0.009030,25.959831,0.031029,-0.033495,25.691277,-0.011251,0.000568,0.022197,1.568928,-0.051517,0.002158,-0.001489,-0.000280,-0.005879,0.000035,0.001498,0.009339,0.084330,0.045693,0.197886,0.197886,0.171948,0.547908,0.000000,0.000000,0.000000,0.000000,0.000000,0.000000,0.000000,0.000000,0.000000,0.000000,0.000000,0.000000,0.082049,3,0
1020000,-0.009060,26.222141,0.030594,-0.033425,25.703545,-0.011940,0.000591,0.022784,1.568895,-0.052568,0.002218,-0.001412,-0.000290,-0.006071,0.000036,0.004292,0.009369,0.162548,-0.010980,0.198178,0.198177,0.171762,0.541980,0.000000,0.000000,0.000000,0.000000,0.000000,0.000000,0.000000,0.000000,0.000000,0.000000,0.000000,0.000000,0.157440,3,0
1030000,-0.009088,26.481819,0.031524,-0.033452,25.711023,-0.010890,0.000612,0.023098,1.568882,-0.053079,0.002278,-0.001694,-0.000302,-0.006166,0.000037,0.001241,0.009400,0.079027,0.036916,0.198459,0.198458,0.171566,0.536156,0.000000,0.000000,0.000000,0.000000,0.000000,0.000000,0.000000,0.000000,0.000000,0.000000,0.000000,0.000000,0.076953,3,0
1040000,-0.009115,26.741531,0.031543,-0.033403,25.718485,-0.011067,0.000648,0.023418,1.568862,-0.053585,0.002339,-0.001732,-0.000313,-0.006261,0.000038,0.000991,0.009428,0.077700,0.004704,0.198731,0.198729,0.171359,0.530437,0.000000,0.000000,0.000000,0.000000,0.000000,0.000000,0.000000,0.000000,0.000000,0.000000,0.000000,0.000000,0.075678,3,0
1050000,-0.009140,27.000620,0.031671,-0.033244,25.724882,-0.011111,0.000670,0.023669,1.568837,-0.053953,0.002400,-0.001800,-0.000325,-0.006331,0.000038,0.000540,0.009453,0.056459,0.008557,0.198993,0.198991,0.171141,0.524824,0.000000,0.000000,0.000000,0.000000,0.000000,0.000000,0.000000,0.000000,0.000000,0.000000,0.000000,0.000000,0.055346,3,0
1060000,-0.009161,27.263710,0.032347,-0.033169,25.738178,-0.010285,0.000711,0.024329,1.568819,-0.055096,0.002461,-0.002024,-0.000337,-0.006552,0.000039,0.005076,0.009477,0.175003,0.027994,0.199246,0.199243,0.170913,0.519316,0.000000,0.000000,0.000000,0.000000,0.000000,0.000000,0.000000,0.000000,0.000000,0.000000,0.000000,0.000000,0.169441,3,0
1070000,-0.009182,27.525461,0.032097,-0.033037,25.748949,-0.010993,0.000749,0.024851,1.568790,-0.055951,0.002523,-0.001992,-0.000349,-0.006720,0.000040,0.002760,0.009497,0.130449,-0.004814,0.199490,0.199488,0.170675,0.513913,0.000000,0.000000,0.000000,0.000000,0.000000,0.000000,0.000000,0.000000,0.000000,0.000000,0.000000,0.000000,0.126446,3,0
1080000,-0.009198,27.787210,0.033159,-0.032866,25.759632,-0.009780,0.000778,0.025357,1.568767,-0.056783,0.002584,-0.002324,-0.000362,-0.006886,0.000041,0.002894,0.009516,0.127016,0.041574,0.199726,0.199723,0.170428,0.508616,0.000000,0.000000,0.000000,0.000000,0.000000,0.000000,0.000000,0.000000,0.000000,0.000000,0.000000,0.000000,0.123133,3,0
1090000,-0.009214,28.046310,0.032418,-0.032732,25.765499,-0.011113,0.000811,0.025592,1.568755,-0.057074,0.002647,-0.002148,-0.000375,-0.006945,0.000042,0.000409,0.009531,0.044069,-0.022462,0.199955,0.199952,0.170172,0.503424,0.000000,0.000000,0.000000,0.000000,0.000000,0.000000,0.000000,0.000000,0.000000,0.000000,0.000000,0.000000,0.043584,3,0
1100000,-0.009229,28.306770,0.031449,-0.032697,25.773615,-0.012601,0.000841,0.025975,1.568736,-0.057622,0.002709,-0.001913,-0.000387,-0.007058,0.000043,0.001273,0.009546,0.083096,-0.030021,0.200176,0.200173,0.169907,0.498335,0.000000,0.000000,0.000000,0.000000,0.000000,0.000000,0.000000,0.000000,0.000000,0.000000,0.000000,0.000000,0.080851,3,0
1110000,-0.009239,28.570560,0.032818,-0.032584,25.787527,-0.010832,0.000885,0.026697,1.568711,-0.058810,0.002771,-0.002349,-0.000401,-0.007306,0.000044,0.005716,0.009560,0.180374,0.053261,0.200391,0.200387,0.169635,0.493351,0.000000,0.000000,0.000000,0.000000,0.000000,0.000000,0.000000,0.000000,0.000000,0.000000,0.000000,0.000000,0.174597,3,0
1120000,-0.009249,28.831657,0.032289,-0.032396,25.796478,-0.011769,0.000912,0.027125,1.568691,-0.059441,0.002834,-0.002236,-0.000414,-0.007439,0.000045,0.001514,0.009569,0.095356,-0.014599,0.200599,0.200595,0.169354,0.488471,0.000000,0.000000,0.000000,0.000000,0.000000,0.000000,0.000000,0.000000,0.000000,0.000000,0.000000,0.000000,0.092630,3,0
1130000,-0.009257,29.093422,0.031922,-0.032215,25.806622,-0.012342,0.000940,0.027623,1.568663,-0.060184,0.002896,-0.002172,-0.000427,-0.007599,0.000046,0.002064,0.009577,0.112471,-0.008535,0.200802,0.200798,0.169066,0.483693,0.000000,0.000000,0.000000,0.000000,0.000000,0.000000,0.000000,0.000000,0.000000,0.000000,0.000000,0.000000,0.109099,3,0
1140000,-0.009262,29.354511,0.030870,-0.031997,25.815342,-0.014021,0.000970,0.028043,1.568641,-0.060775,0.002959,-0.001909,-0.000441,-0.007728,0.000047,0.001468,0.009582,0.089153,-0.032707,0.200999,0.200994,0.168771,0.479017,0.000000,0.000000,0.000000,0.000000,0.000000,0.000000,0.000000,0.000000,0.000000,0.000000,0.000000,0.000000,0.086661,3,0
1150000,-0.009265,29.613598,0.029894,-0.031790,25.820436,-0.015450,0.001014,0.028234,1.568617,-0.060953,0.003023,-0.001666,-0.000454,-0.007768,0.000047,0.000272,0.009586,0.026764,-0.029593,0.201192,0.201186,0.168470,0.474442,0.000000,0.000000,0.000000,0.000000,0.000000,0.000000,0.000000,0.000000,0.000000,0.000000,0.000000,0.000000,0.027475,3,0
1160000,-0.009264,29.875381,0.030324,-0.031604,25.830347,-0.014982,0.001045,0.028727,1.568596,-0.061652,0.003086,-0.001848,-0.000469,-0.007925,0.000048,0.001883,0.009587,0.105566,0.021173,0.201379,0.201373,0.168163,0.469967,0.000000,0.000000,0.000000,0.000000,0.000000,0.000000,0.000000,0.000000,0.000000,0.000000,0.000000,0.000000,0.102444,3,0
1170000,-0.009263,30.139154,0.030311,-0.031477,25.843493,-0.015143,0.001081,0.029432,1.568569,-0.062722,0.003148,-0.001903,-0.000483,-0.008168,0.000049,0.004234,0.009585,0.161749,0.005394,0.201563,0.201557,0.167849,0.465592,0.000000,0.000000,0.000000,0.000000,0.000000,0.000000,0.000000,0.000000,0.000000,0.000000,0.000000,0.000000,0.156589,3,0
1180000,-0.009259,30.398199,0.031042,-0.031337,25.848133,-0.014176,0.001111,0.029589,1.568562,-0.062835,0.003211,-0.002171,-0.000498,-0.008194,0.000050,0.000225,0.009582,0.017118,0.031709,0.201743,0.201736,0.167531,0.461314,0.000000,0.000000,0.000000,0.000000,0.000000,0.000000,0.000000,0.000000,0.000000,0.000000,0.000000,0.000000,0.018959,3,0
1190000,-0.009253,30.661283,0.031681,-0.031193,25.859982,-0.013412,0.001145,0.030223,1.568538,-0.063732,0.003273,-0.002421,-0.000513,-0.008403,0.000051,0.003113,0.009576,0.135721,0.028432,0.201919,0.201912,0.167207,0.457135,0.000000,0.000000,0.000000,0.000000,0.000000,0.000000,0.000000,0.000000,0.000000,0.000000,0.000000,0.000000,0.131483,3,0
1200000,-0.009247,30.922995,0.031262,-0.031091,25.869234,-0.014220,0.001189,0.030683,1.568515,-0.064335,0.003336,-0.002343,-0.000528,-0.008547,0.000052,0.001370,0.009569,0.091188,-0.009862,0.202093,0.202085,0.166879,0.453051,0.000000,0.000000,0.000000,0.000000,0.000000,0.000000,0.000000,0.000000,0.000000,0.000000,0.000000,0.000000,0.088600,3,0
1210000,-0.009238,31.183344,0.031919,-0.030851,25.875942,-0.013311,0.001239,0.030967,1.568493,-0.064652,0.003398,-0.002595,-0.000543,-0.008623,0.000052,0.000522,0.009562,0.048052,0.028957,0.202264,0.202256,0.166547,0.449062,0.000000,0.000000,0.000000,0.000000,0.000000,0.000000,0.000000,0.000000,0.000000,0.000000,0.000000,0.000000,0.047344,3,0
1220000,-0.009231,31.445711,0.030569,-0.030785,25.886133,-0.015257,0.001279,0.031496,1.568474,-0.065352,0.003461,-0.002227,-0.000558,-0.008795,0.000053,0.002120,0.009552,0.105698,-0.043504,0.202433,0.202424,0.166211,0.445166,0.000000,0.000000,0.000000,0.000000,0.000000,0.000000,0.000000,0.000000,0.000000,0.000000,0.000000,0.000000,0.102545,3,0
1230000,-0.009222,31.704691,0.029437,-0.030597,25.890181,-0.016784,0.001320,0.031607,1.568466,-0.065368,0.003525,-0.001920,-0.000573,-0.008800,0.000054,0.000218,0.009543,0.002260,-0.035368,0.202600,0.202591,0.165871,0.441363,0.000000,0.000000,0.000000,0.000000,0.000000,0.000000,0.000000,0.000000,0.000000,0.000000,0.000000,0.000000,0.009476,3,0
1240000,-0.009210,31.964361,0.028846,-0.030389,25.895439,-0.017576,0.001358,0.031788,1.568440,-0.065511,0.003587,-0.001789,-0.000589,-0.008836,0.000054,0.000127,0.009531,0.021545,-0.015169,0.202766,0.202756,0.165528,0.437650,0.000000,0.000000,0.000000,0.000000,0.000000,0.000000,0.000000,0.000000,0.000000,0.000000,0.000000,0.000000,0.022763,3,0
1250000,-0.009194,32.224709,0.029553,-0.030136,25.901762,-0.016763,0.001403,0.032054,1.568426,-0.065773,0.003649,-0.002076,-0.000605,-0.008902,0.000054,0.000443,0.009517,0.040127,0.032278,0.202930,0.202919,0.165182,0.434027,0.000000,0.000000,0.000000,0.000000,0.000000,0.000000,0.000000,0.000000,0.000000,0.000000,0.000000,0.000000,0.039848,3,0
1260000,-0.009179,32.488422,0.028259,-0.029997,25.914013,-0.018458,0.001433,0.032738,1.568396,-0.066678,0.003711,-0.001729,-0.000621,-0.009138,0.000056,0.003326,0.009499,0.137539,-0.040471,0.203094,0.203082,0.164833,0.430493,0.000000,0.000000,0.000000,0.000000,0.000000,0.000000,0.000000,0.000000,0.000000,0.000000,0.000000,0.000000,0.133198,3,0
1270000,-0.009161,32.751404,0.028558,-0.029789,25.924870,-0.018064,0.001468,0.033315,1.568374,-0.067413,0.003772,-0.001900,-0.000637,-0.009331,0.000057,0.002096,0.009483,0.112244,0.018100,0.203256,0.203244,0.164482,0.427046,0.000000,0.000000,0.000000,0.000000,0.000000,0.000000,0.000000,0.000000,0.000000,0.000000,0.000000,0.000000,0.108830,3,0
1280000,-0.009141,33.012321,0.028848,-0.029665,25.931988,-0.017871,0.001513,0.033629,1.568349,-0.067726,0.003834,-0.002060,-0.000654,-0.009414,0.000058,0.000434,0.009463,0.047939,0.017506,0.203419,0.203406,0.164130,0.423685,0.000000,0.000000,0.000000,0.000000,0.000000,0.000000,0.000000,0.000000,0.000000,0.000000,0.000000,0.000000,0.047208,3,0
1290000,-0.009120,33.272541,0.030186,-0.029510,25.937784,-0.016184,0.001553,0.033844,1.568323,-0.067890,0.003894,-0.002564,-0.000671,-0.009457,0.000058,0.000623,0.009442,0.025501,0.055725,0.203581,0.203567,0.163775,0.420408,0.000000,0.000000,0.000000,0.000000,0.000000,0.000000,0.000000,0.000000,0.000000,0.000000,0.000000,0.000000,0.026276,3,0
1300000,-0.009098,33.536140,0.029964,-0.029246,25.949509,-0.016605,0.001588,0.034498,1.568310,-0.068691,0.003955,-0.002561,-0.000688,-0.009677,0.000059,0.002452,0.009418,0.123043,-0.001617,0.203744,0.203729,0.163420,0.417214,0.000000,0.000000,0.000000,0.000000,0.000000,0.000000,0.000000,0.000000,0.000000,0.000000,0.000000,0.000000,0.119214,3,0
1310000,-0.009076,33.794277,0.029073,-0.029046,25.951349,-0.017653,0.001628,0.034408,1.568290,-0.068424,0.004016,-0.002313,-0.000705,-0.009603,0.000059,0.000405,0.009394,-0.041275,-0.026818,0.203906,0.203891,0.163063,0.414102,0.000000,0.000000,0.000000,0.000000,0.000000,0.000000,0.000000,0.000000,0.000000,0.000000,0.000000,0.000000,0.040895,3,0
1320000,-0.009050,34.054466,0.029344,-0.028806,25.956741,-0.017606,0.001680,0.034590,1.568265,-0.068544,0.004077,-0.002468,-0.000722,-0.009637,0.000059,0.000116,0.009370,0.018631,0.016761,0.204070,0.204054,0.162705,0.411068,0.000000,0.000000,0.000000,0.000000,0.000000,0.000000,0.000000,0.000000,0.000000,0.000000,0.000000,0.000000,0.020145,3,0
1330000,-0.009025,34.317356,0.028757,-0.028636,25.966854,-0.018316,0.001715,0.035128,1.568239,-0.069166,0.004136,-0.002342,-0.000739,-0.009816,0.000060,0.001543,0.009343,0.096329,-0.014718,0.204234,0.204217,0.162347,0.408113,0.000000,0.000000,0.000000,0.000000,0.000000,0.000000,0.000000,0.000000,0.000000,0.000000,0.000000,0.000000,0.093485,3,0
1340000,-0.009000,34.576134,0.027736,-0.028511,25.969641,-0.019496,0.001752,0.035112,1.568226,-0.068991,0.004197,-0.002052,-0.000756,-0.009765,0.000060,0.000293,0.009316,-0.027512,-0.031101,0.204399,0.204381,0.161989,0.405236,0.000000,0.000000,0.000000,0.000000,0.000000,0.000000,0.000000,0.000000,0.000000,0.000000,0.000000,0.000000,0.028059,3,0
1350000,-0.008972,34.838310,0.027529,-0.028383,25.978245,-0.019700,0.001807,0.035544,1.568207,-0.069449,0.004256,-0.002058,-0.000773,-0.009901,0.000061,0.000837,0.009289,0.071507,-0.000101,0.204565,0.204546,0.161630,0.402433,0.000000,0.000000,0.000000,0.000000,0.000000,0.000000,0.000000,0.000000,0.000000,0.000000,0.000000,0.000000,0.069649,3,0
1360000,-0.008943,35.098408,0.027762,-0.028127,25.983198,-0.019516,0.001862,0.035688,1.568182,-0.069500,0.004315,-0.002210,-0.000791,-0.009915,0.000061,0.000067,0.009259,0.008030,0.016182,0.204733,0.204713,0.161272,0.399705,0.000000,0.000000,0.000000,0.000000,0.000000,0.000000,0.000000,0.000000,0.000000,0.000000,0.000000,0.000000,0.011840,3,0
1370000,-0.008912,35.359859,0.027097,-0.027864,25.990433,-0.020335,0.001909,0.036010,1.568156,-0.069794,0.004373,-0.002053,-0.000809,-0.010005,0.000062,0.000404,0.009227,0.046066,-0.017246,0.204902,0.204881,0.160914,0.397049,0.000000,0.000000,0.000000,0.000000,0.000000,0.000000,0.000000,0.000000,0.000000,0.000000,0.000000,0.000000,0.045375,3,0
1380000,-0.008882,35.621281,0.025934,-0.027706,25.997419,-0.022008,0.001957,0.036323,1.568128,-0.070068,0.004432,-0.001724,-0.000826,-0.010091,0.000063,0.000515,0.009195,0.042965,-0.035466,0.205072,0.205050,0.160557,0.394463,0.000000,0.000000,0.000000,0.000000,0.000000,0.000000,0.000000,0.000000,0.000000,0.000000,0.000000,0.000000,0.042432,3,0
1390000,-0.008849,35.884026,0.025515,-0.027421,26.006674,-0.022705,0.002000,0.036820,1.568100,-0.070571,0.004489,-0.001668,-0.000844,-0.010248,0.000064,0.001043,0.009162,0.079662,-0.006880,0.205244,0.205221,0.160201,0.391947,0.000000,0.000000,0.000000,0.000000,0.000000,0.000000,0.000000,0.000000,0.000000,0.000000,0.000000,0.000000,0.077442,3,0
1400000,-0.008812,36.143307,0.026050,-0.027102,26.009668,-0.021953,0.002050,0.036811,1.568075,-0.070418,0.004546,-0.001937,-0.000863,-0.010199,0.000064,0.000239,0.009125,-0.024147,0.028504,0.205418,0.205394,0.159845,0.389500,0.000000,0.000000,0.000000,0.000000,0.000000,0.000000,0.000000,0.000000,0.000000,0.000000,0.000000,0.000000,0.024925,3,0
1410000,-0.008776,36.401917,0.025072,-0.026924,26.011417,-0.023010,0.002098,0.036701,1.568055,-0.070139,0.004604,-0.001655,-0.000881,-0.010110,0.000063,0.000472,0.009087,-0.044910,-0.028727,0.205593,0.205568,0.159491,0.387120,0.000000,0.000000,0.000000,0.000000,0.000000,0.000000,0.000000,0.000000,0.000000,0.000000,0.000000,0.000000,0.044256,3,0
1420000,-0.008740,36.663258,0.024490,-0.026743,26.017998,-0.023889,0.002150,0.036984,1.568033,-0.070353,0.004660,-0.001535,-0.000899,-0.010180,0.000064,0.000231,0.009049,0.034405,-0.012935,0.205770,0.205744,0.159139,0.384805,0.000000,0.000000,0.000000,0.000000,0.000000,0.000000,0.000000,0.000000,0.000000,0.000000,0.000000,0.000000,0.034353,3,0
1430000,-0.008698,36.924557,0.025498,-0.026400,26.024527,-0.022682,0.002205,0.037236,1.568023,-0.070546,0.004715,-0.001998,-0.000918,-0.010242,0.000064,0.000537,0.009009,0.031422,0.047406,0.205950,0.205922,0.158788,0.382554,0.000000,0.000000,0.000000,0.000000,0.000000,0.000000,0.000000,0.000000,0.000000,0.000000,0.000000,0.000000,0.031572,3,0
1440000,-0.008654,37.187183,0.026533,-0.026083,26.033228,-0.021446,0.002247,0.037688,1.567997,-0.070964,0.004768,-0.002477,-0.000937,-0.010381,0.000065,0.001141,0.008964,0.068241,0.048296,0.206131,0.206102,0.158438,0.380365,0.000000,0.000000,0.000000,0.000000,0.000000,0.000000,0.000000,0.000000,0.000000,0.000000,0.000000,0.000000,0.066472,3,0
1450000,-0.008609,37.444969,0.027499,-0.025776,26.033188,-0.020432,0.002301,0.037403,1.567979,-0.070501,0.004822,-0.002902,-0.000956,-0.010221,0.000064,0.001244,0.008918,-0.075199,0.044513,0.206314,0.206284,0.158091,0.378237,0.000000,0.000000,0.000000,0.000000,0.000000,0.000000,0.000000,0.000000,0.000000,0.000000,0.000000,0.000000,0.073114,3,0
1460000,-0.008564,37.706890,0.026944,-0.025424,26.040594,-0.021245,0.002355,0.037734,1.567961,-0.070774,0.004876,-0.002781,-0.000975,-0.010316,0.000065,0.000361,0.008869,0.044712,-0.012925,0.206499,0.206468,0.157746,0.376169,0.000000,0.000000,0.000000,0.000000,0.000000,0.000000,0.000000,0.000000,0.000000,0.000000,0.000000,0.000000,0.044012,3,0
1470000,-0.008517,37.968071,0.027259,-0.025208,26.046549,-0.020761,0.002413,0.037947,1.567934,-0.070902,0.004929,-0.002984,-0.000994,-0.010360,0.000065,0.000152,0.008822,0.021267,0.020281,0.206685,0.206653,0.157403,0.374160,0.000000,0.000000,0.000000,0.000000,0.000000,0.000000,0.000000,0.000000,0.000000,0.000000,0.000000,0.000000,0.022234,3,0
1480000,-0.008468,38.227844,0.027713,-0.024839,26.049814,-0.020223,0.002460,0.037944,1.567923,-0.070772,0.004981,-0.003231,-0.001013,-0.010313,0.000065,0.000189,0.008771,-0.021309,0.025240,0.206874,0.206841,0.157062,0.372207,0.000000,0.000000,0.000000,0.000000,0.000000,0.000000,0.000000,0.000000,0.000000,0.000000,0.000000,0.000000,0.022244,3,0
1490000,-0.008417,38.485542,0.028329,-0.024638,26.049318,-0.019315,0.002519,0.037619,1.567918,-0.070279,0.005034,-0.003524,-0.001032,-0.010134,0.000065,0.001256,0.008719,-0.082321,0.030768,0.207065,0.207031,0.156724,0.370309,0.000000,0.000000,0.000000,0.000000,0.000000,0.000000,0.000000,0.000000,0.000000,0.000000,0.000000,0.000000,0.079920,3,0
1500000,-0.008368,38.744637,0.028129,-0.024445,26.051298,-0.019605,0.002578,0.037499,1.567898,-0.070031,0.005086,-0.003513,-0.001051,-0.010042,0.000064,0.000294,0.008667,-0.041832,-0.000470,0.207258,0.207222,0.156388,0.368466,0.000000,0.000000,0.000000,0.000000,0.000000,0.000000,0.000000,0.000000,0.000000,0.000000,0.000000,0.000000,0.041244,3,0
1510000,-0.008316,39.006474,0.027900,-0.024054,26.058262,-0.020131,0.002632,0.037805,1.567880,-0.070249,0.005136,-0.003511,-0.001070,-0.010124,0.000065,0.000232,0.008614,0.036995,-0.000797,0.207453,0.207416,0.156056,0.366675,0.000000,0.000000,0.000000,0.000000,0.000000,0.000000,0.000000,0.000000,0.000000,0.000000,0.000000,0.000000,0.036672,3,0
1520000,-0.008263,39.264820,0.028018,-0.023849,26.058783,-0.020028,0.002689,0.037555,1.567872,-0.069862,0.005186,-0.003619,-0.001089,-0.009977,0.000064,0.000733,0.008560,-0.065880,0.011889,0.207649,0.207611,0.155726,0.364936,0.000000,0.000000,0.000000,0.000000,0.000000,0.000000,0.000000,0.000000,0.000000,0.000000,0.000000,0.000000,0.064133,3,0
1530000,-0.008207,39.524544,0.029161,-0.023482,26.061697,-0.018690,0.002740,0.037512,1.567860,-0.069709,0.005235,-0.004140,-0.001109,-0.009916,0.000064,0.000556,0.008503,-0.026047,0.051774,0.207847,0.207807,0.155399,0.363246,0.000000,0.000000,0.000000,0.000000,0.000000,0.000000,0.000000,0.000000,0.000000,0.000000,0.000000,0.000000,0.026441,3,0
1540000,-0.008148,39.784248,0.030144,-0.023086,26.064615,-0.017563,0.002798,0.037465,1.567840,-0.069549,0.005283,-0.004595,-0.001128,-0.009851,0.000064,0.000463,0.008443,-0.027374,0.045157,0.208047,0.208006,0.155075,0.361606,0.000000,0.000000,0.000000,0.000000,0.000000,0.000000,0.000000,0.000000,0.000000,0.000000,0.000000,0.000000,0.027645,3,0
1550000,-0.008089,40.045319,0.030908,-0.022786,26.069860,-0.016786,0.002850,0.037632,1.567833,-0.069610,0.005330,-0.004971,-0.001148,-0.009874,0.000064,0.000249,0.008381,0.011074,0.036617,0.208248,0.208206,0.154754,0.360012,0.000000,0.000000,0.000000,0.000000,0.000000,0.000000,0.000000,0.000000,0.000000,0.000000,0.000000,0.000000,0.013411,3,0
1560000,-0.008032,40.307053,0.030082,-0.022537,26.076353,-0.017798,0.002911,0.037884,1.567823,-0.069772,0.005377,-0.004717,-0.001166,-0.009940,0.000065,0.000243,0.008320,0.028259,-0.025270,0.208451,0.208407,0.154437,0.358466,0.000000,0.000000,0.000000,0.000000,0.000000,0.000000,0.000000,0.000000,0.000000,0.000000,0.000000,0.000000,0.028429,3,0
1570000,-0.007970,40.569416,0.030478,-0.022140,26.083778,-0.017488,0.002962,0.038229,1.567811,-0.070024,0.005423,-0.004961,-0.001185,-0.010041,0.000065,0.000418,0.008258,0.044762,0.022885,0.208656,0.208610,0.154123,0.356964,0.000000,0.000000,0.000000,0.000000,0.000000,0.000000,0.000000,0.000000,0.000000,0.000000,0.000000,0.000000,0.043938,3,0
1580000,-0.007910,40.829647,0.029851,-0.021903,26.087175,-0.018265,0.003011,0.038236,1.567797,-0.069919,0.005469,-0.004774,-0.001204,-0.009999,0.000065,0.000119,0.008194,-0.018883,-0.017715,0.208861,0.208814,0.153812,0.355505,0.000000,0.000000,0.000000,0.000000,0.000000,0.000000,0.000000,0.000000,0.000000,0.000000,0.000000,0.000000,0.019872,3,0
1590000,-0.007846,41.090534,0.029804,-0.021501,26.091789,-0.018576,0.003063,0.038343,1.567782,-0.069914,0.005514,-0.004830,-0.001223,-0.009997,0.000066,0.000016,0.008130,-0.000847,0.005471,0.209068,0.209020,0.153505,0.354090,0.000000,0.000000,0.000000,0.000000,0.000000,0.000000,0.000000,0.000000,0.000000,0.000000,0.000000,0.000000,0.007889,3,0
1600000,-0.007783,41.352081,0.028863,-0.021173,26.097538,-0.019785,0.003117,0.038539,1.567766,-0.070006,0.005559,-0.004527,-0.001242,-0.010038,0.000066,0.000194,0.008063,0.016529,-0.029322,0.209276,0.209226,0.153202,0.352716,0.000000,0.000000,0.000000,0.000000,0.000000,0.000000,0.000000,0.000000,0.000000,0.000000,0.000000,0.000000,0.017744,3,0
1610000,-0.007716,41.610088,0.029850,-0.020860,26.096586,-0.018455,0.003183,0.038136,1.567763,-0.069536,0.005602,-0.004989,-0.001261,-0.009831,0.000065,0.001540,0.007997,-0.086048,0.045681,0.209485,0.209433,0.152902,0.351382,0.000000,0.000000,0.000000,0.000000,0.000000,0.000000,0.000000,0.000000,0.000000,0.000000,0.000000,0.000000,0.083392,3,0
1620000,-0.007651,41.868118,0.028801,-0.020518,26.095749,-0.019819,0.003232,0.037761,1.567745,-0.069075,0.005647,-0.004606,-0.001280,-0.009631,0.000064,0.001385,0.007926,-0.085617,-0.034659,0.209694,0.209642,0.152605,0.350086,0.000000,0.000000,0.000000,0.000000,0.000000,0.000000,0.000000,0.000000,0.000000,0.000000,0.000000,0.000000,0.082987,3,0
1630000,-0.007583,42.128922,0.028851,-0.020203,26.099993,-0.019862,0.003276,0.037829,1.567720,-0.069045,0.005689,-0.004708,-0.001299,-0.009616,0.000064,0.000031,0.007858,-0.005703,0.009842,0.209905,0.209850,0.152313,0.348829,0.000000,0.000000,0.000000,0.000000,0.000000,0.000000,0.000000,0.000000,0.000000,0.000000,0.000000,0.000000,0.009368,3,0
1640000,-0.007514,42.386894,0.029132,-0.019960,26.098875,-0.019552,0.003332,0.037417,1.567714,-0.068580,0.005730,-0.004882,-0.001318,-0.009404,0.000063,0.001298,0.007787,-0.087631,0.018135,0.210116,0.210060,0.152024,0.347608,0.000000,0.000000,0.000000,0.000000,0.000000,0.000000,0.000000,0.000000,0.000000,0.000000,0.000000,0.000000,0.084894,3,0
1650000,-0.007442,42.644161,0.030334,-0.019551,26.096432,-0.018233,0.003379,0.036889,1.567702,-0.068018,0.005770,-0.005436,-0.001337,-0.009142,0.000062,0.002331,0.007714,-0.107048,0.054288,0.210327,0.210270,0.151739,0.346422,0.000000,0.000000,0.000000,0.000000,0.000000,0.000000,0.000000,0.000000,0.000000,0.000000,0.000000,0.000000,0.103551,3,0
1660000,-0.007370,42.902851,0.030341,-0.019191,26.096697,-0.018373,0.003441,0.036604,1.567697,-0.067675,0.005810,-0.005496,-0.001356,-0.008981,0.000061,0.000720,0.007639,-0.066105,0.006939,0.210538,0.210479,0.151458,0.345272,0.000000,0.000000,0.000000,0.000000,0.000000,0.000000,0.000000,0.000000,0.000000,0.000000,0.000000,0.000000,0.064210,3,0
1670000,-0.007297,43.160828,0.030768,-0.018881,26.095510,-0.018045,0.003495,0.036182,1.567687,-0.067231,0.005849,-0.005728,-0.001375,-0.008768,0.000060,0.001295,0.007564,-0.086254,0.023470,0.210750,0.210689,0.151181,0.344153,0.000000,0.000000,0.000000,0.000000,0.000000,0.000000,0.000000,0.000000,0.000000,0.000000,0.000000,0.000000,0.083537,3,0
1680000,-0.007221,43.422295,0.031738,-0.018441,26.100840,-0.016924,0.003552,0.036339,1.567666,-0.067299,0.005885,-0.006226,-0.001394,-0.008798,0.000061,0.000382,0.007487,0.013603,0.045969,0.210961,0.210899,0.150907,0.343067,0.000000,0.000000,0.000000,0.000000,0.000000,0.000000,0.000000,0.000000,0.000000,0.000000,0.000000,0.000000,0.014992,3,0
1690000,-0.007145,43.682304,0.032779,-0.018189,26.103281,-0.015804,0.003604,0.036244,1.567648,-0.067151,0.005921,-0.006738,-0.001413,-0.008721,0.000061,0.000521,0.007408,-0.029243,0.047998,0.211172,0.211109,0.150638,0.342012,0.000000,0.000000,0.000000,0.000000,0.000000,0.000000,0.000000,0.000000,0.000000,0.000000,0.000000,0.000000,0.029093,3,0
1700000,-0.007068,43.943687,0.033478,-0.017752,26.108250,-0.014967,0.003651,0.036376,1.567629,-0.067194,0.005956,-0.007113,-0.001431,-0.008741,0.000061,0.000213,0.007328,0.008904,0.034329,0.211383,0.211318,0.150372,0.340988,0.000000,0.000000,0.000000,0.000000,0.000000,0.000000,0.000000,0.000000,0.000000,0.000000,0.000000,0.000000,0.011130,3,0
1710000,-0.006992,44.206432,0.032632,-0.017336,26.115776,-0.016291,0.003708,0.036754,1.567621,-0.067419,0.005992,-0.006828,-0.001449,-0.008857,0.000062,0.000463,0.007246,0.045654,-0.027114,0.211594,0.211527,0.150111,0.339994,0.000000,0.000000,0.000000,0.000000,0.000000,0.000000,0.000000,0.000000,0.000000,0.000000,0.000000,0.000000,0.044588,3,0
