time_us,pos_x,pos_y,pos_z,vel_x,vel_y,vel_z,roll,pitch,yaw,bias_ax,bias_ay,bias_az,bias_gx,bias_gy,bias_gz,nis,innov_x,innov_y,innov_z,cov_pos_x,cov_pos_y,cov_pos_z,cov_yaw,des_speed,des_heading,des_climb,pid_speed,pid_yaw,pid_alt,speed_meas,yaw_meas,climb_meas,fwd_accel,yaw_rate,vert_accel,drift_m,nav_mode,mission_state
0,-0.000001,0.150002,0.000001,-0.000250,25.000378,0.000188,0.000013,-0.000009,1.570812,0.000000,0.000000,0.000000,0.000000,0.000000,0.000000,0.006250,0.000002,-0.250006,-0.000002,2.400038,2.400038,3.600017,1.000518,0.000000,0.000000,0.000000,0.000000,0.000000,0.000000,0.000000,0.000000,0.000000,0.000000,0.000000,0.000000,0.150002,1,0
10000,-0.000005,0.348195,0.004930,-0.000533,25.000612,0.000491,0.000021,-0.000010,1.570825,0.000001,0.000000,-0.000000,0.000000,0.000000,0.000000,0.003933,0.000007,-0.181344,0.013130,1.714420,1.714420,2.250079,1.001073,0.000000,0.000000,0.000000,0.000000,0.000000,0.000000,0.000000,0.000000,0.000000,0.000000,0.000000,0.000000,0.129527,3,0
20000,-0.000009,0.562450,-0.004631,-0.000733,25.000721,0.000434,0.000028,-0.000015,1.570831,0.000002,0.000000,0.000000,0.000000,0.000000,-0.000000,0.003504,0.000012,-0.160871,-0.035072,1.333616,1.333616,1.636554,1.001655,0.000000,0.000000,0.000000,0.000000,0.000000,0.000000,0.000000,0.000000,0.000000,0.000000,0.000000,0.000000,0.125114,3,0
30000,-0.000017,0.791236,0.004654,-0.001089,25.000935,0.000710,0.000042,-0.000024,1.570828,0.000004,0.000000,-0.000000,-0.000000,0.000000,-0.000000,0.002102,0.000020,-0.116702,0.043294,1.091392,1.091392,1.286065,1.002257,0.000000,0.000000,0.000000,0.000000,0.000000,0.000000,0.000000,0.000000,0.000000,0.000000,0.000000,0.000000,0.095474,3,0
40000,-0.000026,1.030908,0.001590,-0.001352,25.001324,0.000692,0.000050,-0.000024,1.570836,0.000006,0.000000,0.000000,-0.000000,0.000000,-0.000000,0.000678,0.000030,-0.067185,-0.017396,0.923811,0.923811,1.059385,1.002869,0.000000,0.000000,0.000000,0.000000,0.000000,0.000000,0.000000,0.000000,0.000000,0.000000,0.000000,0.000000,0.056841,3,0
50000,-0.000037,1.271806,0.002720,-0.001662,25.001507,0.000877,0.000070,-0.000037,1.570834,0.000009,0.000000,-0.000000,-0.000000,0.000000,-0.000000,0.000682,0.000042,-0.068313,0.007468,0.801036,0.801036,0.900822,1.003484,0.000000,0.000000,0.000000,0.000000,0.000000,0.000000,0.000000,0.000000,0.000000,0.000000,0.000000,0.000000,0.059193,3,0
60000,-0.000049,1.513498,0.001960,-0.001888,25.001701,0.001080,0.000076,-0.000042,1.570836,0.000013,0.000000,0.000000,-0.000000,0.000000,-0.000000,0.000739,0.000055,-0.070667,-0.005900,0.707270,0.707270,0.783741,1.004094,0.000000,0.000000,0.000000,0.000000,0.000000,0.000000,0.000000,0.000000,0.000000,0.000000,0.000000,0.000000,0.062337,3,0
70000,-0.000063,1.762025,0.000808,-0.002191,25.002237,0.001027,0.000095,-0.000054,1.570851,0.000014,0.000000,0.000001,-0.000000,0.000000,-0.000000,0.000045,0.000071,-0.014176,-0.010062,0.633370,0.633370,0.693801,1.004688,0.000000,0.000000,0.000000,0.000000,0.000000,0.000000,0.000000,0.000000,0.000000,0.000000,0.000000,0.000000,0.012680,3,0
80000,-0.000079,2.017346,0.004450,-0.002402,25.003311,0.001430,0.000100,-0.000063,1.570860,0.000009,0.000000,-0.000003,-0.000000,0.000000,-0.000000,0.000645,0.000087,0.055354,0.034988,0.573673,0.573673,0.622594,1.005260,0.000000,0.000000,0.000000,0.000000,0.000000,0.000000,0.000000,0.000000,0.000000,0.000000,0.000000,0.000000,0.050062,3,0
90000,-0.000096,2.267282,0.009108,-0.002625,25.003956,0.002150,0.000106,-0.000067,1.570861,0.000009,0.000000,-0.000009,-0.000000,0.000000,-0.000000,0.000367,0.000105,-0.001189,0.049291,0.524488,0.524488,0.564865,1.005801,0.000000,0.000000,0.000000,0.000000,0.000000,0.000000,0.000000,0.000000,0.000000,0.000000,0.000000,0.000000,0.001089,3,0
100000,-0.000115,2.527523,0.004591,-0.002892,25.005808,0.001679,0.000114,-0.000066,1.570878,-0.000011,0.000000,-0.000001,-0.000000,-0.000000,0.000000,0.002877,0.000125,0.126568,-0.052651,0.483304,0.483304,0.517162,1.006301,0.000000,0.000000,0.000000,0.000000,0.000000,0.000000,0.000000,0.000000,0.000000,0.000000,0.000000,0.000000,0.116373,3,0
110000,-0.000135,2.776510,0.007556,-0.003140,25.006254,0.002054,0.000123,-0.000063,1.570876,-0.000008,0.000000,-0.000007,-0.000000,-0.000000,0.000000,0.000243,0.000146,-0.014418,0.037066,0.448354,0.448354,0.477121,1.006754,0.000000,0.000000,0.000000,0.000000,0.000000,0.000000,0.000000,0.000000,0.000000,0.000000,0.000000,0.000000,0.013341,3,0
120000,-0.000158,3.027617,0.005005,-0.003468,25.007055,0.002022,0.000139,-0.000062,1.570883,-0.000012,0.000000,-0.000000,-0.000000,-0.000000,0.000000,0.000222,0.000170,0.014896,-0.034862,0.418359,0.418359,0.443071,1.007150,0.000000,0.000000,0.000000,0.000000,0.000000,0.000000,0.000000,0.000000,0.000000,0.000000,0.000000,0.000000,0.013858,3,0
130000,-0.000183,3.280446,0.004067,-0.003705,25.008160,0.002001,0.000155,-0.000062,1.570892,-0.000022,0.000000,0.000003,-0.000000,-0.000000,0.000000,0.000306,0.000195,0.042086,-0.013925,0.392369,0.392369,0.413797,1.007481,0.000000,0.000000,0.000000,0.000000,0.000000,0.000000,0.000000,0.000000,0.000000,0.000000,0.000000,0.000000,0.039334,3,0
140000,-0.000209,3.535920,0.001257,-0.003992,25.009901,0.001714,0.000161,-0.000062,1.570902,-0.000048,0.000000,0.000016,-0.000000,-0.000001,0.000000,0.001494,0.000222,0.087429,-0.043751,0.369667,0.369667,0.388393,1.007739,0.000000,0.000000,0.000000,0.000000,0.000000,0.000000,0.000000,0.000000,0.000000,0.000000,0.000000,0.000000,0.082043,3,0
150000,-0.000237,3.788975,-0.001101,-0.004273,25.011299,0.001350,0.000164,-0.000056,1.570914,-0.000065,0.000000,0.000029,-0.000000,-0.000001,0.000000,0.000639,0.000252,0.050605,-0.038938,0.349695,0.349695,0.366172,1.007915,0.000000,0.000000,0.000000,0.000000,0.000000,0.000000,0.000000,0.000000,0.000000,0.000000,0.000000,0.000000,0.047656,3,0
160000,-0.000267,4.044391,0.001104,-0.004613,25.013325,0.002175,0.000175,-0.000056,1.570917,-0.000102,0.000000,0.000015,-0.000000,-0.000002,0.000000,0.001668,0.000283,0.095720,0.037884,0.332021,0.332021,0.346600,1.008002,0.000000,0.000000,0.000000,0.000000,0.000000,0.000000,0.000000,0.000000,0.000000,0.000000,0.000000,0.000000,0.090424,3,0
170000,-0.000299,4.294493,0.003066,-0.004781,25.013832,0.002723,0.000188,-0.000063,1.570932,-0.000101,0.000001,-0.000000,-0.000000,-0.000002,0.000000,0.000197,0.000315,-0.000683,0.035352,0.316298,0.316298,0.329260,1.007991,0.000000,0.000000,0.000000,0.000000,0.000000,0.000000,0.000000,0.000000,0.000000,0.000000,0.000000,0.000000,0.000713,3,0
180000,-0.000331,4.550029,0.004455,-0.004979,25.016230,0.003322,0.000200,-0.000043,1.570942,-0.000152,0.000001,-0.000012,-0.000000,-0.000003,0.000000,0.001920,0.000348,0.107029,0.026002,0.302247,0.302247,0.313817,1.007875,0.000000,0.000000,0.000000,0.000000,0.000000,0.000000,0.000000,0.000000,0.000000,0.000000,0.000000,0.000000,0.101638,3,0
190000,-0.000365,4.800705,0.006271,-0.005205,25.017038,0.003960,0.000219,-0.000047,1.570940,-0.000158,0.000001,-0.000031,-0.000000,-0.000003,0.000000,0.000219,0.000383,0.010499,0.035645,0.289642,0.289642,0.300003,1.007645,0.000000,0.000000,0.000000,0.000000,0.000000,0.000000,0.000000,0.000000,0.000000,0.000000,0.000000,0.000000,0.009999,3,0
200000,-0.000400,5.055415,0.005745,-0.005518,25.019323,0.004038,0.000231,-0.000041,1.570945,-0.000215,0.000001,-0.000024,-0.000000,-0.000005,0.000000,0.001541,0.000420,0.097759,-0.011857,0.278296,0.278296,0.287598,1.007295,0.000000,0.000000,0.000000,0.000000,0.000000,0.000000,0.000000,0.000000,0.000000,0.000000,0.000000,0.000000,0.093225,3,0
210000,-0.000438,5.307481,0.006245,-0.005773,25.020634,0.004503,0.000249,-0.000036,1.570956,-0.000242,0.000001,-0.000030,-0.000000,-0.000006,0.000000,0.000294,0.000458,0.041815,0.009910,0.268055,0.268055,0.276421,1.006817,0.000000,0.000000,0.000000,0.000000,0.000000,0.000000,0.000000,0.000000,0.000000,0.000000,0.000000,0.000000,0.039949,3,0
220000,-0.000477,5.561486,0.006728,-0.006029,25.023022,0.004709,0.000262,-0.000025,1.570966,-0.000303,0.000002,-0.000037,-0.000000,-0.000008,0.000000,0.001248,0.000498,0.087918,0.009855,0.258788,0.258788,0.266321,1.006203,0.000000,0.000000,0.000000,0.000000,0.000000,0.000000,0.000000,0.000000,0.000000,0.000000,0.000000,0.000000,0.084128,3,0
230000,-0.000518,5.818893,0.006918,-0.006340,25.027296,0.004831,0.000265,0.000006,1.570965,-0.000434,0.000002,-0.000039,-0.000000,-0.000012,0.000000,0.004717,0.000540,0.171831,0.003339,0.250387,0.250387,0.257172,1.005447,0.000000,0.000000,0.000000,0.000000,0.000000,0.000000,0.000000,0.000000,0.000000,0.000000,0.000000,0.000000,0.164661,3,0
240000,-0.000559,6.075360,0.004864,-0.006480,25.031237,0.003849,0.000277,0.000031,1.570962,-0.000560,0.000003,0.000002,-0.000000,-0.000016,0.000000,0.004151,0.000582,0.152928,-0.050719,0.242758,0.242757,0.248866,1.004542,0.000000,0.000000,0.000000,0.000000,0.000000,0.000000,0.000000,0.000000,0.000000,0.000000,0.000000,0.000000,0.146742,3,0
250000,-0.000601,6.332545,0.004676,-0.006700,25.035707,0.003893,0.000298,0.000075,1.570976,-0.000716,0.000003,0.000007,-0.000000,-0.000022,0.000000,0.004894,0.000626,0.174728,-0.005659,0.235820,0.235820,0.241314,1.003482,0.000000,0.000000,0.000000,0.000000,0.000000,0.000000,0.000000,0.000000,0.000000,0.000000,0.000000,0.000000,0.167862,3,0
260000,-0.000644,6.587358,0.004403,-0.006849,25.039141,0.004035,0.000309,0.000114,1.570982,-0.000827,0.000004,0.000014,-0.000000,-0.000026,0.000000,0.002178,0.000670,0.116285,-0.008068,0.229507,0.229507,0.234436,1.002260,0.000000,0.000000,0.000000,0.000000,0.000000,0.000000,0.000000,0.000000,0.000000,0.000000,0.000000,0.000000,0.111839,3,0
270000,-0.000689,6.842966,0.002705,-0.007056,25.043116,0.003275,0.000328,0.000163,1.570991,-0.000971,0.000005,0.000061,-0.000000,-0.000031,0.000000,0.003470,0.000715,0.139745,-0.045794,0.223757,0.223757,0.228165,1.000871,0.000000,0.000000,0.000000,0.000000,0.000000,0.000000,0.000000,0.000000,0.000000,0.000000,0.000000,0.000000,0.134536,3,0
280000,-0.000734,7.095698,0.002493,-0.007312,25.045286,0.003115,0.000332,0.000184,1.570992,-0.001041,0.000006,0.000068,-0.000000,-0.000034,0.000000,0.000645,0.000762,0.063007,-0.006582,0.218520,0.218519,0.222443,0.999309,0.000000,0.000000,0.000000,0.000000,0.000000,0.000000,0.000000,0.000000,0.000000,0.000000,0.000000,0.000000,0.060717,3,0
290000,-0.000780,7.349311,0.001278,-0.007457,25.048153,0.002454,0.000338,0.000217,1.570997,-0.001145,0.000007,0.000109,-0.000000,-0.000039,0.000000,0.001452,0.000809,0.088558,-0.034481,0.213748,0.213748,0.217219,0.997569,0.000000,0.000000,0.000000,0.000000,0.000000,0.000000,0.000000,0.000000,0.000000,0.000000,0.000000,0.000000,0.085407,3,0
300000,-0.000827,7.606525,0.001253,-0.007679,25.053894,0.002557,0.000358,0.000281,1.571007,-0.001387,0.000008,0.000110,-0.000000,-0.000049,0.000000,0.005976,0.000857,0.192736,-0.001433,0.209403,0.209403,0.212446,0.995647,0.000000,0.000000,0.000000,0.000000,0.000000,0.000000,0.000000,0.000000,0.000000,0.000000,0.000000,0.000000,0.186011,3,0
310000,-0.000875,7.860306,0.000221,-0.007893,25.057060,0.002040,0.000366,0.000316,1.571005,-0.001514,0.000009,0.000151,-0.000000,-0.000055,0.000000,0.001588,0.000906,0.094496,-0.030554,0.205449,0.205449,0.208087,0.993538,0.000000,0.000000,0.000000,0.000000,0.000000,0.000000,0.000000,0.000000,0.000000,0.000000,0.000000,0.000000,0.091265,3,0
320000,-0.000924,8.112880,0.001110,-0.008066,25.059395,0.002714,0.000389,0.000348,1.571008,-0.001598,0.000010,0.000115,-0.000000,-0.000058,0.000000,0.000672,0.000956,0.059352,0.025508,0.201853,0.201853,0.204105,0.991239,0.000000,0.000000,0.000000,0.000000,0.000000,0.000000,0.000000,0.000000,0.000000,0.000000,0.000000,0.000000,0.057362,3,0
330000,-0.000973,8.370902,0.002755,-0.008204,25.066710,0.004353,0.000412,0.000449,1.571006,-0.001934,0.000012,0.000043,-0.000000,-0.000074,0.000000,0.008478,0.001006,0.224211,0.048359,0.198589,0.198589,0.200469,0.988746,0.000000,0.000000,0.000000,0.000000,0.000000,0.000000,0.000000,0.000000,0.000000,0.000000,0.000000,0.000000,0.216792,3,0
340000,-0.001023,8.626952,0.001586,-0.008361,25.072336,0.003481,0.000417,0.000525,1.571004,-0.002194,0.000013,0.000101,-0.000001,-0.000087,0.000000,0.004605,0.001057,0.164906,-0.036946,0.195629,0.195629,0.197151,0.986055,0.000000,0.000000,0.000000,0.000000,0.000000,0.000000,0.000000,0.000000,0.000000,0.000000,0.000000,0.000000,0.159532,3,0
350000,-0.001073,8.883060,0.003293,-0.008551,25.078243,0.005306,0.000435,0.000618,1.571016,-0.002473,0.000015,0.000016,-0.000001,-0.000101,0.000000,0.004940,0.001108,0.167224,0.051577,0.192952,0.192952,0.194125,0.983166,0.000000,0.000000,0.000000,0.000000,0.000000,0.000000,0.000000,0.000000,0.000000,0.000000,0.000000,0.000000,0.161850,3,0
360000,-0.001124,9.140493,0.003841,-0.008783,25.085524,0.005800,0.000447,0.000730,1.571027,-0.002841,0.000017,-0.000011,-0.000001,-0.000120,0.000000,0.007104,0.001161,0.209242,0.015514,0.190536,0.190536,0.191370,0.980075,0.000000,0.000000,0.000000,0.000000,0.000000,0.000000,0.000000,0.000000,0.000000,0.000000,0.000000,0.000000,0.202601,3,0
370000,-0.001177,9.394209,0.002985,-0.009070,25.089207,0.004944,0.000465,0.000789,1.571036,-0.003008,0.000020,0.000042,-0.000001,-0.000129,0.000000,0.001470,0.001215,0.090888,-0.029047,0.188363,0.188363,0.188863,0.976782,0.000000,0.000000,0.000000,0.000000,0.000000,0.000000,0.000000,0.000000,0.000000,0.000000,0.000000,0.000000,0.088042,3,0
380000,-0.001230,9.650548,0.003891,-0.009156,25.095743,0.005832,0.000473,0.000904,1.571042,-0.003347,0.000022,-0.000011,-0.000001,-0.000148,0.000000,0.005073,0.001269,0.175076,0.027536,0.186416,0.186415,0.186586,0.973285,0.000000,0.000000,0.000000,0.000000,0.000000,0.000000,0.000000,0.000000,0.000000,0.000000,0.000000,0.000000,0.169641,3,0
390000,-0.001282,9.906350,0.003580,-0.009270,25.101749,0.005797,0.000481,0.000995,1.571051,-0.003665,0.000025,0.000013,-0.000001,-0.000166,0.000000,0.004017,0.001323,0.157221,-0.012090,0.184677,0.184677,0.184522,0.969583,0.000000,0.000000,0.000000,0.000000,0.000000,0.000000,0.000000,0.000000,0.000000,0.000000,0.000000,0.000000,0.152387,3,0
400000,-0.001335,10.162858,0.004039,-0.009492,25.108734,0.006511,0.000500,0.001118,1.571055,-0.004045,0.000028,-0.000014,-0.000001,-0.000188,0.000001,0.005243,0.001377,0.179662,0.013074,0.183134,0.183134,0.182656,0.965678,0.000000,0.000000,0.000000,0.000000,0.000000,0.000000,0.000000,0.000000,0.000000,0.000000,0.000000,0.000000,0.174183,3,0
410000,-0.001389,10.419453,0.005425,-0.009633,25.116077,0.008226,0.000511,0.001253,1.571061,-0.004446,0.000031,-0.000111,-0.000002,-0.000212,0.000001,0.005634,0.001432,0.181509,0.043722,0.181772,0.181772,0.180971,0.961569,0.000000,0.000000,0.000000,0.000000,0.000000,0.000000,0.000000,0.000000,0.000000,0.000000,0.000000,0.000000,0.176016,3,0
420000,-0.001442,10.674342,0.006544,-0.009720,25.121443,0.009625,0.000527,0.001352,1.571070,-0.004731,0.000034,-0.000190,-0.000002,-0.000230,0.000001,0.002664,0.001487,0.123630,0.034570,0.180579,0.180579,0.179456,0.957258,0.000000,0.000000,0.000000,0.000000,0.000000,0.000000,0.000000,0.000000,0.000000,0.000000,0.000000,0.000000,0.119918,3,0
430000,-0.001495,10.932938,0.006493,-0.009888,25.131443,0.009621,0.000551,0.001551,1.571074,-0.005322,0.000038,-0.000178,-0.000002,-0.000267,0.000001,0.009819,0.001541,0.246387,-0.004997,0.179544,0.179543,0.178097,0.952747,0.000000,0.000000,0.000000,0.000000,0.000000,0.000000,0.000000,0.000000,0.000000,0.000000,0.000000,0.000000,0.239018,3,0
440000,-0.001549,11.191588,0.006222,-0.010103,25.141661,0.009352,0.000563,0.001751,1.571080,-0.005936,0.000042,-0.000147,-0.000002,-0.000307,0.000001,0.009821,0.001597,0.246117,-0.012481,0.178655,0.178655,0.176883,0.948036,0.000000,0.000000,0.000000,0.000000,0.000000,0.000000,0.000000,0.000000,0.000000,0.000000,0.000000,0.000000,0.238794,3,0
450000,-0.001603,11.447354,0.007313,-0.010182,25.148270,0.010736,0.000572,0.001868,1.571087,-0.006315,0.000047,-0.000235,-0.000003,-0.000332,0.000001,0.003653,0.001652,0.146394,0.033977,0.177903,0.177902,0.175803,0.943130,0.000000,0.000000,0.000000,0.000000,0.000000,0.000000,0.000000,0.000000,0.000000,0.000000,0.000000,0.000000,0.142063,3,0
460000,-0.001655,11.705009,0.008192,-0.010257,25.157301,0.011755,0.000582,0.002060,1.571091,-0.006876,0.000051,-0.000307,-0.000003,-0.000370,0.000001,0.007154,0.001706,0.208626,0.026485,0.177277,0.177277,0.174847,0.938031,0.000000,0.000000,0.000000,0.000000,0.000000,0.000000,0.000000,0.000000,0.000000,0.000000,0.000000,0.000000,0.202469,3,0
470000,-0.001708,11.960415,0.007526,-0.010353,25.163485,0.010779,0.000600,0.002172,1.571100,-0.007237,0.000056,-0.000231,-0.000003,-0.000395,0.000001,0.002843,0.001760,0.129789,-0.027009,0.176770,0.176770,0.174006,0.932744,0.000000,0.000000,0.000000,0.000000,0.000000,0.000000,0.000000,0.000000,0.000000,0.000000,0.000000,0.000000,0.125977,3,0
480000,-0.001761,12.217129,0.008481,-0.010528,25.171404,0.011889,0.000622,0.002338,1.571101,-0.007734,0.000061,-0.000316,-0.000004,-0.000430,0.000001,0.004954,0.001814,0.172507,0.029346,0.176373,0.176372,0.173271,0.927271,0.000000,0.000000,0.000000,0.000000,0.000000,0.000000,0.000000,0.000000,0.000000,0.000000,0.000000,0.000000,0.167446,3,0
490000,-0.001814,12.476295,0.009752,-0.010725,25.182846,0.013478,0.000633,0.002593,1.571103,-0.008489,0.000067,-0.000436,-0.000004,-0.000485,0.000001,0.010669,0.001869,0.253654,0.040053,0.176077,0.176077,0.172634,0.921617,0.000000,0.000000,0.000000,0.000000,0.000000,0.000000,0.000000,0.000000,0.000000,0.000000,0.000000,0.000000,0.246218,3,0
500000,-0.001866,12.732046,0.009449,-0.010784,25.189337,0.013233,0.000655,0.002725,1.571102,-0.008899,0.000073,-0.000389,-0.000004,-0.000515,0.000001,0.002923,0.001922,0.133527,-0.015347,0.175876,0.175876,0.172087,0.915788,0.000000,0.000000,0.000000,0.000000,0.000000,0.000000,0.000000,0.000000,0.000000,0.000000,0.000000,0.000000,0.129626,3,0
510000,-0.001917,12.988520,0.009261,-0.010829,25.197014,0.013114,0.000678,0.002894,1.571104,-0.009394,0.000079,-0.000353,-0.000005,-0.000553,0.000001,0.003959,0.001975,0.156013,-0.011284,0.175763,0.175762,0.171622,0.909789,0.000000,0.000000,0.000000,0.000000,0.000000,0.000000,0.000000,0.000000,0.000000,0.000000,0.000000,0.000000,0.151456,3,0
520000,-0.001967,13.248034,0.010413,-0.010867,25.209225,0.014642,0.000701,0.003180,1.571099,-0.010235,0.000086,-0.000471,-0.000005,-0.000618,0.000002,0.010917,0.002027,0.257284,0.035740,0.175730,0.175729,0.171234,0.903626,0.000000,0.000000,0.000000,0.000000,0.000000,0.000000,0.000000,0.000000,0.000000,0.000000,0.000000,0.000000,0.249757,3,0
530000,-0.002017,13.505308,0.011710,-0.010942,25.218010,0.016398,0.000708,0.003389,1.571102,-0.010829,0.000093,-0.000608,-0.000006,-0.000665,0.000002,0.005308,0.002078,0.176558,0.040354,0.175772,0.175771,0.170915,0.897304,0.000000,0.000000,0.000000,0.000000,0.000000,0.000000,0.000000,0.000000,0.000000,0.000000,0.000000,0.000000,0.171399,3,0
540000,-0.002066,13.762122,0.012833,-0.011081,25.226143,0.018093,0.000733,0.003591,1.571108,-0.011375,0.000101,-0.000725,-0.000007,-0.000710,0.000002,0.004209,0.002129,0.157743,0.033616,0.175882,0.175881,0.170659,0.890831,0.000000,0.000000,0.000000,0.000000,0.000000,0.000000,0.000000,0.000000,0.000000,0.000000,0.000000,0.000000,0.153133,3,0
550000,-0.002114,14.021983,0.011411,-0.011092,25.238869,0.016157,0.000744,0.003912,1.571107,-0.012296,0.000108,-0.000523,-0.000007,-0.000786,0.000002,0.011341,0.002178,0.258670,-0.056449,0.176055,0.176054,0.170460,0.884212,0.000000,0.000000,0.000000,0.000000,0.000000,0.000000,0.000000,0.000000,0.000000,0.000000,0.000000,0.000000,0.251088,3,0
560000,-0.002162,14.278432,0.011666,-0.011276,25.246258,0.016390,0.000761,0.004099,1.571115,-0.012799,0.000117,-0.000535,-0.000008,-0.000828,0.000002,0.003076,0.002228,0.137832,0.003262,0.176285,0.176284,0.170314,0.877456,0.000000,0.000000,0.000000,0.000000,0.000000,0.000000,0.000000,0.000000,0.000000,0.000000,0.000000,0.000000,0.133800,3,0
570000,-0.002211,14.537943,0.010390,-0.011424,25.258499,0.014441,0.000775,0.004425,1.571116,-0.013695,0.000125,-0.000343,-0.000009,-0.000906,0.000002,0.009667,0.002278,0.239129,-0.050725,0.176568,0.176567,0.170215,0.870568,0.000000,0.000000,0.000000,0.000000,0.000000,0.000000,0.000000,0.000000,0.000000,0.000000,0.000000,0.000000,0.232102,3,0
580000,-0.002259,14.794039,0.009639,-0.011595,25.265333,0.013408,0.000788,0.004591,1.571122,-0.014151,0.000134,-0.000220,-0.000009,-0.000946,0.000002,0.002440,0.002328,0.118646,-0.031631,0.176898,0.176897,0.170157,0.863557,0.000000,0.000000,0.000000,0.000000,0.000000,0.000000,0.000000,0.000000,0.000000,0.000000,0.000000,0.000000,0.115170,3,0
590000,-0.002307,15.052626,0.009611,-0.011654,25.276140,0.013380,0.000803,0.004872,1.571127,-0.014939,0.000144,-0.000197,-0.000010,-0.001016,0.000003,0.006503,0.002377,0.200424,-0.005740,0.177271,0.177270,0.170138,0.856431,0.000000,0.000000,0.000000,0.000000,0.000000,0.000000,0.000000,0.000000,0.000000,0.000000,0.000000,0.000000,0.194517,3,0
600000,-0.002353,15.309560,0.009476,-0.011666,25.284081,0.013051,0.000820,0.005080,1.571136,-0.015505,0.000154,-0.000159,-0.000011,-0.001068,0.000003,0.003209,0.002425,0.140519,-0.009446,0.177682,0.177681,0.170152,0.849196,0.000000,0.000000,0.000000,0.000000,0.000000,0.000000,0.000000,0.000000,0.000000,0.000000,0.000000,0.000000,0.136379,3,0
610000,-0.002397,15.566038,0.008243,-0.011658,25.291370,0.011049,0.000841,0.005280,1.571142,-0.016007,0.000164,0.000042,-0.000012,-0.001115,0.000003,0.002784,0.002471,0.122051,-0.048038,0.178127,0.178126,0.170196,0.841862,0.000000,0.000000,0.000000,0.000000,0.000000,0.000000,0.000000,0.000000,0.000000,0.000000,0.000000,0.000000,0.118452,3,0
620000,-0.002440,15.824429,0.008770,-0.011679,25.301752,0.011708,0.000864,0.005571,1.571141,-0.016779,0.000175,-0.000021,-0.000013,-0.001188,0.000003,0.005485,0.002515,0.183562,0.014722,0.178603,0.178602,0.170265,0.834436,0.000000,0.000000,0.000000,0.000000,0.000000,0.000000,0.000000,0.000000,0.000000,0.000000,0.000000,0.000000,0.178115,3,0
630000,-0.002483,16.083529,0.008534,-0.011723,25.313065,0.011309,0.000873,0.005900,1.571141,-0.017653,0.000186,0.000033,-0.000014,-0.001273,0.000003,0.006714,0.002559,0.203375,-0.012411,0.179105,0.179104,0.170356,0.826925,0.000000,0.000000,0.000000,0.000000,0.000000,0.000000,0.000000,0.000000,0.000000,0.000000,0.000000,0.000000,0.197319,3,0
640000,-0.002524,16.341547,0.009222,-0.011837,25.322491,0.012203,0.000885,0.006170,1.571153,-0.018366,0.000197,-0.000059,-0.000015,-0.001343,0.000003,0.004354,0.002602,0.162828,0.020267,0.179631,0.179629,0.170466,0.819340,0.000000,0.000000,0.000000,0.000000,0.000000,0.000000,0.000000,0.000000,0.000000,0.000000,0.000000,0.000000,0.157973,3,0
650000,-0.002564,16.598490,0.009596,-0.011827,25.330185,0.012625,0.000903,0.006392,1.571163,-0.018917,0.000209,-0.000100,-0.000017,-0.001398,0.000004,0.002475,0.002644,0.123383,0.008922,0.180176,0.180174,0.170591,0.811686,0.000000,0.000000,0.000000,0.000000,0.000000,0.000000,0.000000,0.000000,0.000000,0.000000,0.000000,0.000000,0.119706,3,0
660000,-0.002604,16.856165,0.009121,-0.011894,25.339041,0.011910,0.000929,0.006656,1.571159,-0.019576,0.000222,-0.000002,-0.000018,-0.001466,0.000004,0.003457,0.002685,0.144667,-0.021147,0.180738,0.180736,0.170729,0.803973,0.000000,0.000000,0.000000,0.000000,0.000000,0.000000,0.000000,0.000000,0.000000,0.000000,0.000000,0.000000,0.140333,3,0
670000,-0.002643,17.116365,0.009885,-0.011980,25.352135,0.013183,0.000942,0.007071,1.571162,-0.020618,0.000234,-0.000111,-0.000019,-0.001574,0.000004,0.008255,0.002725,0.224844,0.022639,0.181314,0.181312,0.170877,0.796209,0.000000,0.000000,0.000000,0.000000,0.000000,0.000000,0.000000,0.000000,0.000000,0.000000,0.000000,0.000000,0.218066,3,0
680000,-0.002681,17.373045,0.009541,-0.012035,25.358913,0.012609,0.000964,0.007269,1.571175,-0.021107,0.000248,-0.000030,-0.000021,-0.001626,0.000004,0.001783,0.002764,0.103666,-0.016712,0.181900,0.181899,0.171033,0.788401,0.000000,0.000000,0.000000,0.000000,0.000000,0.000000,0.000000,0.000000,0.000000,0.000000,0.000000,0.000000,0.100559,3,0
690000,-0.002717,17.633480,0.008858,-0.011987,25.372078,0.011602,0.000989,0.007698,1.571176,-0.022185,0.000261,0.000110,-0.000022,-0.001743,0.000004,0.008284,0.002802,0.224619,-0.028344,0.182496,0.182494,0.171194,0.780558,0.000000,0.000000,0.000000,0.000000,0.000000,0.000000,0.000000,0.000000,0.000000,0.000000,0.000000,0.000000,0.217804,3,0
700000,-0.002753,17.893402,0.007812,-0.012058,25.384380,0.009896,0.001009,0.008089,1.571180,-0.023172,0.000275,0.000314,-0.000023,-0.001851,0.000005,0.006900,0.002839,0.202595,-0.040596,0.183098,0.183096,0.171357,0.772688,0.000000,0.000000,0.000000,0.000000,0.000000,0.000000,0.000000,0.000000,0.000000,0.000000,0.000000,0.000000,0.196430,3,0
710000,-0.002787,18.155241,0.009149,-0.012141,25.399828,0.011932,0.001024,0.008601,1.571192,-0.024463,0.000290,0.000089,-0.000025,-0.001995,0.000005,0.011279,0.002875,0.260614,0.043373,0.183703,0.183701,0.171522,0.764797,0.000000,0.000000,0.000000,0.000000,0.000000,0.000000,0.000000,0.000000,0.000000,0.000000,0.000000,0.000000,0.252651,3,0
720000,-0.002822,18.414099,0.007763,-0.012213,25.409893,0.009821,0.001042,0.008934,1.571196,-0.025256,0.000305,0.000363,-0.000027,-0.002086,0.000005,0.004464,0.002911,0.157652,-0.052580,0.184311,0.184309,0.171686,0.756894,0.000000,0.000000,0.000000,0.000000,0.000000,0.000000,0.000000,0.000000,0.000000,0.000000,0.000000,0.000000,0.152835,3,0
730000,-0.002854,18.671219,0.007587,-0.012163,25.416777,0.009601,0.001069,0.009153,1.571193,-0.025753,0.000320,0.000414,-0.000028,-0.002143,0.000005,0.001551,0.002945,0.097481,-0.009567,0.184918,0.184916,0.171847,0.748986,0.000000,0.000000,0.000000,0.000000,0.000000,0.000000,0.000000,0.000000,0.000000,0.000000,0.000000,0.000000,0.094520,3,0
740000,-0.002885,18.929070,0.008561,-0.012117,25.424875,0.011248,0.001090,0.009407,1.571192,-0.026367,0.000335,0.000247,-0.000030,-0.002215,0.000006,0.002425,0.002977,0.118599,0.030580,0.185524,0.185522,0.172004,0.741079,0.000000,0.000000,0.000000,0.000000,0.000000,0.000000,0.000000,0.000000,0.000000,0.000000,0.000000,0.000000,0.114969,3,0
750000,-0.002915,19.191347,0.007969,-0.012137,25.440666,0.010474,0.001108,0.009960,1.571200,-0.027721,0.000351,0.000380,-0.000032,-0.002378,0.000006,0.010869,0.003008,0.258245,-0.024486,0.186127,0.186124,0.172155,0.733182,0.000000,0.000000,0.000000,0.000000,0.000000,0.000000,0.000000,0.000000,0.000000,0.000000,0.000000,0.000000,0.250252,3,0
760000,-0.002942,19.448736,0.008795,-0.012048,25.447771,0.011570,0.001138,0.010184,1.571215,-0.028226,0.000368,0.000238,-0.000034,-0.002439,0.000006,0.001568,0.003037,0.095201,0.025168,0.186724,0.186722,0.172300,0.725301,0.000000,0.000000,0.000000,0.000000,0.000000,0.000000,0.000000,0.000000,0.000000,0.000000,0.000000,0.000000,0.092286,3,0
770000,-0.002968,19.708715,0.010069,-0.012056,25.459141,0.013483,0.001168,0.010590,1.571214,-0.029171,0.000384,0.000008,-0.000036,-0.002556,0.000007,0.005248,0.003064,0.175684,0.040331,0.187316,0.187314,0.172436,0.717441,0.000000,0.000000,0.000000,0.000000,0.000000,0.000000,0.000000,0.000000,0.000000,0.000000,0.000000,0.000000,0.170226,3,0
780000,-0.002994,19.971266,0.010688,-0.012123,25.475048,0.014380,0.001194,0.011170,1.571211,-0.030551,0.000401,-0.000092,-0.000038,-0.002729,0.000007,0.010426,0.003091,0.253531,0.016951,0.187901,0.187898,0.172563,0.709610,0.000000,0.000000,0.000000,0.000000,0.000000,0.000000,0.000000,0.000000,0.000000,0.000000,0.000000,0.000000,0.245610,3,0
790000,-0.003019,20.232618,0.011811,-0.012096,25.488680,0.015965,0.001217,0.011674,1.571214,-0.031704,0.000418,-0.000294,-0.000041,-0.002877,0.000007,0.007275,0.003117,0.209488,0.034129,0.188477,0.188474,0.172681,0.701814,0.000000,0.000000,0.000000,0.000000,0.000000,0.000000,0.000000,0.000000,0.000000,0.000000,0.000000,0.000000,0.202930,3,0
800000,-0.003043,20.493404,0.011745,-0.012171,25.501003,0.015600,0.001246,0.012128,1.571221,-0.032742,0.000436,-0.000251,-0.000043,-0.003012,0.000008,0.005628,0.003142,0.186546,-0.007665,0.189044,0.189041,0.172787,0.694058,0.000000,0.000000,0.000000,0.000000,0.000000,0.000000,0.000000,0.000000,0.000000,0.000000,0.000000,0.000000,0.180694,3,0
810000,-0.003066,20.753624,0.011853,-0.012105,25.512239,0.015616,0.001260,0.012542,1.571230,-0.033666,0.000454,-0.000243,-0.000045,-0.003134,0.000008,0.004353,0.003166,0.164183,-0.001587,0.189600,0.189597,0.172882,0.686347,0.000000,0.000000,0.000000,0.000000,0.000000,0.000000,0.000000,0.000000,0.000000,0.000000,0.000000,0.000000,0.159024,3,0
820000,-0.003087,21.015169,0.013224,-0.012001,25.525711,0.017751,0.001277,0.013045,1.571241,-0.034814,0.000472,-0.000502,-0.000048,-0.003288,0.000008,0.006877,0.003188,0.202036,0.042188,0.190146,0.190143,0.172965,0.678688,0.000000,0.000000,0.000000,0.000000,0.000000,0.000000,0.000000,0.000000,0.000000,0.000000,0.000000,0.000000,0.195659,3,0
830000,-0.003106,21.275501,0.012502,-0.011978,25.536743,0.016649,0.001295,0.013460,1.571241,-0.035727,0.000491,-0.000313,-0.000050,-0.003413,0.000009,0.004239,0.003208,0.159025,-0.031110,0.190681,0.190677,0.173036,0.671084,0.000000,0.000000,0.000000,0.000000,0.000000,0.000000,0.000000,0.000000,0.000000,0.000000,0.000000,0.000000,0.154002,3,0
840000,-0.003124,21.537161,0.012704,-0.011871,25.550001,0.016717,0.001316,0.013975,1.571247,-0.036866,0.000510,-0.000324,-0.000053,-0.003572,0.000009,0.006249,0.003227,0.196764,0.001383,0.191203,0.191200,0.173093,0.663541,0.000000,0.000000,0.000000,0.000000,0.000000,0.000000,0.000000,0.000000,0.000000,0.000000,0.000000,0.000000,0.190520,3,0
850000,-0.003141,21.797594,0.011541,-0.011840,25.561075,0.014838,0.001344,0.014393,1.571246,-0.037765,0.000529,-0.000036,-0.000056,-0.003699,0.000009,0.004152,0.003244,0.153639,-0.045986,0.191713,0.191709,0.173136,0.656063,0.000000,0.000000,0.000000,0.000000,0.000000,0.000000,0.000000,0.000000,0.000000,0.000000,0.000000,0.000000,0.148762,3,0
860000,-0.003157,22.059357,0.011630,-0.011861,25.574297,0.014752,0.001364,0.014910,1.571250,-0.038892,0.000549,-0.000027,-0.000058,-0.003860,0.000010,0.005905,0.003261,0.191278,-0.001867,0.192210,0.192206,0.173166,0.648655,0.000000,0.000000,0.000000,0.000000,0.000000,0.000000,0.000000,0.000000,0.000000,0.000000,0.000000,0.000000,0.185177,3,0
870000,-0.003171,22.318602,0.011940,-0.011722,25.582970,0.015065,0.001390,0.015219,1.571255,-0.039535,0.000568,-0.000066,-0.000061,-0.003954,0.000010,0.001899,0.003276,0.108292,0.005718,0.192694,0.192690,0.173183,0.641320,0.000000,0.000000,0.000000,0.000000,0.000000,0.000000,0.000000,0.000000,0.000000,0.000000,0.000000,0.000000,0.104862,3,0
880000,-0.003184,22.579195,0.010582,-0.011691,25.593882,0.012811,0.001419,0.015645,1.571252,-0.040417,0.000589,0.000272,-0.000064,-0.004085,0.000010,0.003933,0.003289,0.147144,-0.052098,0.193164,0.193160,0.173184,0.634062,0.000000,0.000000,0.000000,0.000000,0.000000,0.000000,0.000000,0.000000,0.000000,0.000000,0.000000,0.000000,0.142442,3,0
890000,-0.003196,22.837269,0.010669,-0.011693,25.600048,0.012916,0.001438,0.015859,1.571266,-0.040811,0.000609,0.000281,-0.000067,-0.004144,0.000011,0.000691,0.003303,0.065351,-0.001414,0.193621,0.193617,0.173172,0.626885,0.000000,0.000000,0.000000,0.000000,0.000000,0.000000,0.000000,0.000000,0.000000,0.000000,0.000000,0.000000,0.063323,3,0
900000,-0.003208,23.099276,0.011233,-0.011707,25.613216,0.013694,0.001471,0.016406,1.571276,-0.041935,0.000629,0.000175,-0.000070,-0.004316,0.000011,0.005554,0.003315,0.184916,0.015225,0.194065,0.194061,0.173146,0.619791,0.000000,0.000000,0.000000,0.000000,0.000000,0.000000,0.000000,0.000000,0.000000,0.000000,0.000000,0.000000,0.178965,3,0
910000,-0.003219,23.362597,0.011332,-0.011726,25.628561,0.013649,0.001496,0.017063,1.571280,-0.043287,0.000650,0.000178,-0.000073,-0.004526,0.000011,0.007875,0.003327,0.220961,-0.001085,0.194495,0.194491,0.173105,0.612783,0.000000,0.000000,0.000000,0.000000,0.000000,0.000000,0.000000,0.000000,0.000000,0.000000,0.000000,0.000000,0.213823,3,0
920000,-0.003229,23.625280,0.009838,-0.011665,25.642498,0.011605,0.001524,0.017661,1.571273,-0.044494,0.000671,0.000558,-0.000077,-0.004716,0.000012,0.006713,0.003337,0.196032,-0.056396,0.194912,0.194907,0.173050,0.605865,0.000000,0.000000,0.000000,0.000000,0.000000,0.000000,0.000000,0.000000,0.000000,0.000000,0.000000,0.000000,0.189689,3,0
930000,-0.003238,23.884089,0.010161,-0.011582,25.649366,0.012075,0.001544,0.017919,1.571280,-0.044942,0.000691,0.000507,-0.000080,-0.004788,0.000012,0.000855,0.003347,0.072361,0.007211,0.195315,0.195311,0.172981,0.599038,0.000000,0.000000,0.000000,0.000000,0.000000,0.000000,0.000000,0.000000,0.000000,0.000000,0.000000,0.000000,0.070080,3,0
940000,-0.003246,24.147495,0.009629,-0.011568,25.664330,0.011204,0.001573,0.018578,1.571273,-0.046257,0.000713,0.000658,-0.000083,-0.005002,0.000013,0.007265,0.003356,0.211063,-0.022391,0.195706,0.195701,0.172898,0.592305,0.000000,0.000000,0.000000,0.000000,0.000000,0.000000,0.000000,0.000000,0.000000,0.000000,0.000000,0.000000,0.204204,3,0
950000,-0.003253,24.406349,0.009794,-0.011431,25.671001,0.011328,0.001589,0.018820,1.571277,-0.046675,0.000734,0.000643,-0.000087,-0.005071,0.000013,0.000721,0.003363,0.066780,0.001905,0.196083,0.196078,0.172802,0.585668,0.000000,0.000000,0.000000,0.000000,0.000000,0.000000,0.000000,0.000000,0.000000,0.000000,0.000000,0.000000,0.064680,3,0
960000,-0.003258,24.667866,0.008467,-0.011341,25.682423,0.009352,0.001610,0.019317,1.571290,-0.047594,0.000756,0.000993,-0.000090,-0.005225,0.000013,0.003831,0.003368,0.145798,-0.049865,0.196448,0.196442,0.172692,0.579129,0.000000,0.000000,0.000000,0.000000,0.000000,0.000000,0.000000,0.000000,0.000000,0.000000,0.000000,0.000000,0.141059,3,0
970000,-0.003262,24.931353,0.009197,-0.011283,25.697090,0.010278,0.001630,0.019989,1.571299,-0.048873,0.000777,0.000826,-0.000094,-0.005443,0.000014,0.006676,0.003373,0.202229,0.022417,0.196800,0.196794,0.172568,0.572689,0.000000,0.000000,0.000000,0.000000,0.000000,0.000000,0.000000,0.000000,0.000000,0.000000,0.000000,0.000000,0.195624,3,0
980000,-0.003264,25.194828,0.008914,-0.011113,25.711517,0.010019,0.001661,0.020651,1.571304,-0.050125,0.000799,0.000916,-0.000098,-0.005659,0.000014,0.006287,0.003375,0.197021,-0.013232,0.197139,0.197133,0.172432,0.566349,0.000000,0.000000,0.000000,0.000000,0.000000,0.000000,0.000000,0.000000,0.000000,0.000000,0.000000,0.000000,0.190576,3,0
990000,-0.003264,25.455015,0.010154,-0.010943,25.720060,0.011614,0.001683,0.020990,1.571303,-0.050714,0.000821,0.000622,-0.000102,-0.005762,0.000015,0.001636,0.003376,0.092432,0.039851,0.197468,0.197461,0.172283,0.560112,0.000000,0.000000,0.000000,0.000000,0.000000,0.000000,0.000000,0.000000,0.000000,0.000000,0.000000,0.000000,0.089451,3,0
1000000,-0.003264,25.713923,0.010988,-0.010944,25.726250,0.012611,0.001717,0.021206,1.571302,-0.051040,0.000842,0.000436,-0.000106,-0.005820,0.000015,0.000520,0.003376,0.050827,0.025103,0.197784,0.197777,0.172122,0.553977,0.000000,0.000000,0.000000,0.000000,0.000000,0.000000,0.000000,0.000000,0.000000,0.000000,0.000000,0.000000,0.049261,3,0
1010000,-0.003264,25.975502,0.011023,-0.010908,25.736986,0.012708,0.001741,0.021686,1.571302,-0.051875,0.000864,0.000454,-0.000109,-0.005971,0.000015,0.002719,0.003375,0.129801,-0.003026,0.198089,0.198082,0.171949,0.547946,0.000000,0.000000,0.000000,0.000000,0.000000,0.000000,0.000000,0.000000,0.000000,0.000000,0.000000,0.000000,0.125557,3,0
1020000,-0.003263,26.235775,0.010331,-0.010833,25.745316,0.011563,0.001768,0.022028,1.571314,-0.052435,0.000886,0.000664,-0.000113,-0.006074,0.000015,0.001347,0.003374,0.086781,-0.028469,0.198384,0.198376,0.171764,0.542019,0.000000,0.000000,0.000000,0.000000,0.000000,0.000000,0.000000,0.000000,0.000000,0.000000,0.000000,0.000000,0.083973,3,0
1030000,-0.003261,26.495411,0.010137,-0.010771,25.752314,0.011177,0.001803,0.022307,1.571321,-0.052856,0.000908,0.000742,-0.000117,-0.006152,0.000016,0.000701,0.003372,0.064974,-0.010721,0.198668,0.198660,0.171567,0.536196,0.000000,0.000000,0.000000,0.000000,0.000000,0.000000,0.000000,0.000000,0.000000,0.000000,0.000000,0.000000,0.062907,3,0
1040000,-0.003258,26.754419,0.009857,-0.010713,25.758102,0.010670,0.001819,0.022514,1.571321,-0.053141,0.000930,0.000845,-0.000122,-0.006206,0.000016,0.000341,0.003370,0.043812,-0.013653,0.198943,0.198934,0.171360,0.530479,0.000000,0.000000,0.000000,0.000000,0.000000,0.000000,0.000000,0.000000,0.000000,0.000000,0.000000,0.000000,0.042484,3,0
1050000,-0.003256,27.014790,0.008425,-0.010675,25.766346,0.008761,0.001837,0.022861,1.571334,-0.053682,0.000953,0.001255,-0.000126,-0.006311,0.000016,0.001580,0.003367,0.082928,-0.053861,0.199208,0.199199,0.171142,0.524867,0.000000,0.000000,0.000000,0.000000,0.000000,0.000000,0.000000,0.000000,0.000000,0.000000,0.000000,0.000000,0.080238,3,0
1060000,-0.003251,27.277819,0.008895,-0.010502,25.779207,0.009434,0.001867,0.023474,1.571328,-0.054729,0.000975,0.001142,-0.000130,-0.006515,0.000017,0.004179,0.003363,0.160416,0.013693,0.199464,0.199454,0.170915,0.519361,0.000000,0.000000,0.000000,0.000000,0.000000,0.000000,0.000000,0.000000,0.000000,0.000000,0.000000,0.000000,0.155119,3,0
1070000,-0.003245,27.538843,0.008193,-0.010345,25.788309,0.008626,0.001901,0.023861,1.571329,-0.055358,0.000997,0.001355,-0.000134,-0.006640,0.000017,0.001614,0.003356,0.096048,-0.027878,0.199711,0.199701,0.170677,0.513960,0.000000,0.000000,0.000000,0.000000,0.000000,0.000000,0.000000,0.000000,0.000000,0.000000,0.000000,0.000000,0.092906,3,0
1080000,-0.003238,27.802523,0.008180,-0.010308,25.802015,0.008472,0.001920,0.024539,1.571336,-0.056491,0.001019,0.001371,-0.000139,-0.006867,0.000017,0.004818,0.003350,0.172873,-0.003124,0.199950,0.199940,0.170430,0.508665,0.000000,0.000000,0.000000,0.000000,0.000000,0.000000,0.000000,0.000000,0.000000,0.000000,0.000000,0.000000,0.167144,3,0
1090000,-0.003230,28.064838,0.008798,-0.010204,25.813168,0.009362,0.001940,0.025066,1.571350,-0.057329,0.001041,0.001214,-0.000143,-0.007037,0.000018,0.002689,0.003342,0.127724,0.019052,0.200182,0.200171,0.170174,0.503475,0.000000,0.000000,0.000000,0.000000,0.000000,0.000000,0.000000,0.000000,0.000000,0.000000,0.000000,0.000000,0.123507,3,0
1100000,-0.003222,28.326477,0.007993,-0.010116,25.822886,0.008327,0.001972,0.025513,1.571357,-0.058013,0.001064,0.001461,-0.000148,-0.007179,0.000018,0.001900,0.003334,0.103846,-0.031563,0.200406,0.200395,0.169909,0.498388,0.000000,0.000000,0.000000,0.000000,0.000000,0.000000,0.000000,0.000000,0.000000,0.000000,0.000000,0.000000,0.100426,3,0
1110000,-0.003214,28.586779,0.007093,-0.010000,25.830242,0.007280,0.001990,0.025802,1.571357,-0.058414,0.001086,0.001736,-0.000152,-0.007264,0.000018,0.000792,0.003324,0.060776,-0.034719,0.200624,0.200613,0.169636,0.493406,0.000000,0.000000,0.000000,0.000000,0.000000,0.000000,0.000000,0.000000,0.000000,0.000000,0.000000,0.000000,0.058828,3,0
1120000,-0.003204,28.845757,0.006649,-0.009877,25.835056,0.006753,0.002013,0.025934,1.571358,-0.058540,0.001108,0.001883,-0.000157,-0.007291,0.000019,0.000115,0.003314,0.019068,-0.018331,0.200836,0.200824,0.169356,0.488528,0.000000,0.000000,0.000000,0.000000,0.000000,0.000000,0.000000,0.000000,0.000000,0.000000,0.000000,0.000000,0.018705,3,0
1130000,-0.003192,29.104767,0.005322,-0.009656,25.839903,0.004822,0.002045,0.026072,1.571369,-0.058663,0.001130,0.002285,-0.000161,-0.007319,0.000019,0.000452,0.003302,0.018467,-0.049415,0.201041,0.201029,0.169068,0.483751,0.000000,0.000000,0.000000,0.000000,0.000000,0.000000,0.000000,0.000000,0.000000,0.000000,0.000000,0.000000,0.018128,3,0
1140000,-0.003179,29.365799,0.006368,-0.009583,25.848152,0.006240,0.002080,0.026422,1.571374,-0.059174,0.001152,0.001988,-0.000166,-0.007430,0.000019,0.001175,0.003290,0.077473,0.035666,0.201241,0.201228,0.168774,0.479077,0.000000,0.000000,0.000000,0.000000,0.000000,0.000000,0.000000,0.000000,0.000000,0.000000,0.000000,0.000000,0.074944,3,0
1150000,-0.003165,29.624823,0.007239,-0.009398,25.852747,0.007390,0.002103,0.026548,1.571385,-0.059273,0.001173,0.001749,-0.000171,-0.007451,0.000019,0.000173,0.003275,0.015146,0.028793,0.201437,0.201423,0.168472,0.474503,0.000000,0.000000,0.000000,0.000000,0.000000,0.000000,0.000000,0.000000,0.000000,0.000000,0.000000,0.000000,0.014979,3,0
1160000,-0.003149,29.885881,0.005931,-0.009182,25.860884,0.005724,0.002121,0.026902,1.571390,-0.059765,0.001196,0.002153,-0.000176,-0.007563,0.000019,0.001278,0.003258,0.074141,-0.049139,0.201627,0.201613,0.168165,0.470030,0.000000,0.000000,0.000000,0.000000,0.000000,0.000000,0.000000,0.000000,0.000000,0.000000,0.000000,0.000000,0.071715,3,0
1170000,-0.003132,30.146929,0.006740,-0.008959,25.868965,0.006602,0.002143,0.027240,1.571397,-0.060236,0.001217,0.001921,-0.000181,-0.007670,0.000020,0.000943,0.003241,0.071424,0.027115,0.201814,0.201799,0.167852,0.465656,0.000000,0.000000,0.000000,0.000000,0.000000,0.000000,0.000000,0.000000,0.000000,0.000000,0.000000,0.000000,0.069096,3,0
1180000,-0.003113,30.407969,0.007517,-0.008802,25.876856,0.007534,0.002164,0.027585,1.571399,-0.060689,0.001238,0.001700,-0.000186,-0.007775,0.000020,0.000869,0.003221,0.068722,0.025707,0.201996,0.201981,0.167534,0.461380,0.000000,0.000000,0.000000,0.000000,0.000000,0.000000,0.000000,0.000000,0.000000,0.000000,0.000000,0.000000,0.066483,3,0
1190000,-0.003094,30.671680,0.007759,-0.008749,25.889492,0.007733,0.002190,0.028245,1.571398,-0.061650,0.001259,0.001635,-0.000191,-0.008001,0.000020,0.003420,0.003202,0.145544,0.006451,0.202175,0.202159,0.167210,0.457202,0.000000,0.000000,0.000000,0.000000,0.000000,0.000000,0.000000,0.000000,0.000000,0.000000,0.000000,0.000000,0.140674,3,0
1200000,-0.003075,30.933332,0.007156,-0.008588,25.898315,0.006844,0.002215,0.028640,1.571405,-0.062182,0.001281,0.001836,-0.000196,-0.008129,0.000021,0.001140,0.003182,0.080494,-0.024201,0.202351,0.202334,0.166882,0.453120,0.000000,0.000000,0.000000,0.000000,0.000000,0.000000,0.000000,0.000000,0.000000,0.000000,0.000000,0.000000,0.077839,3,0
1210000,-0.003054,31.193619,0.007450,-0.008395,25.904627,0.007196,0.002249,0.028864,1.571406,-0.062429,0.001302,0.001762,-0.000201,-0.008189,0.000021,0.000238,0.003161,0.037422,0.008237,0.202525,0.202507,0.166550,0.449132,0.000000,0.000000,0.000000,0.000000,0.000000,0.000000,0.000000,0.000000,0.000000,0.000000,0.000000,0.000000,0.036288,3,0
1220000,-0.003033,31.453230,0.008124,-0.008333,25.909634,0.008151,0.002286,0.028997,1.571410,-0.062531,0.001322,0.001573,-0.000206,-0.008213,0.000021,0.000117,0.003139,0.015621,0.021733,0.202696,0.202677,0.166214,0.445238,0.000000,0.000000,0.000000,0.000000,0.000000,0.000000,0.000000,0.000000,0.000000,0.000000,0.000000,0.000000,0.015398,3,0
1230000,-0.003012,31.716215,0.007869,-0.008260,25.920584,0.007855,0.002307,0.029542,1.571410,-0.063281,0.001343,0.001667,-0.000211,-0.008400,0.000022,0.002109,0.003117,0.113777,-0.011825,0.202865,0.202846,0.165874,0.441437,0.000000,0.000000,0.000000,0.000000,0.000000,0.000000,0.000000,0.000000,0.000000,0.000000,0.000000,0.000000,0.109971,3,0
1240000,-0.002991,31.977808,0.007917,-0.008202,25.928831,0.007961,0.002332,0.029909,1.571419,-0.063736,0.001364,0.001669,-0.000217,-0.008516,0.000022,0.000776,0.003096,0.069349,-0.000907,0.203033,0.203013,0.165531,0.437726,0.000000,0.000000,0.000000,0.000000,0.000000,0.000000,0.000000,0.000000,0.000000,0.000000,0.000000,0.000000,0.067070,3,0
1250000,-0.002969,32.240719,0.008478,-0.008009,25.939362,0.008787,0.002351,0.030434,1.571420,-0.064431,0.001384,0.001503,-0.000222,-0.008694,0.000022,0.001858,0.003073,0.105858,0.017836,0.203199,0.203178,0.165185,0.434105,0.000000,0.000000,0.000000,0.000000,0.000000,0.000000,0.000000,0.000000,0.000000,0.000000,0.000000,0.000000,0.102319,3,0
1260000,-0.002946,32.502239,0.009122,-0.007864,25.947376,0.009547,0.002389,0.030786,1.571436,-0.064833,0.001404,0.001317,-0.000227,-0.008798,0.000023,0.000679,0.003049,0.061508,0.020476,0.203364,0.203343,0.164837,0.430573,0.000000,0.000000,0.000000,0.000000,0.000000,0.000000,0.000000,0.000000,0.000000,0.000000,0.000000,0.000000,0.059498,3,0
1270000,-0.002922,32.764408,0.009932,-0.007773,25.956348,0.010604,0.002427,0.031207,1.571441,-0.065344,0.001423,0.001075,-0.000232,-0.008932,0.000023,0.001099,0.003025,0.078213,0.026346,0.203529,0.203507,0.164486,0.427127,0.000000,0.000000,0.000000,0.000000,0.000000,0.000000,0.000000,0.000000,0.000000,0.000000,0.000000,0.000000,0.075618,3,0
1280000,-0.002898,33.023174,0.008623,-0.007547,25.959248,0.008760,0.002457,0.031182,1.571440,-0.065182,0.001443,0.001541,-0.000238,-0.008890,0.000023,0.000538,0.002999,-0.025017,-0.051837,0.203694,0.203671,0.164133,0.423767,0.000000,0.000000,0.000000,0.000000,0.000000,0.000000,0.000000,0.000000,0.000000,0.000000,0.000000,0.000000,0.024347,3,0
1290000,-0.002873,33.283974,0.008927,-0.007434,25.965708,0.009110,0.002481,0.031411,1.571443,-0.065405,0.001463,0.001465,-0.000243,-0.008951,0.000023,0.000201,0.002974,0.034252,0.008066,0.203858,0.203834,0.163779,0.420492,0.000000,0.000000,0.000000,0.000000,0.000000,0.000000,0.000000,0.000000,0.000000,0.000000,0.000000,0.000000,0.033213,3,0
1300000,-0.002847,33.544758,0.008528,-0.007211,25.971888,0.008672,0.002512,0.031636,1.571452,-0.065612,0.001482,0.001624,-0.000248,-0.009009,0.000023,0.000216,0.002947,0.031815,-0.017899,0.204022,0.203997,0.163424,0.417298,0.000000,0.000000,0.000000,0.000000,0.000000,0.000000,0.000000,0.000000,0.000000,0.000000,0.000000,0.000000,0.030863,3,0
1310000,-0.002820,33.807545,0.009309,-0.007039,25.981630,0.009572,0.002544,0.032120,1.571448,-0.066187,0.001501,0.001379,-0.000253,-0.009169,0.000024,0.001387,0.002919,0.089031,0.025927,0.204186,0.204161,0.163067,0.414186,0.000000,0.000000,0.000000,0.000000,0.000000,0.000000,0.000000,0.000000,0.000000,0.000000,0.000000,0.000000,0.086052,3,0
1320000,-0.002791,34.070282,0.010170,-0.006870,25.991144,0.010382,0.002576,0.032595,1.571460,-0.066732,0.001519,0.001107,-0.000259,-0.009323,0.000024,0.001287,0.002890,0.084572,0.028712,0.204351,0.204325,0.162710,0.411154,0.000000,0.000000,0.000000,0.000000,0.000000,0.000000,0.000000,0.000000,0.000000,0.000000,0.000000,0.000000,0.081743,3,0
1330000,-0.002763,34.330269,0.008961,-0.006706,25.995596,0.008673,0.002598,0.032691,1.571471,-0.066738,0.001538,0.001553,-0.000264,-0.009326,0.000024,0.000383,0.002860,0.000648,-0.048514,0.204517,0.204489,0.162352,0.408199,0.000000,0.000000,0.000000,0.000000,0.000000,0.000000,0.000000,0.000000,0.000000,0.000000,0.000000,0.000000,0.002831,3,0
1340000,-0.002733,34.590240,0.008393,-0.006495,26.000071,0.007886,0.002622,0.032777,1.571475,-0.066733,0.001557,0.001778,-0.000269,-0.009325,0.000024,0.000097,0.002830,-0.000957,-0.024266,0.204683,0.204654,0.161993,0.405323,0.000000,0.000000,0.000000,0.000000,0.000000,0.000000,0.000000,0.000000,0.000000,0.000000,0.000000,0.000000,0.002886,3,0
1350000,-0.002703,34.852909,0.009638,-0.006361,26.009314,0.009256,0.002657,0.033217,1.571476,-0.067223,0.001574,0.001362,-0.000275,-0.009469,0.000025,0.001265,0.002799,0.076965,0.043734,0.204851,0.204821,0.161635,0.402522,0.000000,0.000000,0.000000,0.000000,0.000000,0.000000,0.000000,0.000000,0.000000,0.000000,0.000000,0.000000,0.074394,3,0
1360000,-0.002672,35.111462,0.008663,-0.006114,26.011122,0.008226,0.002692,0.033098,1.571475,-0.066927,0.001592,0.001743,-0.000280,-0.009382,0.000024,0.000612,0.002766,-0.046642,-0.040087,0.205019,0.204988,0.161277,0.399795,0.000000,0.000000,0.000000,0.000000,0.000000,0.000000,0.000000,0.000000,0.000000,0.000000,0.000000,0.000000,0.045135,3,0
1370000,-0.002640,35.370701,0.008426,-0.006028,26.014103,0.007814,0.002711,0.033061,1.571491,-0.066757,0.001610,0.001859,-0.000285,-0.009330,0.000024,0.000141,0.002733,-0.026909,-0.012048,0.205189,0.205157,0.160919,0.397141,0.000000,0.000000,0.000000,0.000000,0.000000,0.000000,0.000000,0.000000,0.000000,0.000000,0.000000,0.000000,0.026123,3,0
1380000,-0.002608,35.632668,0.007100,-0.005848,26.021833,0.005935,0.002733,0.033409,1.571499,-0.067086,0.001628,0.002345,-0.000290,-0.009434,0.000025,0.000873,0.002700,0.051769,-0.052125,0.205360,0.205327,0.160562,0.394557,0.000000,0.000000,0.000000,0.000000,0.000000,0.000000,0.000000,0.000000,0.000000,0.000000,0.000000,0.000000,0.050056,3,0
1390000,-0.002576,35.893223,0.006997,-0.005746,26.026918,0.005986,0.002755,0.033547,1.571512,-0.067139,0.001645,0.002402,-0.000296,-0.009451,0.000025,0.000019,0.002668,0.008389,-0.006103,0.205533,0.205499,0.160206,0.392043,0.000000,0.000000,0.000000,0.000000,0.000000,0.000000,0.000000,0.000000,0.000000,0.000000,0.000000,0.000000,0.008498,3,0
1400000,-0.002543,36.153076,0.005782,-0.005527,26.030622,0.004374,0.002792,0.033567,1.571525,-0.067055,0.001662,0.002861,-0.000301,-0.009427,0.000025,0.000404,0.002633,-0.013668,-0.047954,0.205707,0.205672,0.159851,0.389596,0.000000,0.000000,0.000000,0.000000,0.000000,0.000000,0.000000,0.000000,0.000000,0.000000,0.000000,0.000000,0.013449,3,0
1410000,-0.002510,36.412224,0.006467,-0.005437,26.032999,0.005276,0.002820,0.033478,1.571534,-0.066836,0.001678,0.002637,-0.000306,-0.009355,0.000025,0.000291,0.002599,-0.035011,0.023889,0.205883,0.205847,0.159497,0.387216,0.000000,0.000000,0.000000,0.000000,0.000000,0.000000,0.000000,0.000000,0.000000,0.000000,0.000000,0.000000,0.033899,3,0
1420000,-0.002477,36.671375,0.006213,-0.005324,26.035263,0.004837,0.002858,0.033399,1.571532,-0.066614,0.001694,0.002755,-0.000311,-0.009283,0.000025,0.000229,0.002565,-0.035759,-0.011803,0.206061,0.206023,0.159144,0.384901,0.000000,0.000000,0.000000,0.000000,0.000000,0.000000,0.000000,0.000000,0.000000,0.000000,0.000000,0.000000,0.034623,3,0
1430000,-0.002444,36.932571,0.005680,-0.005231,26.041172,0.004291,0.002883,0.033601,1.571543,-0.066758,0.001710,0.002964,-0.000316,-0.009331,0.000025,0.000165,0.002531,0.023132,-0.021881,0.206241,0.206202,0.158793,0.382649,0.000000,0.000000,0.000000,0.000000,0.000000,0.000000,0.000000,0.000000,0.000000,0.000000,0.000000,0.000000,0.022468,3,0
1440000,-0.002411,37.195103,0.004637,-0.005148,26.049484,0.003143,0.002916,0.033996,1.571555,-0.067127,0.001726,0.003352,-0.000321,-0.009458,0.000025,0.000851,0.002497,0.060062,-0.040760,0.206422,0.206382,0.158444,0.380460,0.000000,0.000000,0.000000,0.000000,0.000000,0.000000,0.000000,0.000000,0.000000,0.000000,0.000000,0.000000,0.058037,3,0
1450000,-0.002378,37.455509,0.005045,-0.005015,26.053802,0.003832,0.002942,0.034067,1.571559,-0.067104,0.001741,0.003214,-0.000327,-0.009450,0.000025,0.000036,0.002463,-0.003765,0.014168,0.206606,0.206564,0.158097,0.378332,0.000000,0.000000,0.000000,0.000000,0.000000,0.000000,0.000000,0.000000,0.000000,0.000000,0.000000,0.000000,0.004341,3,0
1460000,-0.002344,37.715206,0.005543,-0.004839,26.056862,0.004295,0.002965,0.034022,1.571574,-0.066948,0.001755,0.003047,-0.000332,-0.009394,0.000025,0.000156,0.002428,-0.025669,0.017331,0.206791,0.206748,0.157752,0.376265,0.000000,0.000000,0.000000,0.000000,0.000000,0.000000,0.000000,0.000000,0.000000,0.000000,0.000000,0.000000,0.024891,3,0
1470000,-0.002309,37.975567,0.006777,-0.004674,26.060997,0.005783,0.003001,0.034063,1.571581,-0.066904,0.001769,0.002601,-0.000337,-0.009376,0.000025,0.000343,0.002392,-0.007092,0.045353,0.206978,0.206934,0.157409,0.374255,0.000000,0.000000,0.000000,0.000000,0.000000,0.000000,0.000000,0.000000,0.000000,0.000000,0.000000,0.000000,0.007215,3,0
1480000,-0.002274,38.235905,0.007866,-0.004515,26.065062,0.007118,0.003030,0.034099,1.571581,-0.066848,0.001782,0.002213,-0.000342,-0.009354,0.000025,0.000264,0.002356,-0.009068,0.039278,0.207167,0.207122,0.157068,0.372302,0.000000,0.000000,0.000000,0.000000,0.000000,0.000000,0.000000,0.000000,0.000000,0.000000,0.000000,0.000000,0.009038,3,0
1490000,-0.002239,38.497585,0.009077,-0.004394,26.071438,0.008733,0.003060,0.034331,1.571592,-0.067018,0.001795,0.001772,-0.000347,-0.009414,0.000025,0.000445,0.002320,0.028740,0.043785,0.207358,0.207312,0.156730,0.370404,0.000000,0.000000,0.000000,0.000000,0.000000,0.000000,0.000000,0.000000,0.000000,0.000000,0.000000,0.000000,0.027846,3,0
1500000,-0.002203,38.760612,0.007840,-0.004117,26.080256,0.007108,0.003088,0.034761,1.571592,-0.067405,0.001810,0.002264,-0.000352,-0.009559,0.000026,0.001095,0.002282,0.065178,-0.050300,0.207551,0.207503,0.156395,0.368561,0.000000,0.000000,0.000000,0.000000,0.000000,0.000000,0.000000,0.000000,0.000000,0.000000,0.000000,0.000000,0.062951,3,0
1510000,-0.002166,39.020798,0.008393,-0.003881,26.083790,0.007631,0.003116,0.034742,1.571594,-0.067293,0.001823,0.002083,-0.000357,-0.009516,0.000026,0.000114,0.002243,-0.019028,0.018405,0.207746,0.207697,0.156062,0.366771,0.000000,0.000000,0.000000,0.000000,0.000000,0.000000,0.000000,0.000000,0.000000,0.000000,0.000000,0.000000,0.018491,3,0
1520000,-0.002127,39.283028,0.008394,-0.003597,26.090933,0.007762,0.003144,0.035031,1.571600,-0.067519,0.001836,0.002103,-0.000362,-0.009603,0.000026,0.000244,0.002203,0.038815,-0.002674,0.207942,0.207892,0.155732,0.365031,0.000000,0.000000,0.000000,0.000000,0.000000,0.000000,0.000000,0.000000,0.000000,0.000000,0.000000,0.000000,0.037528,3,0
1530000,-0.002087,39.541748,0.008448,-0.003439,26.091555,0.008014,0.003176,0.034780,1.571602,-0.067146,0.001848,0.002130,-0.000367,-0.009459,0.000026,0.000670,0.002162,-0.064457,-0.001566,0.208141,0.208089,0.155406,0.363342,0.000000,0.000000,0.000000,0.000000,0.000000,0.000000,0.000000,0.000000,0.000000,0.000000,0.000000,0.000000,0.062257,3,0
1540000,-0.002047,39.803913,0.008641,-0.003184,26.098467,0.008219,0.003204,0.035061,1.571600,-0.067345,0.001860,0.002077,-0.000372,-0.009536,0.000026,0.000197,0.002121,0.034637,0.004646,0.208340,0.208287,0.155082,0.361702,0.000000,0.000000,0.000000,0.000000,0.000000,0.000000,0.000000,0.000000,0.000000,0.000000,0.000000,0.000000,0.033498,3,0
1550000,-0.002007,40.061176,0.009425,-0.003086,26.096273,0.009359,0.003223,0.034555,1.571615,-0.066726,0.001871,0.001830,-0.000376,-0.009289,0.000025,0.001999,0.002079,-0.108326,0.026102,0.208542,0.208487,0.154761,0.360108,0.000000,0.000000,0.000000,0.000000,0.000000,0.000000,0.000000,0.000000,0.000000,0.000000,0.000000,0.000000,0.104576,3,0
1560000,-0.001967,40.319847,0.008884,-0.002968,26.096600,0.008673,0.003261,0.034270,1.571623,-0.066345,0.001883,0.002103,-0.000381,-0.009137,0.000025,0.000835,0.002037,-0.067383,-0.025312,0.208745,0.208689,0.154444,0.358561,0.000000,0.000000,0.000000,0.000000,0.000000,0.000000,0.000000,0.000000,0.000000,0.000000,0.000000,0.000000,0.065074,3,0
1570000,-0.001926,40.578499,0.009858,-0.002811,26.096962,0.009802,0.003281,0.033972,1.571639,-0.065965,0.001893,0.001767,-0.000386,-0.008978,0.000025,0.000923,0.001996,-0.067627,0.033886,0.208949,0.208891,0.154130,0.357059,0.000000,0.000000,0.000000,0.000000,0.000000,0.000000,0.000000,0.000000,0.000000,0.000000,0.000000,0.000000,0.065294,3,0
1580000,-0.001886,40.836449,0.010928,-0.002704,26.095936,0.011019,0.003307,0.033551,1.571651,-0.065476,0.001903,0.001401,-0.000390,-0.008772,0.000025,0.001461,0.001955,-0.087738,0.037031,0.209155,0.209095,0.153820,0.355600,0.000000,0.000000,0.000000,0.000000,0.000000,0.000000,0.000000,0.000000,0.000000,0.000000,0.000000,0.000000,0.084692,3,0
1590000,-0.001846,41.094421,0.009874,-0.002522,26.095034,0.009631,0.003325,0.033159,1.571648,-0.064995,0.001915,0.001901,-0.000395,-0.008572,0.000024,0.001575,0.001913,-0.087250,-0.046385,0.209361,0.209300,0.153512,0.354184,0.000000,0.000000,0.000000,0.000000,0.000000,0.000000,0.000000,0.000000,0.000000,0.000000,0.000000,0.000000,0.084237,3,0
1600000,-0.001806,41.353077,0.010690,-0.002366,26.095333,0.010678,0.003354,0.032855,1.571659,-0.064629,0.001924,0.001628,-0.000399,-0.008413,0.000024,0.000843,0.001871,-0.066910,0.027442,0.209569,0.209506,0.153209,0.352809,0.000000,0.000000,0.000000,0.000000,0.000000,0.000000,0.000000,0.000000,0.000000,0.000000,0.000000,0.000000,0.064593,3,0
1610000,-0.001765,41.612419,0.011075,-0.002174,26.096733,0.011043,0.003386,0.032666,1.571670,-0.064372,0.001934,0.001529,-0.000403,-0.008301,0.000024,0.000377,0.001829,-0.047260,0.010403,0.209777,0.209713,0.152909,0.351472,0.000000,0.000000,0.000000,0.000000,0.000000,0.000000,0.000000,0.000000,0.000000,0.000000,0.000000,0.000000,0.045639,3,0
1620000,-0.001723,41.872452,0.010180,-0.001930,26.099386,0.010091,0.003413,0.032591,1.571681,-0.064221,0.001944,0.001956,-0.000407,-0.008236,0.000024,0.000389,0.001785,-0.028313,-0.039938,0.209986,0.209921,0.152613,0.350175,0.000000,0.000000,0.000000,0.000000,0.000000,0.000000,0.000000,0.000000,0.000000,0.000000,0.000000,0.000000,0.027387,3,0
1630000,-0.001681,42.130363,0.009205,-0.001770,26.098034,0.009147,0.003442,0.032156,1.571692,-0.063745,0.001954,0.002436,-0.000411,-0.008026,0.000023,0.001599,0.001742,-0.089581,-0.043492,0.210196,0.210129,0.152320,0.348915,0.000000,0.000000,0.000000,0.000000,0.000000,0.000000,0.000000,0.000000,0.000000,0.000000,0.000000,0.000000,0.086473,3,0
1640000,-0.001638,42.391758,0.008630,-0.001500,26.103029,0.008264,0.003474,0.032298,1.571700,-0.063800,0.001963,0.002711,-0.000415,-0.008053,0.000023,0.000129,0.001697,0.010342,-0.026145,0.210406,0.210338,0.152032,0.347691,0.000000,0.000000,0.000000,0.000000,0.000000,0.000000,0.000000,0.000000,0.000000,0.000000,0.000000,0.000000,0.010105,3,0
1650000,-0.001594,42.651707,0.007773,-0.001272,26.105465,0.007096,0.003509,0.032190,1.571714,-0.063631,0.001973,0.003118,-0.000419,-0.007978,0.000023,0.000398,0.001652,-0.032436,-0.037500,0.210617,0.210548,0.151747,0.346504,0.000000,0.000000,0.000000,0.000000,0.000000,0.000000,0.000000,0.000000,0.000000,0.000000,0.000000,0.000000,0.031352,3,0
1660000,-0.001549,42.913013,0.007238,-0.001016,26.110279,0.006378,0.003538,0.032312,1.571730,-0.063661,0.001982,0.003373,-0.000423,-0.007994,0.000023,0.000099,0.001605,0.005775,-0.023946,0.210828,0.210757,0.151466,0.345351,0.000000,0.000000,0.000000,0.000000,0.000000,0.000000,0.000000,0.000000,0.000000,0.000000,0.000000,0.000000,0.005777,3,0
1670000,-0.001503,43.172867,0.007006,-0.000759,26.112328,0.006258,0.003572,0.032174,1.571746,-0.063473,0.001990,0.003513,-0.000427,-0.007904,0.000023,0.000244,0.001558,-0.036911,-0.012234,0.211039,0.210966,0.151188,0.344232,0.000000,0.000000,0.000000,0.000000,0.000000,0.000000,0.000000,0.000000,0.000000,0.000000,0.000000,0.000000,0.035650,3,0
1680000,-0.001458,43.432697,0.006106,-0.000658,26.114317,0.005154,0.003605,0.032027,1.571749,-0.063279,0.001998,0.003940,-0.000431,-0.007813,0.000023,0.000481,0.001511,-0.038364,-0.038768,0.211250,0.211176,0.150915,0.343145,0.000000,0.000000,0.000000,0.000000,0.000000,0.000000,0.000000,0.000000,0.000000,0.000000,0.000000,0.000000,0.037054,3,0
1690000,-0.001412,43.694588,0.005801,-0.000467,26.119980,0.004680,0.003633,0.032214,1.571763,-0.063378,0.002006,0.004086,-0.000434,-0.007864,0.000023,0.000095,0.001464,0.019852,-0.013911,0.211460,0.211385,0.150646,0.342089,0.000000,0.000000,0.000000,0.000000,0.000000,0.000000,0.000000,0.000000,0.000000,0.000000,0.000000,0.000000,0.019202,3,0
1700000,-0.001367,43.952892,0.006453,-0.000366,26.118895,0.005492,0.003654,0.031782,1.571775,-0.062968,0.002012,0.003856,-0.000438,-0.007655,0.000023,0.001196,0.001417,-0.083061,0.023045,0.211670,0.211594,0.150380,0.341063,0.000000,0.000000,0.000000,0.000000,0.000000,0.000000,0.000000,0.000000,0.000000,0.000000,0.000000,0.000000,0.080136,3,0
1710000,-0.001320,44.211887,0.007528,-0.000129,26.119076,0.007010,0.003682,0.031460,1.571772,-0.062660,0.002018,0.003438,-0.000441,-0.007495,0.000023,0.000898,0.001369,-0.063053,0.039877,0.211880,0.211802,0.150119,0.340066,0.000000,0.000000,0.000000,0.000000,0.000000,0.000000,0.000000,0.000000,0.000000,0.000000,0.000000,0.000000,0.060828,3,0
1720000,-0.001273,44.470882,0.006966,0.000155,26.119341,0.006409,0.003715,0.031156,1.571788,-0.062354,0.002024,0.003741,-0.000444,-0.007338,0.000023,0.000763,0.001319,-0.063622,-0.026208,0.212089,0.212009,0.149862,0.339098,0.000000,0.000000,0.000000,0.000000,0.000000,0.000000,0.000000,0.000000,0.000000,0.000000,0.000000,0.000000,0.061395,3,0
