time_us,pos_x,pos_y,pos_z,vel_x,vel_y,vel_z,roll,pitch,yaw,bias_ax,bias_ay,bias_az,bias_gx,bias_gy,bias_gz,nis,innov_x,innov_y,innov_z,cov_pos_x,cov_pos_y,cov_pos_z,cov_yaw,des_speed,des_heading,des_climb,pid_speed,pid_yaw,pid_alt,speed_meas,yaw_meas,climb_meas,fwd_accel,yaw_rate,vert_accel,drift_m,nav_mode,mission_state
0,0.000002,0.149997,-0.000001,0.000347,24.999533,-0.000322,0.000005,-0.000010,1.570797,0.000000,0.000000,0.000000,0.000000,0.000000,0.000000,0.006250,-0.000003,-0.249998,0.000003,2.400038,2.400038,3.600017,1.000518,0.000000,0.000000,0.000000,0.000000,0.000000,0.000000,0.000000,0.000000,0.000000,0.000000,0.000000,0.000000,0.149997,1,0
10000,0.000007,0.348180,-0.008198,0.000781,24.998957,-0.000667,0.000012,-0.000030,1.570794,0.000001,-0.000000,0.000000,0.000000,0.000000,0.000000,0.003964,-0.000010,-0.181322,-0.021839,1.714420,1.714420,2.250079,1.001073,0.000000,0.000000,0.000000,0.000000,0.000000,0.000000,0.000000,0.000000,0.000000,0.000000,0.000000,0.000000,0.129512,3,0
20000,0.000014,0.562420,-0.001040,0.001114,24.998386,-0.000729,0.000019,-0.000054,1.570806,0.000002,-0.000000,-0.000000,0.000000,0.000000,0.000000,0.003437,-0.000018,-0.160832,0.026269,1.333616,1.333616,1.636554,1.001655,0.000000,0.000000,0.000000,0.000000,0.000000,0.000000,0.000000,0.000000,0.000000,0.000000,0.000000,0.000000,0.125084,3,0
30000,0.000025,0.794801,-0.005927,0.001604,24.997814,-0.001030,0.000027,-0.000066,1.570804,0.000004,-0.000000,0.000000,-0.000000,0.000000,0.000000,0.001344,-0.000030,-0.096761,-0.022753,1.091392,1.091392,1.286065,1.002257,0.000000,0.000000,0.000000,0.000000,0.000000,0.000000,0.000000,0.000000,0.000000,0.000000,0.000000,0.000000,0.079160,3,0
40000,0.000039,1.046134,-0.007863,0.002099,24.997713,-0.001248,0.000016,-0.000084,1.570810,0.000003,-0.000000,0.000001,-0.000000,0.000000,0.000000,0.000027,-0.000046,0.008805,-0.010899,0.923811,0.923811,1.059385,1.002869,0.000000,0.000000,0.000000,0.000000,0.000000,0.000000,0.000000,0.000000,0.000000,0.000000,0.000000,0.000000,0.007449,3,0
50000,0.000055,1.300885,-0.004057,0.002447,24.997646,-0.001492,0.000006,-0.000108,1.570818,0.000002,-0.000000,-0.000001,0.000000,-0.000000,-0.000000,0.000277,-0.000063,0.035779,0.025458,0.801036,0.801036,0.900822,1.003484,0.000000,0.000000,0.000000,0.000000,0.000000,0.000000,0.000000,0.000000,0.000000,0.000000,0.000000,0.000000,0.031003,3,0
60000,0.000073,1.560196,-0.006429,0.002787,24.997875,-0.001913,0.000011,-0.000122,1.570832,-0.000003,-0.000000,0.000001,0.000000,-0.000000,-0.000000,0.000970,-0.000083,0.079212,-0.018015,0.707270,0.707270,0.783741,1.004094,0.000000,0.000000,0.000000,0.000000,0.000000,0.000000,0.000000,0.000000,0.000000,0.000000,0.000000,0.000000,0.069875,3,0
70000,0.000093,1.801653,-0.009438,0.003110,24.997089,-0.002445,0.000012,-0.000152,1.570834,0.000004,-0.000000,0.000002,0.000000,0.000000,0.000000,0.001069,-0.000104,-0.080707,-0.025830,0.633370,0.633370,0.693801,1.004688,0.000000,0.000000,0.000000,0.000000,0.000000,0.000000,0.000000,0.000000,0.000000,0.000000,0.000000,0.000000,0.072188,3,0
80000,0.000117,2.060735,-0.013200,0.003604,24.997702,-0.003002,0.000017,-0.000173,1.570849,-0.000006,-0.000000,0.000006,0.000000,-0.000000,-0.000000,0.001562,-0.000129,0.095300,-0.035988,0.573673,0.573673,0.622594,1.005260,0.000000,0.000000,0.000000,0.000000,0.000000,0.000000,0.000000,0.000000,0.000000,0.000000,0.000000,0.000000,0.086188,3,0
90000,0.000143,2.308556,-0.016112,0.003958,24.997272,-0.003498,0.000018,-0.000184,1.570855,-0.000003,-0.000000,0.000010,0.000000,-0.000000,-0.000000,0.000234,-0.000156,-0.024634,-0.030586,0.524488,0.524488,0.564865,1.005801,0.000000,0.000000,0.000000,0.000000,0.000000,0.000000,0.000000,0.000000,0.000000,0.000000,0.000000,0.000000,0.022481,3,0
100000,0.000171,2.558999,-0.019334,0.004338,24.997110,-0.004053,0.000007,-0.000205,1.570861,-0.000004,-0.000000,0.000015,0.000000,-0.000000,-0.000000,0.000213,-0.000186,0.005853,-0.036951,0.483303,0.483303,0.517162,1.006301,0.000000,0.000000,0.000000,0.000000,0.000000,0.000000,0.000000,0.000000,0.000000,0.000000,0.000000,0.000000,0.005384,3,0
110000,0.000202,2.817430,-0.022141,0.004764,24.998159,-0.004666,0.000015,-0.000219,1.570862,-0.000025,-0.000000,0.000022,0.000000,-0.000000,-0.000000,0.002162,-0.000219,0.113232,-0.034746,0.448353,0.448353,0.477121,1.006754,0.000000,0.000000,0.000000,0.000000,0.000000,0.000000,0.000000,0.000000,0.000000,0.000000,0.000000,0.000000,0.104771,3,0
120000,0.000237,3.068373,-0.022707,0.005258,24.998102,-0.004910,0.000009,-0.000234,1.570858,-0.000028,-0.000000,0.000023,0.000000,-0.000000,-0.000000,0.000037,-0.000255,0.013823,-0.007014,0.418358,0.418358,0.443071,1.007150,0.000000,0.000000,0.000000,0.000000,0.000000,0.000000,0.000000,0.000000,0.000000,0.000000,0.000000,0.000000,0.012861,3,0
130000,0.000275,3.317144,-0.022954,0.005711,24.997578,-0.005049,-0.000002,-0.000254,1.570855,-0.000023,-0.000000,0.000024,0.000000,-0.000000,-0.000000,0.000054,-0.000294,-0.018451,-0.002853,0.392369,0.392369,0.413797,1.007481,0.000000,0.000000,0.000000,0.000000,0.000000,0.000000,0.000000,0.000000,0.000000,0.000000,0.000000,0.000000,0.017247,3,0
140000,0.000316,3.573924,-0.021892,0.006183,24.998747,-0.005218,-0.000014,-0.000267,1.570866,-0.000056,-0.000000,0.000019,0.000000,-0.000001,-0.000000,0.001955,-0.000337,0.110482,0.017235,0.369666,0.369666,0.388393,1.007739,0.000000,0.000000,0.000000,0.000000,0.000000,0.000000,0.000000,0.000000,0.000000,0.000000,0.000000,0.000000,0.103676,3,0
150000,0.000360,3.822334,-0.022475,0.006597,24.998154,-0.005571,-0.000006,-0.000282,1.570867,-0.000047,-0.000000,0.000022,0.000000,-0.000001,-0.000000,0.000126,-0.000382,-0.027036,-0.008651,0.349695,0.349695,0.366172,1.007915,0.000000,0.000000,0.000000,0.000000,0.000000,0.000000,0.000000,0.000000,0.000000,0.000000,0.000000,0.000000,0.025463,3,0
160000,0.000406,4.074671,-0.020541,0.006938,24.998514,-0.005543,-0.000009,-0.000288,1.570862,-0.000063,-0.000001,0.000009,0.000000,-0.000001,-0.000000,0.000473,-0.000429,0.042623,0.034518,0.332020,0.332020,0.346600,1.008002,0.000000,0.000000,0.000000,0.000000,0.000000,0.000000,0.000000,0.000000,0.000000,0.000000,0.000000,0.000000,0.040267,3,0
170000,0.000453,4.330366,-0.021153,0.007256,24.999979,-0.005906,-0.000010,-0.000297,1.570860,-0.000109,-0.000001,0.000013,0.000000,-0.000002,-0.000000,0.001869,-0.000478,0.108344,-0.010095,0.316297,0.316297,0.329260,1.007991,0.000000,0.000000,0.000000,0.000000,0.000000,0.000000,0.000000,0.000000,0.000000,0.000000,0.000000,0.000000,0.102634,3,0
180000,0.000502,4.587961,-0.022286,0.007558,25.002295,-0.006684,-0.000014,-0.000301,1.570855,-0.000181,-0.000001,0.000023,0.000000,-0.000004,-0.000000,0.003666,-0.000529,0.150818,-0.020450,0.302246,0.302246,0.313817,1.007875,0.000000,0.000000,0.000000,0.000000,0.000000,0.000000,0.000000,0.000000,0.000000,0.000000,0.000000,0.000000,0.143222,3,0
190000,0.000554,4.838585,-0.020948,0.007993,25.002350,-0.006482,-0.000017,-0.000311,1.570860,-0.000188,-0.000001,0.000008,0.000000,-0.000004,-0.000000,0.000150,-0.000582,0.012473,0.028146,0.289641,0.289641,0.300003,1.007645,0.000000,0.000000,0.000000,0.000000,0.000000,0.000000,0.000000,0.000000,0.000000,0.000000,0.000000,0.000000,0.011883,3,0
200000,0.000608,5.090468,-0.021763,0.008349,25.002810,-0.006906,-0.000013,-0.000314,1.570858,-0.000211,-0.000002,0.000017,0.000000,-0.000005,-0.000000,0.000295,-0.000638,0.040154,-0.015613,0.278295,0.278295,0.287598,1.007295,0.000000,0.000000,0.000000,0.000000,0.000000,0.000000,0.000000,0.000000,0.000000,0.000000,0.000000,0.000000,0.038297,3,0
210000,0.000664,5.347021,-0.021419,0.008692,25.005411,-0.007177,-0.000009,-0.000308,1.570873,-0.000305,-0.000002,0.000011,0.000000,-0.000008,-0.000000,0.003411,-0.000695,0.146086,0.009061,0.268053,0.268053,0.276421,1.006816,0.000000,0.000000,0.000000,0.000000,0.000000,0.000000,0.000000,0.000000,0.000000,0.000000,0.000000,0.000000,0.139561,3,0
220000,0.000723,5.603453,-0.019278,0.009116,25.008106,-0.006434,-0.000018,-0.000304,1.570875,-0.000408,-0.000003,-0.000023,0.000000,-0.000011,-0.000000,0.003887,-0.000755,0.147934,0.049894,0.258786,0.258786,0.266321,1.006202,0.000000,0.000000,0.000000,0.000000,0.000000,0.000000,0.000000,0.000000,0.000000,0.000000,0.000000,0.000000,0.141556,3,0
230000,0.000784,5.859787,-0.020775,0.009478,25.010990,-0.007468,-0.000030,-0.000287,1.570882,-0.000522,-0.000003,0.000002,0.000000,-0.000014,-0.000000,0.003766,-0.000818,0.149901,-0.033341,0.250385,0.250385,0.257172,1.005446,0.000000,0.000000,0.000000,0.000000,0.000000,0.000000,0.000000,0.000000,0.000000,0.000000,0.000000,0.000000,0.143647,3,0
240000,0.000847,6.112825,-0.022146,0.009845,25.012262,-0.008255,-0.000028,-0.000284,1.570895,-0.000582,-0.000004,0.000027,0.000000,-0.000016,-0.000000,0.000995,-0.000882,0.072449,-0.031209,0.242755,0.242755,0.248866,1.004541,0.000000,0.000000,0.000000,0.000000,0.000000,0.000000,0.000000,0.000000,0.000000,0.000000,0.000000,0.000000,0.069523,3,0
250000,0.000912,6.369130,-0.019670,0.010222,25.015642,-0.007209,-0.000020,-0.000268,1.570910,-0.000722,-0.000005,-0.000029,0.000000,-0.000021,-0.000000,0.004613,-0.000949,0.157338,0.063693,0.235817,0.235817,0.241314,1.003481,0.000000,0.000000,0.000000,0.000000,0.000000,0.000000,0.000000,0.000000,0.000000,0.000000,0.000000,0.000000,0.151157,3,0
260000,0.000979,6.620059,-0.018155,0.010599,25.015821,-0.006540,-0.000015,-0.000280,1.570923,-0.000742,-0.000006,-0.000067,0.000000,-0.000022,-0.000000,0.000331,-0.001018,0.020275,0.040662,0.229503,0.229503,0.234436,1.002258,0.000000,0.000000,0.000000,0.000000,0.000000,0.000000,0.000000,0.000000,0.000000,0.000000,0.000000,0.000000,0.019524,3,0
270000,0.001048,6.872733,-0.019497,0.010907,25.017191,-0.007505,-0.000018,-0.000268,1.570921,-0.000811,-0.000007,-0.000033,0.000000,-0.000025,-0.000000,0.000912,-0.001088,0.067527,-0.033508,0.223753,0.223753,0.228165,1.000869,0.000000,0.000000,0.000000,0.000000,0.000000,0.000000,0.000000,0.000000,0.000000,0.000000,0.000000,0.000000,0.065018,3,0
280000,0.001119,7.129914,-0.018060,0.011330,25.021769,-0.006811,-0.000023,-0.000228,1.570927,-0.001024,-0.000008,-0.000078,0.000000,-0.000033,-0.000000,0.006222,-0.001161,0.192540,0.040844,0.218515,0.218515,0.222443,0.999307,0.000000,0.000000,0.000000,0.000000,0.000000,0.000000,0.000000,0.000000,0.000000,0.000000,0.000000,0.000000,0.185531,3,0
290000,0.001193,7.382075,-0.016584,0.011776,25.023001,-0.006097,-0.000028,-0.000232,1.570934,-0.001088,-0.000010,-0.000127,0.000000,-0.000036,-0.000000,0.000773,-0.001237,0.054585,0.042757,0.213743,0.213743,0.217219,0.997567,0.000000,0.000000,0.000000,0.000000,0.000000,0.000000,0.000000,0.000000,0.000000,0.000000,0.000000,0.000000,0.052653,3,0
300000,0.001269,7.635119,-0.015649,0.012110,25.024868,-0.005491,-0.000026,-0.000222,1.570945,-0.001190,-0.000011,-0.000162,0.000000,-0.000040,-0.000000,0.001176,-0.001314,0.080718,0.028142,0.209397,0.209397,0.212446,0.995645,0.000000,0.000000,0.000000,0.000000,0.000000,0.000000,0.000000,0.000000,0.000000,0.000000,0.000000,0.000000,0.077911,3,0
310000,0.001347,7.891716,-0.013687,0.012542,25.029762,-0.004410,-0.000031,-0.000163,1.570958,-0.001437,-0.000013,-0.000239,0.000001,-0.000051,-0.000000,0.006084,-0.001394,0.185474,0.058278,0.205442,0.205442,0.208087,0.993536,0.000000,0.000000,0.000000,0.000000,0.000000,0.000000,0.000000,0.000000,0.000000,0.000000,0.000000,0.000000,0.179129,3,0
320000,0.001427,8.146304,-0.012919,0.012992,25.033129,-0.004194,-0.000029,-0.000116,1.570961,-0.001618,-0.000015,-0.000273,0.000001,-0.000059,-0.000000,0.002716,-0.001477,0.127619,0.024003,0.201846,0.201846,0.204105,0.991237,0.000000,0.000000,0.000000,0.000000,0.000000,0.000000,0.000000,0.000000,0.000000,0.000000,0.000000,0.000000,0.123334,3,0
330000,0.001509,8.402957,-0.011785,0.013274,25.038475,-0.003326,-0.000032,-0.000046,1.570967,-0.001904,-0.000018,-0.000325,0.000001,-0.000073,-0.000000,0.006083,-0.001560,0.191059,0.035209,0.198580,0.198580,0.200469,0.988743,0.000000,0.000000,0.000000,0.000000,0.000000,0.000000,0.000000,0.000000,0.000000,0.000000,0.000000,0.000000,0.184741,3,0
340000,0.001592,8.658977,-0.011911,0.013630,25.043417,-0.003624,-0.000044,0.000019,1.570972,-0.002178,-0.000020,-0.000321,0.000001,-0.000086,-0.000000,0.004822,-0.001646,0.172899,-0.002745,0.195620,0.195620,0.197151,0.986053,0.000000,0.000000,0.000000,0.000000,0.000000,0.000000,0.000000,0.000000,0.000000,0.000000,0.000000,0.000000,0.167270,3,0
350000,0.001676,8.916323,-0.012450,0.013919,25.049843,-0.004284,-0.000044,0.000121,1.570977,-0.002536,-0.000023,-0.000295,0.000001,-0.000104,-0.000000,0.007497,-0.001732,0.215014,-0.015485,0.192941,0.192941,0.194125,0.983164,0.000000,0.000000,0.000000,0.000000,0.000000,0.000000,0.000000,0.000000,0.000000,0.000000,0.000000,0.000000,0.208106,3,0
360000,0.001762,9.171154,-0.012718,0.014277,25.053993,-0.004656,-0.000043,0.000179,1.570973,-0.002776,-0.000026,-0.000283,0.000001,-0.000117,-0.000000,0.003016,-0.001819,0.136514,-0.007011,0.190524,0.190525,0.191370,0.980073,0.000000,0.000000,0.000000,0.000000,0.000000,0.000000,0.000000,0.000000,0.000000,0.000000,0.000000,0.000000,0.132191,3,0
370000,0.001848,9.424841,-0.012413,0.014572,25.057076,-0.004699,-0.000053,0.000215,1.570969,-0.002961,-0.000030,-0.000304,0.000001,-0.000127,-0.000001,0.001646,-0.001908,0.100309,0.011294,0.188350,0.188350,0.188863,0.976779,0.000000,0.000000,0.000000,0.000000,0.000000,0.000000,0.000000,0.000000,0.000000,0.000000,0.000000,0.000000,0.097178,3,0
380000,0.001936,9.678055,-0.011023,0.014923,25.059750,-0.003399,-0.000053,0.000253,1.570971,-0.003126,-0.000034,-0.000393,0.000002,-0.000136,-0.000001,0.001517,-0.001998,0.085137,0.046253,0.186401,0.186401,0.186586,0.973282,0.000000,0.000000,0.000000,0.000000,0.000000,0.000000,0.000000,0.000000,0.000000,0.000000,0.000000,0.000000,0.082516,3,0
390000,0.002024,9.934491,-0.010315,0.015172,25.066185,-0.002932,-0.000051,0.000362,1.570980,-0.003510,-0.000038,-0.000441,0.000002,-0.000157,-0.000001,0.005910,-0.002088,0.189716,0.024230,0.184661,0.184662,0.184522,0.969581,0.000000,0.000000,0.000000,0.000000,0.000000,0.000000,0.000000,0.000000,0.000000,0.000000,0.000000,0.000000,0.183888,3,0
400000,0.002113,10.189787,-0.010198,0.015496,25.071293,-0.003146,-0.000056,0.000454,1.570993,-0.003831,-0.000042,-0.000452,0.000002,-0.000176,-0.000001,0.003732,-0.002180,0.151885,0.004903,0.183117,0.183117,0.182656,0.965675,0.000000,0.000000,0.000000,0.000000,0.000000,0.000000,0.000000,0.000000,0.000000,0.000000,0.000000,0.000000,0.147264,3,0
410000,0.002203,10.446398,-0.010307,0.015788,25.078243,-0.003626,-0.000064,0.000577,1.570997,-0.004261,-0.000047,-0.000446,0.000002,-0.000202,-0.000001,0.006130,-0.002272,0.194720,-0.002426,0.181753,0.181753,0.180971,0.961566,0.000000,0.000000,0.000000,0.000000,0.000000,0.000000,0.000000,0.000000,0.000000,0.000000,0.000000,0.000000,0.188835,3,0
420000,0.002294,10.704288,-0.011510,0.016114,25.086845,-0.005098,-0.000062,0.000744,1.570996,-0.004806,-0.000053,-0.000356,0.000003,-0.000235,-0.000001,0.009267,-0.002365,0.236224,-0.038960,0.180558,0.180559,0.179456,0.957255,0.000000,0.000000,0.000000,0.000000,0.000000,0.000000,0.000000,0.000000,0.000000,0.000000,0.000000,0.000000,0.229127,3,0
430000,0.002385,10.962238,-0.010159,0.016373,25.095701,-0.003968,-0.000066,0.000914,1.571010,-0.005373,-0.000059,-0.000470,0.000003,-0.000271,-0.000001,0.009420,-0.002459,0.236672,0.047370,0.179521,0.179521,0.178097,0.952743,0.000000,0.000000,0.000000,0.000000,0.000000,0.000000,0.000000,0.000000,0.000000,0.000000,0.000000,0.000000,0.229604,3,0
440000,0.002476,11.217295,-0.008892,0.016633,25.100954,-0.002865,-0.000078,0.001003,1.571023,-0.005717,-0.000065,-0.000581,0.000004,-0.000293,-0.000001,0.003385,-0.002552,0.137666,0.044461,0.178630,0.178631,0.176883,0.948033,0.000000,0.000000,0.000000,0.000000,0.000000,0.000000,0.000000,0.000000,0.000000,0.000000,0.000000,0.000000,0.133590,3,0
450000,0.002568,11.472484,-0.009065,0.016915,25.106403,-0.003492,-0.000091,0.001108,1.571030,-0.006082,-0.000072,-0.000568,0.000004,-0.000317,-0.000001,0.003219,-0.002646,0.140984,-0.004759,0.177876,0.177876,0.175803,0.943126,0.000000,0.000000,0.000000,0.000000,0.000000,0.000000,0.000000,0.000000,0.000000,0.000000,0.000000,0.000000,0.136828,3,0
460000,0.002660,11.729567,-0.007915,0.017237,25.114330,-0.002213,-0.000092,0.001267,1.571032,-0.006629,-0.000079,-0.000678,0.000005,-0.000354,-0.000001,0.006987,-0.002741,0.203804,0.040692,0.177249,0.177249,0.174847,0.938027,0.000000,0.000000,0.000000,0.000000,0.000000,0.000000,0.000000,0.000000,0.000000,0.000000,0.000000,0.000000,0.197801,3,0
470000,0.002753,11.984407,-0.009067,0.017472,25.119324,-0.003784,-0.000089,0.001364,1.571043,-0.006979,-0.000087,-0.000569,0.000005,-0.000378,-0.000002,0.002796,-0.002836,0.125551,-0.038880,0.176739,0.176739,0.174006,0.932739,0.000000,0.000000,0.000000,0.000000,0.000000,0.000000,0.000000,0.000000,0.000000,0.000000,0.000000,0.000000,0.121884,3,0
480000,0.002846,12.241148,-0.009176,0.017779,25.127108,-0.004050,-0.000084,0.001536,1.571059,-0.007523,-0.000095,-0.000562,0.000006,-0.000416,-0.000002,0.005764,-0.002932,0.188722,-0.002436,0.176340,0.176340,0.173271,0.927266,0.000000,0.000000,0.000000,0.000000,0.000000,0.000000,0.000000,0.000000,0.000000,0.000000,0.000000,0.000000,0.183197,3,0
490000,0.002939,12.499171,-0.009773,0.018070,25.136757,-0.004875,-0.000087,0.001754,1.571078,-0.008208,-0.000104,-0.000504,0.000006,-0.000466,-0.000002,0.008626,-0.003027,0.230086,-0.019301,0.176042,0.176042,0.172634,0.921612,0.000000,0.000000,0.000000,0.000000,0.000000,0.000000,0.000000,0.000000,0.000000,0.000000,0.000000,0.000000,0.223355,3,0
500000,0.003032,12.753796,-0.008239,0.018350,25.141493,-0.003210,-0.000082,0.001859,1.571092,-0.008549,-0.000114,-0.000675,0.000007,-0.000491,-0.000002,0.002495,-0.003124,0.111120,0.055323,0.175838,0.175839,0.172087,0.915783,0.000000,0.000000,0.000000,0.000000,0.000000,0.000000,0.000000,0.000000,0.000000,0.000000,0.000000,0.000000,0.107906,3,0
510000,0.003125,13.010323,-0.006906,0.018576,25.149120,-0.001643,-0.000092,0.002027,1.571107,-0.009103,-0.000124,-0.000827,0.000008,-0.000533,-0.000002,0.005299,-0.003219,0.174509,0.047808,0.175722,0.175723,0.171622,0.909784,0.000000,0.000000,0.000000,0.000000,0.000000,0.000000,0.000000,0.000000,0.000000,0.000000,0.000000,0.000000,0.169427,3,0
520000,0.003217,13.264649,-0.006728,0.018763,25.153358,-0.001814,-0.000103,0.002124,1.571109,-0.009419,-0.000135,-0.000850,0.000009,-0.000558,-0.000002,0.001526,-0.003314,0.096818,0.006935,0.175687,0.175687,0.171234,0.903620,0.000000,0.000000,0.000000,0.000000,0.000000,0.000000,0.000000,0.000000,0.000000,0.000000,0.000000,0.000000,0.094038,3,0
530000,0.003309,13.519137,-0.006549,0.019093,25.157841,-0.001638,-0.000110,0.002239,1.571107,-0.009759,-0.000146,-0.000874,0.000010,-0.000584,-0.000002,0.001656,-0.003409,0.100875,0.006948,0.175726,0.175726,0.170914,0.897298,0.000000,0.000000,0.000000,0.000000,0.000000,0.000000,0.000000,0.000000,0.000000,0.000000,0.000000,0.000000,0.097976,3,0
540000,0.003401,13.774369,-0.005708,0.019343,25.163523,-0.000701,-0.000117,0.002377,1.571122,-0.010190,-0.000158,-0.000979,0.000011,-0.000619,-0.000003,0.002663,-0.003504,0.124646,0.030219,0.175833,0.175833,0.170658,0.890824,0.000000,0.000000,0.000000,0.000000,0.000000,0.000000,0.000000,0.000000,0.000000,0.000000,0.000000,0.000000,0.121041,3,0
550000,0.003494,14.033837,-0.006371,0.019613,25.175861,-0.001893,-0.000125,0.002696,1.571129,-0.011140,-0.000171,-0.000897,0.000012,-0.000697,-0.000003,0.011615,-0.003599,0.266933,-0.022997,0.176003,0.176003,0.170460,0.884205,0.000000,0.000000,0.000000,0.000000,0.000000,0.000000,0.000000,0.000000,0.000000,0.000000,0.000000,0.000000,0.259126,3,0
560000,0.003586,14.289901,-0.006252,0.019905,25.182808,-0.001800,-0.000136,0.002879,1.571139,-0.011675,-0.000185,-0.000915,0.000013,-0.000742,-0.000003,0.003478,-0.003694,0.146495,0.004881,0.176230,0.176231,0.170314,0.877448,0.000000,0.000000,0.000000,0.000000,0.000000,0.000000,0.000000,0.000000,0.000000,0.000000,0.000000,0.000000,0.142237,3,0
570000,0.003678,14.546692,-0.006309,0.020156,25.190794,-0.002235,-0.000149,0.003094,1.571145,-0.012307,-0.000199,-0.000910,0.000014,-0.000797,-0.000003,0.004605,-0.003789,0.168668,-0.001251,0.176510,0.176510,0.170214,0.870560,0.000000,0.000000,0.000000,0.000000,0.000000,0.000000,0.000000,0.000000,0.000000,0.000000,0.000000,0.000000,0.163747,3,0
580000,0.003769,14.804204,-0.005897,0.020415,25.199903,-0.001692,-0.000149,0.003337,1.571148,-0.013038,-0.000214,-0.000970,0.000015,-0.000860,-0.000003,0.005886,-0.003884,0.190102,0.015347,0.176837,0.176837,0.170157,0.863548,0.000000,0.000000,0.000000,0.000000,0.000000,0.000000,0.000000,0.000000,0.000000,0.000000,0.000000,0.000000,0.184537,3,0
590000,0.003860,15.061844,-0.006379,0.020673,25.209158,-0.002743,-0.000161,0.003602,1.571157,-0.013789,-0.000229,-0.000905,0.000017,-0.000927,-0.000004,0.005941,-0.003978,0.190924,-0.016294,0.177206,0.177207,0.170138,0.856421,0.000000,0.000000,0.000000,0.000000,0.000000,0.000000,0.000000,0.000000,0.000000,0.000000,0.000000,0.000000,0.185325,3,0
600000,0.003950,15.321377,-0.007357,0.020798,25.221577,-0.004544,-0.000165,0.003950,1.571163,-0.014800,-0.000245,-0.000768,0.000018,-0.001019,-0.000004,0.010393,-0.004070,0.251253,-0.033398,0.177614,0.177614,0.170152,0.849186,0.000000,0.000000,0.000000,0.000000,0.000000,0.000000,0.000000,0.000000,0.000000,0.000000,0.000000,0.000000,0.243847,3,0
610000,0.004038,15.579836,-0.007096,0.020944,25.232126,-0.004385,-0.000182,0.004251,1.571180,-0.015666,-0.000262,-0.000813,0.000020,-0.001100,-0.000004,0.007172,-0.004162,0.210264,0.010887,0.178056,0.178056,0.170195,0.841851,0.000000,0.000000,0.000000,0.000000,0.000000,0.000000,0.000000,0.000000,0.000000,0.000000,0.000000,0.000000,0.204064,3,0
620000,0.004125,15.840188,-0.007479,0.021104,25.245785,-0.004950,-0.000199,0.004658,1.571198,-0.016801,-0.000280,-0.000762,0.000021,-0.001207,-0.000005,0.011794,-0.004251,0.269762,-0.011928,0.178528,0.178529,0.170264,0.834423,0.000000,0.000000,0.000000,0.000000,0.000000,0.000000,0.000000,0.000000,0.000000,0.000000,0.000000,0.000000,0.261767,3,0
630000,0.004211,16.095892,-0.008080,0.021353,25.251602,-0.005836,-0.000208,0.004832,1.571210,-0.017267,-0.000299,-0.000677,0.000023,-0.001252,-0.000005,0.001973,-0.004340,0.108667,-0.019413,0.179027,0.179028,0.170356,0.826913,0.000000,0.000000,0.000000,0.000000,0.000000,0.000000,0.000000,0.000000,0.000000,0.000000,0.000000,0.000000,0.105509,3,0
640000,0.004297,16.352932,-0.008256,0.021590,25.259571,-0.006369,-0.000211,0.005076,1.571220,-0.017930,-0.000318,-0.000659,0.000025,-0.001317,-0.000005,0.003697,-0.004429,0.151089,-0.004012,0.179549,0.179550,0.170465,0.819326,0.000000,0.000000,0.000000,0.000000,0.000000,0.000000,0.000000,0.000000,0.000000,0.000000,0.000000,0.000000,0.146631,3,0
650000,0.004381,16.610703,-0.008976,0.021773,25.268726,-0.007623,-0.000225,0.005350,1.571229,-0.018699,-0.000338,-0.000554,0.000027,-0.001394,-0.000006,0.004887,-0.004517,0.172274,-0.023032,0.180091,0.180091,0.170591,0.811672,0.000000,0.000000,0.000000,0.000000,0.000000,0.000000,0.000000,0.000000,0.000000,0.000000,0.000000,0.000000,0.167160,3,0
660000,0.004464,16.870396,-0.008309,0.021896,25.281143,-0.006634,-0.000240,0.005751,1.571231,-0.019758,-0.000359,-0.000676,0.000029,-0.001502,-0.000006,0.008850,-0.004602,0.232471,0.026144,0.180649,0.180650,0.170729,0.803958,0.000000,0.000000,0.000000,0.000000,0.000000,0.000000,0.000000,0.000000,0.000000,0.000000,0.000000,0.000000,0.225516,3,0
670000,0.004546,17.128992,-0.009565,0.022086,25.291544,-0.008729,-0.000242,0.006091,1.571236,-0.020645,-0.000381,-0.000477,0.000031,-0.001594,-0.000006,0.006201,-0.004687,0.191322,-0.041669,0.181222,0.181222,0.170877,0.796193,0.000000,0.000000,0.000000,0.000000,0.000000,0.000000,0.000000,0.000000,0.000000,0.000000,0.000000,0.000000,0.185599,3,0
680000,0.004625,17.385897,-0.009161,0.022168,25.298946,-0.008260,-0.000246,0.006318,1.571235,-0.021265,-0.000403,-0.000562,0.000034,-0.001659,-0.000007,0.002843,-0.004770,0.131411,0.017306,0.181805,0.181806,0.171033,0.788384,0.000000,0.000000,0.000000,0.000000,0.000000,0.000000,0.000000,0.000000,0.000000,0.000000,0.000000,0.000000,0.127512,3,0
690000,0.004704,17.644745,-0.008577,0.022386,25.309618,-0.007344,-0.000267,0.006673,1.571251,-0.022189,-0.000426,-0.000678,0.000036,-0.001758,-0.000007,0.006080,-0.004852,0.192493,0.023398,0.182397,0.182398,0.171193,0.780540,0.000000,0.000000,0.000000,0.000000,0.000000,0.000000,0.000000,0.000000,0.000000,0.000000,0.000000,0.000000,0.186701,3,0
700000,0.004782,17.903704,-0.009807,0.022544,25.320393,-0.009536,-0.000275,0.007043,1.571253,-0.023125,-0.000450,-0.000474,0.000039,-0.001861,-0.000008,0.006222,-0.004932,0.191965,-0.040376,0.182995,0.182996,0.171357,0.772668,0.000000,0.000000,0.000000,0.000000,0.000000,0.000000,0.000000,0.000000,0.000000,0.000000,0.000000,0.000000,0.186171,3,0
710000,0.004857,18.165203,-0.009093,0.022592,25.335402,-0.008428,-0.000283,0.007561,1.571260,-0.024467,-0.000475,-0.000621,0.000042,-0.002010,-0.000008,0.011986,-0.005010,0.270840,0.028331,0.183597,0.183598,0.171522,0.764776,0.000000,0.000000,0.000000,0.000000,0.000000,0.000000,0.000000,0.000000,0.000000,0.000000,0.000000,0.000000,0.262597,3,0
720000,0.004930,18.421900,-0.009261,0.022701,25.341995,-0.008705,-0.000297,0.007786,1.571262,-0.025013,-0.000500,-0.000606,0.000044,-0.002072,-0.000008,0.001910,-0.005087,0.108583,-0.002893,0.184201,0.184202,0.171685,0.756872,0.000000,0.000000,0.000000,0.000000,0.000000,0.000000,0.000000,0.000000,0.000000,0.000000,0.000000,0.000000,0.105365,3,0
730000,0.005002,18.679947,-0.008530,0.022841,25.350731,-0.007818,-0.000302,0.008088,1.571263,-0.025778,-0.000526,-0.000759,0.000048,-0.002160,-0.000009,0.003772,-0.005162,0.150005,0.028699,0.184805,0.184806,0.171846,0.748962,0.000000,0.000000,0.000000,0.000000,0.000000,0.000000,0.000000,0.000000,0.000000,0.000000,0.000000,0.000000,0.145472,3,0
740000,0.005073,18.941793,-0.009565,0.022967,25.366138,-0.009562,-0.000313,0.008645,1.571278,-0.027173,-0.000553,-0.000580,0.000051,-0.002323,-0.000009,0.011921,-0.005235,0.269569,-0.033297,0.185407,0.185408,0.172003,0.741055,0.000000,0.000000,0.000000,0.000000,0.000000,0.000000,0.000000,0.000000,0.000000,0.000000,0.000000,0.000000,0.261289,3,0
750000,0.005142,19.201246,-0.008268,0.023012,25.377174,-0.007878,-0.000319,0.009046,1.571281,-0.028151,-0.000581,-0.000848,0.000054,-0.002440,-0.000010,0.006004,-0.005306,0.186480,0.048651,0.186006,0.186007,0.172155,0.733156,0.000000,0.000000,0.000000,0.000000,0.000000,0.000000,0.000000,0.000000,0.000000,0.000000,0.000000,0.000000,0.180772,3,0
760000,0.005209,19.460791,-0.009463,0.023108,25.388174,-0.009687,-0.000336,0.009440,1.571299,-0.029136,-0.000609,-0.000631,0.000057,-0.002559,-0.000010,0.005796,-0.005375,0.185343,-0.038853,0.186600,0.186601,0.172299,0.725272,0.000000,0.000000,0.000000,0.000000,0.000000,0.000000,0.000000,0.000000,0.000000,0.000000,0.000000,0.000000,0.179654,3,0
770000,0.005273,19.719805,-0.008170,0.023140,25.398092,-0.007915,-0.000349,0.009800,1.571306,-0.030020,-0.000639,-0.000907,0.000061,-0.002668,-0.000011,0.004741,-0.005443,0.164234,0.048487,0.187188,0.187189,0.172435,0.717411,0.000000,0.000000,0.000000,0.000000,0.000000,0.000000,0.000000,0.000000,0.000000,0.000000,0.000000,0.000000,0.159198,3,0
780000,0.005335,19.978292,-0.006730,0.023210,25.407043,-0.005990,-0.000354,0.010137,1.571317,-0.030802,-0.000668,-0.001213,0.000065,-0.002766,-0.000011,0.003791,-0.005508,0.143667,0.052915,0.187769,0.187770,0.172563,0.709579,0.000000,0.000000,0.000000,0.000000,0.000000,0.000000,0.000000,0.000000,0.000000,0.000000,0.000000,0.000000,0.139274,3,0
790000,0.005397,20.240000,-0.007762,0.023330,25.421469,-0.007736,-0.000368,0.010700,1.571334,-0.032140,-0.000699,-0.001017,0.000069,-0.002937,-0.000012,0.009714,-0.005571,0.242910,-0.033691,0.188342,0.188342,0.172680,0.701780,0.000000,0.000000,0.000000,0.000000,0.000000,0.000000,0.000000,0.000000,0.000000,0.000000,0.000000,0.000000,0.235347,3,0
800000,0.005458,20.501766,-0.009058,0.023448,25.435940,-0.009989,-0.000392,0.011272,1.571342,-0.033474,-0.000730,-0.000768,0.000073,-0.003110,-0.000013,0.009551,-0.005634,0.239483,-0.042169,0.188905,0.188906,0.172786,0.694022,0.000000,0.000000,0.000000,0.000000,0.000000,0.000000,0.000000,0.000000,0.000000,0.000000,0.000000,0.000000,0.232007,3,0
810000,0.005515,20.762335,-0.008594,0.023401,25.448015,-0.009410,-0.000414,0.011748,1.571347,-0.034579,-0.000762,-0.000887,0.000077,-0.003255,-0.000013,0.006284,-0.005695,0.196241,0.019660,0.189458,0.189459,0.172881,0.686310,0.000000,0.000000,0.000000,0.000000,0.000000,0.000000,0.000000,0.000000,0.000000,0.000000,0.000000,0.000000,0.190124,3,0
820000,0.005571,21.020452,-0.009089,0.023525,25.455740,-0.010172,-0.000440,0.012040,1.571350,-0.035230,-0.000794,-0.000804,0.000081,-0.003342,-0.000014,0.002151,-0.005753,0.114460,-0.013870,0.190000,0.190001,0.172964,0.678648,0.000000,0.000000,0.000000,0.000000,0.000000,0.000000,0.000000,0.000000,0.000000,0.000000,0.000000,0.000000,0.110976,3,0
830000,0.005627,21.280560,-0.010193,0.023647,25.466835,-0.011878,-0.000454,0.012484,1.571354,-0.036231,-0.000828,-0.000591,0.000086,-0.003479,-0.000014,0.005104,-0.005811,0.174326,-0.034696,0.190531,0.190531,0.173034,0.671042,0.000000,0.000000,0.000000,0.000000,0.000000,0.000000,0.000000,0.000000,0.000000,0.000000,0.000000,0.000000,0.168885,3,0
840000,0.005680,21.541368,-0.011287,0.023685,25.479023,-0.013628,-0.000476,0.012987,1.571371,-0.037346,-0.000862,-0.000382,0.000090,-0.003633,-0.000015,0.006163,-0.005867,0.192413,-0.033669,0.191050,0.191050,0.173092,0.663497,0.000000,0.000000,0.000000,0.000000,0.000000,0.000000,0.000000,0.000000,0.000000,0.000000,0.000000,0.000000,0.186374,3,0
850000,0.005732,21.802872,-0.011638,0.023729,25.492264,-0.014236,-0.000497,0.013544,1.571393,-0.038573,-0.000896,-0.000337,0.000095,-0.003805,-0.000015,0.007115,-0.005921,0.209787,-0.007364,0.191556,0.191556,0.173135,0.656017,0.000000,0.000000,0.000000,0.000000,0.000000,0.000000,0.000000,0.000000,0.000000,0.000000,0.000000,0.000000,0.203170,3,0
860000,0.005782,22.063147,-0.010687,0.023805,25.503103,-0.012794,-0.000522,0.013989,1.571394,-0.039557,-0.000931,-0.000581,0.000100,-0.003946,-0.000016,0.004729,-0.005974,0.166821,0.037958,0.192049,0.192050,0.173165,0.648606,0.000000,0.000000,0.000000,0.000000,0.000000,0.000000,0.000000,0.000000,0.000000,0.000000,0.000000,0.000000,0.161585,3,0
870000,0.005830,22.326033,-0.011542,0.023748,25.518377,-0.014164,-0.000549,0.014653,1.571407,-0.041010,-0.000967,-0.000421,0.000105,-0.004156,-0.000017,0.009742,-0.006023,0.244379,-0.025092,0.192530,0.192530,0.173181,0.641269,0.000000,0.000000,0.000000,0.000000,0.000000,0.000000,0.000000,0.000000,0.000000,0.000000,0.000000,0.000000,0.236610,3,0
880000,0.005875,22.587027,-0.011693,0.023687,25.530127,-0.014668,-0.000569,0.015149,1.571416,-0.042090,-0.001003,-0.000422,0.000111,-0.004315,-0.000018,0.005240,-0.006070,0.180128,-0.000133,0.192997,0.192998,0.173183,0.634008,0.000000,0.000000,0.000000,0.000000,0.000000,0.000000,0.000000,0.000000,0.000000,0.000000,0.000000,0.000000,0.174433,3,0
890000,0.005918,22.846144,-0.010248,0.023743,25.538591,-0.012463,-0.000596,0.015482,1.571433,-0.042801,-0.001039,-0.000789,0.000116,-0.004422,-0.000018,0.002737,-0.006116,0.117802,0.055187,0.193451,0.193451,0.173171,0.626828,0.000000,0.000000,0.000000,0.000000,0.000000,0.000000,0.000000,0.000000,0.000000,0.000000,0.000000,0.000000,0.114158,3,0
900000,0.005960,23.105330,-0.010912,0.023738,25.547045,-0.013607,-0.000624,0.015827,1.571447,-0.043512,-0.001077,-0.000666,0.000122,-0.004530,-0.000018,0.002271,-0.006159,0.117027,-0.018569,0.193891,0.193892,0.173144,0.619731,0.000000,0.000000,0.000000,0.000000,0.000000,0.000000,0.000000,0.000000,0.000000,0.000000,0.000000,0.000000,0.113402,3,0
910000,0.006000,23.365225,-0.010657,0.023729,25.556677,-0.013513,-0.000641,0.016242,1.571459,-0.044345,-0.001114,-0.000760,0.000128,-0.004659,-0.000019,0.003022,-0.006201,0.136061,0.013744,0.194318,0.194318,0.173103,0.612721,0.000000,0.000000,0.000000,0.000000,0.000000,0.000000,0.000000,0.000000,0.000000,0.000000,0.000000,0.000000,0.131791,3,0
920000,0.006038,23.627110,-0.010173,0.023727,25.569622,-0.012962,-0.000655,0.016828,1.571469,-0.045541,-0.001153,-0.000910,0.000134,-0.004846,-0.000020,0.006159,-0.006241,0.194132,0.021595,0.194731,0.194732,0.173048,0.605799,0.000000,0.000000,0.000000,0.000000,0.000000,0.000000,0.000000,0.000000,0.000000,0.000000,0.000000,0.000000,0.187929,3,0
930000,0.006075,23.885788,-0.010512,0.023776,25.576654,-0.013428,-0.000674,0.017116,1.571471,-0.046106,-0.001191,-0.000862,0.000140,-0.004936,-0.000020,0.001354,-0.006279,0.091150,-0.007182,0.195131,0.195132,0.172979,0.598969,0.000000,0.000000,0.000000,0.000000,0.000000,0.000000,0.000000,0.000000,0.000000,0.000000,0.000000,0.000000,0.088395,3,0
940000,0.006110,24.147125,-0.011302,0.023705,25.588434,-0.014630,-0.000700,0.017649,1.571491,-0.047169,-0.001231,-0.000706,0.000146,-0.005108,-0.000021,0.004768,-0.006316,0.170340,-0.022660,0.195518,0.195519,0.172896,0.592233,0.000000,0.000000,0.000000,0.000000,0.000000,0.000000,0.000000,0.000000,0.000000,0.000000,0.000000,0.000000,0.164902,3,0
950000,0.006142,24.410440,-0.009846,0.023662,25.603569,-0.012460,-0.000729,0.018343,1.571509,-0.048591,-0.001270,-0.001102,0.000153,-0.005341,-0.000022,0.008813,-0.006351,0.226946,0.055746,0.195892,0.195893,0.172800,0.585593,0.000000,0.000000,0.000000,0.000000,0.000000,0.000000,0.000000,0.000000,0.000000,0.000000,0.000000,0.000000,0.219622,3,0
960000,0.006175,24.672455,-0.011061,0.023685,25.616037,-0.014437,-0.000758,0.018920,1.571514,-0.049739,-0.001310,-0.000837,0.000160,-0.005533,-0.000023,0.005585,-0.006383,0.182150,-0.037695,0.196254,0.196254,0.172689,0.579050,0.000000,0.000000,0.000000,0.000000,0.000000,0.000000,0.000000,0.000000,0.000000,0.000000,0.000000,0.000000,0.176299,3,0
970000,0.006203,24.931227,-0.010024,0.023558,25.622671,-0.013253,-0.000783,0.019197,1.571524,-0.050239,-0.001350,-0.001134,0.000167,-0.005618,-0.000023,0.001289,-0.006414,0.079039,0.041238,0.196603,0.196603,0.172566,0.572607,0.000000,0.000000,0.000000,0.000000,0.000000,0.000000,0.000000,0.000000,0.000000,0.000000,0.000000,0.000000,0.076700,3,0
980000,0.006229,25.189404,-0.009417,0.023415,25.628271,-0.012505,-0.000803,0.019414,1.571534,-0.050612,-0.001391,-0.001323,0.000174,-0.005682,-0.000023,0.000671,-0.006441,0.058748,0.025874,0.196939,0.196940,0.172430,0.566263,0.000000,0.000000,0.000000,0.000000,0.000000,0.000000,0.000000,0.000000,0.000000,0.000000,0.000000,0.000000,0.057160,3,0
990000,0.006253,25.452221,-0.009494,0.023312,25.641912,-0.012761,-0.000834,0.020078,1.571544,-0.051878,-0.001432,-0.001340,0.000181,-0.005903,-0.000024,0.006332,-0.006466,0.198093,0.001817,0.197264,0.197264,0.172281,0.560022,0.000000,0.000000,0.000000,0.000000,0.000000,0.000000,0.000000,0.000000,0.000000,0.000000,0.000000,0.000000,0.191682,3,0
1000000,0.006277,25.711111,-0.009714,0.023327,25.648521,-0.013041,-0.000867,0.020350,1.571547,-0.052355,-0.001474,-0.001318,0.000188,-0.005987,-0.000024,0.000898,-0.006490,0.074291,-0.003134,0.197578,0.197578,0.172119,0.553883,0.000000,0.000000,0.000000,0.000000,0.000000,0.000000,0.000000,0.000000,0.000000,0.000000,0.000000,0.000000,0.072118,3,0
1010000,0.006297,25.974640,-0.008724,0.023171,25.663160,-0.011707,-0.000896,0.021076,1.571551,-0.053725,-0.001515,-0.001615,0.000196,-0.006233,-0.000025,0.007563,-0.006512,0.212914,0.039278,0.197880,0.197880,0.171946,0.547848,0.000000,0.000000,0.000000,0.000000,0.000000,0.000000,0.000000,0.000000,0.000000,0.000000,0.000000,0.000000,0.205989,3,0
1020000,0.006317,26.234871,-0.009904,0.023141,25.671761,-0.013397,-0.000922,0.021479,1.571561,-0.054426,-0.001557,-0.001339,0.000203,-0.006361,-0.000026,0.002118,-0.006532,0.108271,-0.037048,0.198172,0.198172,0.171761,0.541917,0.000000,0.000000,0.000000,0.000000,0.000000,0.000000,0.000000,0.000000,0.000000,0.000000,0.000000,0.000000,0.104885,3,0
1030000,0.006335,26.495789,-0.009451,0.023151,25.681538,-0.012755,-0.000955,0.021944,1.571562,-0.055244,-0.001599,-0.001498,0.000211,-0.006513,-0.000027,0.002645,-0.006552,0.126255,0.020651,0.198453,0.198453,0.171564,0.536091,0.000000,0.000000,0.000000,0.000000,0.000000,0.000000,0.000000,0.000000,0.000000,0.000000,0.000000,0.000000,0.122244,3,0
1040000,0.006352,26.759357,-0.009105,0.023106,25.695826,-0.012488,-0.000986,0.022668,1.571571,-0.056564,-0.001641,-0.001632,0.000219,-0.006762,-0.000028,0.006705,-0.006570,0.203182,0.016819,0.198725,0.198724,0.171357,0.530370,0.000000,0.000000,0.000000,0.000000,0.000000,0.000000,0.000000,0.000000,0.000000,0.000000,0.000000,0.000000,0.196556,3,0
1050000,0.006368,27.020927,-0.009334,0.023007,25.706556,-0.012980,-0.001002,0.023193,1.571583,-0.057466,-0.001684,-0.001609,0.000228,-0.006934,-0.000028,0.003089,-0.006586,0.138258,-0.003438,0.198987,0.198987,0.171139,0.524754,0.000000,0.000000,0.000000,0.000000,0.000000,0.000000,0.000000,0.000000,0.000000,0.000000,0.000000,0.000000,0.133824,3,0
1060000,0.006381,27.281841,-0.009147,0.022869,25.715961,-0.012890,-0.001037,0.023639,1.571585,-0.058218,-0.001727,-0.001699,0.000236,-0.007079,-0.000029,0.002163,-0.006600,0.115129,0.011296,0.199240,0.199240,0.170911,0.519244,0.000000,0.000000,0.000000,0.000000,0.000000,0.000000,0.000000,0.000000,0.000000,0.000000,0.000000,0.000000,0.111490,3,0
1070000,0.006391,27.541447,-0.007816,0.022719,25.722902,-0.011010,-0.001058,0.023945,1.571601,-0.058694,-0.001770,-0.002102,0.000245,-0.007173,-0.000029,0.001289,-0.006612,0.072784,0.051419,0.199485,0.199484,0.170673,0.513838,0.000000,0.000000,0.000000,0.000000,0.000000,0.000000,0.000000,0.000000,0.000000,0.000000,0.000000,0.000000,0.070656,3,0
1080000,0.006401,27.803730,-0.008557,0.022598,25.734434,-0.012168,-0.001080,0.024533,1.571603,-0.059686,-0.001813,-0.001934,0.000253,-0.007371,-0.000030,0.003762,-0.006621,0.151052,-0.022010,0.199722,0.199721,0.170426,0.508539,0.000000,0.000000,0.000000,0.000000,0.000000,0.000000,0.000000,0.000000,0.000000,0.000000,0.000000,0.000000,0.146165,3,0
1090000,0.006409,28.066004,-0.009119,0.022460,25.745834,-0.012997,-0.001107,0.025120,1.571616,-0.060654,-0.001857,-0.001817,0.000262,-0.007567,-0.000031,0.003531,-0.006629,0.147081,-0.015344,0.199951,0.199950,0.170169,0.503343,0.000000,0.000000,0.000000,0.000000,0.000000,0.000000,0.000000,0.000000,0.000000,0.000000,0.000000,0.000000,0.142324,3,0
1100000,0.006415,28.328930,-0.009681,0.022299,25.758333,-0.014039,-0.001139,0.025765,1.571621,-0.061728,-0.001900,-0.001703,0.000271,-0.007788,-0.000032,0.004324,-0.006636,0.162994,-0.014984,0.200173,0.200171,0.169905,0.498253,0.000000,0.000000,0.000000,0.000000,0.000000,0.000000,0.000000,0.000000,0.000000,0.000000,0.000000,0.000000,0.157687,3,0
1110000,0.006418,28.592497,-0.009770,0.022154,25.771814,-0.014396,-0.001160,0.026467,1.571626,-0.062904,-0.001944,-0.001727,0.000280,-0.008033,-0.000033,0.005126,-0.006640,0.178247,0.002118,0.200388,0.200386,0.169632,0.493266,0.000000,0.000000,0.000000,0.000000,0.000000,0.000000,0.000000,0.000000,0.000000,0.000000,0.000000,0.000000,0.172414,3,0
1120000,0.006420,28.852705,-0.010037,0.022022,25.779171,-0.014928,-0.001184,0.026802,1.571636,-0.063390,-0.001987,-0.001696,0.000289,-0.008136,-0.000033,0.000882,-0.006642,0.073580,-0.004154,0.200597,0.200595,0.169351,0.488383,0.000000,0.000000,0.000000,0.000000,0.000000,0.000000,0.000000,0.000000,0.000000,0.000000,0.000000,0.000000,0.071409,3,0
1130000,0.006420,29.113590,-0.008878,0.021933,25.787565,-0.013408,-0.001221,0.027196,1.571638,-0.063994,-0.002031,-0.002079,0.000299,-0.008266,-0.000034,0.001711,-0.006644,0.091600,0.046605,0.200800,0.200797,0.169063,0.483602,0.000000,0.000000,0.000000,0.000000,0.000000,0.000000,0.000000,0.000000,0.000000,0.000000,0.000000,0.000000,0.088770,3,0
1140000,0.006420,29.373148,-0.008524,0.021898,25.793510,-0.012901,-0.001245,0.027438,1.571648,-0.064320,-0.002074,-0.002224,0.000309,-0.008337,-0.000034,0.000448,-0.006643,0.049299,0.017454,0.200997,0.200995,0.168768,0.478924,0.000000,0.000000,0.000000,0.000000,0.000000,0.000000,0.000000,0.000000,0.000000,0.000000,0.000000,0.000000,0.048078,3,0
1150000,0.006419,29.636728,-0.009816,0.021693,25.806477,-0.014772,-0.001270,0.028151,1.571666,-0.065429,-0.002118,-0.001891,0.000318,-0.008582,-0.000035,0.004794,-0.006641,0.167381,-0.041137,0.201190,0.201187,0.168467,0.474346,0.000000,0.000000,0.000000,0.000000,0.000000,0.000000,0.000000,0.000000,0.000000,0.000000,0.000000,0.000000,0.161895,3,0
1160000,0.006417,29.894930,-0.011064,0.021559,25.809807,-0.016397,-0.001305,0.028240,1.571679,-0.065451,-0.002162,-0.001566,0.000328,-0.008587,-0.000035,0.000258,-0.006639,0.003067,-0.039203,0.201378,0.201375,0.168159,0.469868,0.000000,0.000000,0.000000,0.000000,0.000000,0.000000,0.000000,0.000000,0.000000,0.000000,0.000000,0.000000,0.007068,3,0
1170000,0.006412,30.158510,-0.009855,0.021489,25.822723,-0.014818,-0.001327,0.028937,1.571692,-0.066523,-0.002206,-0.001986,0.000338,-0.008831,-0.000036,0.004644,-0.006636,0.162287,0.049369,0.201562,0.201559,0.167846,0.465490,0.000000,0.000000,0.000000,0.000000,0.000000,0.000000,0.000000,0.000000,0.000000,0.000000,0.000000,0.000000,0.156968,3,0
1180000,0.006407,30.420713,-0.010156,0.021398,25.833038,-0.015285,-0.001359,0.029464,1.571703,-0.067300,-0.002249,-0.001948,0.000348,-0.009011,-0.000037,0.002226,-0.006630,0.117247,-0.005200,0.201742,0.201739,0.167527,0.461211,0.000000,0.000000,0.000000,0.000000,0.000000,0.000000,0.000000,0.000000,0.000000,0.000000,0.000000,0.000000,0.113485,3,0
1190000,0.006401,30.682224,-0.010898,0.021246,25.841957,-0.016404,-0.001394,0.029906,1.571716,-0.067919,-0.002293,-0.001775,0.000358,-0.009156,-0.000038,0.001485,-0.006623,0.093485,-0.020899,0.201919,0.201915,0.167203,0.457028,0.000000,0.000000,0.000000,0.000000,0.000000,0.000000,0.000000,0.000000,0.000000,0.000000,0.000000,0.000000,0.090564,3,0
1200000,0.006393,30.940372,-0.011265,0.021127,25.844770,-0.017081,-0.001428,0.029943,1.571712,-0.067859,-0.002337,-0.001714,0.000368,-0.009142,-0.000037,0.000029,-0.006616,-0.009083,-0.007183,0.202094,0.202089,0.166875,0.452941,0.000000,0.000000,0.000000,0.000000,0.000000,0.000000,0.000000,0.000000,0.000000,0.000000,0.000000,0.000000,0.010859,3,0
1210000,0.006385,31.199228,-0.012286,0.020955,25.848839,-0.018494,-0.001461,0.030055,1.571714,-0.067934,-0.002381,-0.001452,0.000379,-0.009160,-0.000038,0.000177,-0.006607,0.011044,-0.030491,0.202265,0.202260,0.166542,0.448949,0.000000,0.000000,0.000000,0.000000,0.000000,0.000000,0.000000,0.000000,0.000000,0.000000,0.000000,0.000000,0.012434,3,0
1220000,0.006374,31.460791,-0.012138,0.020807,25.857710,-0.018497,-0.001502,0.030490,1.571718,-0.068528,-0.002424,-0.001564,0.000389,-0.009306,-0.000038,0.001339,-0.006597,0.090088,0.012323,0.202434,0.202429,0.166206,0.445050,0.000000,0.000000,0.000000,0.000000,0.000000,0.000000,0.000000,0.000000,0.000000,0.000000,0.000000,0.000000,0.087283,3,0
1230000,0.006364,31.724350,-0.013289,0.020736,25.869837,-0.020131,-0.001527,0.031185,1.571719,-0.069496,-0.002467,-0.001272,0.000400,-0.009546,-0.000039,0.003657,-0.006585,0.146502,-0.034541,0.202601,0.202596,0.165866,0.441243,0.000000,0.000000,0.000000,0.000000,0.000000,0.000000,0.000000,0.000000,0.000000,0.000000,0.000000,0.000000,0.141697,3,0
1240000,0.006350,31.983154,-0.012786,0.020518,25.873592,-0.019414,-0.001553,0.031278,1.571728,-0.069509,-0.002511,-0.001496,0.000411,-0.009549,-0.000039,0.000114,-0.006573,0.002092,0.025577,0.202767,0.202761,0.165523,0.437528,0.000000,0.000000,0.000000,0.000000,0.000000,0.000000,0.000000,0.000000,0.000000,0.000000,0.000000,0.000000,0.006665,3,0
1250000,0.006335,32.241982,-0.012049,0.020332,25.877285,-0.018540,-0.001597,0.031356,1.571724,-0.069518,-0.002553,-0.001794,0.000422,-0.009551,-0.000039,0.000194,-0.006557,0.001675,0.033932,0.202932,0.202925,0.165177,0.433903,0.000000,0.000000,0.000000,0.000000,0.000000,0.000000,0.000000,0.000000,0.000000,0.000000,0.000000,0.000000,0.006539,3,0
1260000,0.006319,32.504868,-0.011479,0.020213,25.888151,-0.018025,-0.001631,0.031944,1.571737,-0.070308,-0.002596,-0.002049,0.000433,-0.009756,-0.000040,0.002472,-0.006541,0.120514,0.027918,0.203095,0.203088,0.164828,0.430366,0.000000,0.000000,0.000000,0.000000,0.000000,0.000000,0.000000,0.000000,0.000000,0.000000,0.000000,0.000000,0.116607,3,0
1270000,0.006303,32.765018,-0.011684,0.020124,25.894049,-0.018313,-0.001672,0.032181,1.571745,-0.070547,-0.002638,-0.002045,0.000445,-0.009819,-0.000040,0.000221,-0.006524,0.036427,-0.000713,0.203258,0.203251,0.164477,0.426916,0.000000,0.000000,0.000000,0.000000,0.000000,0.000000,0.000000,0.000000,0.000000,0.000000,0.000000,0.000000,0.035754,3,0
1280000,0.006287,33.026520,-0.012657,0.020009,25.902124,-0.019671,-0.001709,0.032594,1.571743,-0.071035,-0.002681,-0.001794,0.000456,-0.009949,-0.000041,0.001031,-0.006507,0.074402,-0.028613,0.203420,0.203412,0.164124,0.423551,0.000000,0.000000,0.000000,0.000000,0.000000,0.000000,0.000000,0.000000,0.000000,0.000000,0.000000,0.000000,0.072151,3,0
1290000,0.006268,33.284622,-0.011511,0.019895,25.904217,-0.018462,-0.001743,0.032543,1.571740,-0.070849,-0.002723,-0.002236,0.000468,-0.009898,-0.000041,0.000529,-0.006490,-0.028152,0.049331,0.203583,0.203574,0.163769,0.420270,0.000000,0.000000,0.000000,0.000000,0.000000,0.000000,0.000000,0.000000,0.000000,0.000000,0.000000,0.000000,0.027908,3,0
1300000,0.006249,33.544781,-0.012297,0.019644,25.909754,-0.019751,-0.001783,0.032760,1.571751,-0.071057,-0.002765,-0.002041,0.000479,-0.009956,-0.000041,0.000247,-0.006469,0.031788,-0.021819,0.203745,0.203736,0.163414,0.417072,0.000000,0.000000,0.000000,0.000000,0.000000,0.000000,0.000000,0.000000,0.000000,0.000000,0.000000,0.000000,0.031338,3,0
1310000,0.006229,33.805614,-0.013448,0.019439,25.916487,-0.021114,-0.001823,0.033062,1.571750,-0.071382,-0.002807,-0.001727,0.000490,-0.010047,-0.000041,0.000605,-0.006448,0.049877,-0.034891,0.203907,0.203898,0.163057,0.413955,0.000000,0.000000,0.000000,0.000000,0.000000,0.000000,0.000000,0.000000,0.000000,0.000000,0.000000,0.000000,0.048581,3,0
1320000,0.006207,34.065750,-0.013705,0.019173,25.921934,-0.021650,-0.001857,0.033276,1.571764,-0.071561,-0.002849,-0.001716,0.000502,-0.010097,-0.000042,0.000129,-0.006425,0.027523,-0.001463,0.204071,0.204060,0.162699,0.410918,0.000000,0.000000,0.000000,0.000000,0.000000,0.000000,0.000000,0.000000,0.000000,0.000000,0.000000,0.000000,0.027303,3,0
1330000,0.006181,34.325882,-0.013442,0.018909,25.927202,-0.021206,-0.001884,0.033471,1.571765,-0.071726,-0.002890,-0.001882,0.000514,-0.010144,-0.000042,0.000165,-0.006400,0.025761,0.017838,0.204234,0.204224,0.162340,0.407959,0.000000,0.000000,0.000000,0.000000,0.000000,0.000000,0.000000,0.000000,0.000000,0.000000,0.000000,0.000000,0.025643,3,0
1340000,0.006155,34.588718,-0.013678,0.018730,25.937290,-0.021596,-0.001918,0.034042,1.571776,-0.072392,-0.002930,-0.001887,0.000526,-0.010338,-0.000043,0.001732,-0.006372,0.103516,-0.000429,0.204399,0.204388,0.161982,0.405077,0.000000,0.000000,0.000000,0.000000,0.000000,0.000000,0.000000,0.000000,0.000000,0.000000,0.000000,0.000000,0.100180,3,0
1350000,0.006128,34.846764,-0.014284,0.018470,25.938705,-0.022543,-0.001963,0.033939,1.571770,-0.072135,-0.002971,-0.001749,0.000538,-0.010263,-0.000042,0.000300,-0.006344,-0.040146,-0.014461,0.204565,0.204553,0.161623,0.402271,0.000000,0.000000,0.000000,0.000000,0.000000,0.000000,0.000000,0.000000,0.000000,0.000000,0.000000,0.000000,0.039261,3,0
1360000,0.006098,35.106186,-0.013635,0.018244,25.942583,-0.021672,-0.001999,0.034020,1.571772,-0.072133,-0.003011,-0.002054,0.000550,-0.010261,-0.000042,0.000179,-0.006314,-0.000023,0.032635,0.204732,0.204719,0.161265,0.399539,0.000000,0.000000,0.000000,0.000000,0.000000,0.000000,0.000000,0.000000,0.000000,0.000000,0.000000,0.000000,0.006098,3,0
1370000,0.006068,35.366295,-0.014145,0.018016,25.947618,-0.022507,-0.002035,0.034203,1.571781,-0.072254,-0.003051,-0.001955,0.000562,-0.010298,-0.000042,0.000082,-0.006282,0.018822,-0.010691,0.204900,0.204887,0.160907,0.396879,0.000000,0.000000,0.000000,0.000000,0.000000,0.000000,0.000000,0.000000,0.000000,0.000000,0.000000,0.000000,0.019163,3,0
1380000,0.006036,35.629791,-0.014275,0.017835,25.958693,-0.022665,-0.002080,0.034850,1.571790,-0.072992,-0.003090,-0.002004,0.000574,-0.010525,-0.000043,0.002193,-0.006250,0.116482,0.004055,0.205070,0.205056,0.160549,0.394290,0.000000,0.000000,0.000000,0.000000,0.000000,0.000000,0.000000,0.000000,0.000000,0.000000,0.000000,0.000000,0.112665,3,0
1390000,0.006002,35.892540,-0.013367,0.017623,25.968134,-0.021656,-0.002112,0.035367,1.571800,-0.073566,-0.003129,-0.002421,0.000587,-0.010704,-0.000044,0.001651,-0.006216,0.091423,0.042982,0.205242,0.205227,0.160193,0.391771,0.000000,0.000000,0.000000,0.000000,0.000000,0.000000,0.000000,0.000000,0.000000,0.000000,0.000000,0.000000,0.088503,3,0
1400000,0.005968,36.153198,-0.013715,0.017321,25.973804,-0.022008,-0.002148,0.035581,1.571814,-0.073738,-0.003167,-0.002378,0.000599,-0.010759,-0.000044,0.000130,-0.006179,0.027367,-0.004784,0.205415,0.205399,0.159837,0.389320,0.000000,0.000000,0.000000,0.000000,0.000000,0.000000,0.000000,0.000000,0.000000,0.000000,0.000000,0.000000,0.027094,3,0
1410000,0.005932,36.413155,-0.013640,0.017089,25.978224,-0.022095,-0.002193,0.035702,1.571825,-0.073770,-0.003206,-0.002487,0.000612,-0.010769,-0.000044,0.000031,-0.006143,0.005196,0.011297,0.205590,0.205573,0.159483,0.386937,0.000000,0.000000,0.000000,0.000000,0.000000,0.000000,0.000000,0.000000,0.000000,0.000000,0.000000,0.000000,0.007771,3,0
1420000,0.005896,36.676514,-0.014390,0.016936,25.988710,-0.023012,-0.002232,0.036296,1.571828,-0.074412,-0.003244,-0.002311,0.000624,-0.010979,-0.000045,0.001775,-0.006105,0.103020,-0.019436,0.205766,0.205749,0.159130,0.384619,0.000000,0.000000,0.000000,0.000000,0.000000,0.000000,0.000000,0.000000,0.000000,0.000000,0.000000,0.000000,0.099658,3,0
1430000,0.005857,36.939796,-0.013348,0.016646,25.998764,-0.021836,-0.002275,0.036881,1.571846,-0.075016,-0.003280,-0.002792,0.000636,-0.011178,-0.000046,0.001935,-0.006066,0.097980,0.048639,0.205945,0.205927,0.158778,0.382364,0.000000,0.000000,0.000000,0.000000,0.000000,0.000000,0.000000,0.000000,0.000000,0.000000,0.000000,0.000000,0.094805,3,0
1440000,0.005817,37.202339,-0.014026,0.016347,26.007462,-0.022612,-0.002316,0.037342,1.571863,-0.075467,-0.003317,-0.002635,0.000649,-0.011330,-0.000047,0.000914,-0.006024,0.073143,-0.017005,0.206126,0.206107,0.158429,0.380172,0.000000,0.000000,0.000000,0.000000,0.000000,0.000000,0.000000,0.000000,0.000000,0.000000,0.000000,0.000000,0.070868,3,0
1450000,0.005777,37.465511,-0.014404,0.016153,26.017145,-0.023172,-0.002349,0.037891,1.571868,-0.076011,-0.003354,-0.002595,0.000661,-0.011516,-0.000048,0.001280,-0.005983,0.088818,-0.005211,0.206308,0.206288,0.158081,0.378041,0.000000,0.000000,0.000000,0.000000,0.000000,0.000000,0.000000,0.000000,0.000000,0.000000,0.000000,0.000000,0.085956,3,0
1460000,0.005735,37.727249,-0.015122,0.015844,26.024261,-0.024127,-0.002379,0.038209,1.571880,-0.076282,-0.003390,-0.002421,0.000673,-0.011610,-0.000048,0.000374,-0.005939,0.044212,-0.018164,0.206493,0.206472,0.157736,0.375971,0.000000,0.000000,0.000000,0.000000,0.000000,0.000000,0.000000,0.000000,0.000000,0.000000,0.000000,0.000000,0.043074,3,0
1470000,0.005690,37.987568,-0.014472,0.015542,26.028667,-0.023433,-0.002411,0.038305,1.571885,-0.076286,-0.003425,-0.002758,0.000686,-0.011610,-0.000048,0.000195,-0.005894,0.001076,0.034106,0.206679,0.206657,0.157393,0.373959,0.000000,0.000000,0.000000,0.000000,0.000000,0.000000,0.000000,0.000000,0.000000,0.000000,0.000000,0.000000,0.005785,3,0
1480000,0.005645,38.248550,-0.014151,0.015288,26.034241,-0.023245,-0.002460,0.038500,1.571894,-0.076399,-0.003460,-0.002974,0.000699,-0.011650,-0.000048,0.000139,-0.005847,0.019016,0.021507,0.206868,0.206845,0.157052,0.372004,0.000000,0.000000,0.000000,0.000000,0.000000,0.000000,0.000000,0.000000,0.000000,0.000000,0.000000,0.000000,0.019212,3,0
1490000,0.005598,38.510185,-0.013863,0.015040,26.040844,-0.022857,-0.002499,0.038789,1.571905,-0.076615,-0.003494,-0.003180,0.000712,-0.011728,-0.000049,0.000284,-0.005799,0.036282,0.020215,0.207058,0.207034,0.156713,0.370104,0.000000,0.000000,0.000000,0.000000,0.000000,0.000000,0.000000,0.000000,0.000000,0.000000,0.000000,0.000000,0.035479,3,0
1500000,0.005549,38.769024,-0.012837,0.014728,26.042330,-0.021466,-0.002540,0.038634,1.571919,-0.076336,-0.003527,-0.003653,0.000724,-0.011624,-0.000048,0.000726,-0.005749,-0.046509,0.047910,0.207250,0.207225,0.156377,0.368259,0.000000,0.000000,0.000000,0.000000,0.000000,0.000000,0.000000,0.000000,0.000000,0.000000,0.000000,0.000000,0.045237,3,0
1510000,0.005500,39.029926,-0.012233,0.014577,26.047539,-0.021000,-0.002581,0.038794,1.571928,-0.076409,-0.003560,-0.003974,0.000737,-0.011650,-0.000048,0.000195,-0.005698,0.012699,0.031755,0.207444,0.207418,0.156044,0.366466,0.000000,0.000000,0.000000,0.000000,0.000000,0.000000,0.000000,0.000000,0.000000,0.000000,0.000000,0.000000,0.013441,3,0
1520000,0.005453,39.288052,-0.013227,0.014323,26.047573,-0.022420,-0.002610,0.038526,1.571940,-0.076005,-0.003594,-0.003657,0.000750,-0.011498,-0.000048,0.000929,-0.005647,-0.069347,-0.030415,0.207640,0.207613,0.155714,0.364725,0.000000,0.000000,0.000000,0.000000,0.000000,0.000000,0.000000,0.000000,0.000000,0.000000,0.000000,0.000000,0.067173,3,0
1530000,0.005403,39.546177,-0.013280,0.014055,26.047483,-0.022439,-0.002645,0.038250,1.571947,-0.075603,-0.003627,-0.003711,0.000762,-0.011344,-0.000047,0.000778,-0.005597,-0.069042,0.006272,0.207838,0.207810,0.155387,0.363033,0.000000,0.000000,0.000000,0.000000,0.000000,0.000000,0.000000,0.000000,0.000000,0.000000,0.000000,0.000000,0.066869,3,0
1540000,0.005350,39.804302,-0.012302,0.013767,26.047388,-0.021092,-0.002691,0.037963,1.571952,-0.075203,-0.003658,-0.004170,0.000775,-0.011187,-0.000047,0.001111,-0.005544,-0.068741,0.046141,0.208037,0.208008,0.155063,0.361390,0.000000,0.000000,0.000000,0.000000,0.000000,0.000000,0.000000,0.000000,0.000000,0.000000,0.000000,0.000000,0.066564,3,0
1550000,0.005300,40.065208,-0.013418,0.013613,26.052401,-0.022544,-0.002738,0.038111,1.571956,-0.075269,-0.003690,-0.003815,0.000787,-0.011214,-0.000047,0.000222,-0.005490,0.011074,-0.034908,0.208238,0.208207,0.154742,0.359795,0.000000,0.000000,0.000000,0.000000,0.000000,0.000000,0.000000,0.000000,0.000000,0.000000,0.000000,0.000000,0.011927,3,0
1560000,0.005248,40.324688,-0.013351,0.013314,26.054811,-0.022340,-0.002770,0.038034,1.571961,-0.075091,-0.003721,-0.003925,0.000800,-0.011142,-0.000047,0.000182,-0.005437,-0.031212,0.011216,0.208440,0.208409,0.154424,0.358246,0.000000,0.000000,0.000000,0.000000,0.000000,0.000000,0.000000,0.000000,0.000000,0.000000,0.000000,0.000000,0.030578,3,0
1570000,0.005196,40.584854,-0.014253,0.013131,26.058413,-0.023492,-0.002808,0.038067,1.571971,-0.075022,-0.003752,-0.003651,0.000812,-0.011115,-0.000047,0.000142,-0.005383,-0.012413,-0.026383,0.208644,0.208611,0.154110,0.356743,0.000000,0.000000,0.000000,0.000000,0.000000,0.000000,0.000000,0.000000,0.000000,0.000000,0.000000,0.000000,0.013064,3,0
1580000,0.005142,40.845673,-0.013633,0.012913,26.063040,-0.022678,-0.002850,0.038190,1.571971,-0.075052,-0.003781,-0.003999,0.000824,-0.011126,-0.000047,0.000192,-0.005329,0.005692,0.033490,0.208849,0.208815,0.153799,0.355283,0.000000,0.000000,0.000000,0.000000,0.000000,0.000000,0.000000,0.000000,0.000000,0.000000,0.000000,0.000000,0.007530,3,0
1590000,0.005089,41.104385,-0.014238,0.012633,26.063677,-0.023592,-0.002891,0.037975,1.571970,-0.074741,-0.003811,-0.003833,0.000837,-0.010996,-0.000046,0.000553,-0.005272,-0.056385,-0.015031,0.209055,0.209021,0.153492,0.353865,0.000000,0.000000,0.000000,0.000000,0.000000,0.000000,0.000000,0.000000,0.000000,0.000000,0.000000,0.000000,0.054662,3,0
1600000,0.005035,41.362400,-0.015014,0.012412,26.063166,-0.024570,-0.002937,0.037636,1.571979,-0.074321,-0.003840,-0.003595,0.000849,-0.010818,-0.000046,0.001023,-0.005216,-0.076557,-0.021565,0.209263,0.209227,0.153188,0.352489,0.000000,0.000000,0.000000,0.000000,0.000000,0.000000,0.000000,0.000000,0.000000,0.000000,0.000000,0.000000,0.074062,3,0
1610000,0.004979,41.621799,-0.014526,0.012214,26.064966,-0.024175,-0.002984,0.037514,1.571993,-0.074121,-0.003868,-0.003890,0.000861,-0.010730,-0.000045,0.000351,-0.005160,-0.036381,0.028694,0.209471,0.209434,0.152888,0.351152,0.000000,0.000000,0.000000,0.000000,0.000000,0.000000,0.000000,0.000000,0.000000,0.000000,0.000000,0.000000,0.035458,3,0
1620000,0.004922,41.880482,-0.013490,0.011908,26.065479,-0.023091,-0.003023,0.037261,1.571991,-0.073810,-0.003894,-0.004405,0.000874,-0.010591,-0.000045,0.000936,-0.005102,-0.057255,0.049938,0.209680,0.209642,0.152591,0.349855,0.000000,0.000000,0.000000,0.000000,0.000000,0.000000,0.000000,0.000000,0.000000,0.000000,0.000000,0.000000,0.055463,3,0
1630000,0.004864,42.142635,-0.012654,0.011617,26.072371,-0.022314,-0.003054,0.037580,1.571991,-0.074031,-0.003920,-0.004863,0.000886,-0.010688,-0.000045,0.000581,-0.005042,0.041882,0.042569,0.209890,0.209850,0.152298,0.348596,0.000000,0.000000,0.000000,0.000000,0.000000,0.000000,0.000000,0.000000,0.000000,0.000000,0.000000,0.000000,0.040716,3,0
1640000,0.004805,42.400547,-0.011453,0.011349,26.071339,-0.020940,-0.003086,0.037196,1.571996,-0.073599,-0.003945,-0.005439,0.000899,-0.010489,-0.000045,0.001567,-0.004981,-0.081188,0.055656,0.210100,0.210059,0.152009,0.347373,0.000000,0.000000,0.000000,0.000000,0.000000,0.000000,0.000000,0.000000,0.000000,0.000000,0.000000,0.000000,0.078482,3,0
1650000,0.004746,42.662651,-0.011363,0.011044,26.078030,-0.020903,-0.003120,0.037496,1.572004,-0.073800,-0.003971,-0.005577,0.000910,-0.010582,-0.000045,0.000268,-0.004918,0.038612,0.012290,0.210310,0.210268,0.151724,0.346186,0.000000,0.000000,0.000000,0.000000,0.000000,0.000000,0.000000,0.000000,0.000000,0.000000,0.000000,0.000000,0.037563,3,0
1660000,0.004687,42.925396,-0.011925,0.010834,26.085846,-0.021741,-0.003156,0.037895,1.572012,-0.074085,-0.003996,-0.005445,0.000922,-0.010716,-0.000046,0.000515,-0.004857,0.054745,-0.013318,0.210521,0.210478,0.151443,0.345035,0.000000,0.000000,0.000000,0.000000,0.000000,0.000000,0.000000,0.000000,0.000000,0.000000,0.000000,0.000000,0.053030,3,0
1670000,0.004626,43.183868,-0.010906,0.010553,26.085690,-0.020396,-0.003189,0.037573,1.572015,-0.073729,-0.004020,-0.005952,0.000934,-0.010544,-0.000045,0.001149,-0.004796,-0.068928,0.048482,0.210732,0.210687,0.151165,0.343917,0.000000,0.000000,0.000000,0.000000,0.000000,0.000000,0.000000,0.000000,0.000000,0.000000,0.000000,0.000000,0.066659,3,0
1680000,0.004566,43.443047,-0.011813,0.010262,26.086674,-0.021622,-0.003224,0.037368,1.572022,-0.073481,-0.004045,-0.005638,0.000946,-0.010426,-0.000045,0.000521,-0.004732,-0.049095,-0.028242,0.210943,0.210897,0.150891,0.342830,0.000000,0.000000,0.000000,0.000000,0.000000,0.000000,0.000000,0.000000,0.000000,0.000000,0.000000,0.000000,0.047594,3,0
1690000,0.004504,43.700100,-0.011756,0.009960,26.083775,-0.021394,-0.003273,0.036807,1.572021,-0.072931,-0.004068,-0.005722,0.000957,-0.010155,-0.000044,0.001947,-0.004669,-0.109493,0.009889,0.211154,0.211107,0.150622,0.341775,0.000000,0.000000,0.000000,0.000000,0.000000,0.000000,0.000000,0.000000,0.000000,0.000000,0.000000,0.000000,0.105733,3,0
1700000,0.004441,43.962074,-0.011922,0.009608,26.089869,-0.021545,-0.003319,0.037067,1.572028,-0.073085,-0.004091,-0.005754,0.000969,-0.010232,-0.000044,0.000159,-0.004603,0.031063,0.002323,0.211364,0.211316,0.150356,0.340749,0.000000,0.000000,0.000000,0.000000,0.000000,0.000000,0.000000,0.000000,0.000000,0.000000,0.000000,0.000000,0.030296,3,0
1710000,0.004377,44.223267,-0.010817,0.009416,26.094585,-0.020406,-0.003362,0.037194,1.572043,-0.073119,-0.004112,-0.006333,0.000980,-0.010247,-0.000044,0.000469,-0.004538,0.007572,0.052988,0.211574,0.211525,0.150094,0.339755,0.000000,0.000000,0.000000,0.000000,0.000000,0.000000,0.000000,0.000000,0.000000,0.000000,0.000000,0.000000,0.008529,3,0
