time_us,pos_x,pos_y,pos_z,vel_x,vel_y,vel_z,roll,pitch,yaw,bias_ax,bias_ay,bias_az,bias_gx,bias_gy,bias_gz,nis,innov_x,innov_y,innov_z,cov_pos_x,cov_pos_y,cov_pos_z,cov_yaw,des_speed,des_heading,des_climb,pid_speed,pid_yaw,pid_alt,speed_meas,yaw_meas,climb_meas,fwd_accel,yaw_rate,vert_accel,drift_m,nav_mode,mission_state
0,-0.000002,0.149999,0.000003,-0.000285,24.999882,0.000794,0.000005,0.000008,1.570805,0.000000,0.000000,0.000000,0.000000,0.000000,0.000000,0.006250,0.000003,-0.250001,-0.000008,2.400038,2.400038,3.600017,1.000518,0.000000,0.000000,0.000000,0.000000,0.000000,0.000000,0.000000,0.000000,0.000000,0.000000,0.000000,0.000000,0.149999,1,0
10000,-0.000005,0.342506,-0.019723,-0.000565,24.999601,0.001528,0.000003,0.000015,1.570822,0.000001,0.000000,0.000000,0.000000,0.000000,0.000000,0.005108,0.000007,-0.201210,-0.052645,1.714420,1.714420,2.250079,1.001073,0.000000,0.000000,0.000000,0.000000,0.000000,0.000000,0.000000,0.000000,0.000000,0.000000,0.000000,0.000000,0.143717,3,0
20000,-0.000009,0.580106,-0.006432,-0.000673,24.999496,0.002350,0.000002,0.000034,1.570825,0.000001,0.000000,-0.000000,-0.000000,0.000000,-0.000000,0.000690,0.000012,-0.055772,0.048649,1.333616,1.333616,1.636554,1.001655,0.000000,0.000000,0.000000,0.000000,0.000000,0.000000,0.000000,0.000000,0.000000,0.000000,0.000000,0.000000,0.043375,3,0
30000,-0.000014,0.802051,-0.008728,-0.000793,24.999125,0.003119,0.000017,0.000041,1.570838,0.000004,0.000000,-0.000000,-0.000000,0.000000,-0.000000,0.003258,0.000017,-0.154220,-0.010861,1.091392,1.091392,1.286065,1.002257,0.000000,0.000000,0.000000,0.000000,0.000000,0.000000,0.000000,0.000000,0.000000,0.000000,0.000000,0.000000,0.126167,3,0
40000,-0.000020,1.049220,-0.006162,-0.000950,24.999247,0.003845,0.000027,0.000050,1.570850,0.000004,0.000000,-0.000000,-0.000000,0.000000,-0.000000,0.000076,0.000024,-0.018340,0.014320,0.923811,0.923811,1.059385,1.002869,0.000000,0.000000,0.000000,0.000000,0.000000,0.000000,0.000000,0.000000,0.000000,0.000000,0.000000,0.000000,0.015516,3,0
50000,-0.000027,1.298267,-0.004966,-0.001108,24.999245,0.004656,0.000043,0.000065,1.570862,0.000005,0.000000,-0.000001,-0.000000,0.000000,-0.000000,0.000016,0.000031,-0.007083,0.007658,0.801036,0.801036,0.900822,1.003484,0.000000,0.000000,0.000000,0.000000,0.000000,0.000000,0.000000,0.000000,0.000000,0.000000,0.000000,0.000000,0.006138,3,0
60000,-0.000036,1.539159,-0.012157,-0.001394,24.998974,0.005049,0.000059,0.000073,1.570876,0.000009,0.000000,0.000002,0.000000,0.000000,-0.000000,0.001322,0.000041,-0.077222,-0.055461,0.707270,0.707270,0.783741,1.004094,0.000000,0.000000,0.000000,0.000000,0.000000,0.000000,0.000000,0.000000,0.000000,0.000000,0.000000,0.000000,0.068119,3,0
70000,-0.000046,1.782849,-0.016865,-0.001514,24.998621,0.005301,0.000070,0.000075,1.570884,0.000014,0.000000,0.000006,0.000000,0.000000,-0.000000,0.000781,0.000051,-0.059684,-0.041201,0.633370,0.633370,0.693801,1.004688,0.000000,0.000000,0.000000,0.000000,0.000000,0.000000,0.000000,0.000000,0.000000,0.000000,0.000000,0.000000,0.053383,3,0
80000,-0.000056,2.036141,-0.012961,-0.001663,24.998953,0.006286,0.000069,0.000088,1.570885,0.000010,0.000000,0.000002,-0.000000,0.000000,-0.000000,0.000385,0.000062,0.034571,0.037044,0.573673,0.573673,0.622594,1.005260,0.000000,0.000000,0.000000,0.000000,0.000000,0.000000,0.000000,0.000000,0.000000,0.000000,0.000000,0.000000,0.031266,3,0
90000,-0.000068,2.287864,-0.011122,-0.001794,24.999182,0.007013,0.000072,0.000094,1.570893,0.000008,0.000000,-0.000000,-0.000000,0.000000,-0.000000,0.000113,0.000074,0.019823,0.018809,0.524488,0.524488,0.564865,1.005801,0.000000,0.000000,0.000000,0.000000,0.000000,0.000000,0.000000,0.000000,0.000000,0.000000,0.000000,0.000000,0.018090,3,0
100000,-0.000080,2.538393,-0.009531,-0.001920,24.999374,0.007957,0.000082,0.000107,1.570902,0.000007,0.000000,-0.000003,-0.000000,0.000000,-0.000000,0.000054,0.000087,0.006644,0.017550,0.483304,0.483304,0.517162,1.006301,0.000000,0.000000,0.000000,0.000000,0.000000,0.000000,0.000000,0.000000,0.000000,0.000000,0.000000,0.000000,0.006109,3,0
110000,-0.000095,2.785017,-0.008531,-0.002212,24.998989,0.008796,0.000098,0.000117,1.570906,0.000015,0.000000,-0.000005,-0.000000,0.000000,-0.000000,0.000334,0.000102,-0.045097,0.011479,0.448354,0.448354,0.477121,1.006754,0.000000,0.000000,0.000000,0.000000,0.000000,0.000000,0.000000,0.000000,0.000000,0.000000,0.000000,0.000000,0.041727,3,0
120000,-0.000110,3.038231,-0.005358,-0.002406,24.999586,0.010028,0.000105,0.000136,1.570918,0.000005,0.000000,-0.000014,-0.000000,-0.000000,0.000000,0.000599,0.000119,0.046224,0.041683,0.418359,0.418359,0.443071,1.007150,0.000000,0.000000,0.000000,0.000000,0.000000,0.000000,0.000000,0.000000,0.000000,0.000000,0.000000,0.000000,0.043001,3,0
130000,-0.000127,3.285092,-0.004052,-0.002575,24.999178,0.010875,0.000118,0.000147,1.570922,0.000017,0.000000,-0.000018,-0.000000,0.000000,-0.000000,0.000405,0.000136,-0.047965,0.017389,0.392370,0.392370,0.413797,1.007481,0.000000,0.000000,0.000000,0.000000,0.000000,0.000000,0.000000,0.000000,0.000000,0.000000,0.000000,0.000000,0.044829,3,0
140000,-0.000145,3.541416,-0.003123,-0.002720,25.000656,0.011741,0.000118,0.000163,1.570931,-0.000013,0.000000,-0.000022,-0.000000,-0.000000,0.000000,0.001676,0.000154,0.102757,0.012557,0.369667,0.369667,0.388393,1.007739,0.000000,0.000000,0.000000,0.000000,0.000000,0.000000,0.000000,0.000000,0.000000,0.000000,0.000000,0.000000,0.096426,3,0
150000,-0.000163,3.792900,-0.002225,-0.002831,25.001123,0.012468,0.000132,0.000175,1.570934,-0.000021,0.000000,-0.000026,-0.000000,-0.000001,0.000000,0.000126,0.000173,0.025329,0.012694,0.349696,0.349696,0.366172,1.007915,0.000000,0.000000,0.000000,0.000000,0.000000,0.000000,0.000000,0.000000,0.000000,0.000000,0.000000,0.000000,0.023853,3,0
160000,-0.000183,4.041398,-0.000322,-0.003091,25.000872,0.013595,0.000145,0.000184,1.570940,-0.000011,0.000000,-0.000038,-0.000000,-0.000000,0.000000,0.000266,0.000194,-0.027371,0.030658,0.332022,0.332022,0.346600,1.008002,0.000000,0.000000,0.000000,0.000000,0.000000,0.000000,0.000000,0.000000,0.000000,0.000000,0.000000,0.000000,0.025858,3,0
170000,-0.000206,4.295729,0.001357,-0.003364,25.002306,0.014695,0.000143,0.000208,1.570951,-0.000046,0.000000,-0.000049,-0.000000,-0.000001,0.000000,0.001184,0.000217,0.081953,0.028008,0.316299,0.316299,0.329260,1.007991,0.000000,0.000000,0.000000,0.000000,0.000000,0.000000,0.000000,0.000000,0.000000,0.000000,0.000000,0.000000,0.077633,3,0
180000,-0.000228,4.548084,0.002699,-0.003467,25.003178,0.015823,0.000140,0.000220,1.570959,-0.000068,0.000001,-0.000060,-0.000000,-0.000002,0.000000,0.000420,0.000240,0.046277,0.022698,0.302248,0.302248,0.313817,1.007875,0.000000,0.000000,0.000000,0.000000,0.000000,0.000000,0.000000,0.000000,0.000000,0.000000,0.000000,0.000000,0.043946,3,0
190000,-0.000252,4.796805,0.002808,-0.003680,25.002769,0.016466,0.000137,0.000230,1.570961,-0.000054,0.000001,-0.000059,-0.000000,-0.000001,0.000000,0.000117,0.000265,-0.027177,-0.001114,0.289643,0.289643,0.300003,1.007645,0.000000,0.000000,0.000000,0.000000,0.000000,0.000000,0.000000,0.000000,0.000000,0.000000,0.000000,0.000000,0.025866,3,0
200000,-0.000277,5.050633,0.002112,-0.003777,25.004368,0.016711,0.000140,0.000263,1.570965,-0.000101,0.000001,-0.000049,-0.000000,-0.000003,0.000000,0.001119,0.000290,0.081927,-0.018080,0.278298,0.278298,0.287598,1.007295,0.000000,0.000000,0.000000,0.000000,0.000000,0.000000,0.000000,0.000000,0.000000,0.000000,0.000000,0.000000,0.078127,3,0
210000,-0.000302,5.303656,-0.000138,-0.003910,25.005791,0.016346,0.000137,0.000296,1.570965,-0.000144,0.000001,-0.000016,-0.000000,-0.000004,0.000000,0.001146,0.000316,0.066629,-0.052582,0.268057,0.268057,0.276421,1.006816,0.000000,0.000000,0.000000,0.000000,0.000000,0.000000,0.000000,0.000000,0.000000,0.000000,0.000000,0.000000,0.063653,3,0
220000,-0.000329,5.556821,0.000002,-0.004164,25.007372,0.016841,0.000149,0.000325,1.570982,-0.000194,0.000001,-0.000015,-0.000000,-0.000006,0.000000,0.000827,0.000343,0.072019,-0.000659,0.258791,0.258791,0.266321,1.006202,0.000000,0.000000,0.000000,0.000000,0.000000,0.000000,0.000000,0.000000,0.000000,0.000000,0.000000,0.000000,0.068913,3,0
230000,-0.000356,5.809291,0.000275,-0.004287,25.008778,0.017665,0.000162,0.000355,1.570990,-0.000238,0.000002,-0.000017,-0.000000,-0.000007,0.000000,0.000527,0.000372,0.057384,0.002253,0.250390,0.250390,0.257172,1.005446,0.000000,0.000000,0.000000,0.000000,0.000000,0.000000,0.000000,0.000000,0.000000,0.000000,0.000000,0.000000,0.054990,3,0
240000,-0.000385,6.063552,-0.000446,-0.004535,25.011253,0.018013,0.000169,0.000384,1.571003,-0.000323,0.000002,0.000001,-0.000000,-0.000010,0.000000,0.001775,0.000401,0.103083,-0.021810,0.242761,0.242761,0.248866,1.004541,0.000000,0.000000,0.000000,0.000000,0.000000,0.000000,0.000000,0.000000,0.000000,0.000000,0.000000,0.000000,0.098913,3,0
250000,-0.000416,6.317100,-0.002409,-0.004762,25.013449,0.017638,0.000171,0.000428,1.571007,-0.000401,0.000002,0.000048,-0.000000,-0.000013,0.000000,0.001679,0.000433,0.087344,-0.053494,0.235824,0.235824,0.241314,1.003481,0.000000,0.000000,0.000000,0.000000,0.000000,0.000000,0.000000,0.000000,0.000000,0.000000,0.000000,0.000000,0.083912,3,0
260000,-0.000448,6.570002,-0.004011,-0.005019,25.015213,0.017215,0.000176,0.000461,1.571020,-0.000470,0.000003,0.000091,-0.000000,-0.000015,0.000000,0.001172,0.000466,0.072323,-0.045647,0.229511,0.229511,0.234436,1.002258,0.000000,0.000000,0.000000,0.000000,0.000000,0.000000,0.000000,0.000000,0.000000,0.000000,0.000000,0.000000,0.069558,3,0
270000,-0.000482,6.820835,-0.006069,-0.005248,25.015862,0.016466,0.000174,0.000476,1.571021,-0.000489,0.000003,0.000151,-0.000000,-0.000016,0.000000,0.000608,0.000501,0.018191,-0.058820,0.223762,0.223762,0.228165,1.000869,0.000000,0.000000,0.000000,0.000000,0.000000,0.000000,0.000000,0.000000,0.000000,0.000000,0.000000,0.000000,0.017519,3,0
280000,-0.000516,7.074106,-0.006767,-0.005333,25.018192,0.016490,0.000180,0.000527,1.571032,-0.000584,0.000004,0.000176,-0.000000,-0.000020,0.000000,0.001260,0.000536,0.085415,-0.023425,0.218525,0.218525,0.222443,0.999307,0.000000,0.000000,0.000000,0.000000,0.000000,0.000000,0.000000,0.000000,0.000000,0.000000,0.000000,0.000000,0.082306,3,0
290000,-0.000550,7.330348,-0.006644,-0.005427,25.022686,0.017009,0.000186,0.000594,1.571041,-0.000784,0.000005,0.000178,-0.000000,-0.000028,0.000000,0.004649,0.000571,0.170063,-0.001303,0.213755,0.213755,0.217219,0.997567,0.000000,0.000000,0.000000,0.000000,0.000000,0.000000,0.000000,0.000000,0.000000,0.000000,0.000000,0.000000,0.164005,3,0
300000,-0.000585,7.585199,-0.006352,-0.005597,25.026472,0.017839,0.000188,0.000650,1.571040,-0.000950,0.000005,0.000174,-0.000000,-0.000035,0.000000,0.002823,0.000607,0.132442,0.003233,0.209411,0.209411,0.212446,0.995645,0.000000,0.000000,0.000000,0.000000,0.000000,0.000000,0.000000,0.000000,0.000000,0.000000,0.000000,0.000000,0.127821,3,0
310000,-0.000622,7.841484,-0.006573,-0.005806,25.031586,0.018147,0.000205,0.000728,1.571054,-0.001185,0.000006,0.000189,-0.000000,-0.000046,0.000000,0.004993,0.000644,0.175736,-0.011697,0.205457,0.205457,0.208087,0.993536,0.000000,0.000000,0.000000,0.000000,0.000000,0.000000,0.000000,0.000000,0.000000,0.000000,0.000000,0.000000,0.169720,3,0
320000,-0.000659,8.093772,-0.007252,-0.006006,25.033422,0.018023,0.000218,0.000763,1.571070,-0.001268,0.000007,0.000225,-0.000000,-0.000050,0.000000,0.000656,0.000682,0.058555,-0.025434,0.201863,0.201863,0.204105,0.991236,0.000000,0.000000,0.000000,0.000000,0.000000,0.000000,0.000000,0.000000,0.000000,0.000000,0.000000,0.000000,0.056588,3,0
330000,-0.000698,8.350854,-0.008570,-0.006256,25.039560,0.017306,0.000233,0.000877,1.571078,-0.001573,0.000008,0.000292,-0.000000,-0.000064,0.000000,0.007021,0.000722,0.203826,-0.045005,0.198599,0.198599,0.200469,0.988743,0.000000,0.000000,0.000000,0.000000,0.000000,0.000000,0.000000,0.000000,0.000000,0.000000,0.000000,0.000000,0.197081,3,0
340000,-0.000738,8.603402,-0.008814,-0.006468,25.041763,0.017602,0.000238,0.000920,1.571085,-0.001678,0.000010,0.000312,-0.000000,-0.000069,0.000000,0.000728,0.000763,0.065956,-0.012885,0.195641,0.195641,0.197151,0.986053,0.000000,0.000000,0.000000,0.000000,0.000000,0.000000,0.000000,0.000000,0.000000,0.000000,0.000000,0.000000,0.063810,3,0
350000,-0.000778,8.856771,-0.009892,-0.006534,25.044880,0.017140,0.000240,0.000980,1.571091,-0.001830,0.000011,0.000377,-0.000000,-0.000077,0.000000,0.001601,0.000803,0.091689,-0.038974,0.192965,0.192965,0.194125,0.983163,0.000000,0.000000,0.000000,0.000000,0.000000,0.000000,0.000000,0.000000,0.000000,0.000000,0.000000,0.000000,0.088744,3,0
360000,-0.000818,9.112189,-0.010023,-0.006706,25.050167,0.017359,0.000250,0.001079,1.571090,-0.002105,0.000012,0.000393,-0.000001,-0.000091,0.000000,0.003960,0.000845,0.156351,-0.009633,0.190551,0.190551,0.191370,0.980072,0.000000,0.000000,0.000000,0.000000,0.000000,0.000000,0.000000,0.000000,0.000000,0.000000,0.000000,0.000000,0.151388,3,0
370000,-0.000860,9.368319,-0.011184,-0.006947,25.056194,0.016888,0.000256,0.001204,1.571103,-0.002435,0.000014,0.000471,-0.000001,-0.000109,0.000000,0.005477,0.000888,0.179187,-0.042663,0.188379,0.188379,0.188863,0.976778,0.000000,0.000000,0.000000,0.000000,0.000000,0.000000,0.000000,0.000000,0.000000,0.000000,0.000000,0.000000,0.173563,3,0
380000,-0.000903,9.622667,-0.012274,-0.007163,25.060518,0.016269,0.000269,0.001296,1.571102,-0.002671,0.000016,0.000550,-0.000001,-0.000122,0.000000,0.002662,0.000932,0.121786,-0.040676,0.186433,0.186433,0.186586,0.973281,0.000000,0.000000,0.000000,0.000000,0.000000,0.000000,0.000000,0.000000,0.000000,0.000000,0.000000,0.000000,0.118005,3,0
390000,-0.000946,9.877148,-0.011761,-0.007289,25.065054,0.017113,0.000273,0.001384,1.571101,-0.002925,0.000018,0.000527,-0.000001,-0.000137,0.000000,0.002578,0.000976,0.125820,0.011236,0.184696,0.184696,0.184522,0.969579,0.000000,0.000000,0.000000,0.000000,0.000000,0.000000,0.000000,0.000000,0.000000,0.000000,0.000000,0.000000,0.121951,3,0
400000,-0.000989,10.131761,-0.010199,-0.007375,25.069859,0.019350,0.000278,0.001496,1.571116,-0.003200,0.000020,0.000431,-0.000001,-0.000153,0.000000,0.003052,0.001020,0.129720,0.045420,0.183155,0.183155,0.182656,0.965674,0.000000,0.000000,0.000000,0.000000,0.000000,0.000000,0.000000,0.000000,0.000000,0.000000,0.000000,0.000000,0.125764,3,0
410000,-0.001032,10.387712,-0.009471,-0.007437,25.076389,0.020555,0.000295,0.001638,1.571128,-0.003583,0.000023,0.000392,-0.000001,-0.000176,0.000000,0.004900,0.001064,0.173243,0.017527,0.181795,0.181795,0.180971,0.961565,0.000000,0.000000,0.000000,0.000000,0.000000,0.000000,0.000000,0.000000,0.000000,0.000000,0.000000,0.000000,0.167997,3,0
420000,-0.001075,10.643766,-0.009584,-0.007644,25.083208,0.020787,0.000298,0.001778,1.571129,-0.003987,0.000025,0.000417,-0.000001,-0.000201,0.000000,0.005007,0.001108,0.175652,-0.010863,0.180604,0.180604,0.179456,0.957254,0.000000,0.000000,0.000000,0.000000,0.000000,0.000000,0.000000,0.000000,0.000000,0.000000,0.000000,0.000000,0.170368,3,0
430000,-0.001119,10.899927,-0.010201,-0.007827,25.090094,0.020466,0.000312,0.001929,1.571144,-0.004414,0.000028,0.000484,-0.000001,-0.000228,0.000000,0.005247,0.001154,0.177956,-0.027969,0.179570,0.179570,0.178097,0.952742,0.000000,0.000000,0.000000,0.000000,0.000000,0.000000,0.000000,0.000000,0.000000,0.000000,0.000000,0.000000,0.172633,3,0
440000,-0.001163,11.157973,-0.010964,-0.007942,25.099667,0.019802,0.000318,0.002146,1.571152,-0.005012,0.000031,0.000566,-0.000002,-0.000267,0.000001,0.009474,0.001199,0.239787,-0.033005,0.178684,0.178684,0.176883,0.948031,0.000000,0.000000,0.000000,0.000000,0.000000,0.000000,0.000000,0.000000,0.000000,0.000000,0.000000,0.000000,0.232649,3,0
450000,-0.001207,11.414915,-0.010333,-0.008040,25.107895,0.020905,0.000319,0.002328,1.571153,-0.005531,0.000034,0.000528,-0.000002,-0.000301,0.000001,0.006524,0.001244,0.200313,0.014584,0.177933,0.177933,0.175803,0.943125,0.000000,0.000000,0.000000,0.000000,0.000000,0.000000,0.000000,0.000000,0.000000,0.000000,0.000000,0.000000,0.194376,3,0
460000,-0.001251,11.672546,-0.009976,-0.008159,25.116970,0.021702,0.000335,0.002542,1.571169,-0.006126,0.000038,0.000515,-0.000002,-0.000342,0.000001,0.007946,0.001290,0.221594,0.004891,0.177310,0.177310,0.174847,0.938025,0.000000,0.000000,0.000000,0.000000,0.000000,0.000000,0.000000,0.000000,0.000000,0.000000,0.000000,0.000000,0.215049,3,0
470000,-0.001295,11.927343,-0.010440,-0.008272,25.122425,0.021491,0.000349,0.002677,1.571171,-0.006468,0.000042,0.000581,-0.000002,-0.000366,0.000001,0.002534,0.001335,0.122902,-0.023697,0.176806,0.176806,0.174006,0.932737,0.000000,0.000000,0.000000,0.000000,0.000000,0.000000,0.000000,0.000000,0.000000,0.000000,0.000000,0.000000,0.119287,3,0
480000,-0.001339,12.184044,-0.009793,-0.008412,25.130453,0.022708,0.000356,0.002868,1.571180,-0.007004,0.000046,0.000538,-0.000003,-0.000404,0.000001,0.005639,0.001380,0.186114,0.014714,0.176411,0.176411,0.173271,0.927264,0.000000,0.000000,0.000000,0.000000,0.000000,0.000000,0.000000,0.000000,0.000000,0.000000,0.000000,0.000000,0.180647,3,0
490000,-0.001383,12.440280,-0.010745,-0.008455,25.137878,0.021855,0.000370,0.003060,1.571188,-0.007504,0.000050,0.000661,-0.000003,-0.000441,0.000001,0.004835,0.001425,0.167881,-0.041201,0.176118,0.176118,0.172634,0.921610,0.000000,0.000000,0.000000,0.000000,0.000000,0.000000,0.000000,0.000000,0.000000,0.000000,0.000000,0.000000,0.162959,3,0
500000,-0.001426,12.698979,-0.009465,-0.008531,25.148983,0.024008,0.000373,0.003336,1.571188,-0.008271,0.000055,0.000547,-0.000003,-0.000498,0.000001,0.010291,0.001469,0.249511,0.036734,0.175920,0.175920,0.172087,0.915781,0.000000,0.000000,0.000000,0.000000,0.000000,0.000000,0.000000,0.000000,0.000000,0.000000,0.000000,0.000000,0.242199,3,0
510000,-0.001468,12.953115,-0.008524,-0.008633,25.153381,0.025519,0.000390,0.003452,1.571185,-0.008557,0.000060,0.000470,-0.000004,-0.000520,0.000001,0.001409,0.001513,0.090095,0.024309,0.175809,0.175809,0.171622,0.909782,0.000000,0.000000,0.000000,0.000000,0.000000,0.000000,0.000000,0.000000,0.000000,0.000000,0.000000,0.000000,0.087467,3,0
520000,-0.001511,13.210912,-0.009579,-0.008746,25.163231,0.024577,0.000400,0.003719,1.571198,-0.009255,0.000065,0.000621,-0.000004,-0.000574,0.000001,0.007728,0.001556,0.213614,-0.046177,0.175779,0.175779,0.171234,0.903618,0.000000,0.000000,0.000000,0.000000,0.000000,0.000000,0.000000,0.000000,0.000000,0.000000,0.000000,0.000000,0.207362,3,0
530000,-0.001552,13.468825,-0.008652,-0.008754,25.173336,0.026154,0.000418,0.003999,1.571203,-0.009976,0.000070,0.000541,-0.000004,-0.000632,0.000001,0.007510,0.001599,0.214145,0.023671,0.175824,0.175824,0.170914,0.897296,0.000000,0.000000,0.000000,0.000000,0.000000,0.000000,0.000000,0.000000,0.000000,0.000000,0.000000,0.000000,0.207875,3,0
540000,-0.001594,13.728023,-0.009784,-0.008912,25.185425,0.024718,0.000434,0.004335,1.571210,-0.010856,0.000076,0.000712,-0.000005,-0.000703,0.000001,0.010855,0.001642,0.254312,-0.049156,0.175937,0.175937,0.170658,0.890822,0.000000,0.000000,0.000000,0.000000,0.000000,0.000000,0.000000,0.000000,0.000000,0.000000,0.000000,0.000000,0.246860,3,0
550000,-0.001635,13.982654,-0.010190,-0.008915,25.190323,0.024420,0.000437,0.004477,1.571217,-0.011192,0.000082,0.000795,-0.000005,-0.000731,0.000001,0.001529,0.001684,0.094389,-0.023191,0.176113,0.176113,0.170460,0.884203,0.000000,0.000000,0.000000,0.000000,0.000000,0.000000,0.000000,0.000000,0.000000,0.000000,0.000000,0.000000,0.091633,3,0
560000,-0.001674,14.237447,-0.010640,-0.008968,25.195465,0.024076,0.000455,0.004630,1.571222,-0.011550,0.000089,0.000886,-0.000006,-0.000762,0.000002,0.001657,0.001725,0.098135,-0.024671,0.176347,0.176347,0.170314,0.877446,0.000000,0.000000,0.000000,0.000000,0.000000,0.000000,0.000000,0.000000,0.000000,0.000000,0.000000,0.000000,0.095266,3,0
570000,-0.001713,14.495329,-0.009849,-0.008962,25.205551,0.025691,0.000460,0.004916,1.571219,-0.012304,0.000095,0.000813,-0.000007,-0.000827,0.000002,0.006602,0.001765,0.201111,0.019109,0.176632,0.176633,0.170214,0.870558,0.000000,0.000000,0.000000,0.000000,0.000000,0.000000,0.000000,0.000000,0.000000,0.000000,0.000000,0.000000,0.195198,3,0
580000,-0.001752,14.753923,-0.009244,-0.009132,25.216789,0.026842,0.000463,0.005252,1.571229,-0.013154,0.000102,0.000765,-0.000007,-0.000902,0.000002,0.007955,0.001805,0.221431,0.012042,0.176966,0.176966,0.170157,0.863547,0.000000,0.000000,0.000000,0.000000,0.000000,0.000000,0.000000,0.000000,0.000000,0.000000,0.000000,0.000000,0.214907,3,0
590000,-0.001790,15.012048,-0.008919,-0.009142,25.227121,0.027644,0.000469,0.005560,1.571239,-0.013946,0.000110,0.000758,-0.000008,-0.000973,0.000002,0.006553,0.001844,0.201273,0.001760,0.177342,0.177342,0.170138,0.856420,0.000000,0.000000,0.000000,0.000000,0.000000,0.000000,0.000000,0.000000,0.000000,0.000000,0.000000,0.000000,0.195332,3,0
600000,-0.001827,15.267941,-0.010101,-0.009236,25.233789,0.026141,0.000477,0.005764,1.571242,-0.014436,0.000118,0.000969,-0.000008,-0.001018,0.000002,0.002838,0.001883,0.121954,-0.051636,0.177757,0.177757,0.170152,0.849185,0.000000,0.000000,0.000000,0.000000,0.000000,0.000000,0.000000,0.000000,0.000000,0.000000,0.000000,0.000000,0.118355,3,0
610000,-0.001863,15.523982,-0.008672,-0.009238,25.240707,0.028372,0.000485,0.005972,1.571253,-0.014948,0.000126,0.000797,-0.000009,-0.001066,0.000002,0.002776,0.001920,0.124420,0.041003,0.178205,0.178205,0.170195,0.841850,0.000000,0.000000,0.000000,0.000000,0.000000,0.000000,0.000000,0.000000,0.000000,0.000000,0.000000,0.000000,0.120739,3,0
620000,-0.001898,15.779579,-0.008290,-0.009234,25.246773,0.029020,0.000489,0.006162,1.571262,-0.015398,0.000134,0.000782,-0.000010,-0.001109,0.000002,0.001849,0.001957,0.106858,0.003274,0.178685,0.178685,0.170264,0.834423,0.000000,0.000000,0.000000,0.000000,0.000000,0.000000,0.000000,0.000000,0.000000,0.000000,0.000000,0.000000,0.103693,3,0
630000,-0.001933,16.035923,-0.008472,-0.009354,25.254061,0.028916,0.000510,0.006401,1.571261,-0.015954,0.000143,0.000855,-0.000011,-0.001163,0.000002,0.002758,0.001993,0.129503,-0.016804,0.179191,0.179191,0.170355,0.826912,0.000000,0.000000,0.000000,0.000000,0.000000,0.000000,0.000000,0.000000,0.000000,0.000000,0.000000,0.000000,0.125650,3,0
640000,-0.001968,16.291817,-0.009449,-0.009428,25.260555,0.027885,0.000523,0.006608,1.571275,-0.016443,0.000152,0.001056,-0.000012,-0.001212,0.000002,0.002342,0.002029,0.111633,-0.044875,0.179720,0.179720,0.170465,0.819326,0.000000,0.000000,0.000000,0.000000,0.000000,0.000000,0.000000,0.000000,0.000000,0.000000,0.000000,0.000000,0.108308,3,0
650000,-0.002002,16.547859,-0.010558,-0.009506,25.267263,0.026346,0.000523,0.006822,1.571279,-0.016953,0.000161,0.001281,-0.000013,-0.001263,0.000003,0.002494,0.002064,0.114100,-0.048971,0.180269,0.180269,0.170591,0.811671,0.000000,0.000000,0.000000,0.000000,0.000000,0.000000,0.000000,0.000000,0.000000,0.000000,0.000000,0.000000,0.110690,3,0
660000,-0.002035,16.808243,-0.009469,-0.009493,25.281183,0.028015,0.000534,0.007288,1.571287,-0.018116,0.000171,0.001144,-0.000014,-0.001382,0.000003,0.010694,0.002098,0.255569,0.028878,0.180834,0.180834,0.170729,0.803958,0.000000,0.000000,0.000000,0.000000,0.000000,0.000000,0.000000,0.000000,0.000000,0.000000,0.000000,0.000000,0.247876,3,0
670000,-0.002066,17.064522,-0.010303,-0.009479,25.288101,0.026802,0.000540,0.007507,1.571302,-0.018646,0.000181,0.001331,-0.000015,-0.001438,0.000003,0.002363,0.002131,0.114319,-0.039278,0.181414,0.181414,0.170877,0.796193,0.000000,0.000000,0.000000,0.000000,0.000000,0.000000,0.000000,0.000000,0.000000,0.000000,0.000000,0.000000,0.110882,3,0
680000,-0.002098,17.321547,-0.010922,-0.009566,25.296274,0.026134,0.000552,0.007789,1.571300,-0.019288,0.000191,0.001483,-0.000016,-0.001507,0.000003,0.003161,0.002163,0.136276,-0.031313,0.182005,0.182005,0.171033,0.788384,0.000000,0.000000,0.000000,0.000000,0.000000,0.000000,0.000000,0.000000,0.000000,0.000000,0.000000,0.000000,0.132160,3,0
690000,-0.002127,17.579313,-0.011354,-0.009521,25.305601,0.025826,0.000560,0.008099,1.571314,-0.020044,0.000202,0.001604,-0.000017,-0.001588,0.000003,0.004105,0.002194,0.157473,-0.024539,0.182604,0.182604,0.171193,0.780541,0.000000,0.000000,0.000000,0.000000,0.000000,0.000000,0.000000,0.000000,0.000000,0.000000,0.000000,0.000000,0.152694,3,0
700000,-0.002155,17.838421,-0.012213,-0.009460,25.317047,0.024635,0.000571,0.008505,1.571324,-0.021008,0.000213,0.001801,-0.000018,-0.001695,0.000003,0.006572,0.002223,0.197798,-0.039260,0.183209,0.183209,0.171357,0.772669,0.000000,0.000000,0.000000,0.000000,0.000000,0.000000,0.000000,0.000000,0.000000,0.000000,0.000000,0.000000,0.191769,3,0
710000,-0.002182,18.095201,-0.011788,-0.009417,25.324362,0.025723,0.000591,0.008757,1.571322,-0.021589,0.000224,0.001769,-0.000019,-0.001760,0.000004,0.002237,0.002251,0.117485,0.005986,0.183819,0.183819,0.171521,0.764778,0.000000,0.000000,0.000000,0.000000,0.000000,0.000000,0.000000,0.000000,0.000000,0.000000,0.000000,0.000000,0.113907,3,0
720000,-0.002207,18.352728,-0.012166,-0.009417,25.332977,0.025287,0.000607,0.009056,1.571327,-0.022288,0.000236,0.001885,-0.000021,-0.001840,0.000004,0.003200,0.002277,0.138935,-0.022344,0.184430,0.184430,0.171685,0.756874,0.000000,0.000000,0.000000,0.000000,0.000000,0.000000,0.000000,0.000000,0.000000,0.000000,0.000000,0.000000,0.134683,3,0
730000,-0.002232,18.610380,-0.011522,-0.009499,25.341663,0.026583,0.000628,0.009379,1.571335,-0.023000,0.000248,0.001813,-0.000022,-0.001923,0.000004,0.003185,0.002303,0.139750,0.013421,0.185042,0.185042,0.171846,0.748965,0.000000,0.000000,0.000000,0.000000,0.000000,0.000000,0.000000,0.000000,0.000000,0.000000,0.000000,0.000000,0.135457,3,0
740000,-0.002256,18.869385,-0.010246,-0.009480,25.352654,0.028576,0.000633,0.009785,1.571344,-0.023932,0.000260,0.001621,-0.000023,-0.002033,0.000004,0.005445,0.002328,0.180193,0.035110,0.185651,0.185651,0.172003,0.741058,0.000000,0.000000,0.000000,0.000000,0.000000,0.000000,0.000000,0.000000,0.000000,0.000000,0.000000,0.000000,0.174632,3,0
750000,-0.002280,19.131580,-0.009567,-0.009590,25.368988,0.029981,0.000647,0.010400,1.571356,-0.025393,0.000273,0.001545,-0.000025,-0.002209,0.000004,0.012592,0.002353,0.278898,0.013474,0.186258,0.186258,0.172154,0.733159,0.000000,0.000000,0.000000,0.000000,0.000000,0.000000,0.000000,0.000000,0.000000,0.000000,0.000000,0.000000,0.270250,3,0
760000,-0.002303,19.391991,-0.009266,-0.009554,25.382103,0.030510,0.000651,0.010902,1.571363,-0.026536,0.000286,0.001543,-0.000027,-0.002349,0.000005,0.007488,0.002377,0.215326,-0.000076,0.186859,0.186859,0.172299,0.725277,0.000000,0.000000,0.000000,0.000000,0.000000,0.000000,0.000000,0.000000,0.000000,0.000000,0.000000,0.000000,0.208633,3,0
770000,-0.002326,19.651867,-0.010203,-0.009650,25.394054,0.029379,0.000657,0.011366,1.571377,-0.027576,0.000299,0.001788,-0.000028,-0.002478,0.000005,0.006341,0.002401,0.193333,-0.043423,0.187455,0.187455,0.172435,0.717416,0.000000,0.000000,0.000000,0.000000,0.000000,0.000000,0.000000,0.000000,0.000000,0.000000,0.000000,0.000000,0.187307,3,0
780000,-0.002348,19.911209,-0.010340,-0.009645,25.405071,0.029185,0.000670,0.011787,1.571373,-0.028511,0.000312,0.001873,-0.000030,-0.002597,0.000005,0.004807,0.002424,0.171883,-0.015099,0.188043,0.188043,0.172562,0.709584,0.000000,0.000000,0.000000,0.000000,0.000000,0.000000,0.000000,0.000000,0.000000,0.000000,0.000000,0.000000,0.166513,3,0
790000,-0.002368,20.173769,-0.010554,-0.009574,25.421438,0.029052,0.000685,0.012438,1.571370,-0.029998,0.000326,0.001973,-0.000032,-0.002788,0.000005,0.011842,0.002445,0.270252,-0.017706,0.188623,0.188623,0.172680,0.701787,0.000000,0.000000,0.000000,0.000000,0.000000,0.000000,0.000000,0.000000,0.000000,0.000000,0.000000,0.000000,0.261768,3,0
800000,-0.002388,20.431997,-0.011180,-0.009587,25.430094,0.028424,0.000699,0.012776,1.571373,-0.030704,0.000340,0.002162,-0.000033,-0.002880,0.000006,0.002762,0.002465,0.126801,-0.032046,0.189194,0.189193,0.172786,0.694029,0.000000,0.000000,0.000000,0.000000,0.000000,0.000000,0.000000,0.000000,0.000000,0.000000,0.000000,0.000000,0.122826,3,0
810000,-0.002406,20.692215,-0.010738,-0.009525,25.442205,0.029454,0.000703,0.013260,1.571369,-0.031753,0.000354,0.002128,-0.000035,-0.003020,0.000006,0.005622,0.002485,0.186546,0.005270,0.189754,0.189754,0.172881,0.686318,0.000000,0.000000,0.000000,0.000000,0.000000,0.000000,0.000000,0.000000,0.000000,0.000000,0.000000,0.000000,0.180663,3,0
820000,-0.002423,20.954401,-0.009117,-0.009501,25.457541,0.032073,0.000708,0.013900,1.571370,-0.033140,0.000369,0.001846,-0.000037,-0.003207,0.000006,0.009971,0.002502,0.244272,0.045860,0.190304,0.190303,0.172964,0.678657,0.000000,0.000000,0.000000,0.000000,0.000000,0.000000,0.000000,0.000000,0.000000,0.000000,0.000000,0.000000,0.236537,3,0
830000,-0.002439,21.214109,-0.007691,-0.009528,25.468332,0.034175,0.000727,0.014334,1.571378,-0.034061,0.000383,0.001608,-0.000039,-0.003334,0.000006,0.004412,0.002519,0.160841,0.038229,0.190842,0.190841,0.173034,0.671052,0.000000,0.000000,0.000000,0.000000,0.000000,0.000000,0.000000,0.000000,0.000000,0.000000,0.000000,0.000000,0.155745,3,0
840000,-0.002454,21.476433,-0.008407,-0.009437,25.483622,0.033108,0.000733,0.014977,1.571378,-0.035445,0.000399,0.001834,-0.000041,-0.003527,0.000007,0.009434,0.002535,0.238966,-0.036751,0.191368,0.191367,0.173092,0.663508,0.000000,0.000000,0.000000,0.000000,0.000000,0.000000,0.000000,0.000000,0.000000,0.000000,0.000000,0.000000,0.231357,3,0
850000,-0.002469,21.734352,-0.009418,-0.009472,25.491043,0.031908,0.000743,0.015272,1.571392,-0.036005,0.000414,0.002128,-0.000043,-0.003606,0.000007,0.001834,0.002550,0.095762,-0.046720,0.191881,0.191881,0.173135,0.656029,0.000000,0.000000,0.000000,0.000000,0.000000,0.000000,0.000000,0.000000,0.000000,0.000000,0.000000,0.000000,0.092732,3,0
860000,-0.002483,21.994278,-0.009604,-0.009477,25.501743,0.031682,0.000753,0.015729,1.571392,-0.036923,0.000429,0.002238,-0.000046,-0.003739,0.000007,0.003969,0.002565,0.155832,-0.017624,0.192382,0.192381,0.173165,0.648619,0.000000,0.000000,0.000000,0.000000,0.000000,0.000000,0.000000,0.000000,0.000000,0.000000,0.000000,0.000000,0.150855,3,0
870000,-0.002497,22.253637,-0.010808,-0.009485,25.511459,0.029949,0.000769,0.016125,1.571395,-0.037721,0.000445,0.002577,-0.000048,-0.003856,0.000007,0.003363,0.002579,0.134342,-0.052793,0.192869,0.192869,0.173181,0.641283,0.000000,0.000000,0.000000,0.000000,0.000000,0.000000,0.000000,0.000000,0.000000,0.000000,0.000000,0.000000,0.130046,3,0
880000,-0.002509,22.513069,-0.009403,-0.009448,25.521196,0.032216,0.000775,0.016529,1.571404,-0.038519,0.000461,0.002325,-0.000050,-0.003974,0.000008,0.003103,0.002593,0.133312,0.038130,0.193344,0.193343,0.173183,0.634023,0.000000,0.000000,0.000000,0.000000,0.000000,0.000000,0.000000,0.000000,0.000000,0.000000,0.000000,0.000000,0.129041,3,0
890000,-0.002521,22.775143,-0.010532,-0.009395,25.535482,0.030685,0.000786,0.017152,1.571408,-0.039796,0.000477,0.002654,-0.000053,-0.004167,0.000008,0.007641,0.002604,0.211725,-0.050358,0.193804,0.193803,0.173171,0.626844,0.000000,0.000000,0.000000,0.000000,0.000000,0.000000,0.000000,0.000000,0.000000,0.000000,0.000000,0.000000,0.204901,3,0
900000,-0.002531,23.035320,-0.009494,-0.009333,25.546244,0.032362,0.000795,0.017613,1.571416,-0.040695,0.000493,0.002483,-0.000055,-0.004305,0.000008,0.003650,0.002615,0.148296,0.025186,0.194251,0.194250,0.173144,0.619749,0.000000,0.000000,0.000000,0.000000,0.000000,0.000000,0.000000,0.000000,0.000000,0.000000,0.000000,0.000000,0.143518,3,0
910000,-0.002540,23.295555,-0.009941,-0.009269,25.556810,0.031754,0.000815,0.018086,1.571416,-0.041591,0.000509,0.002661,-0.000058,-0.004445,0.000009,0.003575,0.002625,0.146439,-0.026793,0.194685,0.194684,0.173103,0.612739,0.000000,0.000000,0.000000,0.000000,0.000000,0.000000,0.000000,0.000000,0.000000,0.000000,0.000000,0.000000,0.141710,3,0
920000,-0.002548,23.555845,-0.011137,-0.009157,25.567345,0.030201,0.000828,0.018564,1.571427,-0.042480,0.000526,0.003018,-0.000060,-0.004586,0.000009,0.003817,0.002633,0.144522,-0.052631,0.195105,0.195104,0.173048,0.605819,0.000000,0.000000,0.000000,0.000000,0.000000,0.000000,0.000000,0.000000,0.000000,0.000000,0.000000,0.000000,0.139845,3,0
930000,-0.002554,23.814890,-0.011170,-0.009121,25.575523,0.030179,0.000838,0.018928,1.571427,-0.043117,0.000542,0.003096,-0.000063,-0.004689,0.000009,0.001727,0.002640,0.102797,-0.011687,0.195512,0.195511,0.172979,0.598991,0.000000,0.000000,0.000000,0.000000,0.000000,0.000000,0.000000,0.000000,0.000000,0.000000,0.000000,0.000000,0.099480,3,0
940000,-0.002560,24.076599,-0.010095,-0.009061,25.588350,0.032028,0.000855,0.019509,1.571425,-0.044246,0.000559,0.002905,-0.000065,-0.004873,0.000009,0.005434,0.002646,0.181610,0.026698,0.195906,0.195904,0.172896,0.592256,0.000000,0.000000,0.000000,0.000000,0.000000,0.000000,0.000000,0.000000,0.000000,0.000000,0.000000,0.000000,0.175699,3,0
950000,-0.002565,24.335083,-0.009463,-0.009011,25.595293,0.032899,0.000873,0.019802,1.571435,-0.044739,0.000576,0.002828,-0.000068,-0.004955,0.000010,0.001021,0.002651,0.078802,0.010717,0.196286,0.196285,0.172800,0.585617,0.000000,0.000000,0.000000,0.000000,0.000000,0.000000,0.000000,0.000000,0.000000,0.000000,0.000000,0.000000,0.076268,3,0
960000,-0.002570,24.598852,-0.008805,-0.009061,25.611639,0.033808,0.000888,0.020579,1.571429,-0.046234,0.000593,0.002740,-0.000071,-0.005206,0.000010,0.009131,0.002657,0.237703,0.011461,0.196654,0.196652,0.172690,0.579076,0.000000,0.000000,0.000000,0.000000,0.000000,0.000000,0.000000,0.000000,0.000000,0.000000,0.000000,0.000000,0.229928,3,0
970000,-0.002573,24.861967,-0.007412,-0.008980,25.626558,0.036036,0.000912,0.021300,1.571437,-0.047575,0.000610,0.002472,-0.000074,-0.005435,0.000010,0.007485,0.002661,0.212318,0.036622,0.197009,0.197007,0.172566,0.572634,0.000000,0.000000,0.000000,0.000000,0.000000,0.000000,0.000000,0.000000,0.000000,0.000000,0.000000,0.000000,0.205363,3,0
980000,-0.002578,25.121162,-0.007906,-0.009033,25.634357,0.035607,0.000923,0.021636,1.571448,-0.048135,0.000627,0.002686,-0.000077,-0.005533,0.000011,0.001400,0.002665,0.088207,-0.029950,0.197352,0.197350,0.172430,0.566293,0.000000,0.000000,0.000000,0.000000,0.000000,0.000000,0.000000,0.000000,0.000000,0.000000,0.000000,0.000000,0.085343,3,0
990000,-0.002582,25.383032,-0.009019,-0.009053,25.646709,0.034166,0.000942,0.022232,1.571447,-0.049200,0.000645,0.003055,-0.000080,-0.005721,0.000011,0.004914,0.002670,0.166874,-0.051222,0.197683,0.197681,0.172281,0.560053,0.000000,0.000000,0.000000,0.000000,0.000000,0.000000,0.000000,0.000000,0.000000,0.000000,0.000000,0.000000,0.161396,3,0
1000000,-0.002586,25.643604,-0.009588,-0.009038,25.656633,0.033469,0.000960,0.022687,1.571452,-0.049991,0.000663,0.003286,-0.000083,-0.005863,0.000011,0.002625,0.002674,0.123549,-0.031847,0.198003,0.198001,0.172120,0.553916,0.000000,0.000000,0.000000,0.000000,0.000000,0.000000,0.000000,0.000000,0.000000,0.000000,0.000000,0.000000,0.119499,3,0
1010000,-0.002588,25.904207,-0.008177,-0.008895,25.666544,0.035379,0.000975,0.023141,1.571464,-0.050770,0.000680,0.003003,-0.000086,-0.006004,0.000011,0.002601,0.002677,0.121302,0.037554,0.198311,0.198309,0.171946,0.547883,0.000000,0.000000,0.000000,0.000000,0.000000,0.000000,0.000000,0.000000,0.000000,0.000000,0.000000,0.000000,0.117323,3,0
1020000,-0.002589,26.167473,-0.009159,-0.008832,25.680931,0.033948,0.000999,0.023857,1.571468,-0.052050,0.000698,0.003345,-0.000089,-0.006241,0.000012,0.006705,0.002678,0.198542,-0.046629,0.198609,0.198606,0.171761,0.541954,0.000000,0.000000,0.000000,0.000000,0.000000,0.000000,0.000000,0.000000,0.000000,0.000000,0.000000,0.000000,0.191986,3,0
1030000,-0.002590,26.430729,-0.009107,-0.008734,25.695303,0.033980,0.001026,0.024566,1.571474,-0.053302,0.000716,0.003414,-0.000093,-0.006475,0.000012,0.006054,0.002678,0.193556,-0.009987,0.198896,0.198893,0.171565,0.536130,0.000000,0.000000,0.000000,0.000000,0.000000,0.000000,0.000000,0.000000,0.000000,0.000000,0.000000,0.000000,0.187157,3,0
1040000,-0.002588,26.693974,-0.009440,-0.008595,25.709368,0.033579,0.001053,0.025276,1.571475,-0.054526,0.000733,0.003586,-0.000096,-0.006708,0.000013,0.005821,0.002677,0.188585,-0.023524,0.199174,0.199170,0.171358,0.530411,0.000000,0.000000,0.000000,0.000000,0.000000,0.000000,0.000000,0.000000,0.000000,0.000000,0.000000,0.000000,0.182342,3,0
1050000,-0.002585,26.956543,-0.009395,-0.008438,25.722122,0.033627,0.001075,0.025910,1.571487,-0.055591,0.000751,0.003658,-0.000099,-0.006913,0.000013,0.004338,0.002674,0.163742,-0.010148,0.199441,0.199438,0.171140,0.524797,0.000000,0.000000,0.000000,0.000000,0.000000,0.000000,0.000000,0.000000,0.000000,0.000000,0.000000,0.000000,0.158320,3,0
1060000,-0.002581,27.220427,-0.008723,-0.008323,25.737103,0.034629,0.001089,0.026684,1.571482,-0.056889,0.000769,0.003558,-0.000103,-0.007167,0.000014,0.006419,0.002670,0.199228,0.011866,0.199700,0.199696,0.170912,0.519290,0.000000,0.000000,0.000000,0.000000,0.000000,0.000000,0.000000,0.000000,0.000000,0.000000,0.000000,0.000000,0.192616,3,0
1070000,-0.002576,27.483620,-0.008973,-0.008197,25.750521,0.034201,0.001097,0.027367,1.571478,-0.058024,0.000787,0.003713,-0.000106,-0.007393,0.000014,0.004935,0.002665,0.173744,-0.020868,0.199950,0.199946,0.170674,0.513887,0.000000,0.000000,0.000000,0.000000,0.000000,0.000000,0.000000,0.000000,0.000000,0.000000,0.000000,0.000000,0.167973,3,0
1080000,-0.002571,27.746128,-0.008825,-0.008183,25.762619,0.034324,0.001110,0.027979,1.571492,-0.058999,0.000805,0.003760,-0.000110,-0.007590,0.000014,0.003583,0.002660,0.148962,-0.006766,0.200192,0.200187,0.170427,0.508590,0.000000,0.000000,0.000000,0.000000,0.000000,0.000000,0.000000,0.000000,0.000000,0.000000,0.000000,0.000000,0.144014,3,0
1090000,-0.002564,28.005968,-0.007470,-0.008067,25.769938,0.036071,0.001137,0.028307,1.571489,-0.059426,0.000822,0.003475,-0.000114,-0.007677,0.000014,0.000893,0.002653,0.065239,0.035641,0.200426,0.200421,0.170171,0.503397,0.000000,0.000000,0.000000,0.000000,0.000000,0.000000,0.000000,0.000000,0.000000,0.000000,0.000000,0.000000,0.063113,3,0
1100000,-0.002557,28.266500,-0.008302,-0.007956,25.778368,0.034810,0.001147,0.028706,1.571498,-0.059976,0.000840,0.003806,-0.000117,-0.007792,0.000015,0.001415,0.002645,0.083632,-0.042117,0.200652,0.200647,0.169906,0.498309,0.000000,0.000000,0.000000,0.000000,0.000000,0.000000,0.000000,0.000000,0.000000,0.000000,0.000000,0.000000,0.080874,3,0
1110000,-0.002550,28.527046,-0.008920,-0.007967,25.786709,0.033929,0.001167,0.029090,1.571508,-0.060513,0.000858,0.004077,-0.000121,-0.007905,0.000015,0.001259,0.002638,0.081442,-0.034194,0.200872,0.200867,0.169633,0.493326,0.000000,0.000000,0.000000,0.000000,0.000000,0.000000,0.000000,0.000000,0.000000,0.000000,0.000000,0.000000,0.078756,3,0
1120000,-0.002544,28.789606,-0.009218,-0.007981,25.798574,0.033555,0.001188,0.029691,1.571511,-0.061428,0.000876,0.004252,-0.000124,-0.008101,0.000015,0.003190,0.002632,0.138874,-0.022506,0.201086,0.201080,0.169352,0.488446,0.000000,0.000000,0.000000,0.000000,0.000000,0.000000,0.000000,0.000000,0.000000,0.000000,0.000000,0.000000,0.134242,3,0
1130000,-0.002536,29.049475,-0.007633,-0.007909,25.805479,0.035633,0.001197,0.029998,1.571519,-0.061789,0.000893,0.003888,-0.000128,-0.008179,0.000015,0.000808,0.002624,0.055105,0.044295,0.201293,0.201287,0.169065,0.483668,0.000000,0.000000,0.000000,0.000000,0.000000,0.000000,0.000000,0.000000,0.000000,0.000000,0.000000,0.000000,0.053319,3,0
1140000,-0.002528,29.312037,-0.006327,-0.007903,25.817144,0.037417,0.001221,0.030593,1.571529,-0.062665,0.000910,0.003603,-0.000132,-0.008371,0.000016,0.003040,0.002616,0.133108,0.033821,0.201495,0.201488,0.168770,0.478993,0.000000,0.000000,0.000000,0.000000,0.000000,0.000000,0.000000,0.000000,0.000000,0.000000,0.000000,0.000000,0.128664,3,0
1150000,-0.002520,29.573908,-0.005619,-0.007829,25.827286,0.038269,0.001248,0.031105,1.571540,-0.063383,0.000928,0.003498,-0.000136,-0.008532,0.000016,0.001937,0.002608,0.108976,0.011960,0.201692,0.201684,0.168469,0.474418,0.000000,0.000000,0.000000,0.000000,0.000000,0.000000,0.000000,0.000000,0.000000,0.000000,0.000000,0.000000,0.105344,3,0
1160000,-0.002512,29.832420,-0.005166,-0.007742,25.831375,0.039018,0.001274,0.031218,1.571552,-0.063423,0.000945,0.003479,-0.000140,-0.008541,0.000016,0.000008,0.002599,0.006035,0.002266,0.201884,0.201876,0.168161,0.469944,0.000000,0.000000,0.000000,0.000000,0.000000,0.000000,0.000000,0.000000,0.000000,0.000000,0.000000,0.000000,0.006351,3,0
1170000,-0.002503,30.093651,-0.005018,-0.007708,25.840363,0.039035,0.001296,0.031648,1.571566,-0.063987,0.000962,0.003546,-0.000144,-0.008670,0.000016,0.001188,0.002590,0.085423,-0.008580,0.202072,0.202064,0.167848,0.465569,0.000000,0.000000,0.000000,0.000000,0.000000,0.000000,0.000000,0.000000,0.000000,0.000000,0.000000,0.000000,0.082582,3,0
1180000,-0.002494,30.354202,-0.003624,-0.007649,25.847874,0.041031,0.001313,0.031990,1.571570,-0.064398,0.000979,0.003240,-0.000148,-0.008766,0.000017,0.000841,0.002581,0.062651,0.035841,0.202256,0.202247,0.167529,0.461292,0.000000,0.000000,0.000000,0.000000,0.000000,0.000000,0.000000,0.000000,0.000000,0.000000,0.000000,0.000000,0.060593,3,0
1190000,-0.002484,30.614088,-0.003113,-0.007529,25.854214,0.041685,0.001342,0.032249,1.571586,-0.064665,0.000996,0.003207,-0.000152,-0.008829,0.000017,0.000268,0.002571,0.040567,0.003521,0.202437,0.202427,0.167206,0.457113,0.000000,0.000000,0.000000,0.000000,0.000000,0.000000,0.000000,0.000000,0.000000,0.000000,0.000000,0.000000,0.039278,3,0
1200000,-0.002473,30.878014,-0.001836,-0.007445,25.867548,0.043157,0.001371,0.032993,1.571586,-0.065707,0.001013,0.002930,-0.000156,-0.009079,0.000017,0.004195,0.002560,0.158319,0.031192,0.202615,0.202605,0.166877,0.453029,0.000000,0.000000,0.000000,0.000000,0.000000,0.000000,0.000000,0.000000,0.000000,0.000000,0.000000,0.000000,0.152995,3,0
1210000,-0.002463,31.137190,-0.003112,-0.007369,25.872335,0.041636,0.001389,0.033145,1.571594,-0.065799,0.001030,0.003459,-0.000160,-0.009102,0.000017,0.000648,0.002548,0.013535,-0.061751,0.202790,0.202779,0.166545,0.449040,0.000000,0.000000,0.000000,0.000000,0.000000,0.000000,0.000000,0.000000,0.000000,0.000000,0.000000,0.000000,0.013303,3,0
1220000,-0.002452,31.399750,-0.003395,-0.007337,25.883080,0.041173,0.001416,0.033703,1.571605,-0.066537,0.001048,0.003668,-0.000164,-0.009285,0.000017,0.002128,0.002538,0.112127,-0.025103,0.202962,0.202951,0.166209,0.445145,0.000000,0.000000,0.000000,0.000000,0.000000,0.000000,0.000000,0.000000,0.000000,0.000000,0.000000,0.000000,0.108359,3,0
1230000,-0.002441,31.658239,-0.004009,-0.007302,25.886469,0.040432,0.001433,0.033756,1.571609,-0.066464,0.001064,0.003993,-0.000168,-0.009268,0.000017,0.000248,0.002527,-0.011385,-0.037376,0.203133,0.203121,0.165869,0.441343,0.000000,0.000000,0.000000,0.000000,0.000000,0.000000,0.000000,0.000000,0.000000,0.000000,0.000000,0.000000,0.011271,3,0
1240000,-0.002431,31.920122,-0.003341,-0.007300,25.895847,0.041372,0.001460,0.034223,1.571614,-0.067040,0.001081,0.003902,-0.000173,-0.009414,0.000018,0.001260,0.002516,0.087910,0.009588,0.203302,0.203290,0.165526,0.437631,0.000000,0.000000,0.000000,0.000000,0.000000,0.000000,0.000000,0.000000,0.000000,0.000000,0.000000,0.000000,0.084967,3,0
1250000,-0.002419,32.182655,-0.001956,-0.007247,25.906204,0.043295,0.001471,0.034766,1.571629,-0.067720,0.001097,0.003583,-0.000177,-0.009589,0.000018,0.001953,0.002505,0.104237,0.035352,0.203470,0.203457,0.165180,0.434009,0.000000,0.000000,0.000000,0.000000,0.000000,0.000000,0.000000,0.000000,0.000000,0.000000,0.000000,0.000000,0.100733,3,0
1260000,-0.002407,32.446503,-0.000810,-0.007151,25.918804,0.044686,0.001493,0.035469,1.571627,-0.068632,0.001114,0.003340,-0.000181,-0.009828,0.000018,0.003258,0.002492,0.139782,0.026204,0.203637,0.203623,0.164831,0.430475,0.000000,0.000000,0.000000,0.000000,0.000000,0.000000,0.000000,0.000000,0.000000,0.000000,0.000000,0.000000,0.135062,3,0
1270000,-0.002396,32.707592,-0.000253,-0.007112,25.926331,0.045242,0.001518,0.035808,1.571639,-0.068989,0.001130,0.003299,-0.000186,-0.009923,0.000019,0.000486,0.002480,0.054718,0.004037,0.203803,0.203789,0.164480,0.427029,0.000000,0.000000,0.000000,0.000000,0.000000,0.000000,0.000000,0.000000,0.000000,0.000000,0.000000,0.000000,0.052915,3,0
1280000,-0.002383,32.967312,0.000803,-0.007017,25.931459,0.046668,0.001540,0.035976,1.571641,-0.069068,0.001146,0.003102,-0.000190,-0.009943,0.000019,0.000103,0.002467,0.012222,0.021868,0.203969,0.203953,0.164128,0.423668,0.000000,0.000000,0.000000,0.000000,0.000000,0.000000,0.000000,0.000000,0.000000,0.000000,0.000000,0.000000,0.012048,3,0
1290000,-0.002371,33.227043,0.000158,-0.006914,25.936501,0.045650,0.001558,0.036145,1.571656,-0.069140,0.001162,0.003469,-0.000194,-0.009964,0.000019,0.000291,0.002454,0.010880,-0.040848,0.204134,0.204118,0.163773,0.420392,0.000000,0.000000,0.000000,0.000000,0.000000,0.000000,0.000000,0.000000,0.000000,0.000000,0.000000,0.000000,0.010770,3,0
1300000,-0.002358,33.489483,0.000435,-0.006842,25.946285,0.045781,0.001574,0.036655,1.571666,-0.069717,0.001179,0.003518,-0.000199,-0.010124,0.000019,0.001284,0.002441,0.089039,-0.006376,0.204300,0.204283,0.163418,0.417198,0.000000,0.000000,0.000000,0.000000,0.000000,0.000000,0.000000,0.000000,0.000000,0.000000,0.000000,0.000000,0.086038,3,0
1310000,-0.002344,33.751884,0.000444,-0.006694,25.955967,0.045566,0.001586,0.037153,1.571677,-0.070266,0.001195,0.003658,-0.000203,-0.010279,0.000019,0.001205,0.002426,0.084927,-0.016348,0.204465,0.204447,0.163061,0.414087,0.000000,0.000000,0.000000,0.000000,0.000000,0.000000,0.000000,0.000000,0.000000,0.000000,0.000000,0.000000,0.082065,3,0
1320000,-0.002329,34.012215,0.000344,-0.006556,25.961781,0.045284,0.001601,0.037373,1.571678,-0.070404,0.001210,0.003844,-0.000208,-0.010319,0.000019,0.000142,0.002411,0.021214,-0.020560,0.204631,0.204613,0.162703,0.411055,0.000000,0.000000,0.000000,0.000000,0.000000,0.000000,0.000000,0.000000,0.000000,0.000000,0.000000,0.000000,0.020621,3,0
1330000,-0.002313,34.271183,-0.000808,-0.006373,25.965082,0.043653,0.001615,0.037392,1.571689,-0.070275,0.001226,0.004394,-0.000212,-0.010283,0.000019,0.000644,0.002394,-0.020504,-0.059552,0.204798,0.204778,0.162345,0.408101,0.000000,0.000000,0.000000,0.000000,0.000000,0.000000,0.000000,0.000000,0.000000,0.000000,0.000000,0.000000,0.019944,3,0
1340000,-0.002295,34.530159,-0.000564,-0.006245,25.968292,0.043992,0.001641,0.037402,1.571697,-0.070141,0.001241,0.004465,-0.000216,-0.010244,0.000019,0.000081,0.002377,-0.021084,-0.007422,0.204965,0.204945,0.161987,0.405224,0.000000,0.000000,0.000000,0.000000,0.000000,0.000000,0.000000,0.000000,0.000000,0.000000,0.000000,0.000000,0.020492,3,0
1350000,-0.002277,34.793228,-0.001421,-0.006069,25.978825,0.042891,0.001652,0.037969,1.571694,-0.070765,0.001257,0.004900,-0.000221,-0.010431,0.000020,0.001907,0.002358,0.097610,-0.047932,0.205134,0.205112,0.161628,0.402423,0.000000,0.000000,0.000000,0.000000,0.000000,0.000000,0.000000,0.000000,0.000000,0.000000,0.000000,0.000000,0.094296,3,0
1360000,-0.002259,35.056915,-0.000101,-0.006023,25.990341,0.044473,0.001669,0.038625,1.571706,-0.071479,0.001272,0.004574,-0.000225,-0.010647,0.000020,0.002229,0.002339,0.112740,0.033498,0.205303,0.205281,0.161270,0.399696,0.000000,0.000000,0.000000,0.000000,0.000000,0.000000,0.000000,0.000000,0.000000,0.000000,0.000000,0.000000,0.108910,3,0
1370000,-0.002239,35.318504,-0.000356,-0.005831,25.998011,0.044113,0.001698,0.038972,1.571710,-0.071782,0.001287,0.004813,-0.000230,-0.010740,0.000020,0.000478,0.002318,0.047722,-0.026070,0.205474,0.205450,0.160912,0.397042,0.000000,0.000000,0.000000,0.000000,0.000000,0.000000,0.000000,0.000000,0.000000,0.000000,0.000000,0.000000,0.046140,3,0
1380000,-0.002219,35.578014,-0.000752,-0.005658,26.001719,0.043621,0.001710,0.039025,1.571719,-0.071688,0.001302,0.005113,-0.000234,-0.010712,0.000020,0.000199,0.002297,-0.015148,-0.031562,0.205646,0.205622,0.160555,0.394458,0.000000,0.000000,0.000000,0.000000,0.000000,0.000000,0.000000,0.000000,0.000000,0.000000,0.000000,0.000000,0.014800,3,0
1390000,-0.002198,35.836838,-0.000544,-0.005577,26.004278,0.043959,0.001739,0.038967,1.571717,-0.071462,0.001316,0.005203,-0.000239,-0.010641,0.000020,0.000224,0.002276,-0.036148,-0.008969,0.205820,0.205794,0.160199,0.391945,0.000000,0.000000,0.000000,0.000000,0.000000,0.000000,0.000000,0.000000,0.000000,0.000000,0.000000,0.000000,0.034977,3,0
1400000,-0.002177,36.097046,-0.001428,-0.005502,26.009167,0.042644,0.001755,0.039108,1.571720,-0.071485,0.001331,0.005677,-0.000243,-0.010650,0.000020,0.000405,0.002254,0.003185,-0.049799,0.205996,0.205969,0.159844,0.389500,0.000000,0.000000,0.000000,0.000000,0.000000,0.000000,0.000000,0.000000,0.000000,0.000000,0.000000,0.000000,0.003761,3,0
1410000,-0.002157,36.358601,-0.001569,-0.005480,26.016418,0.042414,0.001778,0.039433,1.571718,-0.071741,0.001345,0.005876,-0.000248,-0.010734,0.000020,0.000346,0.002234,0.041111,-0.021289,0.206173,0.206144,0.159489,0.387121,0.000000,0.000000,0.000000,0.000000,0.000000,0.000000,0.000000,0.000000,0.000000,0.000000,0.000000,0.000000,0.039754,3,0
1420000,-0.002136,36.619438,-0.002382,-0.005329,26.022375,0.041365,0.001795,0.039644,1.571723,-0.071855,0.001359,0.006324,-0.000252,-0.010773,0.000021,0.000407,0.002212,0.018028,-0.046714,0.206351,0.206322,0.159137,0.384808,0.000000,0.000000,0.000000,0.000000,0.000000,0.000000,0.000000,0.000000,0.000000,0.000000,0.000000,0.000000,0.017533,3,0
1430000,-0.002114,36.878876,-0.001879,-0.005210,26.025581,0.041910,0.001817,0.039632,1.571727,-0.071706,0.001373,0.006297,-0.000257,-0.010723,0.000020,0.000097,0.002190,-0.024197,0.003065,0.206532,0.206501,0.158786,0.382558,0.000000,0.000000,0.000000,0.000000,0.000000,0.000000,0.000000,0.000000,0.000000,0.000000,0.000000,0.000000,0.023460,3,0
1440000,-0.002092,37.138309,-0.001370,-0.005089,26.028839,0.042679,0.001841,0.039619,1.571737,-0.071552,0.001386,0.006272,-0.000261,-0.010670,0.000020,0.000105,0.002166,-0.025246,0.002990,0.206714,0.206682,0.158436,0.380372,0.000000,0.000000,0.000000,0.000000,0.000000,0.000000,0.000000,0.000000,0.000000,0.000000,0.000000,0.000000,0.024466,3,0
1450000,-0.002069,37.396366,-0.000414,-0.004974,26.029510,0.043832,0.001855,0.039401,1.571737,-0.071149,0.001398,0.006091,-0.000266,-0.010531,0.000020,0.000764,0.002143,-0.066044,0.019499,0.206898,0.206865,0.158089,0.378246,0.000000,0.000000,0.000000,0.000000,0.000000,0.000000,0.000000,0.000000,0.000000,0.000000,0.000000,0.000000,0.063796,3,0
1460000,-0.002045,37.655815,-0.000302,-0.004801,26.032684,0.043823,0.001872,0.039395,1.571742,-0.070993,0.001411,0.006220,-0.000270,-0.010477,0.000020,0.000135,0.002118,-0.025917,-0.012735,0.207084,0.207050,0.157744,0.376179,0.000000,0.000000,0.000000,0.000000,0.000000,0.000000,0.000000,0.000000,0.000000,0.000000,0.000000,0.000000,0.025108,3,0
1470000,-0.002020,37.915951,-0.000396,-0.004602,26.036989,0.043534,0.001898,0.039469,1.571739,-0.070952,0.001424,0.006423,-0.000274,-0.010463,0.000020,0.000077,0.002092,-0.007099,-0.020459,0.207272,0.207236,0.157401,0.374171,0.000000,0.000000,0.000000,0.000000,0.000000,0.000000,0.000000,0.000000,0.000000,0.000000,0.000000,0.000000,0.007150,3,0
1480000,-0.001996,38.174698,-0.001175,-0.004490,26.038689,0.042454,0.001918,0.039346,1.571737,-0.070664,0.001437,0.006895,-0.000279,-0.010361,0.000020,0.000738,0.002067,-0.048607,-0.046881,0.207462,0.207425,0.157060,0.372219,0.000000,0.000000,0.000000,0.000000,0.000000,0.000000,0.000000,0.000000,0.000000,0.000000,0.000000,0.000000,0.046978,3,0
1490000,-0.001971,38.434128,-0.001047,-0.004466,26.041599,0.042763,0.001932,0.039309,1.571742,-0.070492,0.001449,0.007017,-0.000283,-0.010298,0.000020,0.000159,0.002042,-0.029064,-0.011817,0.207653,0.207615,0.156722,0.370322,0.000000,0.000000,0.000000,0.000000,0.000000,0.000000,0.000000,0.000000,0.000000,0.000000,0.000000,0.000000,0.028130,3,0
1500000,-0.001945,38.692856,0.000283,-0.004270,26.043179,0.044553,0.001949,0.039157,1.571754,-0.070196,0.001460,0.006685,-0.000288,-0.010187,0.000020,0.000590,0.002015,-0.049976,0.034012,0.207846,0.207807,0.156387,0.368480,0.000000,0.000000,0.000000,0.000000,0.000000,0.000000,0.000000,0.000000,0.000000,0.000000,0.000000,0.000000,0.048280,3,0
1510000,-0.001920,38.951591,0.000670,-0.004235,26.044748,0.044998,0.001964,0.038993,1.571763,-0.069902,0.001472,0.006722,-0.000292,-0.010076,0.000020,0.000409,0.001988,-0.050297,-0.002811,0.208041,0.208000,0.156054,0.366690,0.000000,0.000000,0.000000,0.000000,0.000000,0.000000,0.000000,0.000000,0.000000,0.000000,0.000000,0.000000,0.048591,3,0
1520000,-0.001894,39.211014,0.001852,-0.004142,26.047525,0.046341,0.001992,0.038930,1.571778,-0.069722,0.001483,0.006447,-0.000296,-0.010006,0.000020,0.000278,0.001962,-0.030743,0.027773,0.208238,0.208196,0.155724,0.364952,0.000000,0.000000,0.000000,0.000000,0.000000,0.000000,0.000000,0.000000,0.000000,0.000000,0.000000,0.000000,0.029731,3,0
1530000,-0.001868,39.473198,0.001483,-0.003950,26.055170,0.045851,0.002013,0.039313,1.571794,-0.069999,0.001494,0.006763,-0.000301,-0.010115,0.000020,0.000533,0.001935,0.047749,-0.031988,0.208436,0.208392,0.155397,0.363262,0.000000,0.000000,0.000000,0.000000,0.000000,0.000000,0.000000,0.000000,0.000000,0.000000,0.000000,0.000000,0.046123,3,0
1540000,-0.001841,39.731873,0.001707,-0.003783,26.056431,0.046029,0.002037,0.039134,1.571793,-0.069682,0.001505,0.006871,-0.000305,-0.009990,0.000020,0.000511,0.001907,-0.055481,-0.009687,0.208636,0.208591,0.155074,0.361623,0.000000,0.000000,0.000000,0.000000,0.000000,0.000000,0.000000,0.000000,0.000000,0.000000,0.000000,0.000000,0.053586,3,0
1550000,-0.001814,39.989853,0.001957,-0.003727,26.056238,0.046478,0.002063,0.038835,1.571808,-0.069253,0.001516,0.006978,-0.000309,-0.009819,0.000019,0.000934,0.001879,-0.075615,-0.009026,0.208838,0.208791,0.154753,0.360030,0.000000,0.000000,0.000000,0.000000,0.000000,0.000000,0.000000,0.000000,0.000000,0.000000,0.000000,0.000000,0.073009,3,0
1560000,-0.001786,40.252701,0.001287,-0.003555,26.065039,0.045446,0.002078,0.039313,1.571811,-0.069615,0.001527,0.007415,-0.000313,-0.009969,0.000020,0.000969,0.001850,0.063980,-0.043700,0.209041,0.208992,0.154436,0.358484,0.000000,0.000000,0.000000,0.000000,0.000000,0.000000,0.000000,0.000000,0.000000,0.000000,0.000000,0.000000,0.061767,3,0
1570000,-0.001758,40.513397,0.001259,-0.003380,26.069786,0.045430,0.002099,0.039428,1.571812,-0.069615,0.001537,0.007611,-0.000317,-0.009970,0.000020,0.000059,0.001821,-0.000164,-0.019008,0.209245,0.209195,0.154122,0.356983,0.000000,0.000000,0.000000,0.000000,0.000000,0.000000,0.000000,0.000000,0.000000,0.000000,0.000000,0.000000,0.001766,3,0
1580000,-0.001729,40.772663,0.002367,-0.003252,26.071838,0.046780,0.002109,0.039299,1.571820,-0.069380,0.001547,0.007361,-0.000322,-0.009870,0.000020,0.000388,0.001792,-0.042244,0.024918,0.209450,0.209399,0.153811,0.355526,0.000000,0.000000,0.000000,0.000000,0.000000,0.000000,0.000000,0.000000,0.000000,0.000000,0.000000,0.000000,0.040801,3,0
1590000,-0.001699,41.032619,0.002593,-0.003078,26.075090,0.047089,0.002124,0.039277,1.571831,-0.069253,0.001556,0.007468,-0.000326,-0.009816,0.000020,0.000103,0.001761,-0.023224,-0.009879,0.209657,0.209604,0.153504,0.354112,0.000000,0.000000,0.000000,0.000000,0.000000,0.000000,0.000000,0.000000,0.000000,0.000000,0.000000,0.000000,0.022479,3,0
1600000,-0.001671,41.291172,0.001688,-0.003043,26.075628,0.045857,0.002149,0.039028,1.571835,-0.068904,0.001566,0.008053,-0.000330,-0.009668,0.000019,0.001156,0.001731,-0.064545,-0.054656,0.209864,0.209810,0.153201,0.352738,0.000000,0.000000,0.000000,0.000000,0.000000,0.000000,0.000000,0.000000,0.000000,0.000000,0.000000,0.000000,0.062324,3,0
1610000,-0.001643,41.554585,0.001835,-0.003002,26.085142,0.045937,0.002168,0.039569,1.571851,-0.069307,0.001576,0.008160,-0.000334,-0.009846,0.000020,0.000915,0.001702,0.074474,-0.011698,0.210073,0.210017,0.152901,0.351404,0.000000,0.000000,0.000000,0.000000,0.000000,0.000000,0.000000,0.000000,0.000000,0.000000,0.000000,0.000000,0.071884,3,0
1620000,-0.001613,41.815823,0.002331,-0.002842,26.090494,0.046251,0.002189,0.039726,1.571854,-0.069359,0.001585,0.008143,-0.000338,-0.009869,0.000020,0.000016,0.001672,0.009754,0.001426,0.210282,0.210224,0.152604,0.350110,0.000000,0.000000,0.000000,0.000000,0.000000,0.000000,0.000000,0.000000,0.000000,0.000000,0.000000,0.000000,0.009552,3,0
1630000,-0.001583,42.078415,0.002258,-0.002629,26.098162,0.046116,0.002215,0.040110,1.571871,-0.069607,0.001594,0.008353,-0.000342,-0.009982,0.000020,0.000421,0.001641,0.046646,-0.020832,0.210491,0.210432,0.152312,0.348853,0.000000,0.000000,0.000000,0.000000,0.000000,0.000000,0.000000,0.000000,0.000000,0.000000,0.000000,0.000000,0.045034,3,0
1640000,-0.001553,42.338154,0.001311,-0.002501,26.100622,0.044778,0.002242,0.040007,1.571872,-0.069415,0.001603,0.008956,-0.000345,-0.009897,0.000020,0.000733,0.001609,-0.037109,-0.056086,0.210702,0.210641,0.152023,0.347634,0.000000,0.000000,0.000000,0.000000,0.000000,0.000000,0.000000,0.000000,0.000000,0.000000,0.000000,0.000000,0.035854,3,0
1650000,-0.001522,42.599251,0.002032,-0.002271,26.105515,0.045608,0.002256,0.040129,1.571871,-0.069421,0.001611,0.008843,-0.000349,-0.009899,0.000020,0.000019,0.001577,0.001308,0.010601,0.210912,0.210850,0.151738,0.346451,0.000000,0.000000,0.000000,0.000000,0.000000,0.000000,0.000000,0.000000,0.000000,0.000000,0.000000,0.000000,0.001980,3,0
1660000,-0.001491,42.858204,0.002827,-0.002234,26.106333,0.046372,0.002268,0.039886,1.571885,-0.069107,0.001619,0.008722,-0.000353,-0.009750,0.000020,0.000625,0.001545,-0.061050,0.012613,0.211122,0.211059,0.151457,0.345303,0.000000,0.000000,0.000000,0.000000,0.000000,0.000000,0.000000,0.000000,0.000000,0.000000,0.000000,0.000000,0.058918,3,0
1670000,-0.001460,43.117149,0.003133,-0.002167,26.107122,0.046609,0.002279,0.039632,1.571901,-0.068795,0.001626,0.008813,-0.000357,-0.009599,0.000020,0.000618,0.001513,-0.061581,-0.007080,0.211333,0.211267,0.151180,0.344187,0.000000,0.000000,0.000000,0.000000,0.000000,0.000000,0.000000,0.000000,0.000000,0.000000,0.000000,0.000000,0.059432,3,0
1680000,-0.001429,43.378178,0.003935,-0.002053,26.111649,0.047312,0.002305,0.039721,1.571903,-0.068782,0.001634,0.008671,-0.000360,-0.009592,0.000020,0.000030,0.001481,-0.002476,0.013198,0.211543,0.211476,0.150907,0.343104,0.000000,0.000000,0.000000,0.000000,0.000000,0.000000,0.000000,0.000000,0.000000,0.000000,0.000000,0.000000,0.002780,3,0
1690000,-0.001398,43.638466,0.003699,-0.001913,26.114750,0.046840,0.002329,0.039684,1.571910,-0.068659,0.001641,0.008987,-0.000364,-0.009533,0.000020,0.000234,0.001449,-0.024998,-0.028658,0.211753,0.211684,0.150637,0.342051,0.000000,0.000000,0.000000,0.000000,0.000000,0.000000,0.000000,0.000000,0.000000,0.000000,0.000000,0.000000,0.024165,3,0
1700000,-0.001366,43.897999,0.004865,-0.001751,26.116274,0.048109,0.002343,0.039502,1.571910,-0.068428,0.001648,0.008704,-0.000367,-0.009414,0.000019,0.000471,0.001417,-0.046768,0.027096,0.211962,0.211892,0.150372,0.341028,0.000000,0.000000,0.000000,0.000000,0.000000,0.000000,0.000000,0.000000,0.000000,0.000000,0.000000,0.000000,0.045129,3,0
1710000,-0.001335,44.155399,0.006021,-0.001649,26.113852,0.049382,0.002358,0.038954,1.571922,-0.067906,0.001653,0.008453,-0.000371,-0.009143,0.000019,0.001965,0.001384,-0.107529,0.025524,0.212171,0.212099,0.150111,0.340035,0.000000,0.000000,0.000000,0.000000,0.000000,0.000000,0.000000,0.000000,0.000000,0.000000,0.000000,0.000000,0.103730,3,0
1720000,-0.001303,44.416340,0.006043,-0.001507,26.118000,0.049479,0.002376,0.039022,1.571937,-0.067873,0.001660,0.008665,-0.000374,-0.009127,0.000019,0.000068,0.001351,-0.007084,-0.019218,0.212379,0.212305,0.149853,0.339070,0.000000,0.000000,0.000000,0.000000,0.000000,0.000000,0.000000,0.000000,0.000000,0.000000,0.000000,0.000000,0.006963,3,0
