time_us,pos_x,pos_y,pos_z,vel_x,vel_y,vel_z,roll,pitch,yaw,bias_ax,bias_ay,bias_az,bias_gx,bias_gy,bias_gz,nis,innov_x,innov_y,innov_z,cov_pos_x,cov_pos_y,cov_pos_z,cov_yaw,des_speed,des_heading,des_climb,pid_speed,pid_yaw,pid_alt,speed_meas,yaw_meas,climb_meas,fwd_accel,yaw_rate,vert_accel,drift_m,nav_mode,mission_state
0,0.000002,0.150000,0.000003,0.000302,25.000055,0.000718,0.000003,0.000002,1.570771,0.000000,0.000000,0.000000,0.000000,0.000000,0.000000,0.006250,-0.000003,-0.250003,-0.000007,2.400038,2.400038,3.600017,1.000518,0.000000,0.000000,0.000000,0.000000,0.000000,0.000000,0.000000,0.000000,0.000000,0.000000,0.000000,0.000000,0.150000,1,0
10000,0.000005,0.359550,0.015675,0.000546,25.000113,0.001624,0.000016,0.000019,1.570748,0.000000,-0.000000,-0.000000,0.000000,0.000000,0.000000,0.002568,-0.000007,-0.141578,0.041749,1.714420,1.714420,2.250079,1.001073,0.000000,0.000000,0.000000,0.000000,0.000000,0.000000,0.000000,0.000000,0.000000,0.000000,0.000000,0.000000,0.101124,3,0
20000,0.000011,0.593368,0.008742,0.000858,25.000212,0.002491,0.000027,0.000023,1.570724,0.000001,-0.000000,0.000000,-0.000000,0.000000,0.000000,0.000766,-0.000014,-0.072823,-0.025510,1.333616,1.333616,1.636554,1.001655,0.000000,0.000000,0.000000,0.000000,0.000000,0.000000,0.000000,0.000000,0.000000,0.000000,0.000000,0.000000,0.056637,3,0
30000,0.000017,0.856297,0.011250,0.001029,25.000666,0.003407,0.000044,0.000043,1.570696,-0.000000,-0.000000,-0.000000,0.000000,-0.000000,-0.000000,0.000706,-0.000021,0.071058,0.011540,1.091392,1.091392,1.286065,1.002257,0.000000,0.000000,0.000000,0.000000,0.000000,0.000000,0.000000,0.000000,0.000000,0.000000,0.000000,0.000000,0.058133,3,0
40000,0.000025,1.104310,0.002569,0.001291,25.000803,0.004170,0.000060,0.000061,1.570670,0.000000,-0.000000,0.000001,-0.000000,-0.000000,-0.000000,0.000359,-0.000030,-0.012966,-0.049412,0.923811,0.923811,1.059385,1.002869,0.000000,0.000000,0.000000,0.000000,0.000000,0.000000,0.000000,0.000000,0.000000,0.000000,0.000000,0.000000,0.010969,3,0
50000,0.000036,1.356633,0.001053,0.001640,25.001085,0.004783,0.000070,0.000079,1.570647,-0.000001,-0.000000,0.000002,-0.000000,-0.000000,-0.000000,0.000059,-0.000042,0.017326,-0.010420,0.801036,0.801036,0.900822,1.003484,0.000000,0.000000,0.000000,0.000000,0.000000,0.000000,0.000000,0.000000,0.000000,0.000000,0.000000,0.000000,0.015013,3,0
60000,0.000050,1.604721,0.006063,0.001995,25.001284,0.005622,0.000084,0.000083,1.570628,0.000000,-0.000000,-0.000001,0.000000,0.000000,0.000000,0.000248,-0.000056,-0.016333,0.037946,0.707270,0.707270,0.783741,1.004094,0.000000,0.000000,0.000000,0.000000,0.000000,0.000000,0.000000,0.000000,0.000000,0.000000,0.000000,0.000000,0.014408,3,0
70000,0.000064,1.854102,0.009872,0.002233,25.001394,0.006533,0.000104,0.000101,1.570613,0.000001,-0.000000,-0.000003,0.000000,0.000000,0.000000,0.000160,-0.000072,-0.005996,0.032389,0.633370,0.633370,0.693801,1.004688,0.000000,0.000000,0.000000,0.000000,0.000000,0.000000,0.000000,0.000000,0.000000,0.000000,0.000000,0.000000,0.005364,3,0
80000,0.000080,2.112013,0.011306,0.002460,25.002365,0.007517,0.000123,0.000108,1.570593,-0.000008,-0.000000,-0.000004,0.000000,-0.000000,-0.000000,0.001053,-0.000089,0.082561,0.013110,0.573673,0.573673,0.622594,1.005260,0.000000,0.000000,0.000000,0.000000,0.000000,0.000000,0.000000,0.000000,0.000000,0.000000,0.000000,0.000000,0.074667,3,0
90000,0.000099,2.365824,0.007322,0.002792,25.002914,0.008026,0.000138,0.000126,1.570577,-0.000013,-0.000000,0.000001,0.000000,-0.000000,-0.000000,0.000567,-0.000108,0.043310,-0.043216,0.524488,0.524488,0.564865,1.005801,0.000000,0.000000,0.000000,0.000000,0.000000,0.000000,0.000000,0.000000,0.000000,0.000000,0.000000,0.000000,0.039524,3,0
100000,0.000119,2.624521,0.002411,0.003042,25.004282,0.008493,0.000145,0.000148,1.570555,-0.000030,-0.000000,0.000010,0.000000,-0.000000,-0.000000,0.002285,-0.000129,0.107555,-0.058020,0.483304,0.483304,0.517162,1.006301,0.000000,0.000000,0.000000,0.000000,0.000000,0.000000,0.000000,0.000000,0.000000,0.000000,0.000000,0.000000,0.098891,3,0
110000,0.000140,2.873668,0.004253,0.003213,25.004316,0.009681,0.000158,0.000157,1.570534,-0.000028,-0.000000,0.000006,0.000000,-0.000000,-0.000000,0.000096,-0.000151,-0.012001,0.021977,0.448354,0.448354,0.477121,1.006754,0.000000,0.000000,0.000000,0.000000,0.000000,0.000000,0.000000,0.000000,0.000000,0.000000,0.000000,0.000000,0.011105,3,0
120000,0.000162,3.129068,0.001821,0.003465,25.005436,0.010151,0.000161,0.000178,1.570504,-0.000044,-0.000000,0.000013,0.000000,-0.000001,-0.000000,0.001097,-0.000174,0.076792,-0.034362,0.418359,0.418359,0.443071,1.007150,0.000000,0.000000,0.000000,0.000000,0.000000,0.000000,0.000000,0.000000,0.000000,0.000000,0.000000,0.000000,0.071438,3,0
130000,0.000187,3.379144,0.000594,0.003744,25.005701,0.010882,0.000170,0.000188,1.570479,-0.000044,-0.000000,0.000018,0.000000,-0.000001,-0.000000,0.000058,-0.000200,0.000290,-0.019398,0.392370,0.392370,0.413797,1.007481,0.000000,0.000000,0.000000,0.000000,0.000000,0.000000,0.000000,0.000000,0.000000,0.000000,0.000000,0.000000,0.000329,3,0
140000,0.000213,3.633411,0.002273,0.003979,25.006887,0.012127,0.000182,0.000199,1.570459,-0.000065,-0.000000,0.000011,0.000000,-0.000001,-0.000000,0.000820,-0.000227,0.068274,0.024108,0.369667,0.369667,0.388393,1.007739,0.000000,0.000000,0.000000,0.000000,0.000000,0.000000,0.000000,0.000000,0.000000,0.000000,0.000000,0.000000,0.064068,3,0
150000,0.000240,3.883069,0.001407,0.004208,25.007025,0.012835,0.000190,0.000213,1.570444,-0.000062,-0.000000,0.000016,0.000000,-0.000001,-0.000000,0.000050,-0.000255,-0.007093,-0.016326,0.349696,0.349696,0.366172,1.007915,0.000000,0.000000,0.000000,0.000000,0.000000,0.000000,0.000000,0.000000,0.000000,0.000000,0.000000,0.000000,0.006684,3,0
160000,0.000269,4.136534,0.000502,0.004531,25.008114,0.013346,0.000202,0.000228,1.570426,-0.000086,-0.000000,0.000023,0.000000,-0.000001,-0.000000,0.000643,-0.000285,0.061310,-0.018025,0.332022,0.332022,0.346600,1.008002,0.000000,0.000000,0.000000,0.000000,0.000000,0.000000,0.000000,0.000000,0.000000,0.000000,0.000000,0.000000,0.057918,3,0
170000,0.000302,4.390110,-0.000578,0.004884,25.009451,0.013784,0.000220,0.000247,1.570394,-0.000114,-0.000001,0.000032,0.000000,-0.000002,-0.000000,0.000771,-0.000318,0.066260,-0.022240,0.316299,0.316299,0.329260,1.007991,0.000000,0.000000,0.000000,0.000000,0.000000,0.000000,0.000000,0.000000,0.000000,0.000000,0.000000,0.000000,0.062768,3,0
180000,0.000336,4.645792,0.000560,0.005239,25.011600,0.014993,0.000228,0.000279,1.570366,-0.000167,-0.000001,0.000024,0.000000,-0.000003,-0.000000,0.002002,-0.000354,0.110853,0.018934,0.302248,0.302248,0.313817,1.007875,0.000000,0.000000,0.000000,0.000000,0.000000,0.000000,0.000000,0.000000,0.000000,0.000000,0.000000,0.000000,0.105269,3,0
190000,0.000373,4.899474,0.000077,0.005526,25.013090,0.015634,0.000249,0.000307,1.570350,-0.000206,-0.000001,0.000030,0.000000,-0.000005,-0.000000,0.000890,-0.000391,0.073818,-0.012830,0.289643,0.289643,0.300003,1.007645,0.000000,0.000000,0.000000,0.000000,0.000000,0.000000,0.000000,0.000000,0.000000,0.000000,0.000000,0.000000,0.070256,3,0
200000,0.000410,5.150485,0.001980,0.005722,25.013674,0.016914,0.000258,0.000323,1.570331,-0.000217,-0.000001,0.000009,0.000000,-0.000005,-0.000000,0.000266,-0.000430,0.018910,0.036321,0.278298,0.278298,0.287598,1.007295,0.000000,0.000000,0.000000,0.000000,0.000000,0.000000,0.000000,0.000000,0.000000,0.000000,0.000000,0.000000,0.018038,3,0
210000,0.000448,5.401800,0.001521,0.005932,25.014479,0.017508,0.000277,0.000334,1.570309,-0.000234,-0.000002,0.000018,0.000000,-0.000005,-0.000000,0.000141,-0.000469,0.026320,-0.013832,0.268057,0.268057,0.276421,1.006816,0.000000,0.000000,0.000000,0.000000,0.000000,0.000000,0.000000,0.000000,0.000000,0.000000,0.000000,0.000000,0.025148,3,0
220000,0.000488,5.659391,0.000332,0.006128,25.018217,0.017827,0.000285,0.000379,1.570284,-0.000354,-0.000002,0.000039,0.000000,-0.000009,-0.000000,0.004902,-0.000510,0.172575,-0.030939,0.258791,0.258791,0.266321,1.006202,0.000000,0.000000,0.000000,0.000000,0.000000,0.000000,0.000000,0.000000,0.000000,0.000000,0.000000,0.000000,0.165132,3,0
230000,0.000530,5.913492,-0.001931,0.006489,25.020369,0.017415,0.000301,0.000417,1.570257,-0.000426,-0.000002,0.000082,0.000000,-0.000011,-0.000000,0.001927,-0.000553,0.093857,-0.057101,0.250390,0.250390,0.257172,1.005446,0.000000,0.000000,0.000000,0.000000,0.000000,0.000000,0.000000,0.000000,0.000000,0.000000,0.000000,0.000000,0.089942,3,0
240000,0.000573,6.165257,-0.001015,0.006717,25.021494,0.018702,0.000311,0.000432,1.570233,-0.000457,-0.000003,0.000068,0.000000,-0.000012,-0.000000,0.000287,-0.000597,0.038523,0.017657,0.242762,0.242762,0.248866,1.004541,0.000000,0.000000,0.000000,0.000000,0.000000,0.000000,0.000000,0.000000,0.000000,0.000000,0.000000,0.000000,0.036969,3,0
250000,0.000617,6.418032,-0.001567,0.006912,25.023201,0.018920,0.000327,0.000462,1.570215,-0.000515,-0.000003,0.000084,0.000000,-0.000015,-0.000000,0.000733,-0.000642,0.065052,-0.018523,0.235825,0.235825,0.241314,1.003481,0.000000,0.000000,0.000000,0.000000,0.000000,0.000000,0.000000,0.000000,0.000000,0.000000,0.000000,0.000000,0.062498,3,0
260000,0.000662,6.670970,-0.001523,0.007160,25.025129,0.019544,0.000336,0.000489,1.570194,-0.000583,-0.000004,0.000088,0.000000,-0.000017,-0.000000,0.000803,-0.000689,0.070686,-0.003902,0.229512,0.229512,0.234436,1.002258,0.000000,0.000000,0.000000,0.000000,0.000000,0.000000,0.000000,0.000000,0.000000,0.000000,0.000000,0.000000,0.067986,3,0
270000,0.000709,6.923322,-0.000504,0.007430,25.026690,0.020925,0.000341,0.000524,1.570174,-0.000641,-0.000005,0.000066,0.000000,-0.000019,-0.000000,0.000582,-0.000737,0.056277,0.021405,0.223764,0.223764,0.228165,1.000869,0.000000,0.000000,0.000000,0.000000,0.000000,0.000000,0.000000,0.000000,0.000000,0.000000,0.000000,0.000000,0.054183,3,0
280000,0.000758,7.179481,0.000477,0.007716,25.030951,0.022253,0.000346,0.000600,1.570148,-0.000820,-0.000006,0.000043,0.000000,-0.000027,-0.000000,0.004269,-0.000787,0.161729,0.020599,0.218527,0.218527,0.222443,0.999307,0.000000,0.000000,0.000000,0.000000,0.000000,0.000000,0.000000,0.000000,0.000000,0.000000,0.000000,0.000000,0.155841,3,0
290000,0.000808,7.437050,-0.000952,0.007962,25.036461,0.021981,0.000351,0.000693,1.570135,-0.001060,-0.000007,0.000097,0.000000,-0.000037,-0.000000,0.007008,-0.000838,0.203712,-0.045855,0.213757,0.213757,0.217219,0.997567,0.000000,0.000000,0.000000,0.000000,0.000000,0.000000,0.000000,0.000000,0.000000,0.000000,0.000000,0.000000,0.196456,3,0
300000,0.000859,7.689005,-0.001411,0.008191,25.037987,0.022463,0.000364,0.000717,1.570115,-0.001117,-0.000008,0.000121,0.000000,-0.000039,-0.000000,0.000394,-0.000890,0.045481,-0.019433,0.209413,0.209413,0.212446,0.995645,0.000000,0.000000,0.000000,0.000000,0.000000,0.000000,0.000000,0.000000,0.000000,0.000000,0.000000,0.000000,0.043902,3,0
310000,0.000912,7.945932,0.000003,0.008451,25.043598,0.024280,0.000382,0.000816,1.570086,-0.001372,-0.000009,0.000076,0.000000,-0.000050,-0.000000,0.006064,-0.000944,0.191088,0.034014,0.205459,0.205459,0.208087,0.993536,0.000000,0.000000,0.000000,0.000000,0.000000,0.000000,0.000000,0.000000,0.000000,0.000000,0.000000,0.000000,0.184546,3,0
320000,0.000965,8.202847,-0.001527,0.008639,25.049326,0.023857,0.000385,0.000919,1.570059,-0.001645,-0.000011,0.000150,0.000000,-0.000063,-0.000000,0.006413,-0.000998,0.192533,-0.052404,0.201865,0.201865,0.204105,0.991236,0.000000,0.000000,0.000000,0.000000,0.000000,0.000000,0.000000,0.000000,0.000000,0.000000,0.000000,0.000000,0.186058,3,0
330000,0.001020,8.459766,-0.000670,0.008952,25.055454,0.025292,0.000393,0.001030,1.570043,-0.001935,-0.000012,0.000122,0.000000,-0.000077,-0.000000,0.006118,-0.001054,0.193983,0.018251,0.198602,0.198602,0.200469,0.988743,0.000000,0.000000,0.000000,0.000000,0.000000,0.000000,0.000000,0.000000,0.000000,0.000000,0.000000,0.000000,0.187565,3,0
340000,0.001076,8.714752,0.000670,0.009213,25.059843,0.027061,0.000402,0.001103,1.570017,-0.002150,-0.000014,0.000071,0.000001,-0.000088,-0.000000,0.003147,-0.001112,0.135794,0.032817,0.195644,0.195644,0.197151,0.986053,0.000000,0.000000,0.000000,0.000000,0.000000,0.000000,0.000000,0.000000,0.000000,0.000000,0.000000,0.000000,0.131370,3,0
350000,0.001133,8.970470,0.000241,0.009488,25.065220,0.027065,0.000417,0.001203,1.569998,-0.002416,-0.000016,0.000107,0.000001,-0.000101,-0.000000,0.004158,-0.001171,0.159067,-0.021821,0.192969,0.192969,0.194125,0.983163,0.000000,0.000000,0.000000,0.000000,0.000000,0.000000,0.000000,0.000000,0.000000,0.000000,0.000000,0.000000,0.153956,3,0
360000,0.001192,9.224370,-0.000969,0.009730,25.068943,0.026685,0.000429,0.001272,1.569984,-0.002595,-0.000019,0.000188,0.000001,-0.000110,-0.000000,0.002034,-0.001231,0.102084,-0.046727,0.190555,0.190555,0.191370,0.980072,0.000000,0.000000,0.000000,0.000000,0.000000,0.000000,0.000000,0.000000,0.000000,0.000000,0.000000,0.000000,0.098849,3,0
370000,0.001251,9.477161,-0.002140,0.009945,25.071480,0.025942,0.000444,0.001318,1.569970,-0.002718,-0.000021,0.000272,0.000001,-0.000117,-0.000000,0.001061,-0.001292,0.066816,-0.045878,0.188384,0.188384,0.188863,0.976779,0.000000,0.000000,0.000000,0.000000,0.000000,0.000000,0.000000,0.000000,0.000000,0.000000,0.000000,0.000000,0.064730,3,0
380000,0.001311,9.734456,-0.002470,0.010159,25.079046,0.026097,0.000455,0.001457,1.569942,-0.003127,-0.000024,0.000309,0.000001,-0.000140,-0.000000,0.007289,-0.001353,0.211576,-0.019182,0.186438,0.186438,0.186586,0.973281,0.000000,0.000000,0.000000,0.000000,0.000000,0.000000,0.000000,0.000000,0.000000,0.000000,0.000000,0.000000,0.205006,3,0
390000,0.001372,9.989961,-0.001020,0.010358,25.084646,0.028207,0.000464,0.001563,1.569915,-0.003437,-0.000027,0.000232,0.000001,-0.000158,-0.000000,0.004019,-0.001415,0.152997,0.038366,0.184702,0.184702,0.184522,0.969580,0.000000,0.000000,0.000000,0.000000,0.000000,0.000000,0.000000,0.000000,0.000000,0.000000,0.000000,0.000000,0.148293,3,0
400000,0.001434,10.245570,-0.001472,0.010647,25.090618,0.028315,0.000468,0.001691,1.569899,-0.003767,-0.000030,0.000283,0.000001,-0.000177,-0.000000,0.004022,-0.001479,0.155861,-0.024418,0.183161,0.183161,0.182656,0.965675,0.000000,0.000000,0.000000,0.000000,0.000000,0.000000,0.000000,0.000000,0.000000,0.000000,0.000000,0.000000,0.151110,3,0
410000,0.001497,10.499479,-0.001895,0.010944,25.094517,0.028433,0.000474,0.001787,1.569875,-0.003985,-0.000033,0.000335,0.000002,-0.000190,-0.000001,0.001675,-0.001544,0.098983,-0.023703,0.181802,0.181802,0.180971,0.961566,0.000000,0.000000,0.000000,0.000000,0.000000,0.000000,0.000000,0.000000,0.000000,0.000000,0.000000,0.000000,0.095995,3,0
420000,0.001561,10.755936,-0.000803,0.011181,25.101608,0.030286,0.000487,0.001950,1.569855,-0.004407,-0.000037,0.000274,0.000002,-0.000216,-0.000001,0.005528,-0.001609,0.182976,0.026697,0.180612,0.180612,0.179456,0.957255,0.000000,0.000000,0.000000,0.000000,0.000000,0.000000,0.000000,0.000000,0.000000,0.000000,0.000000,0.000000,0.177475,3,0
430000,0.001626,11.013085,0.000051,0.011521,25.109760,0.031721,0.000500,0.002121,1.569832,-0.004898,-0.000041,0.000230,0.000002,-0.000247,-0.000001,0.006833,-0.001677,0.204751,0.018292,0.179579,0.179579,0.178097,0.952743,0.000000,0.000000,0.000000,0.000000,0.000000,0.000000,0.000000,0.000000,0.000000,0.000000,0.000000,0.000000,0.198629,3,0
440000,0.001692,11.269731,-0.000789,0.011684,25.117416,0.031141,0.000516,0.002287,1.569816,-0.005362,-0.000046,0.000328,0.000002,-0.000277,-0.000001,0.005851,-0.001744,0.186067,-0.039493,0.178693,0.178693,0.176883,0.948032,0.000000,0.000000,0.000000,0.000000,0.000000,0.000000,0.000000,0.000000,0.000000,0.000000,0.000000,0.000000,0.180533,3,0
450000,0.001759,11.523530,-0.001993,0.011990,25.121346,0.030294,0.000522,0.002373,1.569803,-0.005591,-0.000051,0.000463,0.000003,-0.000293,-0.000001,0.001702,-0.001813,0.088378,-0.052047,0.177944,0.177944,0.175803,0.943126,0.000000,0.000000,0.000000,0.000000,0.000000,0.000000,0.000000,0.000000,0.000000,0.000000,0.000000,0.000000,0.085775,3,0
460000,0.001826,11.781022,-0.002768,0.012215,25.130350,0.029601,0.000535,0.002575,1.569774,-0.006161,-0.000056,0.000563,0.000003,-0.000332,-0.000001,0.007510,-0.001882,0.212237,-0.037190,0.177321,0.177321,0.174847,0.938027,0.000000,0.000000,0.000000,0.000000,0.000000,0.000000,0.000000,0.000000,0.000000,0.000000,0.000000,0.000000,0.205973,3,0
470000,0.001894,12.038610,-0.001336,0.012493,25.139421,0.031824,0.000535,0.002785,1.569744,-0.006754,-0.000062,0.000454,0.000003,-0.000373,-0.000001,0.007590,-0.001952,0.213081,0.038890,0.176818,0.176818,0.174006,0.932739,0.000000,0.000000,0.000000,0.000000,0.000000,0.000000,0.000000,0.000000,0.000000,0.000000,0.000000,0.000000,0.206811,3,0
480000,0.001962,12.296882,-0.000828,0.012660,25.149622,0.032728,0.000535,0.003023,1.569714,-0.007427,-0.000068,0.000435,0.000004,-0.000421,-0.000001,0.008843,-0.002022,0.233707,0.006340,0.176424,0.176424,0.173271,0.927266,0.000000,0.000000,0.000000,0.000000,0.000000,0.000000,0.000000,0.000000,0.000000,0.000000,0.000000,0.000000,0.226844,3,0
490000,0.002030,12.554079,-0.001846,0.012851,25.158339,0.031891,0.000537,0.003243,1.569683,-0.008005,-0.000074,0.000576,0.000004,-0.000464,-0.000001,0.006448,-0.002092,0.194002,-0.047042,0.176132,0.176132,0.172634,0.921612,0.000000,0.000000,0.000000,0.000000,0.000000,0.000000,0.000000,0.000000,0.000000,0.000000,0.000000,0.000000,0.188318,3,0
500000,0.002099,12.812555,-0.000778,0.013106,25.168863,0.033644,0.000551,0.003509,1.569666,-0.008727,-0.000081,0.000496,0.000005,-0.000518,-0.000001,0.009036,-0.002162,0.234901,0.025838,0.175935,0.175935,0.172087,0.915783,0.000000,0.000000,0.000000,0.000000,0.000000,0.000000,0.000000,0.000000,0.000000,0.000000,0.000000,0.000000,0.228024,3,0
510000,0.002168,13.068799,-0.000263,0.013334,25.176134,0.034733,0.000561,0.003691,1.569644,-0.009219,-0.000089,0.000476,0.000005,-0.000555,-0.000001,0.003905,-0.002233,0.155230,0.005977,0.175825,0.175825,0.171622,0.909784,0.000000,0.000000,0.000000,0.000000,0.000000,0.000000,0.000000,0.000000,0.000000,0.000000,0.000000,0.000000,0.150696,3,0
520000,0.002236,13.327506,-0.001072,0.013464,25.187077,0.033847,0.000560,0.003971,1.569622,-0.009993,-0.000096,0.000610,0.000006,-0.000616,-0.000002,0.009346,-0.002303,0.236855,-0.040737,0.175796,0.175796,0.171234,0.903621,0.000000,0.000000,0.000000,0.000000,0.000000,0.000000,0.000000,0.000000,0.000000,0.000000,0.000000,0.000000,0.229926,3,0
530000,0.002305,13.582235,-0.000980,0.013737,25.192081,0.034436,0.000569,0.004098,1.569608,-0.010321,-0.000105,0.000640,0.000007,-0.000642,-0.000002,0.001546,-0.002374,0.097311,-0.008993,0.175842,0.175842,0.170914,0.897299,0.000000,0.000000,0.000000,0.000000,0.000000,0.000000,0.000000,0.000000,0.000000,0.000000,0.000000,0.000000,0.094488,3,0
540000,0.002374,13.840622,-0.000577,0.013986,25.202684,0.035292,0.000580,0.004386,1.569592,-0.011083,-0.000113,0.000633,0.000007,-0.000704,-0.000002,0.007848,-0.002446,0.220230,0.001804,0.175956,0.175956,0.170658,0.890825,0.000000,0.000000,0.000000,0.000000,0.000000,0.000000,0.000000,0.000000,0.000000,0.000000,0.000000,0.000000,0.213785,3,0
550000,0.002444,14.096785,-0.001266,0.014212,25.209776,0.034707,0.000598,0.004578,1.569571,-0.011583,-0.000123,0.000766,0.000008,-0.000746,-0.000002,0.003422,-0.002517,0.140648,-0.036952,0.176134,0.176134,0.170460,0.884206,0.000000,0.000000,0.000000,0.000000,0.000000,0.000000,0.000000,0.000000,0.000000,0.000000,0.000000,0.000000,0.136541,3,0
560000,0.002513,14.352506,-0.000265,0.014451,25.216320,0.036447,0.000613,0.004765,1.569543,-0.012032,-0.000132,0.000682,0.000009,-0.000784,-0.000002,0.002531,-0.002589,0.122960,0.022757,0.176368,0.176368,0.170314,0.877449,0.000000,0.000000,0.000000,0.000000,0.000000,0.000000,0.000000,0.000000,0.000000,0.000000,0.000000,0.000000,0.119372,3,0
570000,0.002582,14.608959,-0.000702,0.014589,25.223877,0.036034,0.000622,0.004972,1.569524,-0.012577,-0.000142,0.000789,0.000010,-0.000831,-0.000002,0.003556,-0.002660,0.145479,-0.028513,0.176655,0.176655,0.170214,0.870562,0.000000,0.000000,0.000000,0.000000,0.000000,0.000000,0.000000,0.000000,0.000000,0.000000,0.000000,0.000000,0.141220,3,0
580000,0.002650,14.864381,0.000861,0.014759,25.229736,0.038588,0.000630,0.005140,1.569501,-0.012990,-0.000153,0.000625,0.000011,-0.000868,-0.000002,0.002162,-0.002731,0.107617,0.042135,0.176990,0.176990,0.170157,0.863550,0.000000,0.000000,0.000000,0.000000,0.000000,0.000000,0.000000,0.000000,0.000000,0.000000,0.000000,0.000000,0.104476,3,0
590000,0.002718,15.123481,0.002297,0.014989,25.241562,0.040690,0.000636,0.005485,1.569483,-0.013894,-0.000165,0.000477,0.000012,-0.000949,-0.000003,0.008765,-0.002801,0.229836,0.036832,0.177367,0.177367,0.170138,0.856424,0.000000,0.000000,0.000000,0.000000,0.000000,0.000000,0.000000,0.000000,0.000000,0.000000,0.000000,0.000000,0.223059,3,0
600000,0.002786,15.383282,0.002159,0.015162,25.254576,0.040533,0.000634,0.005877,1.569465,-0.014896,-0.000177,0.000555,0.000013,-0.001042,-0.000003,0.010083,-0.002871,0.248922,-0.019372,0.177783,0.177783,0.170152,0.849189,0.000000,0.000000,0.000000,0.000000,0.000000,0.000000,0.000000,0.000000,0.000000,0.000000,0.000000,0.000000,0.241563,3,0
610000,0.002854,15.640235,0.001406,0.015382,25.262804,0.039430,0.000649,0.006134,1.569441,-0.015505,-0.000189,0.000727,0.000014,-0.001099,-0.000003,0.003817,-0.002942,0.148023,-0.041038,0.178233,0.178233,0.170195,0.841854,0.000000,0.000000,0.000000,0.000000,0.000000,0.000000,0.000000,0.000000,0.000000,0.000000,0.000000,0.000000,0.143654,3,0
620000,0.002922,15.897323,0.001832,0.015604,25.271067,0.040141,0.000661,0.006389,1.569421,-0.016133,-0.000202,0.000723,0.000015,-0.001159,-0.000003,0.003612,-0.003012,0.149414,0.000911,0.178714,0.178714,0.170264,0.834427,0.000000,0.000000,0.000000,0.000000,0.000000,0.000000,0.000000,0.000000,0.000000,0.000000,0.000000,0.000000,0.144993,3,0
630000,0.002989,16.156919,0.001650,0.015692,25.283587,0.040217,0.000661,0.006790,1.569401,-0.017122,-0.000216,0.000813,0.000017,-0.001255,-0.000003,0.008639,-0.003081,0.230183,-0.020852,0.179221,0.179221,0.170355,0.826917,0.000000,0.000000,0.000000,0.000000,0.000000,0.000000,0.000000,0.000000,0.000000,0.000000,0.000000,0.000000,0.223327,3,0
640000,0.003055,16.415432,0.002532,0.015866,25.294130,0.041610,0.000665,0.007128,1.569371,-0.017950,-0.000230,0.000737,0.000018,-0.001337,-0.000004,0.005830,-0.003149,0.189131,0.016695,0.179751,0.179751,0.170465,0.819331,0.000000,0.000000,0.000000,0.000000,0.000000,0.000000,0.000000,0.000000,0.000000,0.000000,0.000000,0.000000,0.183489,3,0
650000,0.003121,16.672865,0.002933,0.016110,25.302708,0.042407,0.000677,0.007402,1.569347,-0.018616,-0.000245,0.000740,0.000019,-0.001405,-0.000004,0.003599,-0.003217,0.149181,-0.000818,0.180302,0.180302,0.170591,0.811677,0.000000,0.000000,0.000000,0.000000,0.000000,0.000000,0.000000,0.000000,0.000000,0.000000,0.000000,0.000000,0.144733,3,0
660000,0.003185,16.934023,0.004091,0.016221,25.317673,0.044202,0.000680,0.007892,1.569336,-0.019842,-0.000261,0.000619,0.000021,-0.001531,-0.000004,0.011836,-0.003284,0.269360,0.025592,0.180869,0.180869,0.170729,0.803963,0.000000,0.000000,0.000000,0.000000,0.000000,0.000000,0.000000,0.000000,0.000000,0.000000,0.000000,0.000000,0.261259,3,0
670000,0.003250,17.195271,0.004287,0.016458,25.332613,0.044705,0.000694,0.008391,1.569325,-0.021076,-0.000277,0.000660,0.000023,-0.001660,-0.000005,0.011492,-0.003352,0.266478,-0.008878,0.181450,0.181450,0.170877,0.796199,0.000000,0.000000,0.000000,0.000000,0.000000,0.000000,0.000000,0.000000,0.000000,0.000000,0.000000,0.000000,0.258439,3,0
680000,0.003315,17.453588,0.004355,0.016644,25.342302,0.045102,0.000704,0.008719,1.569311,-0.021850,-0.000294,0.000725,0.000024,-0.001743,-0.000005,0.004385,-0.003419,0.164112,-0.013616,0.182042,0.182042,0.171033,0.788391,0.000000,0.000000,0.000000,0.000000,0.000000,0.000000,0.000000,0.000000,0.000000,0.000000,0.000000,0.000000,0.159167,3,0
690000,0.003379,17.713232,0.003322,0.016843,25.354347,0.043727,0.000710,0.009135,1.569288,-0.022828,-0.000311,0.000983,0.000026,-0.001849,-0.000005,0.007161,-0.003485,0.203878,-0.052237,0.182643,0.182642,0.171193,0.780547,0.000000,0.000000,0.000000,0.000000,0.000000,0.000000,0.000000,0.000000,0.000000,0.000000,0.000000,0.000000,0.197701,3,0
700000,0.003442,17.972368,0.003415,0.016933,25.365311,0.043862,0.000708,0.009514,1.569265,-0.023718,-0.000329,0.001044,0.000028,-0.001948,-0.000005,0.005417,-0.003550,0.182661,-0.012251,0.183249,0.183249,0.171357,0.772676,0.000000,0.000000,0.000000,0.000000,0.000000,0.000000,0.000000,0.000000,0.000000,0.000000,0.000000,0.000000,0.177115,3,0
710000,0.003504,18.232216,0.003490,0.017046,25.377338,0.043984,0.000702,0.009931,1.569242,-0.024717,-0.000347,0.001109,0.000030,-0.002060,-0.000006,0.006603,-0.003614,0.201721,-0.012906,0.183860,0.183860,0.171522,0.764785,0.000000,0.000000,0.000000,0.000000,0.000000,0.000000,0.000000,0.000000,0.000000,0.000000,0.000000,0.000000,0.195571,3,0
720000,0.003566,18.490326,0.002520,0.017275,25.386232,0.042621,0.000697,0.010242,1.569219,-0.025423,-0.000366,0.001367,0.000032,-0.002141,-0.000006,0.003590,-0.003678,0.140541,-0.049505,0.184473,0.184473,0.171685,0.756882,0.000000,0.000000,0.000000,0.000000,0.000000,0.000000,0.000000,0.000000,0.000000,0.000000,0.000000,0.000000,0.136266,3,0
730000,0.003627,18.748545,0.001379,0.017443,25.395180,0.041028,0.000701,0.010562,1.569194,-0.026141,-0.000386,0.001659,0.000034,-0.002225,-0.000006,0.003692,-0.003742,0.140768,-0.054944,0.185086,0.185086,0.171846,0.748973,0.000000,0.000000,0.000000,0.000000,0.000000,0.000000,0.000000,0.000000,0.000000,0.000000,0.000000,0.000000,0.136473,3,0
740000,0.003687,19.009949,0.002303,0.017602,25.409691,0.042733,0.000709,0.011086,1.569176,-0.027383,-0.000406,0.001561,0.000037,-0.002372,-0.000007,0.009377,-0.003805,0.240278,0.017678,0.185697,0.185697,0.172003,0.741066,0.000000,0.000000,0.000000,0.000000,0.000000,0.000000,0.000000,0.000000,0.000000,0.000000,0.000000,0.000000,0.232871,3,0
750000,0.003747,19.270189,0.003179,0.017787,25.421999,0.044205,0.000721,0.011548,1.569153,-0.028418,-0.000427,0.001474,0.000039,-0.002497,-0.000007,0.006333,-0.003867,0.197397,0.015401,0.186305,0.186305,0.172155,0.733168,0.000000,0.000000,0.000000,0.000000,0.000000,0.000000,0.000000,0.000000,0.000000,0.000000,0.000000,0.000000,0.191306,3,0
760000,0.003805,19.527420,0.004323,0.017878,25.428972,0.045900,0.000716,0.011801,1.569140,-0.028927,-0.000448,0.001338,0.000042,-0.002559,-0.000007,0.001588,-0.003928,0.096064,0.024268,0.186908,0.186908,0.172299,0.725286,0.000000,0.000000,0.000000,0.000000,0.000000,0.000000,0.000000,0.000000,0.000000,0.000000,0.000000,0.000000,0.093149,3,0
770000,0.003863,19.787870,0.003204,0.017954,25.441343,0.044243,0.000713,0.012277,1.569122,-0.029984,-0.000471,0.001648,0.000045,-0.002691,-0.000008,0.006733,-0.003987,0.196583,-0.055085,0.187505,0.187504,0.172435,0.717426,0.000000,0.000000,0.000000,0.000000,0.000000,0.000000,0.000000,0.000000,0.000000,0.000000,0.000000,0.000000,0.190478,3,0
780000,0.003919,20.046528,0.003743,0.018082,25.450552,0.044964,0.000714,0.012622,1.569108,-0.030717,-0.000493,0.001628,0.000048,-0.002784,-0.000008,0.002938,-0.004046,0.134798,0.003218,0.188094,0.188094,0.172563,0.709595,0.000000,0.000000,0.000000,0.000000,0.000000,0.000000,0.000000,0.000000,0.000000,0.000000,0.000000,0.000000,0.130630,3,0
790000,0.003974,20.304028,0.004971,0.018173,25.457497,0.046898,0.000713,0.012872,1.569081,-0.031238,-0.000516,0.001470,0.000051,-0.002851,-0.000008,0.001567,-0.004103,0.094717,0.026790,0.188675,0.188675,0.172680,0.701798,0.000000,0.000000,0.000000,0.000000,0.000000,0.000000,0.000000,0.000000,0.000000,0.000000,0.000000,0.000000,0.091826,3,0
800000,0.004028,20.566650,0.005184,0.018319,25.473408,0.047206,0.000723,0.013504,1.569069,-0.032654,-0.000540,0.001520,0.000054,-0.003037,-0.000009,0.010479,-0.004159,0.254604,-0.008995,0.189247,0.189247,0.172787,0.694041,0.000000,0.000000,0.000000,0.000000,0.000000,0.000000,0.000000,0.000000,0.000000,0.000000,0.000000,0.000000,0.246607,3,0
810000,0.004082,20.824289,0.005585,0.018452,25.480400,0.047917,0.000716,0.013772,1.569058,-0.033167,-0.000564,0.001536,0.000057,-0.003105,-0.000009,0.001347,-0.004215,0.091215,-0.002715,0.189809,0.189808,0.172882,0.686329,0.000000,0.000000,0.000000,0.000000,0.000000,0.000000,0.000000,0.000000,0.000000,0.000000,0.000000,0.000000,0.088424,3,0
820000,0.004133,21.083290,0.006155,0.018462,25.489594,0.048880,0.000708,0.014137,1.569047,-0.033915,-0.000589,0.001516,0.000060,-0.003206,-0.000009,0.002803,-0.004269,0.131693,0.002927,0.190360,0.190359,0.172965,0.678669,0.000000,0.000000,0.000000,0.000000,0.000000,0.000000,0.000000,0.000000,0.000000,0.000000,0.000000,0.000000,0.127581,3,0
830000,0.004183,21.342375,0.005614,0.018462,25.498875,0.048099,0.000707,0.014515,1.569021,-0.034666,-0.000614,0.001735,0.000064,-0.003310,-0.000009,0.002982,-0.004320,0.131025,-0.035910,0.190899,0.190898,0.173035,0.671064,0.000000,0.000000,0.000000,0.000000,0.000000,0.000000,0.000000,0.000000,0.000000,0.000000,0.000000,0.000000,0.126925,3,0
840000,0.004231,21.600906,0.005344,0.018511,25.507145,0.047686,0.000701,0.014837,1.569000,-0.035306,-0.000640,0.001897,0.000067,-0.003399,-0.000010,0.002081,-0.004371,0.110394,-0.026238,0.191426,0.191426,0.173092,0.663521,0.000000,0.000000,0.000000,0.000000,0.000000,0.000000,0.000000,0.000000,0.000000,0.000000,0.000000,0.000000,0.106954,3,0
850000,0.004278,21.858889,0.006523,0.018605,25.514355,0.049652,0.000700,0.015109,1.568976,-0.035833,-0.000666,0.001744,0.000071,-0.003474,-0.000010,0.001413,-0.004420,0.090324,0.024063,0.191941,0.191940,0.173136,0.656043,0.000000,0.000000,0.000000,0.000000,0.000000,0.000000,0.000000,0.000000,0.000000,0.000000,0.000000,0.000000,0.087539,3,0
860000,0.004325,22.117599,0.007980,0.018741,25.522781,0.051984,0.000702,0.015440,1.568959,-0.036483,-0.000693,0.001531,0.000075,-0.003568,-0.000010,0.002152,-0.004468,0.110575,0.033034,0.192443,0.192442,0.173166,0.648633,0.000000,0.000000,0.000000,0.000000,0.000000,0.000000,0.000000,0.000000,0.000000,0.000000,0.000000,0.000000,0.107116,3,0
870000,0.004370,22.380228,0.008851,0.018862,25.537848,0.053418,0.000693,0.016094,1.568947,-0.037845,-0.000721,0.001449,0.000079,-0.003767,-0.000011,0.008521,-0.004516,0.229479,0.011999,0.192932,0.192931,0.173182,0.641297,0.000000,0.000000,0.000000,0.000000,0.000000,0.000000,0.000000,0.000000,0.000000,0.000000,0.000000,0.000000,0.222142,3,0
880000,0.004415,22.642244,0.007598,0.018879,25.551682,0.051432,0.000693,0.016696,1.568933,-0.039074,-0.000750,0.001850,0.000083,-0.003951,-0.000011,0.007420,-0.004562,0.205246,-0.062010,0.193407,0.193406,0.173184,0.634038,0.000000,0.000000,0.000000,0.000000,0.000000,0.000000,0.000000,0.000000,0.000000,0.000000,0.000000,0.000000,0.198678,3,0
890000,0.004459,22.904936,0.008806,0.019023,25.566500,0.053176,0.000690,0.017353,1.568925,-0.040408,-0.000779,0.001687,0.000087,-0.004153,-0.000012,0.008002,-0.004608,0.221395,0.023938,0.193869,0.193868,0.173171,0.626860,0.000000,0.000000,0.000000,0.000000,0.000000,0.000000,0.000000,0.000000,0.000000,0.000000,0.000000,0.000000,0.214289,3,0
900000,0.004502,23.167007,0.009124,0.019050,25.580101,0.053640,0.000690,0.017952,1.568903,-0.041604,-0.000808,0.001734,0.000092,-0.004336,-0.000012,0.006278,-0.004652,0.197102,-0.007536,0.194318,0.194316,0.173145,0.619765,0.000000,0.000000,0.000000,0.000000,0.000000,0.000000,0.000000,0.000000,0.000000,0.000000,0.000000,0.000000,0.190771,3,0
910000,0.004543,23.426527,0.007838,0.019093,25.589121,0.051561,0.000677,0.018333,1.568876,-0.042300,-0.000837,0.002159,0.000096,-0.004446,-0.000013,0.002741,-0.004695,0.113804,-0.063302,0.194752,0.194751,0.173104,0.612756,0.000000,0.000000,0.000000,0.000000,0.000000,0.000000,0.000000,0.000000,0.000000,0.000000,0.000000,0.000000,0.110203,3,0
920000,0.004583,23.688046,0.007240,0.019083,25.601435,0.050716,0.000678,0.018887,1.568855,-0.043360,-0.000867,0.002419,0.000101,-0.004614,-0.000013,0.005031,-0.004737,0.172258,-0.038717,0.195174,0.195172,0.173049,0.605837,0.000000,0.000000,0.000000,0.000000,0.000000,0.000000,0.000000,0.000000,0.000000,0.000000,0.000000,0.000000,0.166718,3,0
930000,0.004621,23.948948,0.006349,0.019047,25.612476,0.049320,0.000665,0.019387,1.568829,-0.044283,-0.000897,0.002751,0.000105,-0.004763,-0.000014,0.003973,-0.004777,0.149162,-0.048587,0.195582,0.195580,0.172980,0.599009,0.000000,0.000000,0.000000,0.000000,0.000000,0.000000,0.000000,0.000000,0.000000,0.000000,0.000000,0.000000,0.144373,3,0
940000,0.004657,24.209234,0.007184,0.019054,25.622326,0.050432,0.000660,0.019827,1.568808,-0.045071,-0.000928,0.002666,0.000110,-0.004892,-0.000014,0.002614,-0.004815,0.126696,0.011738,0.195977,0.195975,0.172897,0.592275,0.000000,0.000000,0.000000,0.000000,0.000000,0.000000,0.000000,0.000000,0.000000,0.000000,0.000000,0.000000,0.122647,3,0
950000,0.004693,24.467613,0.007020,0.019119,25.628635,0.050252,0.000661,0.020087,1.568786,-0.045479,-0.000959,0.002829,0.000115,-0.004960,-0.000014,0.000776,-0.004851,0.065100,-0.023406,0.196358,0.196356,0.172801,0.585636,0.000000,0.000000,0.000000,0.000000,0.000000,0.000000,0.000000,0.000000,0.000000,0.000000,0.000000,0.000000,0.063144,3,0
960000,0.004728,24.726713,0.005892,0.019193,25.636234,0.048666,0.000663,0.020403,1.568762,-0.046014,-0.000990,0.003230,0.000120,-0.005050,-0.000015,0.001690,-0.004887,0.084961,-0.056829,0.196727,0.196725,0.172691,0.579096,0.000000,0.000000,0.000000,0.000000,0.000000,0.000000,0.000000,0.000000,0.000000,0.000000,0.000000,0.000000,0.082310,3,0
970000,0.004762,24.986523,0.006142,0.019309,25.644993,0.049162,0.000657,0.020790,1.568742,-0.046671,-0.001022,0.003288,0.000126,-0.005163,-0.000015,0.001762,-0.004924,0.104090,-0.008445,0.197083,0.197081,0.172567,0.572655,0.000000,0.000000,0.000000,0.000000,0.000000,0.000000,0.000000,0.000000,0.000000,0.000000,0.000000,0.000000,0.100782,3,0
980000,0.004796,25.246376,0.006280,0.019400,25.653736,0.049368,0.000660,0.021172,1.568721,-0.047323,-0.001054,0.003375,0.000131,-0.005277,-0.000015,0.001726,-0.004959,0.102617,-0.012424,0.197427,0.197425,0.172431,0.566314,0.000000,0.000000,0.000000,0.000000,0.000000,0.000000,0.000000,0.000000,0.000000,0.000000,0.000000,0.000000,0.099357,3,0
990000,0.004829,25.505617,0.007639,0.019459,25.661194,0.051484,0.000645,0.021494,1.568707,-0.047840,-0.001086,0.003153,0.000137,-0.005368,-0.000016,0.001212,-0.004994,0.081224,0.029909,0.197759,0.197757,0.172282,0.560075,0.000000,0.000000,0.000000,0.000000,0.000000,0.000000,0.000000,0.000000,0.000000,0.000000,0.000000,0.000000,0.078697,3,0
1000000,0.004861,25.769505,0.006413,0.019497,25.676790,0.049563,0.000635,0.022262,1.568694,-0.049245,-0.001120,0.003593,0.000143,-0.005620,-0.000016,0.008363,-0.005026,0.219486,-0.060630,0.198080,0.198077,0.172121,0.553939,0.000000,0.000000,0.000000,0.000000,0.000000,0.000000,0.000000,0.000000,0.000000,0.000000,0.000000,0.000000,0.212294,3,0
1010000,0.004893,26.032061,0.005140,0.019486,25.689901,0.047899,0.000632,0.022891,1.568686,-0.050364,-0.001153,0.004045,0.000149,-0.005824,-0.000017,0.005507,-0.005059,0.174109,-0.061792,0.198390,0.198386,0.171947,0.547906,0.000000,0.000000,0.000000,0.000000,0.000000,0.000000,0.000000,0.000000,0.000000,0.000000,0.000000,0.000000,0.168421,3,0
1020000,0.004922,26.295933,0.004742,0.019494,25.705177,0.047514,0.000631,0.023659,1.568668,-0.051715,-0.001187,0.004267,0.000155,-0.006074,-0.000018,0.007236,-0.005090,0.209604,-0.030634,0.198688,0.198685,0.171762,0.541978,0.000000,0.000000,0.000000,0.000000,0.000000,0.000000,0.000000,0.000000,0.000000,0.000000,0.000000,0.000000,0.202721,3,0
1030000,0.004950,26.555826,0.005381,0.019434,25.713266,0.048379,0.000624,0.024011,1.568655,-0.052263,-0.001221,0.004222,0.000161,-0.006177,-0.000018,0.001166,-0.005120,0.084732,0.005611,0.198977,0.198973,0.171566,0.536155,0.000000,0.000000,0.000000,0.000000,0.000000,0.000000,0.000000,0.000000,0.000000,0.000000,0.000000,0.000000,0.082072,3,0
1040000,0.004976,26.817734,0.005681,0.019387,25.724737,0.048945,0.000618,0.024562,1.568627,-0.053189,-0.001255,0.004266,0.000167,-0.006353,-0.000019,0.003298,-0.005147,0.142820,-0.006534,0.199255,0.199251,0.171358,0.530436,0.000000,0.000000,0.000000,0.000000,0.000000,0.000000,0.000000,0.000000,0.000000,0.000000,0.000000,0.000000,0.138166,3,0
1050000,0.005002,27.078983,0.006206,0.019489,25.734970,0.049672,0.000600,0.025044,1.568609,-0.053964,-0.001290,0.004252,0.000174,-0.006503,-0.000019,0.002299,-0.005174,0.119343,0.001165,0.199524,0.199519,0.171141,0.524824,0.000000,0.000000,0.000000,0.000000,0.000000,0.000000,0.000000,0.000000,0.000000,0.000000,0.000000,0.000000,0.115482,3,0
1060000,0.005027,27.341564,0.006809,0.019517,25.747313,0.050575,0.000582,0.025661,1.568588,-0.054981,-0.001325,0.004216,0.000181,-0.006702,-0.000020,0.003936,-0.005200,0.156178,0.003723,0.199783,0.199779,0.170913,0.519316,0.000000,0.000000,0.000000,0.000000,0.000000,0.000000,0.000000,0.000000,0.000000,0.000000,0.000000,0.000000,0.151062,3,0
1070000,0.005052,27.600824,0.005495,0.019525,25.753769,0.048625,0.000573,0.025916,1.568559,-0.055326,-0.001359,0.004713,0.000187,-0.006772,-0.000020,0.001114,-0.005225,0.052502,-0.064105,0.200035,0.200030,0.170675,0.513914,0.000000,0.000000,0.000000,0.000000,0.000000,0.000000,0.000000,0.000000,0.000000,0.000000,0.000000,0.000000,0.051000,3,0
1080000,0.005075,27.863436,0.005266,0.019501,25.765945,0.048187,0.000565,0.026526,1.568548,-0.056314,-0.001395,0.004904,0.000194,-0.006972,-0.000021,0.003780,-0.005250,0.150999,-0.025129,0.200277,0.200272,0.170428,0.508617,0.000000,0.000000,0.000000,0.000000,0.000000,0.000000,0.000000,0.000000,0.000000,0.000000,0.000000,0.000000,0.146046,3,0
1090000,0.005097,28.124702,0.005642,0.019479,25.775572,0.048870,0.000545,0.026991,1.568529,-0.057015,-0.001430,0.004929,0.000202,-0.007116,-0.000021,0.001849,-0.005273,0.106934,-0.003818,0.200513,0.200507,0.170172,0.503425,0.000000,0.000000,0.000000,0.000000,0.000000,0.000000,0.000000,0.000000,0.000000,0.000000,0.000000,0.000000,0.103485,3,0
1100000,0.005117,28.385973,0.005221,0.019438,25.785170,0.048115,0.000532,0.027456,1.568515,-0.057698,-0.001466,0.005180,0.000209,-0.007258,-0.000022,0.001914,-0.005294,0.103994,-0.032141,0.200740,0.200734,0.169907,0.498337,0.000000,0.000000,0.000000,0.000000,0.000000,0.000000,0.000000,0.000000,0.000000,0.000000,0.000000,0.000000,0.100644,3,0
1110000,0.005138,28.645916,0.004394,0.019462,25.792326,0.046951,0.000514,0.027768,1.568499,-0.058103,-0.001501,0.005549,0.000216,-0.007344,-0.000022,0.000958,-0.005315,0.061295,-0.046357,0.200961,0.200955,0.169634,0.493354,0.000000,0.000000,0.000000,0.000000,0.000000,0.000000,0.000000,0.000000,0.000000,0.000000,0.000000,0.000000,0.059461,3,0
1120000,0.005158,28.909212,0.003696,0.019484,25.805357,0.046031,0.000496,0.028450,1.568476,-0.059150,-0.001537,0.005874,0.000223,-0.007569,-0.000023,0.004358,-0.005336,0.159101,-0.041268,0.201176,0.201169,0.169354,0.488474,0.000000,0.000000,0.000000,0.000000,0.000000,0.000000,0.000000,0.000000,0.000000,0.000000,0.000000,0.000000,0.153851,3,0
1130000,0.005176,29.171143,0.003391,0.019453,25.815788,0.045823,0.000474,0.028967,1.568460,-0.059904,-0.001574,0.006089,0.000231,-0.007733,-0.000023,0.002231,-0.005355,0.114340,-0.027237,0.201384,0.201377,0.169066,0.483697,0.000000,0.000000,0.000000,0.000000,0.000000,0.000000,0.000000,0.000000,0.000000,0.000000,0.000000,0.000000,0.110621,3,0
1140000,0.005192,29.435062,0.003931,0.019392,25.829638,0.046662,0.000463,0.029697,1.568447,-0.061026,-0.001610,0.006054,0.000239,-0.007981,-0.000024,0.004681,-0.005373,0.170366,0.003004,0.201587,0.201580,0.168771,0.479022,0.000000,0.000000,0.000000,0.000000,0.000000,0.000000,0.000000,0.000000,0.000000,0.000000,0.000000,0.000000,0.164724,3,0
1150000,0.005208,29.695595,0.004735,0.019386,25.837372,0.047663,0.000446,0.030048,1.568436,-0.061456,-0.001646,0.005952,0.000247,-0.008077,-0.000024,0.000716,-0.005389,0.065340,0.011974,0.201786,0.201777,0.168470,0.474449,0.000000,0.000000,0.000000,0.000000,0.000000,0.000000,0.000000,0.000000,0.000000,0.000000,0.000000,0.000000,0.063357,3,0
1160000,0.005222,29.954123,0.005873,0.019268,25.841356,0.049088,0.000426,0.030156,1.568421,-0.061478,-0.001682,0.005757,0.000255,-0.008082,-0.000024,0.000095,-0.005404,0.003521,0.023409,0.201979,0.201970,0.168162,0.469975,0.000000,0.000000,0.000000,0.000000,0.000000,0.000000,0.000000,0.000000,0.000000,0.000000,0.000000,0.000000,0.006233,3,0
1170000,0.005235,30.216036,0.007047,0.019295,25.851290,0.050737,0.000410,0.030658,1.568410,-0.062154,-0.001718,0.005546,0.000264,-0.008237,-0.000025,0.001802,-0.005418,0.102774,0.024380,0.202168,0.202159,0.167849,0.465600,0.000000,0.000000,0.000000,0.000000,0.000000,0.000000,0.000000,0.000000,0.000000,0.000000,0.000000,0.000000,0.099450,3,0
1180000,0.005247,30.477934,0.007177,0.019180,25.861145,0.050913,0.000392,0.031147,1.568393,-0.062808,-0.001755,0.005653,0.000272,-0.008390,-0.000025,0.001619,-0.005430,0.099184,-0.013503,0.202353,0.202343,0.167531,0.461324,0.000000,0.000000,0.000000,0.000000,0.000000,0.000000,0.000000,0.000000,0.000000,0.000000,0.000000,0.000000,0.095982,3,0
1190000,0.005259,30.737801,0.007285,0.019223,25.867319,0.050892,0.000374,0.031382,1.568377,-0.063046,-0.001791,0.005774,0.000281,-0.008447,-0.000026,0.000247,-0.005442,0.035976,-0.014497,0.202535,0.202525,0.167207,0.457146,0.000000,0.000000,0.000000,0.000000,0.000000,0.000000,0.000000,0.000000,0.000000,0.000000,0.000000,0.000000,0.035157,3,0
1200000,0.005270,31.000366,0.007384,0.019244,25.878120,0.051138,0.000369,0.031935,1.568352,-0.063796,-0.001828,0.005891,0.000290,-0.008628,-0.000026,0.002132,-0.005455,0.113991,-0.014706,0.202714,0.202703,0.166879,0.453063,0.000000,0.000000,0.000000,0.000000,0.000000,0.000000,0.000000,0.000000,0.000000,0.000000,0.000000,0.000000,0.110264,3,0
1210000,0.005281,31.260208,0.008212,0.019201,25.884008,0.052332,0.000348,0.032155,1.568332,-0.063995,-0.001864,0.005792,0.000298,-0.008676,-0.000026,0.000172,-0.005466,0.030226,0.011203,0.202890,0.202878,0.166547,0.449075,0.000000,0.000000,0.000000,0.000000,0.000000,0.000000,0.000000,0.000000,0.000000,0.000000,0.000000,0.000000,0.029679,3,0
1220000,0.005290,31.522079,0.008648,0.019084,25.893373,0.052822,0.000338,0.032612,1.568319,-0.064575,-0.001901,0.005813,0.000307,-0.008820,-0.000027,0.001264,-0.005475,0.088388,-0.003142,0.203063,0.203051,0.166211,0.445180,0.000000,0.000000,0.000000,0.000000,0.000000,0.000000,0.000000,0.000000,0.000000,0.000000,0.000000,0.000000,0.085561,3,0
1230000,0.005299,31.784603,0.008494,0.019120,25.903751,0.052362,0.000327,0.033157,1.568303,-0.065263,-0.001938,0.006017,0.000316,-0.008994,-0.000027,0.001868,-0.005484,0.104729,-0.024504,0.203235,0.203222,0.165871,0.441378,0.000000,0.000000,0.000000,0.000000,0.000000,0.000000,0.000000,0.000000,0.000000,0.000000,0.000000,0.000000,0.101318,3,0
1240000,0.005308,32.046417,0.008524,0.019158,25.912804,0.052308,0.000319,0.033609,1.568279,-0.065792,-0.001975,0.006167,0.000326,-0.009129,-0.000028,0.001104,-0.005494,0.080647,-0.017861,0.203405,0.203392,0.165528,0.437667,0.000000,0.000000,0.000000,0.000000,0.000000,0.000000,0.000000,0.000000,0.000000,0.000000,0.000000,0.000000,0.078092,3,0
1250000,0.005317,32.305511,0.007767,0.019193,25.916880,0.051159,0.000295,0.033700,1.568248,-0.065779,-0.002011,0.006577,0.000335,-0.009127,-0.000028,0.000359,-0.005503,-0.002346,-0.046670,0.203574,0.203559,0.165182,0.434046,0.000000,0.000000,0.000000,0.000000,0.000000,0.000000,0.000000,0.000000,0.000000,0.000000,0.000000,0.000000,0.005781,3,0
1260000,0.005326,32.565971,0.007595,0.019194,25.923306,0.050758,0.000284,0.033966,1.568222,-0.066020,-0.002047,0.006795,0.000344,-0.009190,-0.000028,0.000323,-0.005512,0.036701,-0.024940,0.203741,0.203726,0.164833,0.430513,0.000000,0.000000,0.000000,0.000000,0.000000,0.000000,0.000000,0.000000,0.000000,0.000000,0.000000,0.000000,0.035852,3,0
1270000,0.005333,32.827778,0.007174,0.019085,25.932100,0.050038,0.000262,0.034399,1.568202,-0.066506,-0.002084,0.007088,0.000354,-0.009321,-0.000029,0.001080,-0.005520,0.074360,-0.033781,0.203908,0.203892,0.164483,0.427067,0.000000,0.000000,0.000000,0.000000,0.000000,0.000000,0.000000,0.000000,0.000000,0.000000,0.000000,0.000000,0.072028,3,0
1280000,0.005339,33.088882,0.006953,0.018981,25.939514,0.049570,0.000250,0.034734,1.568174,-0.066838,-0.002120,0.007320,0.000363,-0.009411,-0.000029,0.000537,-0.005526,0.051010,-0.026384,0.204074,0.204057,0.164130,0.423706,0.000000,0.000000,0.000000,0.000000,0.000000,0.000000,0.000000,0.000000,0.000000,0.000000,0.000000,0.000000,0.049559,3,0
1290000,0.005344,33.349968,0.005987,0.018914,25.946793,0.048221,0.000242,0.035058,1.568150,-0.067154,-0.002157,0.007797,0.000373,-0.009499,-0.000029,0.000845,-0.005531,0.048260,-0.053541,0.204239,0.204222,0.163776,0.420430,0.000000,0.000000,0.000000,0.000000,0.000000,0.000000,0.000000,0.000000,0.000000,0.000000,0.000000,0.000000,0.046917,3,0
1300000,0.005348,33.612389,0.006360,0.018883,25.956398,0.048747,0.000232,0.035555,1.568133,-0.067705,-0.002193,0.007824,0.000383,-0.009653,-0.000030,0.001178,-0.005536,0.085281,-0.003943,0.204405,0.204386,0.163420,0.417237,0.000000,0.000000,0.000000,0.000000,0.000000,0.000000,0.000000,0.000000,0.000000,0.000000,0.000000,0.000000,0.082548,3,0
1310000,0.005352,33.873413,0.005974,0.018893,25.963341,0.048051,0.000207,0.035855,1.568109,-0.067974,-0.002230,0.008112,0.000393,-0.009729,-0.000030,0.000448,-0.005540,0.041431,-0.032112,0.204571,0.204551,0.163063,0.414125,0.000000,0.000000,0.000000,0.000000,0.000000,0.000000,0.000000,0.000000,0.000000,0.000000,0.000000,0.000000,0.040372,3,0
1320000,0.005354,34.135090,0.007001,0.018864,25.971371,0.049459,0.000189,0.036235,1.568098,-0.068350,-0.002266,0.007922,0.000403,-0.009836,-0.000031,0.000624,-0.005544,0.058643,0.020108,0.204737,0.204717,0.162706,0.411093,0.000000,0.000000,0.000000,0.000000,0.000000,0.000000,0.000000,0.000000,0.000000,0.000000,0.000000,0.000000,0.056897,3,0
1330000,0.005355,34.395378,0.008065,0.018764,25.976845,0.050675,0.000178,0.036407,1.568078,-0.068449,-0.002301,0.007728,0.000414,-0.009864,-0.000031,0.000115,-0.005545,0.015556,0.020923,0.204903,0.204882,0.162348,0.408139,0.000000,0.000000,0.000000,0.000000,0.000000,0.000000,0.000000,0.000000,0.000000,0.000000,0.000000,0.000000,0.015952,3,0
1340000,0.005357,34.655659,0.007640,0.018706,25.982141,0.050008,0.000157,0.036576,1.568059,-0.068538,-0.002337,0.008046,0.000424,-0.009892,-0.000031,0.000229,-0.005546,0.013641,-0.034620,0.205071,0.205049,0.161989,0.405262,0.000000,0.000000,0.000000,0.000000,0.000000,0.000000,0.000000,0.000000,0.000000,0.000000,0.000000,0.000000,0.014220,3,0
1350000,0.005357,34.916603,0.008522,0.018657,25.988588,0.050931,0.000146,0.036827,1.568036,-0.068738,-0.002373,0.007911,0.000435,-0.009951,-0.000031,0.000198,-0.005547,0.031612,0.014140,0.205239,0.205216,0.161631,0.402461,0.000000,0.000000,0.000000,0.000000,0.000000,0.000000,0.000000,0.000000,0.000000,0.000000,0.000000,0.000000,0.030999,3,0
1360000,0.005356,35.175484,0.009471,0.018622,25.991219,0.052299,0.000122,0.036785,1.568017,-0.068543,-0.002408,0.007766,0.000445,-0.009892,-0.000031,0.000197,-0.005546,-0.030609,0.015903,0.205409,0.205385,0.161273,0.399733,0.000000,0.000000,0.000000,0.000000,0.000000,0.000000,0.000000,0.000000,0.000000,0.000000,0.000000,0.000000,0.030041,3,0
1370000,0.005355,35.436417,0.010464,0.018583,25.997480,0.053398,0.000098,0.037031,1.567994,-0.068722,-0.002443,0.007599,0.000456,-0.009946,-0.000031,0.000186,-0.005545,0.028545,0.017455,0.205580,0.205554,0.160915,0.397078,0.000000,0.000000,0.000000,0.000000,0.000000,0.000000,0.000000,0.000000,0.000000,0.000000,0.000000,0.000000,0.028084,3,0
1380000,0.005353,35.697327,0.011455,0.018513,26.003626,0.054628,0.000083,0.037273,1.567962,-0.068885,-0.002478,0.007436,0.000467,-0.009996,-0.000032,0.000160,-0.005544,0.025974,0.016965,0.205752,0.205725,0.160558,0.394494,0.000000,0.000000,0.000000,0.000000,0.000000,0.000000,0.000000,0.000000,0.000000,0.000000,0.000000,0.000000,0.025650,3,0
1390000,0.005352,35.956173,0.011140,0.018466,26.005981,0.054381,0.000073,0.037215,1.567931,-0.068660,-0.002512,0.007751,0.000478,-0.009926,-0.000031,0.000390,-0.005541,-0.036205,-0.032773,0.205925,0.205898,0.160201,0.391980,0.000000,0.000000,0.000000,0.000000,0.000000,0.000000,0.000000,0.000000,0.000000,0.000000,0.000000,0.000000,0.035376,3,0
1400000,0.005351,36.215710,0.010586,0.018478,26.009560,0.053624,0.000062,0.037256,1.567907,-0.068557,-0.002547,0.008150,0.000489,-0.009895,-0.000031,0.000330,-0.005540,-0.016773,-0.041512,0.206100,0.206072,0.159846,0.389534,0.000000,0.000000,0.000000,0.000000,0.000000,0.000000,0.000000,0.000000,0.000000,0.000000,0.000000,0.000000,0.017065,3,0
1410000,0.005347,36.478645,0.011574,0.018414,26.019085,0.054543,0.000032,0.037759,1.567891,-0.069062,-0.002582,0.007973,0.000500,-0.010058,-0.000032,0.001122,-0.005538,0.081478,0.017321,0.206277,0.206248,0.159492,0.387153,0.000000,0.000000,0.000000,0.000000,0.000000,0.000000,0.000000,0.000000,0.000000,0.000000,0.000000,0.000000,0.078863,3,0
1420000,0.005345,36.738117,0.011024,0.018399,26.022358,0.053776,0.000002,0.037767,1.567863,-0.068925,-0.002616,0.008377,0.000511,-0.010015,-0.000032,0.000368,-0.005535,-0.022526,-0.041666,0.206456,0.206425,0.159139,0.384839,0.000000,0.000000,0.000000,0.000000,0.000000,0.000000,0.000000,0.000000,0.000000,0.000000,0.000000,0.000000,0.022406,3,0
1430000,0.005340,36.996887,0.012214,0.018261,26.024391,0.055099,-0.000012,0.037659,1.567847,-0.068656,-0.002649,0.008150,0.000523,-0.009924,-0.000032,0.000404,-0.005531,-0.043484,0.024176,0.206636,0.206604,0.158788,0.382590,0.000000,0.000000,0.000000,0.000000,0.000000,0.000000,0.000000,0.000000,0.000000,0.000000,0.000000,0.000000,0.042319,3,0
1440000,0.005335,37.257030,0.013488,0.018214,26.028713,0.056487,-0.000032,0.037749,1.567824,-0.068630,-0.002683,0.007886,0.000535,-0.009914,-0.000032,0.000127,-0.005526,-0.004086,0.027153,0.206818,0.206785,0.158439,0.380401,0.000000,0.000000,0.000000,0.000000,0.000000,0.000000,0.000000,0.000000,0.000000,0.000000,0.000000,0.000000,0.006632,3,0
1450000,0.005330,37.516491,0.012253,0.018095,26.031719,0.054927,-0.000057,0.037743,1.567810,-0.068477,-0.002717,0.008562,0.000546,-0.009864,-0.000032,0.000878,-0.005519,-0.025726,-0.068747,0.207001,0.206967,0.158092,0.378274,0.000000,0.000000,0.000000,0.000000,0.000000,0.000000,0.000000,0.000000,0.000000,0.000000,0.000000,0.000000,0.025418,3,0
1460000,0.005324,37.780060,0.011175,0.017916,26.042185,0.053591,-0.000074,0.038333,1.567783,-0.069039,-0.002751,0.009152,0.000557,-0.010063,-0.000033,0.001995,-0.005513,0.092480,-0.061527,0.207187,0.207151,0.157747,0.376206,0.000000,0.000000,0.000000,0.000000,0.000000,0.000000,0.000000,0.000000,0.000000,0.000000,0.000000,0.000000,0.089434,3,0
1470000,0.005316,38.041485,0.010924,0.017810,26.048634,0.053319,-0.000094,0.038587,1.567756,-0.069206,-0.002785,0.009445,0.000569,-0.010124,-0.000033,0.000274,-0.005506,0.027596,-0.030081,0.207374,0.207337,0.157404,0.374197,0.000000,0.000000,0.000000,0.000000,0.000000,0.000000,0.000000,0.000000,0.000000,0.000000,0.000000,0.000000,0.027163,3,0
1480000,0.005306,38.300804,0.011418,0.017599,26.051167,0.053969,-0.000117,0.038518,1.567724,-0.068996,-0.002817,0.009471,0.000580,-0.010048,-0.000033,0.000204,-0.005496,-0.035103,-0.002017,0.207564,0.207525,0.157063,0.372245,0.000000,0.000000,0.000000,0.000000,0.000000,0.000000,0.000000,0.000000,0.000000,0.000000,0.000000,0.000000,0.034303,3,0
1490000,0.005295,38.561493,0.011716,0.017570,26.056042,0.054101,-0.000139,0.038644,1.567711,-0.069019,-0.002850,0.009564,0.000592,-0.010057,-0.000033,0.000021,-0.005485,0.003735,-0.009407,0.207755,0.207715,0.156725,0.370347,0.000000,0.000000,0.000000,0.000000,0.000000,0.000000,0.000000,0.000000,0.000000,0.000000,0.000000,0.000000,0.006406,3,0
1500000,0.005285,38.823540,0.010688,0.017452,26.063480,0.052789,-0.000171,0.038978,1.567695,-0.069264,-0.002883,0.010159,0.000604,-0.010151,-0.000033,0.000864,-0.005473,0.041180,-0.060115,0.207948,0.207907,0.156390,0.368505,0.000000,0.000000,0.000000,0.000000,0.000000,0.000000,0.000000,0.000000,0.000000,0.000000,0.000000,0.000000,0.040091,3,0
1510000,0.005273,39.084156,0.009686,0.017278,26.068089,0.051532,-0.000202,0.039088,1.567666,-0.069254,-0.002915,0.010753,0.000616,-0.010149,-0.000033,0.000572,-0.005461,-0.002270,-0.059066,0.208142,0.208100,0.156057,0.366714,0.000000,0.000000,0.000000,0.000000,0.000000,0.000000,0.000000,0.000000,0.000000,0.000000,0.000000,0.000000,0.005716,3,0
1520000,0.005259,39.345417,0.010067,0.017187,26.073851,0.052067,-0.000234,0.039293,1.567634,-0.069343,-0.002947,0.010804,0.000628,-0.010184,-0.000034,0.000047,-0.005448,0.015373,-0.005326,0.208338,0.208295,0.155727,0.364976,0.000000,0.000000,0.000000,0.000000,0.000000,0.000000,0.000000,0.000000,0.000000,0.000000,0.000000,0.000000,0.015744,3,0
1530000,0.005245,39.605957,0.009695,0.017047,26.078232,0.051525,-0.000264,0.039368,1.567611,-0.069302,-0.002979,0.011158,0.000640,-0.010170,-0.000034,0.000210,-0.005433,-0.007404,-0.034771,0.208536,0.208491,0.155400,0.363288,0.000000,0.000000,0.000000,0.000000,0.000000,0.000000,0.000000,0.000000,0.000000,0.000000,0.000000,0.000000,0.008873,3,0
1540000,0.005232,39.866467,0.008616,0.017017,26.082586,0.050158,-0.000296,0.039443,1.567583,-0.069250,-0.003010,0.011791,0.000652,-0.010152,-0.000034,0.000643,-0.005419,-0.009560,-0.061976,0.208736,0.208689,0.155077,0.361650,0.000000,0.000000,0.000000,0.000000,0.000000,0.000000,0.000000,0.000000,0.000000,0.000000,0.000000,0.000000,0.010618,3,0
1550000,0.005216,40.124859,0.009230,0.016907,26.082958,0.050768,-0.000311,0.039173,1.567550,-0.068846,-0.003040,0.011768,0.000664,-0.009990,-0.000033,0.000825,-0.005405,-0.071327,0.003561,0.208937,0.208889,0.154756,0.360059,0.000000,0.000000,0.000000,0.000000,0.000000,0.000000,0.000000,0.000000,0.000000,0.000000,0.000000,0.000000,0.069041,3,0
1560000,0.005201,40.383953,0.008952,0.016815,26.084570,0.050349,-0.000338,0.039001,1.567517,-0.068558,-0.003070,0.012098,0.000676,-0.009874,-0.000033,0.000588,-0.005388,-0.051414,-0.031175,0.209139,0.209089,0.154439,0.358514,0.000000,0.000000,0.000000,0.000000,0.000000,0.000000,0.000000,0.000000,0.000000,0.000000,0.000000,0.000000,0.049901,3,0
1570000,0.005184,40.644417,0.009383,0.016658,26.088608,0.050845,-0.000357,0.039049,1.567500,-0.068489,-0.003100,0.012133,0.000688,-0.009846,-0.000033,0.000031,-0.005371,-0.012341,-0.003155,0.209342,0.209291,0.154125,0.357013,0.000000,0.000000,0.000000,0.000000,0.000000,0.000000,0.000000,0.000000,0.000000,0.000000,0.000000,0.000000,0.012989,3,0
1580000,0.005165,40.902069,0.009885,0.016495,26.087387,0.051636,-0.000388,0.038644,1.567465,-0.067969,-0.003128,0.012167,0.000700,-0.009628,-0.000033,0.001424,-0.005352,-0.093933,-0.001432,0.209547,0.209494,0.153814,0.355556,0.000000,0.000000,0.000000,0.000000,0.000000,0.000000,0.000000,0.000000,0.000000,0.000000,0.000000,0.000000,0.090800,3,0
1590000,0.005146,41.161129,0.009792,0.016316,26.088730,0.051472,-0.000408,0.038463,1.567449,-0.067678,-0.003157,0.012433,0.000712,-0.009505,-0.000032,0.000561,-0.005332,-0.053391,-0.024521,0.209752,0.209698,0.153507,0.354142,0.000000,0.000000,0.000000,0.000000,0.000000,0.000000,0.000000,0.000000,0.000000,0.000000,0.000000,0.000000,0.051785,3,0
1600000,0.005126,41.422256,0.010585,0.016217,26.093689,0.052213,-0.000436,0.038591,1.567436,-0.067708,-0.003186,0.012320,0.000725,-0.009517,-0.000033,0.000028,-0.005312,0.005600,0.010765,0.209959,0.209903,0.153204,0.352767,0.000000,0.000000,0.000000,0.000000,0.000000,0.000000,0.000000,0.000000,0.000000,0.000000,0.000000,0.000000,0.007449,3,0
1610000,0.005105,41.680565,0.010443,0.016063,26.093546,0.052148,-0.000469,0.038270,1.567410,-0.067296,-0.003214,0.012620,0.000737,-0.009338,-0.000032,0.001069,-0.005290,-0.076672,-0.027085,0.210166,0.210109,0.152904,0.351434,0.000000,0.000000,0.000000,0.000000,0.000000,0.000000,0.000000,0.000000,0.000000,0.000000,0.000000,0.000000,0.074170,3,0
1620000,0.005083,41.941647,0.011399,0.015991,26.098324,0.053135,-0.000505,0.038392,1.567383,-0.067311,-0.003242,0.012442,0.000750,-0.009343,-0.000032,0.000052,-0.005269,0.002964,0.016900,0.210374,0.210316,0.152608,0.350138,0.000000,0.000000,0.000000,0.000000,0.000000,0.000000,0.000000,0.000000,0.000000,0.000000,0.000000,0.000000,0.005835,3,0
1630000,0.005063,42.201305,0.010384,0.015793,26.100508,0.051873,-0.000528,0.038274,1.567366,-0.067105,-0.003270,0.013101,0.000762,-0.009254,-0.000032,0.000871,-0.005245,-0.039494,-0.061532,0.210583,0.210523,0.152315,0.348881,0.000000,0.000000,0.000000,0.000000,0.000000,0.000000,0.000000,0.000000,0.000000,0.000000,0.000000,0.000000,0.038459,3,0
1640000,0.005039,42.460934,0.010266,0.015622,26.102510,0.051655,-0.000559,0.038157,1.567347,-0.066893,-0.003297,0.013384,0.000774,-0.009158,-0.000032,0.000380,-0.005222,-0.040749,-0.025803,0.210792,0.210730,0.152026,0.347660,0.000000,0.000000,0.000000,0.000000,0.000000,0.000000,0.000000,0.000000,0.000000,0.000000,0.000000,0.000000,0.039647,3,0
1650000,0.005015,42.722630,0.010737,0.015512,26.108385,0.052257,-0.000579,0.038362,1.567331,-0.066984,-0.003324,0.013400,0.000787,-0.009200,-0.000032,0.000055,-0.005198,0.017662,-0.001865,0.211001,0.210938,0.151741,0.346476,0.000000,0.000000,0.000000,0.000000,0.000000,0.000000,0.000000,0.000000,0.000000,0.000000,0.000000,0.000000,0.017763,3,0
1660000,0.004990,42.985664,0.011214,0.015333,26.116650,0.052669,-0.000615,0.038775,1.567301,-0.067261,-0.003351,0.013403,0.000799,-0.009332,-0.000033,0.000475,-0.005172,0.054092,-0.001413,0.211211,0.211146,0.151460,0.345327,0.000000,0.000000,0.000000,0.000000,0.000000,0.000000,0.000000,0.000000,0.000000,0.000000,0.000000,0.000000,0.052427,3,0
1670000,0.004965,43.244434,0.010310,0.015087,26.116888,0.051494,-0.000637,0.038488,1.567269,-0.066909,-0.003377,0.014040,0.000811,-0.009166,-0.000032,0.001332,-0.005144,-0.069874,-0.057779,0.211421,0.211354,0.151183,0.344210,0.000000,0.000000,0.000000,0.000000,0.000000,0.000000,0.000000,0.000000,0.000000,0.000000,0.000000,0.000000,0.067611,3,0
1680000,0.004937,43.505974,0.011193,0.015005,26.122118,0.052343,-0.000670,0.038636,1.567248,-0.066955,-0.003403,0.013881,0.000824,-0.009188,-0.000033,0.000053,-0.005118,0.009296,0.014580,0.211630,0.211562,0.150910,0.343126,0.000000,0.000000,0.000000,0.000000,0.000000,0.000000,0.000000,0.000000,0.000000,0.000000,0.000000,0.000000,0.010241,3,0
1690000,0.004910,43.766064,0.010924,0.014864,26.124636,0.052016,-0.000703,0.038549,1.567226,-0.066789,-0.003428,0.014237,0.000837,-0.009107,-0.000032,0.000355,-0.005089,-0.033627,-0.032213,0.211839,0.211769,0.150641,0.342073,0.000000,0.000000,0.000000,0.000000,0.000000,0.000000,0.000000,0.000000,0.000000,0.000000,0.000000,0.000000,0.032817,3,0
1700000,0.004882,44.027512,0.011929,0.014746,26.129627,0.053054,-0.000734,0.038675,1.567209,-0.066810,-0.003453,0.014028,0.000849,-0.009117,-0.000033,0.000067,-0.005061,0.004440,0.019207,0.212047,0.211976,0.150375,0.341051,0.000000,0.000000,0.000000,0.000000,0.000000,0.000000,0.000000,0.000000,0.000000,0.000000,0.000000,0.000000,0.006497,3,0
1710000,0.004853,44.287491,0.013164,0.014672,26.131901,0.054579,-0.000770,0.038540,1.567189,-0.066624,-0.003476,0.013739,0.000862,-0.009018,-0.000032,0.000363,-0.005032,-0.038387,0.027393,0.212255,0.212182,0.150114,0.340059,0.000000,0.000000,0.000000,0.000000,0.000000,0.000000,0.000000,0.000000,0.000000,0.000000,0.000000,0.000000,0.037338,3,0
1720000,0.004824,44.548149,0.013421,0.014478,26.135229,0.054994,-0.000798,0.038527,1.567163,-0.066528,-0.003500,0.013877,0.000874,-0.008969,-0.000032,0.000093,-0.005001,-0.020084,-0.012093,0.212462,0.212388,0.149856,0.339093,0.000000,0.000000,0.000000,0.000000,0.000000,0.000000,0.000000,0.000000,0.000000,0.000000,0.000000,0.000000,0.019970,3,0
