time_us,pos_x,pos_y,pos_z,vel_x,vel_y,vel_z,roll,pitch,yaw,bias_ax,bias_ay,bias_az,bias_gx,bias_gy,bias_gz,nis,innov_x,innov_y,innov_z,cov_pos_x,cov_pos_y,cov_pos_z,cov_yaw,des_speed,des_heading,des_climb,pid_speed,pid_yaw,pid_alt,speed_meas,yaw_meas,climb_meas,fwd_accel,yaw_rate,vert_accel,drift_m,nav_mode,mission_state
0,-0.000001,0.149998,-0.000002,-0.000108,24.999607,-0.000513,0.000003,-0.000009,1.570789,0.000000,0.000000,0.000000,0.000000,0.000000,0.000000,0.006250,0.000001,-0.249999,0.000005,2.400038,2.400038,3.600017,1.000518,0.000000,0.000000,0.000000,0.000000,0.000000,0.000000,0.000000,0.000000,0.000000,0.000000,0.000000,0.000000,0.149998,1,0
10000,-0.000002,0.382262,-0.004653,-0.000169,24.999384,-0.000957,0.000023,-0.000011,1.570786,0.000000,0.000000,0.000000,0.000000,0.000000,0.000000,0.000474,0.000002,-0.062051,-0.012376,1.714420,1.714420,2.250079,1.001073,0.000000,0.000000,0.000000,0.000000,0.000000,0.000000,0.000000,0.000000,0.000000,0.000000,0.000000,0.000000,0.044321,3,0
20000,-0.000003,0.628697,-0.017108,-0.000201,24.999186,-0.001454,0.000028,-0.000022,1.570781,0.000000,0.000000,0.000000,0.000000,0.000000,-0.000000,0.000285,0.000004,-0.016008,-0.045615,1.333616,1.333616,1.636554,1.001655,0.000000,0.000000,0.000000,0.000000,0.000000,0.000000,0.000000,0.000000,0.000000,0.000000,0.000000,0.000000,0.012450,3,0
30000,-0.000004,0.885188,-0.021611,-0.000239,24.999123,-0.002200,0.000035,-0.000029,1.570772,-0.000000,0.000000,0.000001,0.000000,-0.000000,0.000000,0.000231,0.000005,0.035744,-0.020910,1.091392,1.091392,1.286065,1.002257,0.000000,0.000000,0.000000,0.000000,0.000000,0.000000,0.000000,0.000000,0.000000,0.000000,0.000000,0.000000,0.029242,3,0
40000,-0.000006,1.116494,-0.030570,-0.000300,24.998501,-0.002944,0.000050,-0.000041,1.570770,0.000003,0.000000,0.000002,0.000000,0.000000,-0.000000,0.002428,0.000007,-0.121354,-0.050582,0.923811,0.923811,1.059385,1.002869,0.000000,0.000000,0.000000,0.000000,0.000000,0.000000,0.000000,0.000000,0.000000,0.000000,0.000000,0.000000,0.102669,3,0
50000,-0.000008,1.359205,-0.029334,-0.000310,24.997971,-0.003235,0.000054,-0.000036,1.570768,0.000006,0.000000,0.000002,-0.000000,0.000000,-0.000000,0.000439,0.000009,-0.054468,0.008446,0.801036,0.801036,0.900822,1.003484,0.000000,0.000000,0.000000,0.000000,0.000000,0.000000,0.000000,0.000000,0.000000,0.000000,0.000000,0.000000,0.047196,3,0
60000,-0.000010,1.611645,-0.023693,-0.000361,24.997910,-0.003678,0.000063,-0.000031,1.570766,0.000004,0.000000,-0.000001,-0.000000,0.000000,-0.000000,0.000338,0.000012,0.020889,0.043492,0.707270,0.707270,0.783741,1.004094,0.000000,0.000000,0.000000,0.000000,0.000000,0.000000,0.000000,0.000000,0.000000,0.000000,0.000000,0.000000,0.018426,3,0
70000,-0.000012,1.864459,-0.024313,-0.000359,24.997894,-0.004042,0.000077,-0.000039,1.570751,0.000002,0.000000,-0.000000,-0.000000,-0.000000,-0.000000,0.000111,0.000014,0.026875,-0.005022,0.633370,0.633370,0.693801,1.004688,0.000000,0.000000,0.000000,0.000000,0.000000,0.000000,0.000000,0.000000,0.000000,0.000000,0.000000,0.000000,0.024038,3,0
80000,-0.000015,2.121343,-0.025666,-0.000408,24.998272,-0.004673,0.000079,-0.000038,1.570740,-0.000005,0.000000,0.000001,-0.000000,-0.000000,0.000000,0.000810,0.000016,0.072245,-0.012596,0.573673,0.573673,0.622594,1.005260,0.000000,0.000000,0.000000,0.000000,0.000000,0.000000,0.000000,0.000000,0.000000,0.000000,0.000000,0.000000,0.065337,3,0
90000,-0.000018,2.370824,-0.024550,-0.000517,24.998142,-0.005216,0.000094,-0.000030,1.570724,-0.000005,0.000000,-0.000001,-0.000000,-0.000000,0.000000,0.000028,0.000020,-0.005734,0.012427,0.524488,0.524488,0.564865,1.005801,0.000000,0.000000,0.000000,0.000000,0.000000,0.000000,0.000000,0.000000,0.000000,0.000000,0.000000,0.000000,0.005233,3,0
100000,-0.000022,2.625866,-0.027081,-0.000614,24.998505,-0.005809,0.000104,-0.000038,1.570716,-0.000014,0.000000,0.000004,-0.000000,-0.000000,0.000000,0.000731,0.000024,0.062851,-0.028724,0.483303,0.483303,0.517162,1.006301,0.000000,0.000000,0.000000,0.000000,0.000000,0.000000,0.000000,0.000000,0.000000,0.000000,0.000000,0.000000,0.057788,3,0
110000,-0.000028,2.877827,-0.025616,-0.000737,24.998566,-0.006164,0.000113,-0.000031,1.570714,-0.000019,0.000000,0.000000,-0.000000,-0.000000,0.000000,0.000165,0.000030,0.026473,0.019225,0.448353,0.448353,0.477121,1.006754,0.000000,0.000000,0.000000,0.000000,0.000000,0.000000,0.000000,0.000000,0.000000,0.000000,0.000000,0.000000,0.024495,3,0
120000,-0.000033,3.125948,-0.022268,-0.000738,24.998032,-0.006305,0.000119,-0.000041,1.570705,-0.000013,0.000000,-0.000010,-0.000000,-0.000000,0.000000,0.000441,0.000035,-0.026699,0.046255,0.418358,0.418358,0.443071,1.007150,0.000000,0.000000,0.000000,0.000000,0.000000,0.000000,0.000000,0.000000,0.000000,0.000000,0.000000,0.000000,0.024838,3,0
130000,-0.000038,3.382655,-0.019283,-0.000843,24.999046,-0.006443,0.000120,-0.000025,1.570701,-0.000040,0.000000,-0.000021,-0.000000,-0.000001,0.000000,0.001953,0.000041,0.102884,0.044291,0.392369,0.392369,0.413797,1.007481,0.000000,0.000000,0.000000,0.000000,0.000000,0.000000,0.000000,0.000000,0.000000,0.000000,0.000000,0.000000,0.096156,3,0
140000,-0.000045,3.636639,-0.020125,-0.000933,24.999811,-0.007154,0.000132,-0.000014,1.570702,-0.000059,0.000000,-0.000017,-0.000000,-0.000001,0.000000,0.000680,0.000048,0.064834,-0.011928,0.369666,0.369666,0.388393,1.007739,0.000000,0.000000,0.000000,0.000000,0.000000,0.000000,0.000000,0.000000,0.000000,0.000000,0.000000,0.000000,0.060840,3,0
150000,-0.000052,3.888356,-0.019040,-0.001090,25.000130,-0.007567,0.000147,-0.000018,1.570689,-0.000069,0.000000,-0.000024,-0.000000,-0.000001,0.000000,0.000193,0.000056,0.029510,0.019053,0.349695,0.349695,0.366172,1.007915,0.000000,0.000000,0.000000,0.000000,0.000000,0.000000,0.000000,0.000000,0.000000,0.000000,0.000000,0.000000,0.027791,3,0
160000,-0.000060,4.145860,-0.018543,-0.001144,25.001904,-0.007907,0.000155,-0.000005,1.570683,-0.000120,0.000000,-0.000027,-0.000000,-0.000002,0.000000,0.002911,0.000064,0.135612,0.010009,0.332020,0.332020,0.346600,1.008002,0.000000,0.000000,0.000000,0.000000,0.000000,0.000000,0.000000,0.000000,0.000000,0.000000,0.000000,0.000000,0.128107,3,0
170000,-0.000068,4.398883,-0.017078,-0.001181,25.002697,-0.008020,0.000167,0.000001,1.570667,-0.000145,0.000000,-0.000039,-0.000000,-0.000003,0.000000,0.000638,0.000072,0.057000,0.028231,0.316297,0.316297,0.329260,1.007991,0.000000,0.000000,0.000000,0.000000,0.000000,0.000000,0.000000,0.000000,0.000000,0.000000,0.000000,0.000000,0.053995,3,0
180000,-0.000078,4.653053,-0.015107,-0.001350,25.003872,-0.008082,0.000176,0.000015,1.570654,-0.000184,0.000000,-0.000057,-0.000000,-0.000004,0.000000,0.001316,0.000082,0.082274,0.039333,0.302245,0.302245,0.313817,1.007875,0.000000,0.000000,0.000000,0.000000,0.000000,0.000000,0.000000,0.000000,0.000000,0.000000,0.000000,0.000000,0.078129,3,0
190000,-0.000088,4.902469,-0.016108,-0.001468,25.003540,-0.009059,0.000195,0.000007,1.570642,-0.000177,0.000000,-0.000048,-0.000000,-0.000004,0.000000,0.000079,0.000092,-0.012877,-0.018252,0.289640,0.289640,0.300003,1.007645,0.000000,0.000000,0.000000,0.000000,0.000000,0.000000,0.000000,0.000000,0.000000,0.000000,0.000000,0.000000,0.012256,3,0
200000,-0.000099,5.154167,-0.015952,-0.001574,25.003969,-0.009612,0.000206,0.000016,1.570627,-0.000198,0.000000,-0.000051,-0.000000,-0.000004,0.000000,0.000209,0.000104,0.035895,0.005278,0.278294,0.278294,0.287598,1.007295,0.000000,0.000000,0.000000,0.000000,0.000000,0.000000,0.000000,0.000000,0.000000,0.000000,0.000000,0.000000,0.034230,3,0
210000,-0.000111,5.410549,-0.017733,-0.001736,25.006481,-0.010914,0.000213,0.000041,1.570613,-0.000289,0.000000,-0.000028,-0.000000,-0.000007,0.000000,0.003422,0.000116,0.142013,-0.036445,0.268052,0.268052,0.276421,1.006816,0.000000,0.000000,0.000000,0.000000,0.000000,0.000000,0.000000,0.000000,0.000000,0.000000,0.000000,0.000000,0.135668,3,0
220000,-0.000124,5.661680,-0.017299,-0.001887,25.006784,-0.011325,0.000229,0.000043,1.570613,-0.000306,0.000000,-0.000037,-0.000000,-0.000007,0.000000,0.000122,0.000130,0.024758,0.012393,0.258785,0.258785,0.266321,1.006202,0.000000,0.000000,0.000000,0.000000,0.000000,0.000000,0.000000,0.000000,0.000000,0.000000,0.000000,0.000000,0.023691,3,0
230000,-0.000137,5.913084,-0.019129,-0.001869,25.007345,-0.012550,0.000245,0.000042,1.570611,-0.000331,0.000001,-0.000007,-0.000000,-0.000008,0.000000,0.000419,0.000143,0.032049,-0.039959,0.250383,0.250383,0.257172,1.005446,0.000000,0.000000,0.000000,0.000000,0.000000,0.000000,0.000000,0.000000,0.000000,0.000000,0.000000,0.000000,0.030712,3,0
240000,-0.000151,6.168757,-0.018003,-0.001979,25.010101,-0.012574,0.000247,0.000080,1.570601,-0.000445,0.000001,-0.000031,-0.000000,-0.000012,0.000000,0.003213,0.000157,0.138462,0.030324,0.242753,0.242753,0.248866,1.004541,0.000000,0.000000,0.000000,0.000000,0.000000,0.000000,0.000000,0.000000,0.000000,0.000000,0.000000,0.000000,0.132860,3,0
250000,-0.000164,6.425968,-0.018462,-0.002052,25.014009,-0.013236,0.000256,0.000129,1.570585,-0.000606,0.000001,-0.000024,-0.000000,-0.000018,0.000000,0.005253,0.000171,0.180944,-0.008165,0.235816,0.235816,0.241314,1.003481,0.000000,0.000000,0.000000,0.000000,0.000000,0.000000,0.000000,0.000000,0.000000,0.000000,0.000000,0.000000,0.173832,3,0
260000,-0.000179,6.677751,-0.017159,-0.002146,25.014963,-0.012817,0.000274,0.000137,1.570579,-0.000647,0.000001,-0.000059,-0.000000,-0.000019,0.000000,0.000513,0.000186,0.042967,0.036831,0.229501,0.229501,0.234436,1.002258,0.000000,0.000000,0.000000,0.000000,0.000000,0.000000,0.000000,0.000000,0.000000,0.000000,0.000000,0.000000,0.041324,3,0
270000,-0.000193,6.929749,-0.019153,-0.002161,25.015963,-0.014231,0.000281,0.000151,1.570573,-0.000698,0.000001,-0.000009,-0.000000,-0.000021,0.000000,0.000779,0.000200,0.049601,-0.048980,0.223751,0.223751,0.228165,1.000869,0.000000,0.000000,0.000000,0.000000,0.000000,0.000000,0.000000,0.000000,0.000000,0.000000,0.000000,0.000000,0.047752,3,0
280000,-0.000207,7.184118,-0.020235,-0.002131,25.018650,-0.015175,0.000299,0.000188,1.570557,-0.000826,0.000001,0.000018,-0.000000,-0.000026,0.000000,0.002251,0.000214,0.115656,-0.025259,0.218512,0.218512,0.222443,0.999307,0.000000,0.000000,0.000000,0.000000,0.000000,0.000000,0.000000,0.000000,0.000000,0.000000,0.000000,0.000000,0.111444,3,0
290000,-0.000220,7.435734,-0.020291,-0.002119,25.019533,-0.015457,0.000308,0.000207,1.570543,-0.000874,0.000002,0.000015,-0.000000,-0.000028,0.000000,0.000261,0.000228,0.040170,0.002763,0.213740,0.213740,0.217219,0.997567,0.000000,0.000000,0.000000,0.000000,0.000000,0.000000,0.000000,0.000000,0.000000,0.000000,0.000000,0.000000,0.038740,3,0
300000,-0.000233,7.690341,-0.019298,-0.002205,25.022770,-0.015295,0.000311,0.000257,1.570530,-0.001032,0.000002,-0.000025,-0.000000,-0.000035,0.000000,0.002744,0.000242,0.126487,0.032572,0.209393,0.209393,0.212446,0.995645,0.000000,0.000000,0.000000,0.000000,0.000000,0.000000,0.000000,0.000000,0.000000,0.000000,0.000000,0.000000,0.122073,3,0
310000,-0.000248,7.945710,-0.021272,-0.002331,25.026848,-0.017252,0.000326,0.000314,1.570515,-0.001233,0.000002,0.000044,-0.000000,-0.000044,0.000000,0.004069,0.000257,0.150151,-0.052328,0.205438,0.205438,0.208087,0.993536,0.000000,0.000000,0.000000,0.000000,0.000000,0.000000,0.000000,0.000000,0.000000,0.000000,0.000000,0.000000,0.145010,3,0
320000,-0.000263,8.201797,-0.020114,-0.002387,25.031614,-0.016857,0.000337,0.000390,1.570508,-0.001478,0.000003,-0.000011,-0.000000,-0.000055,0.000000,0.005072,0.000272,0.173047,0.039311,0.201841,0.201841,0.204105,0.991236,0.000000,0.000000,0.000000,0.000000,0.000000,0.000000,0.000000,0.000000,0.000000,0.000000,0.000000,0.000000,0.167226,3,0
330000,-0.000278,8.453968,-0.020466,-0.002508,25.033083,-0.017484,0.000339,0.000414,1.570496,-0.001562,0.000003,-0.000003,-0.000000,-0.000059,0.000000,0.000511,0.000288,0.056064,-0.005340,0.198575,0.198575,0.200469,0.988743,0.000000,0.000000,0.000000,0.000000,0.000000,0.000000,0.000000,0.000000,0.000000,0.000000,0.000000,0.000000,0.054209,3,0
340000,-0.000295,8.709570,-0.020589,-0.002649,25.037910,-0.018052,0.000342,0.000488,1.570492,-0.001818,0.000004,-0.000006,-0.000000,-0.000071,0.000000,0.004216,0.000305,0.161698,0.001742,0.195614,0.195614,0.197151,0.986053,0.000000,0.000000,0.000000,0.000000,0.000000,0.000000,0.000000,0.000000,0.000000,0.000000,0.000000,0.000000,0.156427,3,0
350000,-0.000311,8.966516,-0.021454,-0.002627,25.044174,-0.019006,0.000356,0.000599,1.570488,-0.002158,0.000004,0.000029,-0.000000,-0.000089,0.000000,0.006800,0.000321,0.204232,-0.021053,0.192935,0.192935,0.194125,0.983163,0.000000,0.000000,0.000000,0.000000,0.000000,0.000000,0.000000,0.000000,0.000000,0.000000,0.000000,0.000000,0.197665,3,0
360000,-0.000327,9.222224,-0.020958,-0.002681,25.049429,-0.018937,0.000365,0.000683,1.570489,-0.002449,0.000005,-0.000009,-0.000000,-0.000104,0.000000,0.004517,0.000338,0.165891,0.021695,0.190517,0.190517,0.191370,0.980072,0.000000,0.000000,0.000000,0.000000,0.000000,0.000000,0.000000,0.000000,0.000000,0.000000,0.000000,0.000000,0.160624,3,0
370000,-0.000343,9.479257,-0.020714,-0.002672,25.056097,-0.018994,0.000367,0.000809,1.570487,-0.002833,0.000005,-0.000035,-0.000000,-0.000124,0.000000,0.007037,0.000354,0.208315,0.013909,0.188342,0.188342,0.188863,0.976778,0.000000,0.000000,0.000000,0.000000,0.000000,0.000000,0.000000,0.000000,0.000000,0.000000,0.000000,0.000000,0.201776,3,0
380000,-0.000359,9.736947,-0.019896,-0.002756,25.063704,-0.018296,0.000371,0.000955,1.570474,-0.003277,0.000006,-0.000097,-0.000000,-0.000148,0.000000,0.008678,0.000371,0.229520,0.032526,0.186392,0.186392,0.186586,0.973281,0.000000,0.000000,0.000000,0.000000,0.000000,0.000000,0.000000,0.000000,0.000000,0.000000,0.000000,0.000000,0.222390,3,0
390000,-0.000375,9.991610,-0.020748,-0.002715,25.068247,-0.019279,0.000379,0.001046,1.570476,-0.003542,0.000007,-0.000053,-0.000000,-0.000163,0.000000,0.002839,0.000386,0.130783,-0.021660,0.184652,0.184652,0.184522,0.969579,0.000000,0.000000,0.000000,0.000000,0.000000,0.000000,0.000000,0.000000,0.000000,0.000000,0.000000,0.000000,0.126759,3,0
400000,-0.000390,10.244577,-0.020176,-0.002809,25.070871,-0.018848,0.000392,0.001107,1.570467,-0.003701,0.000007,-0.000107,-0.000000,-0.000172,0.000000,0.001009,0.000403,0.074865,0.025254,0.183106,0.183106,0.182656,0.965674,0.000000,0.000000,0.000000,0.000000,0.000000,0.000000,0.000000,0.000000,0.000000,0.000000,0.000000,0.000000,0.072581,3,0
410000,-0.000407,10.499525,-0.021140,-0.002898,25.075939,-0.020370,0.000412,0.001216,1.570456,-0.004010,0.000008,-0.000051,-0.000000,-0.000191,0.000000,0.003270,0.000420,0.139933,-0.025498,0.181742,0.181742,0.180971,0.961565,0.000000,0.000000,0.000000,0.000000,0.000000,0.000000,0.000000,0.000000,0.000000,0.000000,0.000000,0.000000,0.135695,3,0
420000,-0.000424,10.755795,-0.022061,-0.002998,25.082638,-0.021559,0.000428,0.001358,1.570453,-0.004432,0.000009,0.000004,-0.000000,-0.000217,0.000000,0.005513,0.000437,0.183120,-0.023866,0.180546,0.180546,0.179456,0.957254,0.000000,0.000000,0.000000,0.000000,0.000000,0.000000,0.000000,0.000000,0.000000,0.000000,0.000000,0.000000,0.177610,3,0
430000,-0.000441,11.010379,-0.022141,-0.003077,25.087433,-0.021842,0.000434,0.001458,1.570443,-0.004733,0.000010,-0.000007,-0.000001,-0.000235,0.000000,0.002553,0.000455,0.125570,0.004712,0.179508,0.179508,0.178097,0.952742,0.000000,0.000000,0.000000,0.000000,0.000000,0.000000,0.000000,0.000000,0.000000,0.000000,0.000000,0.000000,0.121815,3,0
440000,-0.000458,11.265697,-0.021728,-0.003052,25.093102,-0.021466,0.000447,0.001588,1.570444,-0.005105,0.000011,-0.000061,-0.000001,-0.000259,0.000000,0.003677,0.000472,0.149244,0.021537,0.178616,0.178616,0.176883,0.948031,0.000000,0.000000,0.000000,0.000000,0.000000,0.000000,0.000000,0.000000,0.000000,0.000000,0.000000,0.000000,0.144802,3,0
450000,-0.000475,11.521732,-0.022858,-0.003172,25.099884,-0.023064,0.000459,0.001742,1.570445,-0.005551,0.000013,0.000020,-0.000001,-0.000289,0.000000,0.004950,0.000490,0.172174,-0.031064,0.177861,0.177861,0.175803,0.943125,0.000000,0.000000,0.000000,0.000000,0.000000,0.000000,0.000000,0.000000,0.000000,0.000000,0.000000,0.000000,0.167071,3,0
460000,-0.000492,11.775538,-0.024396,-0.003135,25.103767,-0.025297,0.000474,0.001823,1.570435,-0.005806,0.000014,0.000140,-0.000001,-0.000306,0.000000,0.001781,0.000507,0.094980,-0.044627,0.177232,0.177232,0.174847,0.938025,0.000000,0.000000,0.000000,0.000000,0.000000,0.000000,0.000000,0.000000,0.000000,0.000000,0.000000,0.000000,0.092176,3,0
470000,-0.000508,12.031266,-0.026014,-0.003116,25.110268,-0.027336,0.000492,0.001976,1.570434,-0.006249,0.000015,0.000271,-0.000001,-0.000336,0.000000,0.004457,0.000523,0.159200,-0.046962,0.176721,0.176721,0.174006,0.932737,0.000000,0.000000,0.000000,0.000000,0.000000,0.000000,0.000000,0.000000,0.000000,0.000000,0.000000,0.000000,0.154511,3,0
480000,-0.000524,12.287709,-0.025579,-0.003163,25.117781,-0.026951,0.000506,0.002158,1.570419,-0.006773,0.000017,0.000199,-0.000001,-0.000373,0.000000,0.005440,0.000540,0.181710,0.024713,0.176321,0.176321,0.173271,0.927264,0.000000,0.000000,0.000000,0.000000,0.000000,0.000000,0.000000,0.000000,0.000000,0.000000,0.000000,0.000000,0.176371,3,0
490000,-0.000540,12.546609,-0.025492,-0.003228,25.128916,-0.026798,0.000515,0.002426,1.570418,-0.007556,0.000018,0.000162,-0.000001,-0.000430,0.000000,0.011227,0.000556,0.263134,0.012469,0.176022,0.176022,0.172634,0.921610,0.000000,0.000000,0.000000,0.000000,0.000000,0.000000,0.000000,0.000000,0.000000,0.000000,0.000000,0.000000,0.255415,3,0
500000,-0.000556,12.800934,-0.025535,-0.003269,25.133518,-0.026883,0.000534,0.002547,1.570421,-0.007875,0.000020,0.000137,-0.000001,-0.000453,0.000000,0.001744,0.000573,0.103517,0.007987,0.175817,0.175817,0.172087,0.915781,0.000000,0.000000,0.000000,0.000000,0.000000,0.000000,0.000000,0.000000,0.000000,0.000000,0.000000,0.000000,0.100484,3,0
510000,-0.000571,13.056003,-0.025248,-0.003219,25.139196,-0.026627,0.000548,0.002689,1.570410,-0.008279,0.000022,0.000074,-0.000001,-0.000484,0.000000,0.002690,0.000589,0.127450,0.019612,0.175700,0.175700,0.171622,0.909781,0.000000,0.000000,0.000000,0.000000,0.000000,0.000000,0.000000,0.000000,0.000000,0.000000,0.000000,0.000000,0.123720,3,0
520000,-0.000586,13.313552,-0.025673,-0.003187,25.148497,-0.027302,0.000561,0.002931,1.570397,-0.008966,0.000024,0.000092,-0.000002,-0.000537,0.000000,0.007158,0.000603,0.210267,-0.005408,0.175663,0.175663,0.171234,0.903617,0.000000,0.000000,0.000000,0.000000,0.000000,0.000000,0.000000,0.000000,0.000000,0.000000,0.000000,0.000000,0.204112,3,0
530000,-0.000601,13.571801,-0.025398,-0.003298,25.158916,-0.026946,0.000568,0.003203,1.570394,-0.009744,0.000026,0.000026,-0.000002,-0.000598,0.000001,0.008689,0.000619,0.230929,0.019363,0.175700,0.175700,0.170914,0.897295,0.000000,0.000000,0.000000,0.000000,0.000000,0.000000,0.000000,0.000000,0.000000,0.000000,0.000000,0.000000,0.224168,3,0
540000,-0.000617,13.828415,-0.024944,-0.003392,25.166925,-0.026310,0.000578,0.003417,1.570387,-0.010337,0.000028,-0.000063,-0.000002,-0.000646,0.000001,0.004857,0.000635,0.171364,0.025540,0.175806,0.175806,0.170658,0.890821,0.000000,0.000000,0.000000,0.000000,0.000000,0.000000,0.000000,0.000000,0.000000,0.000000,0.000000,0.000000,0.166344,3,0
550000,-0.000632,14.083415,-0.025243,-0.003378,25.172396,-0.026671,0.000582,0.003564,1.570385,-0.010741,0.000030,-0.000059,-0.000002,-0.000679,0.000001,0.002083,0.000651,0.113459,-0.001136,0.175975,0.175975,0.170460,0.884202,0.000000,0.000000,0.000000,0.000000,0.000000,0.000000,0.000000,0.000000,0.000000,0.000000,0.000000,0.000000,0.110133,3,0
560000,-0.000645,14.342076,-0.024928,-0.003323,25.183640,-0.026320,0.000601,0.003873,1.570369,-0.011603,0.000032,-0.000136,-0.000002,-0.000751,0.000001,0.009087,0.000665,0.236103,0.020642,0.176201,0.176201,0.170314,0.877445,0.000000,0.000000,0.000000,0.000000,0.000000,0.000000,0.000000,0.000000,0.000000,0.000000,0.000000,0.000000,0.229171,3,0
570000,-0.000660,14.602020,-0.024188,-0.003392,25.196836,-0.025505,0.000604,0.004237,1.570367,-0.012636,0.000035,-0.000271,-0.000002,-0.000840,0.000001,0.012484,0.000680,0.275513,0.035559,0.176479,0.176479,0.170214,0.870557,0.000000,0.000000,0.000000,0.000000,0.000000,0.000000,0.000000,0.000000,0.000000,0.000000,0.000000,0.000000,0.267410,3,0
580000,-0.000673,14.861478,-0.025112,-0.003380,25.209251,-0.027042,0.000613,0.004585,1.570368,-0.013611,0.000037,-0.000180,-0.000003,-0.000925,0.000001,0.010523,0.000694,0.253983,-0.023394,0.176804,0.176804,0.170157,0.863545,0.000000,0.000000,0.000000,0.000000,0.000000,0.000000,0.000000,0.000000,0.000000,0.000000,0.000000,0.000000,0.246500,3,0
590000,-0.000687,15.118107,-0.026415,-0.003448,25.217064,-0.028895,0.000619,0.004815,1.570362,-0.014215,0.000040,-0.000035,-0.000003,-0.000978,0.000001,0.004021,0.000708,0.153433,-0.036291,0.177172,0.177172,0.170138,0.856418,0.000000,0.000000,0.000000,0.000000,0.000000,0.000000,0.000000,0.000000,0.000000,0.000000,0.000000,0.000000,0.148904,3,0
600000,-0.000701,15.377227,-0.027680,-0.003451,25.228733,-0.030945,0.000634,0.005163,1.570355,-0.015160,0.000043,0.000104,-0.000003,-0.001064,0.000001,0.009096,0.000722,0.234668,-0.034193,0.177578,0.177578,0.170152,0.849183,0.000000,0.000000,0.000000,0.000000,0.000000,0.000000,0.000000,0.000000,0.000000,0.000000,0.000000,0.000000,0.227723,3,0
610000,-0.000713,15.635278,-0.026863,-0.003373,25.238596,-0.029803,0.000642,0.005463,1.570353,-0.015959,0.000045,-0.000063,-0.000003,-0.001138,0.000001,0.006351,0.000735,0.194099,0.039888,0.178019,0.178019,0.170195,0.841847,0.000000,0.000000,0.000000,0.000000,0.000000,0.000000,0.000000,0.000000,0.000000,0.000000,0.000000,0.000000,0.188342,3,0
620000,-0.000725,15.891087,-0.027890,-0.003400,25.244841,-0.031291,0.000656,0.005642,1.570347,-0.016442,0.000049,0.000046,-0.000004,-0.001184,0.000001,0.002239,0.000747,0.114858,-0.025544,0.178489,0.178489,0.170264,0.834420,0.000000,0.000000,0.000000,0.000000,0.000000,0.000000,0.000000,0.000000,0.000000,0.000000,0.000000,0.000000,0.111443,3,0
630000,-0.000736,16.151196,-0.028871,-0.003338,25.258171,-0.032902,0.000659,0.006055,1.570337,-0.017544,0.000052,0.000148,-0.000004,-0.001290,0.000001,0.010732,0.000759,0.256565,-0.023308,0.178986,0.178986,0.170355,0.826909,0.000000,0.000000,0.000000,0.000000,0.000000,0.000000,0.000000,0.000000,0.000000,0.000000,0.000000,0.000000,0.248912,3,0
640000,-0.000746,16.408432,-0.029557,-0.003243,25.266573,-0.033781,0.000673,0.006310,1.570333,-0.018225,0.000055,0.000203,-0.000004,-0.001356,0.000001,0.003927,0.000769,0.155354,-0.012461,0.179507,0.179507,0.170465,0.819322,0.000000,0.000000,0.000000,0.000000,0.000000,0.000000,0.000000,0.000000,0.000000,0.000000,0.000000,0.000000,0.150707,3,0
650000,-0.000755,16.668184,-0.030787,-0.003138,25.279018,-0.035609,0.000675,0.006720,1.570330,-0.019280,0.000058,0.000346,-0.000005,-0.001462,0.000001,0.009160,0.000778,0.235975,-0.031206,0.180047,0.180047,0.170591,0.811668,0.000000,0.000000,0.000000,0.000000,0.000000,0.000000,0.000000,0.000000,0.000000,0.000000,0.000000,0.000000,0.228895,3,0
660000,-0.000763,16.927441,-0.031233,-0.003112,25.290581,-0.036173,0.000694,0.007092,1.570320,-0.020258,0.000062,0.000359,-0.000005,-0.001561,0.000001,0.007449,0.000786,0.214645,-0.003014,0.180603,0.180603,0.170729,0.803954,0.000000,0.000000,0.000000,0.000000,0.000000,0.000000,0.000000,0.000000,0.000000,0.000000,0.000000,0.000000,0.208187,3,0
670000,-0.000771,17.187407,-0.030383,-0.003172,25.303194,-0.034822,0.000707,0.007516,1.570319,-0.021341,0.000065,0.000155,-0.000005,-0.001673,0.000001,0.009114,0.000795,0.233578,0.042680,0.181174,0.181174,0.170877,0.796189,0.000000,0.000000,0.000000,0.000000,0.000000,0.000000,0.000000,0.000000,0.000000,0.000000,0.000000,0.000000,0.226526,3,0
680000,-0.000778,17.445063,-0.030690,-0.003095,25.311817,-0.035106,0.000712,0.007802,1.570318,-0.022060,0.000069,0.000147,-0.000006,-0.001749,0.000002,0.003754,0.000802,0.152393,0.001589,0.181756,0.181756,0.171033,0.788380,0.000000,0.000000,0.000000,0.000000,0.000000,0.000000,0.000000,0.000000,0.000000,0.000000,0.000000,0.000000,0.147780,3,0
690000,-0.000784,17.702236,-0.030503,-0.003083,25.319584,-0.034855,0.000727,0.008057,1.570303,-0.022699,0.000072,0.000052,-0.000006,-0.001817,0.000002,0.002926,0.000809,0.133198,0.019039,0.182346,0.182346,0.171193,0.780536,0.000000,0.000000,0.000000,0.000000,0.000000,0.000000,0.000000,0.000000,0.000000,0.000000,0.000000,0.000000,0.129153,3,0
700000,-0.000791,17.959538,-0.030221,-0.003155,25.327543,-0.034545,0.000737,0.008320,1.570289,-0.023354,0.000076,-0.000062,-0.000007,-0.001889,0.000002,0.002998,0.000816,0.134373,0.022296,0.182942,0.182942,0.171357,0.772664,0.000000,0.000000,0.000000,0.000000,0.000000,0.000000,0.000000,0.000000,0.000000,0.000000,0.000000,0.000000,0.130278,3,0
710000,-0.000799,18.220005,-0.030036,-0.003199,25.340784,-0.034060,0.000751,0.008797,1.570274,-0.024518,0.000080,-0.000159,-0.000007,-0.002018,0.000002,0.008965,0.000824,0.234814,0.018675,0.183542,0.183542,0.171521,0.764772,0.000000,0.000000,0.000000,0.000000,0.000000,0.000000,0.000000,0.000000,0.000000,0.000000,0.000000,0.000000,0.227632,3,0
720000,-0.000806,18.478731,-0.029576,-0.003206,25.350863,-0.033190,0.000760,0.009152,1.570267,-0.025388,0.000084,-0.000307,-0.000007,-0.002116,0.000002,0.004963,0.000831,0.173002,0.028097,0.184144,0.184144,0.171685,0.756868,0.000000,0.000000,0.000000,0.000000,0.000000,0.000000,0.000000,0.000000,0.000000,0.000000,0.000000,0.000000,0.167694,3,0
730000,-0.000813,18.736340,-0.029792,-0.003260,25.358845,-0.033328,0.000765,0.009448,1.570251,-0.026066,0.000088,-0.000329,-0.000008,-0.002194,0.000002,0.002854,0.000839,0.132843,0.004126,0.184746,0.184746,0.171846,0.748958,0.000000,0.000000,0.000000,0.000000,0.000000,0.000000,0.000000,0.000000,0.000000,0.000000,0.000000,0.000000,0.128754,3,0
740000,-0.000820,18.994677,-0.029597,-0.003244,25.368004,-0.033166,0.000773,0.009776,1.570242,-0.026860,0.000092,-0.000431,-0.000008,-0.002287,0.000002,0.003860,0.000846,0.153460,0.018659,0.185347,0.185347,0.172003,0.741051,0.000000,0.000000,0.000000,0.000000,0.000000,0.000000,0.000000,0.000000,0.000000,0.000000,0.000000,0.000000,0.148722,3,0
750000,-0.000826,19.256203,-0.030839,-0.003217,25.382698,-0.035100,0.000776,0.010323,1.570227,-0.028187,0.000096,-0.000259,-0.000009,-0.002445,0.000002,0.010486,0.000852,0.252850,-0.031525,0.185944,0.185944,0.172154,0.733152,0.000000,0.000000,0.000000,0.000000,0.000000,0.000000,0.000000,0.000000,0.000000,0.000000,0.000000,0.000000,0.245016,3,0
760000,-0.000831,19.515327,-0.031862,-0.003106,25.393028,-0.036685,0.000791,0.010714,1.570224,-0.029091,0.000101,-0.000131,-0.000009,-0.002554,0.000002,0.004759,0.000857,0.170088,-0.023206,0.186536,0.186536,0.172299,0.725269,0.000000,0.000000,0.000000,0.000000,0.000000,0.000000,0.000000,0.000000,0.000000,0.000000,0.000000,0.000000,0.164803,3,0
770000,-0.000836,19.777029,-0.031296,-0.003148,25.407812,-0.035819,0.000796,0.011287,1.570217,-0.030430,0.000105,-0.000318,-0.000010,-0.002719,0.000002,0.010168,0.000863,0.248798,0.032664,0.187123,0.187123,0.172435,0.717408,0.000000,0.000000,0.000000,0.000000,0.000000,0.000000,0.000000,0.000000,0.000000,0.000000,0.000000,0.000000,0.241041,3,0
780000,-0.000840,20.036308,-0.030945,-0.003126,25.418234,-0.035231,0.000800,0.011676,1.570207,-0.031333,0.000109,-0.000462,-0.000011,-0.002832,0.000002,0.004541,0.000867,0.165859,0.024827,0.187702,0.187702,0.172562,0.709575,0.000000,0.000000,0.000000,0.000000,0.000000,0.000000,0.000000,0.000000,0.000000,0.000000,0.000000,0.000000,0.160673,3,0
790000,-0.000844,20.294430,-0.031898,-0.003095,25.426369,-0.036610,0.000808,0.011992,1.570210,-0.032023,0.000114,-0.000342,-0.000011,-0.002919,0.000002,0.002598,0.000872,0.125145,-0.020694,0.188272,0.188272,0.172680,0.701777,0.000000,0.000000,0.000000,0.000000,0.000000,0.000000,0.000000,0.000000,0.000000,0.000000,0.000000,0.000000,0.121221,3,0
800000,-0.000847,20.554529,-0.032057,-0.003011,25.437813,-0.036952,0.000818,0.012450,1.570199,-0.033053,0.000119,-0.000388,-0.000012,-0.003053,0.000003,0.005534,0.000875,0.185003,0.007435,0.188834,0.188834,0.172786,0.694019,0.000000,0.000000,0.000000,0.000000,0.000000,0.000000,0.000000,0.000000,0.000000,0.000000,0.000000,0.000000,0.179182,3,0
810000,-0.000850,20.812195,-0.031273,-0.002963,25.444956,-0.035675,0.000829,0.012721,1.570185,-0.033637,0.000123,-0.000630,-0.000012,-0.003129,0.000003,0.001997,0.000878,0.103697,0.040176,0.189385,0.189385,0.172881,0.686307,0.000000,0.000000,0.000000,0.000000,0.000000,0.000000,0.000000,0.000000,0.000000,0.000000,0.000000,0.000000,0.100427,3,0
820000,-0.000851,21.074997,-0.030386,-0.002909,25.461002,-0.034239,0.000846,0.013380,1.570181,-0.035135,0.000128,-0.000896,-0.000013,-0.003329,0.000003,0.011503,0.000879,0.263418,0.043321,0.189926,0.189925,0.172964,0.678645,0.000000,0.000000,0.000000,0.000000,0.000000,0.000000,0.000000,0.000000,0.000000,0.000000,0.000000,0.000000,0.255081,3,0
830000,-0.000853,21.332792,-0.029602,-0.002919,25.468168,-0.033062,0.000853,0.013659,1.570181,-0.035708,0.000133,-0.001139,-0.000014,-0.003407,0.000003,0.001858,0.000881,0.099850,0.039239,0.190455,0.190454,0.173034,0.671040,0.000000,0.000000,0.000000,0.000000,0.000000,0.000000,0.000000,0.000000,0.000000,0.000000,0.000000,0.000000,0.096683,3,0
840000,-0.000854,21.593849,-0.029803,-0.002807,25.480896,-0.033219,0.000872,0.014188,1.570165,-0.036866,0.000137,-0.001170,-0.000014,-0.003567,0.000003,0.006445,0.000882,0.199802,0.004641,0.190972,0.190971,0.173091,0.663495,0.000000,0.000000,0.000000,0.000000,0.000000,0.000000,0.000000,0.000000,0.000000,0.000000,0.000000,0.000000,0.193445,3,0
850000,-0.000853,21.855597,-0.031000,-0.002734,25.494617,-0.034947,0.000887,0.014774,1.570148,-0.038136,0.000142,-0.000985,-0.000015,-0.003745,0.000003,0.007736,0.000881,0.216925,-0.029797,0.191476,0.191476,0.173135,0.656015,0.000000,0.000000,0.000000,0.000000,0.000000,0.000000,0.000000,0.000000,0.000000,0.000000,0.000000,0.000000,0.210003,3,0
860000,-0.000854,22.118025,-0.032502,-0.002789,25.509489,-0.037185,0.000889,0.015414,1.570137,-0.039513,0.000147,-0.000734,-0.000016,-0.003941,0.000003,0.009040,0.000882,0.233343,-0.039699,0.191968,0.191968,0.173165,0.648605,0.000000,0.000000,0.000000,0.000000,0.000000,0.000000,0.000000,0.000000,0.000000,0.000000,0.000000,0.000000,0.225879,3,0
870000,-0.000854,22.379850,-0.033965,-0.002819,25.523035,-0.039183,0.000899,0.015993,1.570135,-0.040759,0.000152,-0.000493,-0.000017,-0.004121,0.000003,0.007297,0.000882,0.209312,-0.037656,0.192447,0.192447,0.173181,0.641267,0.000000,0.000000,0.000000,0.000000,0.000000,0.000000,0.000000,0.000000,0.000000,0.000000,0.000000,0.000000,0.202600,3,0
880000,-0.000854,22.639797,-0.034096,-0.002779,25.533211,-0.039272,0.000910,0.016431,1.570134,-0.041635,0.000157,-0.000555,-0.000017,-0.004250,0.000004,0.003459,0.000882,0.146139,0.009231,0.192913,0.192912,0.173183,0.634007,0.000000,0.000000,0.000000,0.000000,0.000000,0.000000,0.000000,0.000000,0.000000,0.000000,0.000000,0.000000,0.141444,3,0
890000,-0.000853,22.899166,-0.035424,-0.002728,25.542240,-0.041306,0.000925,0.016807,1.570125,-0.042388,0.000162,-0.000344,-0.000018,-0.004362,0.000004,0.002673,0.000882,0.124636,-0.032123,0.193365,0.193364,0.173170,0.626827,0.000000,0.000000,0.000000,0.000000,0.000000,0.000000,0.000000,0.000000,0.000000,0.000000,0.000000,0.000000,0.120622,3,0
900000,-0.000852,23.161810,-0.036242,-0.002625,25.556919,-0.042289,0.000947,0.017460,1.570127,-0.043745,0.000167,-0.000255,-0.000019,-0.004568,0.000004,0.008052,0.000880,0.222998,-0.013868,0.193804,0.193803,0.173144,0.619731,0.000000,0.000000,0.000000,0.000000,0.000000,0.000000,0.000000,0.000000,0.000000,0.000000,0.000000,0.000000,0.215797,3,0
910000,-0.000850,23.419971,-0.035431,-0.002658,25.563339,-0.040861,0.000958,0.017730,1.570119,-0.044231,0.000173,-0.000547,-0.000020,-0.004643,0.000004,0.001317,0.000879,0.079481,0.042930,0.194229,0.194228,0.173103,0.612721,0.000000,0.000000,0.000000,0.000000,0.000000,0.000000,0.000000,0.000000,0.000000,0.000000,0.000000,0.000000,0.076913,3,0
920000,-0.000849,23.680788,-0.034076,-0.002685,25.574488,-0.038970,0.000974,0.018225,1.570103,-0.045211,0.000177,-0.000969,-0.000020,-0.004796,0.000004,0.004698,0.000878,0.159195,0.061428,0.194641,0.194640,0.173048,0.605800,0.000000,0.000000,0.000000,0.000000,0.000000,0.000000,0.000000,0.000000,0.000000,0.000000,0.000000,0.000000,0.154034,3,0
930000,-0.000848,23.941647,-0.034971,-0.002660,25.585436,-0.040207,0.000993,0.018723,1.570097,-0.046183,0.000183,-0.000852,-0.000021,-0.004951,0.000004,0.004008,0.000876,0.156694,-0.017313,0.195040,0.195039,0.172979,0.598970,0.000000,0.000000,0.000000,0.000000,0.000000,0.000000,0.000000,0.000000,0.000000,0.000000,0.000000,0.000000,0.151602,3,0
940000,-0.000846,24.205132,-0.034658,-0.002619,25.600906,-0.039832,0.001003,0.019443,1.570093,-0.047641,0.000188,-0.001032,-0.000022,-0.005186,0.000004,0.008906,0.000874,0.233667,0.025102,0.195425,0.195424,0.172896,0.592234,0.000000,0.000000,0.000000,0.000000,0.000000,0.000000,0.000000,0.000000,0.000000,0.000000,0.000000,0.000000,0.226059,3,0
950000,-0.000843,24.467319,-0.034032,-0.002559,25.613926,-0.038940,0.001019,0.020042,1.570078,-0.048824,0.000192,-0.001288,-0.000023,-0.005380,0.000004,0.005949,0.000872,0.188694,0.035860,0.195798,0.195797,0.172799,0.585595,0.000000,0.000000,0.000000,0.000000,0.000000,0.000000,0.000000,0.000000,0.000000,0.000000,0.000000,0.000000,0.182539,3,0
960000,-0.000840,24.730173,-0.033150,-0.002426,25.627932,-0.037843,0.001037,0.020707,1.570078,-0.050113,0.000197,-0.001609,-0.000024,-0.005594,0.000005,0.007075,0.000868,0.204678,0.044499,0.196158,0.196157,0.172689,0.579052,0.000000,0.000000,0.000000,0.000000,0.000000,0.000000,0.000000,0.000000,0.000000,0.000000,0.000000,0.000000,0.197988,3,0
970000,-0.000836,24.989775,-0.033938,-0.002401,25.636116,-0.038775,0.001044,0.021078,1.570064,-0.050752,0.000203,-0.001510,-0.000025,-0.005702,0.000005,0.001668,0.000864,0.100716,-0.014100,0.196505,0.196504,0.172566,0.572609,0.000000,0.000000,0.000000,0.000000,0.000000,0.000000,0.000000,0.000000,0.000000,0.000000,0.000000,0.000000,0.097421,3,0
980000,-0.000832,25.252031,-0.034053,-0.002384,25.648928,-0.039112,0.001066,0.021683,1.570054,-0.051891,0.000208,-0.001585,-0.000026,-0.005897,0.000005,0.005179,0.000860,0.178972,0.009823,0.196841,0.196839,0.172429,0.566267,0.000000,0.000000,0.000000,0.000000,0.000000,0.000000,0.000000,0.000000,0.000000,0.000000,0.000000,0.000000,0.173103,3,0
990000,-0.000828,25.513643,-0.034586,-0.002379,25.660320,-0.039970,0.001074,0.022224,1.570042,-0.052883,0.000213,-0.001556,-0.000027,-0.006070,0.000005,0.003883,0.000856,0.155136,-0.004606,0.197164,0.197163,0.172280,0.560026,0.000000,0.000000,0.000000,0.000000,0.000000,0.000000,0.000000,0.000000,0.000000,0.000000,0.000000,0.000000,0.150040,3,0
1000000,-0.000825,25.773308,-0.034695,-0.002394,25.668272,-0.040191,0.001091,0.022568,1.570038,-0.053474,0.000218,-0.001635,-0.000028,-0.006175,0.000005,0.001388,0.000853,0.092196,0.010401,0.197476,0.197474,0.172119,0.553888,0.000000,0.000000,0.000000,0.000000,0.000000,0.000000,0.000000,0.000000,0.000000,0.000000,0.000000,0.000000,0.089165,3,0
1010000,-0.000821,26.033014,-0.035854,-0.002349,25.676193,-0.041717,0.001094,0.022923,1.570022,-0.054060,0.000224,-0.001443,-0.000028,-0.006280,0.000005,0.001442,0.000849,0.090879,-0.026205,0.197777,0.197775,0.171945,0.547854,0.000000,0.000000,0.000000,0.000000,0.000000,0.000000,0.000000,0.000000,0.000000,0.000000,0.000000,0.000000,0.087887,3,0
1020000,-0.000816,26.296696,-0.036350,-0.002233,25.690907,-0.042283,0.001114,0.023670,1.570016,-0.055411,0.000229,-0.001430,-0.000029,-0.006526,0.000005,0.007027,0.000843,0.208792,-0.002490,0.198067,0.198065,0.171760,0.541924,0.000000,0.000000,0.000000,0.000000,0.000000,0.000000,0.000000,0.000000,0.000000,0.000000,0.000000,0.000000,0.201900,3,0
1030000,-0.000810,26.556414,-0.036775,-0.002212,25.698551,-0.042678,0.001123,0.024018,1.570011,-0.055956,0.000234,-0.001434,-0.000030,-0.006627,0.000005,0.001140,0.000838,0.084116,0.000148,0.198347,0.198345,0.171564,0.536099,0.000000,0.000000,0.000000,0.000000,0.000000,0.000000,0.000000,0.000000,0.000000,0.000000,0.000000,0.000000,0.081339,3,0
1040000,-0.000806,26.815508,-0.037911,-0.002221,25.705025,-0.044119,0.001137,0.024288,1.569995,-0.056366,0.000239,-0.001248,-0.000031,-0.006704,0.000005,0.000735,0.000833,0.062870,-0.024629,0.198617,0.198615,0.171356,0.530378,0.000000,0.000000,0.000000,0.000000,0.000000,0.000000,0.000000,0.000000,0.000000,0.000000,0.000000,0.000000,0.060794,3,0
1050000,-0.000799,27.076622,-0.038759,-0.002055,25.714949,-0.045070,0.001151,0.024770,1.569994,-0.057161,0.000244,-0.001144,-0.000032,-0.006855,0.000005,0.002421,0.000827,0.121771,-0.014038,0.198878,0.198876,0.171139,0.524764,0.000000,0.000000,0.000000,0.000000,0.000000,0.000000,0.000000,0.000000,0.000000,0.000000,0.000000,0.000000,0.117738,3,0
1060000,-0.000792,27.339729,-0.038284,-0.001930,25.728235,-0.044160,0.001167,0.025441,1.569984,-0.058329,0.000249,-0.001404,-0.000033,-0.007081,0.000006,0.005315,0.000819,0.178617,0.032772,0.199130,0.199128,0.170911,0.519254,0.000000,0.000000,0.000000,0.000000,0.000000,0.000000,0.000000,0.000000,0.000000,0.000000,0.000000,0.000000,0.172691,3,0
1070000,-0.000783,27.598850,-0.037171,-0.001822,25.734287,-0.042454,0.001180,0.025692,1.569981,-0.058684,0.000254,-0.001834,-0.000034,-0.007151,0.000006,0.000966,0.000811,0.054533,0.054849,0.199374,0.199371,0.170673,0.513850,0.000000,0.000000,0.000000,0.000000,0.000000,0.000000,0.000000,0.000000,0.000000,0.000000,0.000000,0.000000,0.052729,3,0
1080000,-0.000774,27.860655,-0.036842,-0.001656,25.745031,-0.042150,0.001193,0.026223,1.569969,-0.059559,0.000259,-0.002050,-0.000035,-0.007325,0.000006,0.002980,0.000801,0.133293,0.026913,0.199609,0.199606,0.170425,0.508551,0.000000,0.000000,0.000000,0.000000,0.000000,0.000000,0.000000,0.000000,0.000000,0.000000,0.000000,0.000000,0.128863,3,0
1090000,-0.000764,28.123781,-0.037234,-0.001584,25.757864,-0.042531,0.001211,0.026901,1.569954,-0.060675,0.000264,-0.002067,-0.000036,-0.007550,0.000006,0.004633,0.000790,0.169565,0.001342,0.199837,0.199834,0.170169,0.503356,0.000000,0.000000,0.000000,0.000000,0.000000,0.000000,0.000000,0.000000,0.000000,0.000000,0.000000,0.000000,0.163919,3,0
1100000,-0.000753,28.384893,-0.036554,-0.001478,25.767054,-0.041457,0.001222,0.027348,1.569950,-0.061367,0.000268,-0.002385,-0.000037,-0.007692,0.000006,0.002030,0.000779,0.105097,0.039297,0.200058,0.200054,0.169905,0.498267,0.000000,0.000000,0.000000,0.000000,0.000000,0.000000,0.000000,0.000000,0.000000,0.000000,0.000000,0.000000,0.101596,3,0
1110000,-0.000741,28.646673,-0.035919,-0.001320,25.777353,-0.040449,0.001230,0.027871,1.569949,-0.062172,0.000273,-0.002691,-0.000038,-0.007859,0.000006,0.002632,0.000767,0.122196,0.037417,0.200272,0.200268,0.169632,0.493281,0.000000,0.000000,0.000000,0.000000,0.000000,0.000000,0.000000,0.000000,0.000000,0.000000,0.000000,0.000000,0.118121,3,0
1120000,-0.000729,28.905788,-0.036830,-0.001257,25.782873,-0.041502,0.001244,0.028091,1.569939,-0.062432,0.000278,-0.002549,-0.000039,-0.007914,0.000006,0.000299,0.000754,0.039225,-0.017786,0.200479,0.200475,0.169351,0.488399,0.000000,0.000000,0.000000,0.000000,0.000000,0.000000,0.000000,0.000000,0.000000,0.000000,0.000000,0.000000,0.037921,3,0
1130000,-0.000716,29.167595,-0.036137,-0.001129,25.793055,-0.040500,0.001255,0.028598,1.569925,-0.063212,0.000282,-0.002877,-0.000041,-0.008081,0.000006,0.002497,0.000741,0.117992,0.039640,0.200681,0.200677,0.169063,0.483619,0.000000,0.000000,0.000000,0.000000,0.000000,0.000000,0.000000,0.000000,0.000000,0.000000,0.000000,0.000000,0.114050,3,0
1140000,-0.000702,29.430058,-0.036273,-0.000992,25.804283,-0.040767,0.001264,0.029178,1.569925,-0.064101,0.000287,-0.002965,-0.000042,-0.008274,0.000007,0.002926,0.000726,0.134392,0.009984,0.200878,0.200873,0.168768,0.478942,0.000000,0.000000,0.000000,0.000000,0.000000,0.000000,0.000000,0.000000,0.000000,0.000000,0.000000,0.000000,0.129894,3,0
1150000,-0.000688,29.693832,-0.037668,-0.000965,25.817610,-0.042559,0.001269,0.029916,1.569924,-0.065228,0.000291,-0.002687,-0.000042,-0.008523,0.000007,0.004851,0.000712,0.169998,-0.034762,0.201070,0.201065,0.168467,0.474365,0.000000,0.000000,0.000000,0.000000,0.000000,0.000000,0.000000,0.000000,0.000000,0.000000,0.000000,0.000000,0.164300,3,0
1160000,-0.000673,29.953562,-0.038180,-0.000840,25.823782,-0.043281,0.001285,0.030178,1.569926,-0.065528,0.000295,-0.002666,-0.000043,-0.008590,0.000007,0.000331,0.000697,0.045242,-0.002798,0.201257,0.201252,0.168159,0.469889,0.000000,0.000000,0.000000,0.000000,0.000000,0.000000,0.000000,0.000000,0.000000,0.000000,0.000000,0.000000,0.043729,3,0
1170000,-0.000658,30.212639,-0.038497,-0.000748,25.828550,-0.043616,0.001299,0.030349,1.569927,-0.065687,0.000300,-0.002704,-0.000044,-0.008627,0.000007,0.000096,0.000681,0.023996,0.004369,0.201440,0.201434,0.167846,0.465512,0.000000,0.000000,0.000000,0.000000,0.000000,0.000000,0.000000,0.000000,0.000000,0.000000,0.000000,0.000000,0.023201,3,0
1180000,-0.000642,30.472410,-0.039176,-0.000574,25.834614,-0.044397,0.001315,0.030604,1.569913,-0.065974,0.000304,-0.002635,-0.000045,-0.008693,0.000007,0.000312,0.000665,0.043179,-0.008481,0.201619,0.201613,0.167527,0.461233,0.000000,0.000000,0.000000,0.000000,0.000000,0.000000,0.000000,0.000000,0.000000,0.000000,0.000000,0.000000,0.041732,3,0
1190000,-0.000625,30.735537,-0.037791,-0.000474,25.846548,-0.042425,0.001321,0.031254,1.569898,-0.066906,0.000308,-0.003203,-0.000046,-0.008910,0.000007,0.003916,0.000647,0.141163,0.066026,0.201796,0.201789,0.167204,0.457052,0.000000,0.000000,0.000000,0.000000,0.000000,0.000000,0.000000,0.000000,0.000000,0.000000,0.000000,0.000000,0.136421,3,0
1200000,-0.000608,30.997959,-0.038985,-0.000312,25.857029,-0.044100,0.001329,0.031808,1.569883,-0.067678,0.000312,-0.002978,-0.000047,-0.009093,0.000007,0.002305,0.000629,0.116467,-0.027218,0.201969,0.201962,0.166875,0.452966,0.000000,0.000000,0.000000,0.000000,0.000000,0.000000,0.000000,0.000000,0.000000,0.000000,0.000000,0.000000,0.112547,3,0
1210000,-0.000590,31.257673,-0.039948,-0.000211,25.862577,-0.045309,0.001344,0.032036,1.569867,-0.067897,0.000316,-0.002820,-0.000048,-0.009146,0.000007,0.000230,0.000610,0.032848,-0.018552,0.202139,0.202132,0.166543,0.448975,0.000000,0.000000,0.000000,0.000000,0.000000,0.000000,0.000000,0.000000,0.000000,0.000000,0.000000,0.000000,0.031746,3,0
1220000,-0.000573,31.520750,-0.041181,-0.000234,25.873941,-0.046850,0.001346,0.032672,1.569854,-0.068763,0.000319,-0.002590,-0.000049,-0.009358,0.000007,0.002884,0.000592,0.130901,-0.027694,0.202308,0.202300,0.166206,0.445077,0.000000,0.000000,0.000000,0.000000,0.000000,0.000000,0.000000,0.000000,0.000000,0.000000,0.000000,0.000000,0.126487,3,0
1230000,-0.000556,31.780426,-0.041112,-0.000228,25.879169,-0.046527,0.001364,0.032880,1.569854,-0.068939,0.000323,-0.002762,-0.000050,-0.009401,0.000007,0.000178,0.000575,0.026739,0.019649,0.202474,0.202466,0.165866,0.441272,0.000000,0.000000,0.000000,0.000000,0.000000,0.000000,0.000000,0.000000,0.000000,0.000000,0.000000,0.000000,0.025845,3,0
1240000,-0.000539,32.039436,-0.039857,-0.000230,25.883224,-0.044782,0.001381,0.032987,1.569841,-0.068973,0.000326,-0.003309,-0.000051,-0.009409,0.000007,0.000639,0.000558,0.005558,0.062528,0.202639,0.202630,0.165523,0.437558,0.000000,0.000000,0.000000,0.000000,0.000000,0.000000,0.000000,0.000000,0.000000,0.000000,0.000000,0.000000,0.005402,3,0
1250000,-0.000524,32.299141,-0.039224,-0.000225,25.888367,-0.043808,0.001400,0.033182,1.569839,-0.069134,0.000329,-0.003658,-0.000052,-0.009450,0.000007,0.000352,0.000542,0.024811,0.039476,0.202803,0.202793,0.165177,0.433933,0.000000,0.000000,0.000000,0.000000,0.000000,0.000000,0.000000,0.000000,0.000000,0.000000,0.000000,0.000000,0.023981,3,0
1260000,-0.000508,32.557510,-0.038999,-0.000238,25.891092,-0.043422,0.001413,0.033211,1.569832,-0.069026,0.000333,-0.003871,-0.000053,-0.009421,0.000007,0.000138,0.000526,-0.016277,0.024281,0.202966,0.202956,0.164828,0.430397,0.000000,0.000000,0.000000,0.000000,0.000000,0.000000,0.000000,0.000000,0.000000,0.000000,0.000000,0.000000,0.015732,3,0
1270000,-0.000493,32.815910,-0.040176,-0.000192,25.893877,-0.045085,0.001433,0.033226,1.569817,-0.068921,0.000336,-0.003631,-0.000054,-0.009394,0.000007,0.000160,0.000511,-0.016247,-0.026881,0.203128,0.203117,0.164478,0.426947,0.000000,0.000000,0.000000,0.000000,0.000000,0.000000,0.000000,0.000000,0.000000,0.000000,0.000000,0.000000,0.015705,3,0
1280000,-0.000477,33.075684,-0.040403,-0.000025,25.899143,-0.045443,0.001439,0.033416,1.569807,-0.069074,0.000340,-0.003709,-0.000055,-0.009435,0.000007,0.000101,0.000494,0.023510,0.008469,0.203290,0.203279,0.164125,0.423584,0.000000,0.000000,0.000000,0.000000,0.000000,0.000000,0.000000,0.000000,0.000000,0.000000,0.000000,0.000000,0.022718,3,0
1290000,-0.000461,33.338158,-0.040683,0.000045,25.909128,-0.045767,0.001454,0.033947,1.569799,-0.069738,0.000342,-0.003779,-0.000055,-0.009614,0.000007,0.001671,0.000477,0.101624,0.006902,0.203452,0.203440,0.163770,0.420304,0.000000,0.000000,0.000000,0.000000,0.000000,0.000000,0.000000,0.000000,0.000000,0.000000,0.000000,0.000000,0.098180,3,0
1300000,-0.000445,33.597893,-0.040152,0.000027,25.914032,-0.045152,0.001464,0.034116,1.569790,-0.069853,0.000345,-0.004112,-0.000056,-0.009645,0.000007,0.000269,0.000461,0.017960,0.036589,0.203613,0.203601,0.163414,0.417107,0.000000,0.000000,0.000000,0.000000,0.000000,0.000000,0.000000,0.000000,0.000000,0.000000,0.000000,0.000000,0.017359,3,0
1310000,-0.000430,33.861683,-0.039581,0.000063,25.926134,-0.044545,0.001486,0.034820,1.569787,-0.070734,0.000347,-0.004472,-0.000057,-0.009889,0.000008,0.003210,0.000445,0.135876,0.038287,0.203775,0.203762,0.163057,0.413992,0.000000,0.000000,0.000000,0.000000,0.000000,0.000000,0.000000,0.000000,0.000000,0.000000,0.000000,0.000000,0.131264,3,0
1320000,-0.000414,34.124741,-0.040446,0.000168,25.936798,-0.045614,0.001502,0.035413,1.569787,-0.071451,0.000350,-0.004345,-0.000058,-0.010092,0.000008,0.002002,0.000428,0.110512,-0.014946,0.203938,0.203924,0.162700,0.410957,0.000000,0.000000,0.000000,0.000000,0.000000,0.000000,0.000000,0.000000,0.000000,0.000000,0.000000,0.000000,0.106755,3,0
1330000,-0.000397,34.385040,-0.040250,0.000305,25.942442,-0.045374,0.001515,0.035627,1.569778,-0.071619,0.000352,-0.004572,-0.000058,-0.010139,0.000008,0.000208,0.000411,0.026257,0.024426,0.204101,0.204087,0.162342,0.408000,0.000000,0.000000,0.000000,0.000000,0.000000,0.000000,0.000000,0.000000,0.000000,0.000000,0.000000,0.000000,0.025367,3,0
1340000,-0.000380,34.648033,-0.038895,0.000412,25.952730,-0.043695,0.001523,0.036203,1.569772,-0.072284,0.000354,-0.005207,-0.000059,-0.010331,0.000008,0.002476,0.000393,0.103840,0.067563,0.204265,0.204250,0.161983,0.405119,0.000000,0.000000,0.000000,0.000000,0.000000,0.000000,0.000000,0.000000,0.000000,0.000000,0.000000,0.000000,0.100312,3,0
1350000,-0.000361,34.908264,-0.037561,0.000590,25.957947,-0.042086,0.001535,0.036395,1.569762,-0.072407,0.000356,-0.005823,-0.000060,-0.010366,0.000008,0.000769,0.000374,0.019653,0.066025,0.204431,0.204415,0.161624,0.402315,0.000000,0.000000,0.000000,0.000000,0.000000,0.000000,0.000000,0.000000,0.000000,0.000000,0.000000,0.000000,0.018993,3,0
1360000,-0.000342,35.170521,-0.036886,0.000664,25.966763,-0.041460,0.001552,0.036850,1.569752,-0.072900,0.000357,-0.006217,-0.000060,-0.010512,0.000008,0.001242,0.000355,0.077435,0.041331,0.204597,0.204580,0.161266,0.399584,0.000000,0.000000,0.000000,0.000000,0.000000,0.000000,0.000000,0.000000,0.000000,0.000000,0.000000,0.000000,0.074799,3,0
1370000,-0.000323,35.430027,-0.038209,0.000786,25.970665,-0.043050,0.001570,0.036937,1.569737,-0.072863,0.000360,-0.005899,-0.000061,-0.010502,0.000008,0.000190,0.000335,-0.006001,-0.033715,0.204765,0.204747,0.160908,0.396927,0.000000,0.000000,0.000000,0.000000,0.000000,0.000000,0.000000,0.000000,0.000000,0.000000,0.000000,0.000000,0.005807,3,0
1380000,-0.000304,35.693604,-0.037707,0.000909,25.981762,-0.042350,0.001586,0.037579,1.569726,-0.073573,0.000361,-0.006246,-0.000062,-0.010719,0.000008,0.002229,0.000314,0.112152,0.035460,0.204934,0.204916,0.160551,0.394341,0.000000,0.000000,0.000000,0.000000,0.000000,0.000000,0.000000,0.000000,0.000000,0.000000,0.000000,0.000000,0.108326,3,0
1390000,-0.000284,35.955082,-0.039019,0.000973,25.988852,-0.043951,0.001600,0.037912,1.569714,-0.073873,0.000363,-0.005940,-0.000062,-0.010813,0.000008,0.000535,0.000294,0.047253,-0.032867,0.205105,0.205086,0.160194,0.391823,0.000000,0.000000,0.000000,0.000000,0.000000,0.000000,0.000000,0.000000,0.000000,0.000000,0.000000,0.000000,0.045636,3,0
1400000,-0.000265,36.216522,-0.040028,0.001041,25.995853,-0.045093,0.001606,0.038240,1.569712,-0.074152,0.000365,-0.005744,-0.000063,-0.010902,0.000008,0.000385,0.000274,0.044132,-0.021022,0.205278,0.205258,0.159839,0.389375,0.000000,0.000000,0.000000,0.000000,0.000000,0.000000,0.000000,0.000000,0.000000,0.000000,0.000000,0.000000,0.042622,3,0
1410000,-0.000244,36.474529,-0.041248,0.001189,25.996534,-0.046661,0.001621,0.038054,1.569699,-0.073789,0.000367,-0.005460,-0.000063,-0.010786,0.000008,0.000684,0.000253,-0.058350,-0.028953,0.205453,0.205431,0.159484,0.386992,0.000000,0.000000,0.000000,0.000000,0.000000,0.000000,0.000000,0.000000,0.000000,0.000000,0.000000,0.000000,0.056355,3,0
1420000,-0.000223,36.737316,-0.040492,0.001312,26.005783,-0.045539,0.001628,0.038551,1.569697,-0.074292,0.000367,-0.005919,-0.000064,-0.010949,0.000008,0.001414,0.000231,0.081215,0.046603,0.205629,0.205607,0.159132,0.384676,0.000000,0.000000,0.000000,0.000000,0.000000,0.000000,0.000000,0.000000,0.000000,0.000000,0.000000,0.000000,0.078438,3,0
1430000,-0.000203,37.000725,-0.039721,0.001331,26.016035,-0.044442,0.001634,0.039134,1.569694,-0.074888,0.000368,-0.006385,-0.000064,-0.011145,0.000008,0.001861,0.000210,0.096642,0.046952,0.205807,0.205784,0.158780,0.382423,0.000000,0.000000,0.000000,0.000000,0.000000,0.000000,0.000000,0.000000,0.000000,0.000000,0.000000,0.000000,0.093334,3,0
1440000,-0.000182,37.259975,-0.039984,0.001458,26.018808,-0.044567,0.001640,0.039097,1.569695,-0.074717,0.000369,-0.006449,-0.000064,-0.011087,0.000008,0.000131,0.000188,-0.027721,0.006888,0.205988,0.205964,0.158431,0.380233,0.000000,0.000000,0.000000,0.000000,0.000000,0.000000,0.000000,0.000000,0.000000,0.000000,0.000000,0.000000,0.026768,3,0
1450000,-0.000162,37.523323,-0.040602,0.001460,26.028828,-0.045250,0.001647,0.039670,1.569692,-0.075274,0.000370,-0.006403,-0.000065,-0.011277,0.000008,0.001330,0.000167,0.090706,-0.005898,0.206170,0.206145,0.158083,0.378104,0.000000,0.000000,0.000000,0.000000,0.000000,0.000000,0.000000,0.000000,0.000000,0.000000,0.000000,0.000000,0.087589,3,0
1460000,-0.000140,37.781136,-0.041302,0.001631,26.028736,-0.045938,0.001660,0.039411,1.569681,-0.074827,0.000371,-0.006298,-0.000065,-0.011123,0.000008,0.000881,0.000145,-0.073353,-0.009650,0.206355,0.206329,0.157738,0.376035,0.000000,0.000000,0.000000,0.000000,0.000000,0.000000,0.000000,0.000000,0.000000,0.000000,0.000000,0.000000,0.070831,3,0
1470000,-0.000119,38.043056,-0.040106,0.001704,26.035940,-0.044588,0.001681,0.039748,1.569677,-0.075105,0.000371,-0.006932,-0.000065,-0.011218,0.000008,0.001005,0.000123,0.046539,0.063599,0.206541,0.206514,0.157395,0.374023,0.000000,0.000000,0.000000,0.000000,0.000000,0.000000,0.000000,0.000000,0.000000,0.000000,0.000000,0.000000,0.044949,3,0
1480000,-0.000097,38.300823,-0.038808,0.001834,26.035713,-0.043112,0.001690,0.039447,1.569672,-0.074641,0.000372,-0.007580,-0.000065,-0.011051,0.000008,0.001653,0.000101,-0.076305,0.066434,0.206730,0.206702,0.157054,0.372070,0.000000,0.000000,0.000000,0.000000,0.000000,0.000000,0.000000,0.000000,0.000000,0.000000,0.000000,0.000000,0.073666,3,0
1490000,-0.000075,38.560665,-0.038045,0.001947,26.039097,-0.042100,0.001702,0.039473,1.569672,-0.074542,0.000372,-0.008034,-0.000066,-0.011014,0.000008,0.000382,0.000078,-0.016006,0.045815,0.206920,0.206891,0.156716,0.370171,0.000000,0.000000,0.000000,0.000000,0.000000,0.000000,0.000000,0.000000,0.000000,0.000000,0.000000,0.000000,0.015446,3,0
1500000,-0.000054,38.821182,-0.037627,0.001935,26.043720,-0.041513,0.001705,0.039597,1.569660,-0.074555,0.000372,-0.008358,-0.000066,-0.011018,0.000008,0.000171,0.000056,0.002422,0.032353,0.207112,0.207082,0.156380,0.368326,0.000000,0.000000,0.000000,0.000000,0.000000,0.000000,0.000000,0.000000,0.000000,0.000000,0.000000,0.000000,0.002343,3,0
1510000,-0.000033,39.080986,-0.037556,0.001963,26.047035,-0.041256,0.001719,0.039608,1.569656,-0.074438,0.000372,-0.008543,-0.000066,-0.010974,0.000008,0.000119,0.000034,-0.019592,0.018702,0.207306,0.207275,0.156047,0.366535,0.000000,0.000000,0.000000,0.000000,0.000000,0.000000,0.000000,0.000000,0.000000,0.000000,0.000000,0.000000,0.018913,3,0
1520000,-0.000013,39.342831,-0.037415,0.001990,26.053846,-0.041263,0.001732,0.039921,1.569641,-0.074663,0.000372,-0.008770,-0.000066,-0.011058,0.000008,0.000318,0.000013,0.038635,0.021834,0.207502,0.207470,0.155717,0.364794,0.000000,0.000000,0.000000,0.000000,0.000000,0.000000,0.000000,0.000000,0.000000,0.000000,0.000000,0.000000,0.037304,3,0
1530000,0.000007,39.603252,-0.037584,0.002000,26.058071,-0.041577,0.001748,0.040008,1.569633,-0.074636,0.000372,-0.008867,-0.000066,-0.011047,0.000008,0.000018,-0.000007,-0.004612,0.009613,0.207700,0.207666,0.155390,0.363104,0.000000,0.000000,0.000000,0.000000,0.000000,0.000000,0.000000,0.000000,0.000000,0.000000,0.000000,0.000000,0.004452,3,0
1540000,0.000027,39.866402,-0.038189,0.002136,26.067131,-0.042306,0.001754,0.040520,1.569618,-0.075057,0.000371,-0.008811,-0.000066,-0.011211,0.000008,0.000861,-0.000028,0.072865,-0.006629,0.207900,0.207865,0.155066,0.361463,0.000000,0.000000,0.000000,0.000000,0.000000,0.000000,0.000000,0.000000,0.000000,0.000000,0.000000,0.000000,0.070339,3,0
1550000,0.000047,40.126720,-0.038465,0.002184,26.070944,-0.042813,0.001774,0.040563,1.569615,-0.074991,0.000371,-0.008869,-0.000066,-0.011185,0.000008,0.000027,-0.000049,-0.011463,0.005883,0.208101,0.208064,0.154745,0.359869,0.000000,0.000000,0.000000,0.000000,0.000000,0.000000,0.000000,0.000000,0.000000,0.000000,0.000000,0.000000,0.011067,3,0
1560000,0.000067,40.384239,-0.037384,0.002189,26.069574,-0.041481,0.001793,0.040160,1.569610,-0.074458,0.000370,-0.009451,-0.000066,-0.010970,0.000008,0.001938,-0.000069,-0.092911,0.058193,0.208303,0.208266,0.154428,0.358322,0.000000,0.000000,0.000000,0.000000,0.000000,0.000000,0.000000,0.000000,0.000000,0.000000,0.000000,0.000000,0.089676,3,0
1570000,0.000087,40.643162,-0.037143,0.002278,26.070799,-0.041135,0.001793,0.039978,1.569600,-0.074162,0.000370,-0.009703,-0.000065,-0.010848,0.000008,0.000543,-0.000090,-0.052235,0.025289,0.208507,0.208468,0.154113,0.356820,0.000000,0.000000,0.000000,0.000000,0.000000,0.000000,0.000000,0.000000,0.000000,0.000000,0.000000,0.000000,0.050415,3,0
1580000,0.000106,40.900696,-0.037145,0.002325,26.069349,-0.041173,0.001801,0.039573,1.569589,-0.073642,0.000369,-0.009848,-0.000065,-0.010634,0.000008,0.001415,-0.000110,-0.092499,0.015500,0.208712,0.208672,0.153803,0.355361,0.000000,0.000000,0.000000,0.000000,0.000000,0.000000,0.000000,0.000000,0.000000,0.000000,0.000000,0.000000,0.089279,3,0
1590000,0.000125,41.161007,-0.036921,0.002366,26.072966,-0.040769,0.001814,0.039606,1.569579,-0.073574,0.000369,-0.010104,-0.000065,-0.010604,0.000008,0.000124,-0.000130,-0.012077,0.024896,0.208919,0.208877,0.153495,0.353944,0.000000,0.000000,0.000000,0.000000,0.000000,0.000000,0.000000,0.000000,0.000000,0.000000,0.000000,0.000000,0.011651,3,0
1600000,0.000144,41.422680,-0.037696,0.002415,26.079002,-0.041900,0.001826,0.039859,1.569575,-0.073717,0.000368,-0.009964,-0.000065,-0.010665,0.000008,0.000138,-0.000150,0.025761,-0.013920,0.209126,0.209084,0.153192,0.352569,0.000000,0.000000,0.000000,0.000000,0.000000,0.000000,0.000000,0.000000,0.000000,0.000000,0.000000,0.000000,0.024861,3,0
1610000,0.000163,41.684292,-0.037774,0.002482,26.084831,-0.041985,0.001840,0.040097,1.569569,-0.073838,0.000367,-0.010112,-0.000064,-0.010717,0.000008,0.000112,-0.000169,0.022449,0.013772,0.209335,0.209291,0.152892,0.351234,0.000000,0.000000,0.000000,0.000000,0.000000,0.000000,0.000000,0.000000,0.000000,0.000000,0.000000,0.000000,0.021672,3,0
1620000,0.000182,41.943771,-0.038313,0.002498,26.086681,-0.042410,0.001850,0.039981,1.569571,-0.073620,0.000366,-0.010053,-0.000064,-0.010622,0.000008,0.000267,-0.000189,-0.040424,-0.004906,0.209544,0.209499,0.152595,0.349938,0.000000,0.000000,0.000000,0.000000,0.000000,0.000000,0.000000,0.000000,0.000000,0.000000,0.000000,0.000000,0.039013,3,0
1630000,0.000201,42.206013,-0.039200,0.002597,26.093596,-0.043640,0.001868,0.040310,1.569560,-0.073825,0.000365,-0.009874,-0.000063,-0.010714,0.000008,0.000283,-0.000208,0.038013,-0.017641,0.209754,0.209708,0.152302,0.348680,0.000000,0.000000,0.000000,0.000000,0.000000,0.000000,0.000000,0.000000,0.000000,0.000000,0.000000,0.000000,0.036683,3,0
1640000,0.000219,42.463310,-0.038644,0.002591,26.091303,-0.042985,0.001877,0.039806,1.569550,-0.073265,0.000364,-0.010261,-0.000063,-0.010459,0.000008,0.002014,-0.000227,-0.105026,0.038455,0.209965,0.209917,0.152013,0.347459,0.000000,0.000000,0.000000,0.000000,0.000000,0.000000,0.000000,0.000000,0.000000,0.000000,0.000000,0.000000,0.101341,3,0
1650000,0.000236,42.726192,-0.038620,0.002600,26.099308,-0.042849,0.001887,0.040219,1.569552,-0.073554,0.000362,-0.010470,-0.000062,-0.010591,0.000008,0.000546,-0.000245,0.055161,0.018581,0.210176,0.210127,0.151728,0.346274,0.000000,0.000000,0.000000,0.000000,0.000000,0.000000,0.000000,0.000000,0.000000,0.000000,0.000000,0.000000,0.053235,3,0
1660000,0.000254,42.985519,-0.039276,0.002697,26.100615,-0.043377,0.001906,0.040032,1.569555,-0.073301,0.000361,-0.010360,-0.000061,-0.010473,0.000008,0.000397,-0.000264,-0.048767,-0.009352,0.210388,0.210337,0.151447,0.345123,0.000000,0.000000,0.000000,0.000000,0.000000,0.000000,0.000000,0.000000,0.000000,0.000000,0.000000,0.000000,0.047059,3,0
1670000,0.000273,43.245518,-0.038939,0.002859,26.103071,-0.042883,0.001905,0.039950,1.569554,-0.073146,0.000359,-0.010681,-0.000061,-0.010398,0.000008,0.000294,-0.000283,-0.029808,0.030480,0.210599,0.210548,0.151170,0.344006,0.000000,0.000000,0.000000,0.000000,0.000000,0.000000,0.000000,0.000000,0.000000,0.000000,0.000000,0.000000,0.028756,3,0
1680000,0.000292,43.505493,-0.039640,0.002934,26.105539,-0.043695,0.001912,0.039876,1.569542,-0.072987,0.000358,-0.010556,-0.000060,-0.010322,0.000008,0.000178,-0.000303,-0.031399,-0.010935,0.210811,0.210758,0.150896,0.342921,0.000000,0.000000,0.000000,0.000000,0.000000,0.000000,0.000000,0.000000,0.000000,0.000000,0.000000,0.000000,0.030302,3,0
1690000,0.000312,43.764019,-0.038542,0.003088,26.105255,-0.042187,0.001927,0.039529,1.569530,-0.072617,0.000356,-0.011195,-0.000059,-0.010138,0.000008,0.001446,-0.000323,-0.072739,0.060553,0.211023,0.210968,0.150627,0.341868,0.000000,0.000000,0.000000,0.000000,0.000000,0.000000,0.000000,0.000000,0.000000,0.000000,0.000000,0.000000,0.070164,3,0
1700000,0.000331,44.026058,-0.039552,0.003154,26.111477,-0.043195,0.001936,0.039800,1.569525,-0.072751,0.000354,-0.010951,-0.000058,-0.010205,0.000008,0.000200,-0.000344,0.026562,-0.023088,0.211234,0.211178,0.150361,0.340846,0.000000,0.000000,0.000000,0.000000,0.000000,0.000000,0.000000,0.000000,0.000000,0.000000,0.000000,0.000000,0.025622,3,0
1710000,0.000351,44.284504,-0.038508,0.003245,26.110920,-0.041807,0.001946,0.039425,1.569512,-0.072371,0.000352,-0.011569,-0.000058,-0.010010,0.000008,0.001494,-0.000364,-0.076508,0.058372,0.211446,0.211388,0.150100,0.339852,0.000000,0.000000,0.000000,0.000000,0.000000,0.000000,0.000000,0.000000,0.000000,0.000000,0.000000,0.000000,0.073796,3,0
