time_us,pos_x,pos_y,pos_z,vel_x,vel_y,vel_z,roll,pitch,yaw,bias_ax,bias_ay,bias_az,bias_gx,bias_gy,bias_gz,nis,innov_x,innov_y,innov_z,cov_pos_x,cov_pos_y,cov_pos_z,cov_yaw,des_speed,des_heading,des_climb,pid_speed,pid_yaw,pid_alt,speed_meas,yaw_meas,climb_meas,fwd_accel,yaw_rate,vert_accel,drift_m,nav_mode,mission_state
0,-0.000003,0.150003,0.000005,-0.000527,25.000496,0.001136,0.000018,-0.000027,1.570798,0.000000,0.000000,0.000000,0.000000,0.000000,0.000000,0.006250,0.000005,-0.250007,-0.000011,2.400038,2.400038,3.600017,1.000518,0.000000,0.000000,0.000000,0.000000,0.000000,0.000000,0.000000,0.000000,0.000000,0.000000,0.000000,0.000000,0.150003,1,0
10000,-0.000010,0.331157,-0.016709,-0.001068,25.000757,0.002242,0.000024,-0.000038,1.570796,0.000001,0.000000,0.000000,0.000000,0.000000,0.000000,0.007121,0.000014,-0.240984,-0.044629,1.714420,1.714420,2.250079,1.001073,0.000000,0.000000,0.000000,0.000000,0.000000,0.000000,0.000000,0.000000,0.000000,0.000000,0.000000,0.000000,0.172126,3,0
20000,-0.000020,0.549200,-0.010872,-0.001528,25.000914,0.003380,0.000035,-0.000067,1.570798,0.000002,0.000000,-0.000000,-0.000000,0.000000,-0.000000,0.002737,0.000025,-0.143834,0.021276,1.333616,1.333616,1.636554,1.001655,0.000000,0.000000,0.000000,0.000000,0.000000,0.000000,0.000000,0.000000,0.000000,0.000000,0.000000,0.000000,0.111864,3,0
30000,-0.000033,0.773167,-0.016044,-0.002026,25.001123,0.004570,0.000049,-0.000093,1.570807,0.000004,0.000000,0.000000,0.000000,0.000000,-0.000000,0.002874,0.000040,-0.143213,-0.024346,1.091392,1.091392,1.286065,1.002257,0.000000,0.000000,0.000000,0.000000,0.000000,0.000000,0.000000,0.000000,0.000000,0.000000,0.000000,0.000000,0.117162,3,0
40000,-0.000050,1.006440,-0.021653,-0.002629,25.001368,0.005421,0.000069,-0.000112,1.570821,0.000008,0.000000,0.000001,0.000000,0.000000,-0.000000,0.001809,0.000059,-0.108755,-0.032078,0.923811,0.923811,1.059385,1.002869,0.000000,0.000000,0.000000,0.000000,0.000000,0.000000,0.000000,0.000000,0.000000,0.000000,0.000000,0.000000,0.092010,3,0
50000,-0.000071,1.253261,-0.029387,-0.003178,25.001911,0.006093,0.000082,-0.000131,1.570838,0.000009,0.000000,0.000003,0.000000,0.000000,-0.000000,0.000465,0.000082,-0.023968,-0.051935,0.801036,0.801036,0.900822,1.003484,0.000000,0.000000,0.000000,0.000000,0.000000,0.000000,0.000000,0.000000,0.000000,0.000000,0.000000,0.000000,0.020768,3,0
60000,-0.000096,1.506515,-0.025711,-0.003755,25.002657,0.007206,0.000097,-0.000158,1.570853,0.000007,0.000000,0.000002,-0.000000,0.000000,-0.000000,0.000221,0.000108,0.027391,0.027600,0.707270,0.707270,0.783741,1.004094,0.000000,0.000000,0.000000,0.000000,0.000000,0.000000,0.000000,0.000000,0.000000,0.000000,0.000000,0.000000,0.024162,3,0
70000,-0.000123,1.755788,-0.020505,-0.004178,25.003288,0.008793,0.000106,-0.000171,1.570856,0.000008,0.000000,-0.000002,-0.000000,0.000000,-0.000000,0.000297,0.000137,-0.007203,0.044285,0.633370,0.633370,0.693801,1.004688,0.000000,0.000000,0.000000,0.000000,0.000000,0.000000,0.000000,0.000000,0.000000,0.000000,0.000000,0.000000,0.006444,3,0
80000,-0.000154,2.011714,-0.017410,-0.004725,25.004360,0.010301,0.000119,-0.000197,1.570856,0.000001,0.000000,-0.000004,-0.000000,-0.000000,0.000000,0.000696,0.000170,0.061581,0.028850,0.573673,0.573673,0.622594,1.005260,0.000000,0.000000,0.000000,0.000000,0.000000,0.000000,0.000000,0.000000,0.000000,0.000000,0.000000,0.000000,0.055693,3,0
90000,-0.000189,2.262151,-0.016391,-0.005287,25.004972,0.011630,0.000145,-0.000219,1.570856,0.000001,0.000000,-0.000006,-0.000000,-0.000000,0.000000,0.000017,0.000207,0.004433,0.009602,0.524488,0.524488,0.564865,1.005801,0.000000,0.000000,0.000000,0.000000,0.000000,0.000000,0.000000,0.000000,0.000000,0.000000,0.000000,0.000000,0.004050,3,0
100000,-0.000226,2.508404,-0.018834,-0.005703,25.005239,0.012582,0.000162,-0.000238,1.570855,0.000008,0.000000,-0.000001,-0.000000,0.000000,-0.000000,0.000477,0.000246,-0.047223,-0.029840,0.483304,0.483304,0.517162,1.006301,0.000000,0.000000,0.000000,0.000000,0.000000,0.000000,0.000000,0.000000,0.000000,0.000000,0.000000,0.000000,0.043419,3,0
110000,-0.000266,2.755844,-0.018494,-0.006103,25.005493,0.013619,0.000169,-0.000262,1.570869,0.000015,0.000000,-0.000002,-0.000000,0.000000,-0.000000,0.000190,0.000287,-0.035052,0.002571,0.448354,0.448354,0.477121,1.006754,0.000000,0.000000,0.000000,0.000000,0.000000,0.000000,0.000000,0.000000,0.000000,0.000000,0.000000,0.000000,0.032433,3,0
120000,-0.000308,3.009771,-0.016121,-0.006545,25.006754,0.015017,0.000182,-0.000283,1.570872,0.000002,0.000000,-0.000008,-0.000000,-0.000000,0.000000,0.000617,0.000331,0.055448,0.030142,0.418359,0.418359,0.443071,1.007150,0.000000,0.000000,0.000000,0.000000,0.000000,0.000000,0.000000,0.000000,0.000000,0.000000,0.000000,0.000000,0.051583,3,0
130000,-0.000353,3.259865,-0.017844,-0.007008,25.007383,0.015648,0.000202,-0.000295,1.570883,0.000002,0.000000,-0.000001,-0.000000,-0.000000,0.000000,0.000116,0.000378,0.000297,-0.027289,0.392370,0.392370,0.413797,1.007481,0.000000,0.000000,0.000000,0.000000,0.000000,0.000000,0.000000,0.000000,0.000000,0.000000,0.000000,0.000000,0.000449,3,0
140000,-0.000403,3.515375,-0.015767,-0.007567,25.009188,0.016953,0.000223,-0.000308,1.570887,-0.000024,0.000000,-0.000010,-0.000000,-0.000001,0.000000,0.001351,0.000429,0.088139,0.029521,0.369667,0.369667,0.388393,1.007739,0.000000,0.000000,0.000000,0.000000,0.000000,0.000000,0.000000,0.000000,0.000000,0.000000,0.000000,0.000000,0.082710,3,0
150000,-0.000454,3.764987,-0.017650,-0.007975,25.009771,0.017714,0.000247,-0.000332,1.570897,-0.000021,0.000001,0.000001,-0.000000,-0.000000,0.000000,0.000190,0.000482,-0.008359,-0.033841,0.349696,0.349696,0.366172,1.007915,0.000000,0.000000,0.000000,0.000000,0.000000,0.000000,0.000000,0.000000,0.000000,0.000000,0.000000,0.000000,0.007885,3,0
160000,-0.000509,4.021717,-0.017825,-0.008441,25.012205,0.018558,0.000256,-0.000334,1.570902,-0.000066,0.000001,0.000004,-0.000000,-0.000002,0.000000,0.002263,0.000539,0.119723,-0.006245,0.332022,0.332022,0.346600,1.008002,0.000000,0.000000,0.000000,0.000000,0.000000,0.000000,0.000000,0.000000,0.000000,0.000000,0.000000,0.000000,0.113099,3,0
170000,-0.000566,4.275102,-0.018349,-0.008874,25.013891,0.019329,0.000270,-0.000335,1.570918,-0.000093,0.000001,0.000009,-0.000000,-0.000002,0.000000,0.000629,0.000598,0.061758,-0.013104,0.316299,0.316299,0.329260,1.007991,0.000000,0.000000,0.000000,0.000000,0.000000,0.000000,0.000000,0.000000,0.000000,0.000000,0.000000,0.000000,0.058505,3,0
180000,-0.000626,4.529612,-0.018384,-0.009302,25.015947,0.020438,0.000295,-0.000333,1.570923,-0.000134,0.000001,0.000011,-0.000000,-0.000003,0.000000,0.001192,0.000659,0.086662,-0.004600,0.302249,0.302249,0.313817,1.007875,0.000000,0.000000,0.000000,0.000000,0.000000,0.000000,0.000000,0.000000,0.000000,0.000000,0.000000,0.000000,0.082299,3,0
190000,-0.000689,4.787028,-0.017347,-0.009793,25.019203,0.021977,0.000304,-0.000336,1.570930,-0.000213,0.000002,0.000003,-0.000000,-0.000005,0.000000,0.003621,0.000724,0.150193,0.016408,0.289644,0.289644,0.300003,1.007646,0.000000,0.000000,0.000000,0.000000,0.000000,0.000000,0.000000,0.000000,0.000000,0.000000,0.000000,0.000000,0.142945,3,0
200000,-0.000755,5.036863,-0.018427,-0.010256,25.019770,0.022578,0.000325,-0.000358,1.570941,-0.000209,0.000002,0.000018,-0.000000,-0.000005,0.000000,0.000129,0.000792,-0.007862,-0.027342,0.278299,0.278299,0.287598,1.007296,0.000000,0.000000,0.000000,0.000000,0.000000,0.000000,0.000000,0.000000,0.000000,0.000000,0.000000,0.000000,0.007535,3,0
210000,-0.000825,5.290652,-0.017143,-0.010767,25.021963,0.023972,0.000333,-0.000364,1.570948,-0.000260,0.000003,0.000004,-0.000000,-0.000007,0.000000,0.001108,0.000863,0.080240,0.022745,0.268058,0.268058,0.276421,1.006817,0.000000,0.000000,0.000000,0.000000,0.000000,0.000000,0.000000,0.000000,0.000000,0.000000,0.000000,0.000000,0.076660,3,0
220000,-0.000897,5.541966,-0.015304,-0.011292,25.023085,0.025893,0.000340,-0.000375,1.570949,-0.000278,0.000003,-0.000020,-0.000000,-0.000007,0.000000,0.000305,0.000938,0.025218,0.035763,0.258792,0.258792,0.266321,1.006204,0.000000,0.000000,0.000000,0.000000,0.000000,0.000000,0.000000,0.000000,0.000000,0.000000,0.000000,0.000000,0.024147,3,0
230000,-0.000973,5.795211,-0.017545,-0.011744,25.025198,0.025991,0.000347,-0.000380,1.570955,-0.000333,0.000004,0.000024,-0.000000,-0.000009,0.000000,0.001378,0.001015,0.072077,-0.058617,0.250392,0.250392,0.257172,1.005448,0.000000,0.000000,0.000000,0.000000,0.000000,0.000000,0.000000,0.000000,0.000000,0.000000,0.000000,0.000000,0.069076,3,0
240000,-0.001051,6.051007,-0.015860,-0.012286,25.028791,0.027747,0.000370,-0.000374,1.570954,-0.000446,0.000005,-0.000004,-0.000000,-0.000013,0.000000,0.003182,0.001096,0.136874,0.034099,0.242763,0.242763,0.248866,1.004543,0.000000,0.000000,0.000000,0.000000,0.000000,0.000000,0.000000,0.000000,0.000000,0.000000,0.000000,0.000000,0.131340,3,0
250000,-0.001133,6.307565,-0.016671,-0.012798,25.033072,0.028233,0.000378,-0.000356,1.570961,-0.000588,0.000006,0.000020,-0.000000,-0.000018,0.000000,0.004185,0.001180,0.159346,-0.027325,0.235827,0.235827,0.241314,1.003483,0.000000,0.000000,0.000000,0.000000,0.000000,0.000000,0.000000,0.000000,0.000000,0.000000,0.000000,0.000000,0.153087,3,0
260000,-0.001218,6.558743,-0.016357,-0.013327,25.034145,0.029165,0.000399,-0.000375,1.570964,-0.000609,0.000007,0.000019,-0.000000,-0.000019,0.000000,0.000078,0.001267,0.022020,0.000581,0.229515,0.229515,0.234436,1.002261,0.000000,0.000000,0.000000,0.000000,0.000000,0.000000,0.000000,0.000000,0.000000,0.000000,0.000000,0.000000,0.021213,3,0
270000,-0.001306,6.811664,-0.016005,-0.013776,25.036369,0.030485,0.000422,-0.000373,1.570975,-0.000680,0.000009,0.000018,-0.000000,-0.000022,0.000000,0.000765,0.001356,0.069015,0.001247,0.223766,0.223766,0.228165,1.000872,0.000000,0.000000,0.000000,0.000000,0.000000,0.000000,0.000000,0.000000,0.000000,0.000000,0.000000,0.000000,0.066453,3,0
280000,-0.001395,7.068367,-0.015818,-0.014169,25.041300,0.031630,0.000441,-0.000335,1.570981,-0.000872,0.000010,0.000022,-0.000000,-0.000029,0.000000,0.004859,0.001448,0.173892,-0.003527,0.218530,0.218530,0.222443,0.999310,0.000000,0.000000,0.000000,0.000000,0.000000,0.000000,0.000000,0.000000,0.000000,0.000000,0.000000,0.000000,0.167564,3,0
290000,-0.001486,7.322207,-0.015154,-0.014537,25.044386,0.032995,0.000464,-0.000313,1.570996,-0.000985,0.000012,0.000011,-0.000000,-0.000034,0.000000,0.001497,0.001541,0.096050,0.009303,0.213760,0.213760,0.217219,0.997570,0.000000,0.000000,0.000000,0.000000,0.000000,0.000000,0.000000,0.000000,0.000000,0.000000,0.000000,0.000000,0.092640,3,0
300000,-0.001579,7.574088,-0.013843,-0.015015,25.046150,0.034823,0.000472,-0.000307,1.571011,-0.001037,0.000014,-0.000023,-0.000001,-0.000036,0.000000,0.000391,0.001637,0.040967,0.027392,0.209417,0.209416,0.212446,0.995648,0.000000,0.000000,0.000000,0.000000,0.000000,0.000000,0.000000,0.000000,0.000000,0.000000,0.000000,0.000000,0.039568,3,0
310000,-0.001675,7.828225,-0.014917,-0.015447,25.049789,0.034757,0.000489,-0.000271,1.571010,-0.001180,0.000017,0.000032,-0.000001,-0.000043,0.000000,0.002122,0.001734,0.107131,-0.041302,0.205464,0.205464,0.208087,0.993540,0.000000,0.000000,0.000000,0.000000,0.000000,0.000000,0.000000,0.000000,0.000000,0.000000,0.000000,0.000000,0.103476,3,0
320000,-0.001773,8.083146,-0.016503,-0.015882,25.054148,0.034214,0.000503,-0.000231,1.571013,-0.001365,0.000019,0.000112,-0.000001,-0.000051,0.000000,0.003301,0.001834,0.131263,-0.057134,0.201870,0.201870,0.204105,0.991241,0.000000,0.000000,0.000000,0.000000,0.000000,0.000000,0.000000,0.000000,0.000000,0.000000,0.000000,0.000000,0.126859,3,0
330000,-0.001872,8.335521,-0.015608,-0.016270,25.056374,0.035705,0.000529,-0.000221,1.571024,-0.001448,0.000022,0.000088,-0.000001,-0.000055,0.000000,0.000534,0.001936,0.055209,0.016258,0.198608,0.198608,0.200469,0.988747,0.000000,0.000000,0.000000,0.000000,0.000000,0.000000,0.000000,0.000000,0.000000,0.000000,0.000000,0.000000,0.053415,3,0
340000,-0.001972,8.588087,-0.015521,-0.016648,25.058796,0.036470,0.000554,-0.000208,1.571023,-0.001545,0.000025,0.000101,-0.000001,-0.000060,0.000000,0.000617,0.002039,0.061238,-0.008542,0.195651,0.195650,0.197151,0.986057,0.000000,0.000000,0.000000,0.000000,0.000000,0.000000,0.000000,0.000000,0.000000,0.000000,0.000000,0.000000,0.059274,3,0
350000,-0.002075,8.844036,-0.017018,-0.017039,25.064640,0.036102,0.000562,-0.000133,1.571030,-0.001823,0.000029,0.000197,-0.000001,-0.000074,0.000000,0.005012,0.002144,0.166467,-0.057938,0.192976,0.192976,0.194125,0.983168,0.000000,0.000000,0.000000,0.000000,0.000000,0.000000,0.000000,0.000000,0.000000,0.000000,0.000000,0.000000,0.161126,3,0
360000,-0.002179,9.100684,-0.015577,-0.017470,25.071375,0.038261,0.000586,-0.000035,1.571043,-0.002154,0.000033,0.000139,-0.000001,-0.000092,0.000000,0.005932,0.002250,0.188765,0.033525,0.190563,0.190563,0.191370,0.980078,0.000000,0.000000,0.000000,0.000000,0.000000,0.000000,0.000000,0.000000,0.000000,0.000000,0.000000,0.000000,0.182783,3,0
370000,-0.002283,9.358009,-0.017112,-0.017808,25.078882,0.037393,0.000598,0.000067,1.571051,-0.002542,0.000037,0.000251,-0.000002,-0.000113,0.000001,0.007749,0.002357,0.210355,-0.061218,0.188392,0.188392,0.188863,0.976784,0.000000,0.000000,0.000000,0.000000,0.000000,0.000000,0.000000,0.000000,0.000000,0.000000,0.000000,0.000000,0.203762,3,0
380000,-0.002390,9.615992,-0.015624,-0.018218,25.087370,0.039446,0.000614,0.000203,1.571059,-0.002989,0.000042,0.000183,-0.000002,-0.000138,0.000001,0.008841,0.002466,0.231258,0.035520,0.186448,0.186447,0.186586,0.973287,0.000000,0.000000,0.000000,0.000000,0.000000,0.000000,0.000000,0.000000,0.000000,0.000000,0.000000,0.000000,0.224085,3,0
390000,-0.002497,9.869720,-0.014296,-0.018540,25.091333,0.041624,0.000641,0.000238,1.571070,-0.003176,0.000047,0.000123,-0.000002,-0.000148,0.000001,0.001527,0.002576,0.092464,0.029954,0.184712,0.184712,0.184522,0.969586,0.000000,0.000000,0.000000,0.000000,0.000000,0.000000,0.000000,0.000000,0.000000,0.000000,0.000000,0.000000,0.089653,3,0
400000,-0.002604,10.126033,-0.015680,-0.018836,25.098265,0.040970,0.000666,0.000351,1.571072,-0.003550,0.000053,0.000248,-0.000003,-0.000170,0.000001,0.005615,0.002686,0.176639,-0.059535,0.183172,0.183172,0.182656,0.965681,0.000000,0.000000,0.000000,0.000000,0.000000,0.000000,0.000000,0.000000,0.000000,0.000000,0.000000,0.000000,0.171265,3,0
410000,-0.002712,10.381836,-0.016474,-0.019205,25.104738,0.040792,0.000688,0.000440,1.571079,-0.003901,0.000059,0.000337,-0.000003,-0.000192,0.000001,0.004339,0.002797,0.158802,-0.040267,0.181814,0.181814,0.180971,0.961572,0.000000,0.000000,0.000000,0.000000,0.000000,0.000000,0.000000,0.000000,0.000000,0.000000,0.000000,0.000000,0.154014,3,0
420000,-0.002821,10.635953,-0.015982,-0.019495,25.109240,0.041804,0.000706,0.000493,1.571093,-0.004135,0.000066,0.000331,-0.000003,-0.000206,0.000001,0.001675,0.002908,0.101725,0.002501,0.180625,0.180625,0.179456,0.957261,0.000000,0.000000,0.000000,0.000000,0.000000,0.000000,0.000000,0.000000,0.000000,0.000000,0.000000,0.000000,0.098703,3,0
430000,-0.002930,10.890821,-0.015860,-0.019789,25.114622,0.042375,0.000734,0.000570,1.571108,-0.004437,0.000073,0.000356,-0.000004,-0.000225,0.000001,0.002580,0.003020,0.125867,-0.010277,0.179593,0.179593,0.178097,0.952750,0.000000,0.000000,0.000000,0.000000,0.000000,0.000000,0.000000,0.000000,0.000000,0.000000,0.000000,0.000000,0.122134,3,0
440000,-0.003039,11.148788,-0.016966,-0.020192,25.124083,0.041536,0.000750,0.000743,1.571105,-0.005007,0.000081,0.000486,-0.000004,-0.000263,0.000001,0.008905,0.003133,0.228765,-0.052182,0.178708,0.178708,0.176883,0.948040,0.000000,0.000000,0.000000,0.000000,0.000000,0.000000,0.000000,0.000000,0.000000,0.000000,0.000000,0.000000,0.221972,3,0
450000,-0.003150,11.403885,-0.016045,-0.020536,25.129881,0.043115,0.000761,0.000840,1.571109,-0.005343,0.000090,0.000442,-0.000005,-0.000285,0.000001,0.002770,0.003246,0.129734,0.016943,0.177960,0.177960,0.175803,0.943134,0.000000,0.000000,0.000000,0.000000,0.000000,0.000000,0.000000,0.000000,0.000000,0.000000,0.000000,0.000000,0.125925,3,0
460000,-0.003261,11.660296,-0.014929,-0.020898,25.137430,0.044981,0.000781,0.000976,1.571117,-0.005807,0.000099,0.000380,-0.000005,-0.000317,0.000002,0.004916,0.003360,0.172765,0.023148,0.177339,0.177339,0.174847,0.938035,0.000000,0.000000,0.000000,0.000000,0.000000,0.000000,0.000000,0.000000,0.000000,0.000000,0.000000,0.000000,0.167691,3,0
470000,-0.003372,11.917414,-0.014001,-0.021238,25.146124,0.046504,0.000803,0.001138,1.571123,-0.006349,0.000109,0.000335,-0.000006,-0.000355,0.000002,0.006169,0.003474,0.194581,0.016204,0.176837,0.176837,0.174006,0.932747,0.000000,0.000000,0.000000,0.000000,0.000000,0.000000,0.000000,0.000000,0.000000,0.000000,0.000000,0.000000,0.188877,3,0
480000,-0.003484,12.175226,-0.012969,-0.021577,25.155806,0.048200,0.000830,0.001339,1.571132,-0.006970,0.000119,0.000280,-0.000007,-0.000399,0.000002,0.007587,0.003589,0.215682,0.019290,0.176444,0.176444,0.173271,0.927275,0.000000,0.000000,0.000000,0.000000,0.000000,0.000000,0.000000,0.000000,0.000000,0.000000,0.000000,0.000000,0.209368,3,0
490000,-0.003594,12.432557,-0.011538,-0.021810,25.164885,0.050371,0.000852,0.001531,1.571132,-0.007555,0.000130,0.000182,-0.000008,-0.000442,0.000002,0.006410,0.003703,0.196319,0.032690,0.176154,0.176154,0.172634,0.921621,0.000000,0.000000,0.000000,0.000000,0.000000,0.000000,0.000000,0.000000,0.000000,0.000000,0.000000,0.000000,0.190589,3,0
500000,-0.003704,12.690001,-0.010448,-0.021990,25.174070,0.052069,0.000873,0.001732,1.571144,-0.008161,0.000142,0.000120,-0.000009,-0.000488,0.000003,0.006367,0.003816,0.197323,0.020146,0.175958,0.175958,0.172087,0.915793,0.000000,0.000000,0.000000,0.000000,0.000000,0.000000,0.000000,0.000000,0.000000,0.000000,0.000000,0.000000,0.191572,3,0
510000,-0.003813,12.946979,-0.010543,-0.022252,25.182697,0.052223,0.000891,0.001914,1.571147,-0.008727,0.000154,0.000189,-0.000010,-0.000531,0.000003,0.005225,0.003928,0.178334,-0.021828,0.175850,0.175850,0.171623,0.909794,0.000000,0.000000,0.000000,0.000000,0.000000,0.000000,0.000000,0.000000,0.000000,0.000000,0.000000,0.000000,0.173149,3,0
520000,-0.003921,13.205246,-0.011757,-0.022440,25.193176,0.051122,0.000903,0.002145,1.571152,-0.009444,0.000168,0.000391,-0.000011,-0.000587,0.000003,0.008402,0.004039,0.219454,-0.061257,0.175823,0.175822,0.171234,0.903630,0.000000,0.000000,0.000000,0.000000,0.000000,0.000000,0.000000,0.000000,0.000000,0.000000,0.000000,0.000000,0.213058,3,0
530000,-0.004029,13.463040,-0.012613,-0.022767,25.203077,0.050207,0.000928,0.002371,1.571147,-0.010116,0.000182,0.000555,-0.000012,-0.000641,0.000003,0.006827,0.004151,0.199626,-0.048280,0.175870,0.175870,0.170915,0.897309,0.000000,0.000000,0.000000,0.000000,0.000000,0.000000,0.000000,0.000000,0.000000,0.000000,0.000000,0.000000,0.193816,3,0
540000,-0.004136,13.718618,-0.011182,-0.022976,25.209455,0.052652,0.000959,0.002511,1.571151,-0.010533,0.000197,0.000442,-0.000013,-0.000675,0.000003,0.002526,0.004261,0.120646,0.032278,0.175986,0.175986,0.170659,0.890835,0.000000,0.000000,0.000000,0.000000,0.000000,0.000000,0.000000,0.000000,0.000000,0.000000,0.000000,0.000000,0.117180,3,0
550000,-0.004241,13.977265,-0.010812,-0.023141,25.220623,0.053619,0.000976,0.002780,1.571146,-0.011326,0.000212,0.000464,-0.000014,-0.000741,0.000004,0.008041,0.004369,0.222823,-0.005895,0.176165,0.176165,0.170460,0.884217,0.000000,0.000000,0.000000,0.000000,0.000000,0.000000,0.000000,0.000000,0.000000,0.000000,0.000000,0.000000,0.216323,3,0
560000,-0.004345,14.234855,-0.010461,-0.023383,25.230110,0.054450,0.000993,0.003017,1.571146,-0.011993,0.000229,0.000489,-0.000016,-0.000798,0.000004,0.005412,0.004477,0.182732,-0.006887,0.176401,0.176401,0.170314,0.877460,0.000000,0.000000,0.000000,0.000000,0.000000,0.000000,0.000000,0.000000,0.000000,0.000000,0.000000,0.000000,0.177413,3,0
570000,-0.004448,14.491984,-0.009147,-0.023557,25.238876,0.056514,0.001012,0.003235,1.571152,-0.012606,0.000246,0.000387,-0.000017,-0.000851,0.000004,0.004449,0.004583,0.163593,0.026823,0.176690,0.176690,0.170215,0.870573,0.000000,0.000000,0.000000,0.000000,0.000000,0.000000,0.000000,0.000000,0.000000,0.000000,0.000000,0.000000,0.158839,3,0
580000,-0.004550,14.749248,-0.008418,-0.023833,25.247847,0.057801,0.001045,0.003449,1.571157,-0.013238,0.000264,0.000366,-0.000019,-0.000908,0.000005,0.004401,0.004688,0.164802,0.005444,0.177027,0.177026,0.170158,0.863562,0.000000,0.000000,0.000000,0.000000,0.000000,0.000000,0.000000,0.000000,0.000000,0.000000,0.000000,0.000000,0.160004,3,0
590000,-0.004650,15.007230,-0.008097,-0.023968,25.257927,0.058348,0.001059,0.003701,1.571157,-0.013969,0.000283,0.000403,-0.000020,-0.000974,0.000005,0.005599,0.004792,0.185755,-0.009352,0.177406,0.177405,0.170138,0.856436,0.000000,0.000000,0.000000,0.000000,0.000000,0.000000,0.000000,0.000000,0.000000,0.000000,0.000000,0.000000,0.180323,3,0
600000,-0.004749,15.264747,-0.007202,-0.024138,25.267143,0.059853,0.001088,0.003930,1.571166,-0.014638,0.000303,0.000359,-0.000022,-0.001035,0.000005,0.004491,0.004894,0.166218,0.010678,0.177823,0.177823,0.170152,0.849201,0.000000,0.000000,0.000000,0.000000,0.000000,0.000000,0.000000,0.000000,0.000000,0.000000,0.000000,0.000000,0.161362,3,0
610000,-0.004847,15.521804,-0.008228,-0.024355,25.275600,0.058433,0.001111,0.004139,1.571178,-0.015243,0.000324,0.000601,-0.000024,-0.001092,0.000006,0.004042,0.004995,0.147155,-0.057563,0.178276,0.178275,0.170196,0.841867,0.000000,0.000000,0.000000,0.000000,0.000000,0.000000,0.000000,0.000000,0.000000,0.000000,0.000000,0.000000,0.142864,3,0
620000,-0.004942,15.781957,-0.008113,-0.024439,25.289139,0.058961,0.001141,0.004515,1.571174,-0.016285,0.000345,0.000673,-0.000026,-0.001192,0.000006,0.009982,0.005094,0.247832,-0.016907,0.178758,0.178757,0.170265,0.834441,0.000000,0.000000,0.000000,0.000000,0.000000,0.000000,0.000000,0.000000,0.000000,0.000000,0.000000,0.000000,0.240500,3,0
630000,-0.005036,16.040428,-0.008434,-0.024637,25.299662,0.058591,0.001170,0.004805,1.571170,-0.017085,0.000368,0.000815,-0.000028,-0.001271,0.000007,0.005788,0.005191,0.186335,-0.032342,0.179267,0.179267,0.170356,0.826931,0.000000,0.000000,0.000000,0.000000,0.000000,0.000000,0.000000,0.000000,0.000000,0.000000,0.000000,0.000000,0.180837,3,0
640000,-0.005127,16.299017,-0.009259,-0.024691,25.310286,0.057411,0.001191,0.005110,1.571172,-0.017900,0.000391,0.001039,-0.000030,-0.001352,0.000007,0.006012,0.005286,0.186184,-0.049907,0.179800,0.179799,0.170466,0.819345,0.000000,0.000000,0.000000,0.000000,0.000000,0.000000,0.000000,0.000000,0.000000,0.000000,0.000000,0.000000,0.180678,3,0
650000,-0.005217,16.555929,-0.009534,-0.024856,25.318125,0.057182,0.001208,0.005311,1.571169,-0.018464,0.000415,0.001177,-0.000033,-0.001409,0.000007,0.002730,0.005379,0.126276,-0.030188,0.180352,0.180351,0.170591,0.811691,0.000000,0.000000,0.000000,0.000000,0.000000,0.000000,0.000000,0.000000,0.000000,0.000000,0.000000,0.000000,0.122591,3,0
660000,-0.005305,16.815973,-0.009941,-0.024981,25.331081,0.056753,0.001225,0.005710,1.571177,-0.019497,0.000440,0.001339,-0.000035,-0.001516,0.000008,0.008537,0.005470,0.227108,-0.034686,0.180921,0.180921,0.170729,0.803979,0.000000,0.000000,0.000000,0.000000,0.000000,0.000000,0.000000,0.000000,0.000000,0.000000,0.000000,0.000000,0.220323,3,0
670000,-0.005392,17.074312,-0.009869,-0.025177,25.341040,0.056935,0.001246,0.006006,1.571185,-0.020265,0.000466,0.001423,-0.000038,-0.001597,0.000008,0.004494,0.005560,0.165724,-0.017662,0.181504,0.181504,0.170878,0.796215,0.000000,0.000000,0.000000,0.000000,0.000000,0.000000,0.000000,0.000000,0.000000,0.000000,0.000000,0.000000,0.160800,3,0
680000,-0.005477,17.334578,-0.010226,-0.025312,25.354225,0.056600,0.001282,0.006414,1.571185,-0.021327,0.000493,0.001582,-0.000041,-0.001710,0.000009,0.008385,0.005648,0.225346,-0.032753,0.182099,0.182098,0.171033,0.788407,0.000000,0.000000,0.000000,0.000000,0.000000,0.000000,0.000000,0.000000,0.000000,0.000000,0.000000,0.000000,0.218574,3,0
690000,-0.005560,17.591305,-0.011222,-0.025456,25.361149,0.055388,0.001308,0.006612,1.571186,-0.021826,0.000521,0.001855,-0.000044,-0.001765,0.000009,0.002248,0.005734,0.104101,-0.055100,0.182701,0.182700,0.171194,0.780564,0.000000,0.000000,0.000000,0.000000,0.000000,0.000000,0.000000,0.000000,0.000000,0.000000,0.000000,0.000000,0.101084,3,0
700000,-0.005642,17.851805,-0.012003,-0.025604,25.374434,0.054311,0.001326,0.007043,1.571188,-0.022922,0.000550,0.002092,-0.000047,-0.001887,0.000010,0.008543,0.005819,0.225004,-0.046962,0.183310,0.183309,0.171358,0.772693,0.000000,0.000000,0.000000,0.000000,0.000000,0.000000,0.000000,0.000000,0.000000,0.000000,0.000000,0.000000,0.218203,3,0
710000,-0.005720,18.112394,-0.011341,-0.025574,25.387829,0.055610,0.001352,0.007480,1.571193,-0.024025,0.000579,0.002072,-0.000050,-0.002011,0.000010,0.008028,0.005901,0.222797,0.003868,0.183923,0.183922,0.171522,0.764803,0.000000,0.000000,0.000000,0.000000,0.000000,0.000000,0.000000,0.000000,0.000000,0.000000,0.000000,0.000000,0.216043,3,0
720000,-0.005796,18.370625,-0.010541,-0.025676,25.396965,0.056938,0.001373,0.007763,1.571195,-0.024733,0.000609,0.002028,-0.000053,-0.002092,0.000011,0.003228,0.005980,0.140982,0.008268,0.184538,0.184537,0.171686,0.756900,0.000000,0.000000,0.000000,0.000000,0.000000,0.000000,0.000000,0.000000,0.000000,0.000000,0.000000,0.000000,0.136769,3,0
730000,-0.005869,18.629578,-0.009812,-0.025735,25.407345,0.058373,0.001401,0.008084,1.571188,-0.025554,0.000640,0.001999,-0.000057,-0.002188,0.000011,0.004195,0.006056,0.160965,0.005238,0.185153,0.185152,0.171847,0.748991,0.000000,0.000000,0.000000,0.000000,0.000000,0.000000,0.000000,0.000000,0.000000,0.000000,0.000000,0.000000,0.156109,3,0
740000,-0.005940,18.889248,-0.010676,-0.025704,25.418699,0.057266,0.001436,0.008456,1.571188,-0.026485,0.000672,0.002273,-0.000061,-0.002299,0.000012,0.005669,0.006129,0.180214,-0.050770,0.185767,0.185765,0.172004,0.741085,0.000000,0.000000,0.000000,0.000000,0.000000,0.000000,0.000000,0.000000,0.000000,0.000000,0.000000,0.000000,0.174734,3,0
750000,-0.006010,19.150862,-0.011858,-0.025822,25.433340,0.055521,0.001466,0.008969,1.571181,-0.027735,0.000705,0.002609,-0.000065,-0.002450,0.000013,0.009800,0.006202,0.238493,-0.061325,0.186377,0.186375,0.172155,0.733188,0.000000,0.000000,0.000000,0.000000,0.000000,0.000000,0.000000,0.000000,0.000000,0.000000,0.000000,0.000000,0.231161,3,0
760000,-0.006076,19.412540,-0.011162,-0.025841,25.447895,0.056939,0.001490,0.009483,1.571188,-0.028983,0.000739,0.002582,-0.000069,-0.002604,0.000013,0.008939,0.006272,0.235157,0.004622,0.186982,0.186980,0.172300,0.725306,0.000000,0.000000,0.000000,0.000000,0.000000,0.000000,0.000000,0.000000,0.000000,0.000000,0.000000,0.000000,0.227910,3,0
770000,-0.006140,19.674284,-0.010405,-0.025924,25.462532,0.058113,0.001519,0.010005,1.571196,-0.030228,0.000773,0.002545,-0.000073,-0.002759,0.000014,0.008685,0.006339,0.231758,0.006348,0.187581,0.187579,0.172436,0.717446,0.000000,0.000000,0.000000,0.000000,0.000000,0.000000,0.000000,0.000000,0.000000,0.000000,0.000000,0.000000,0.224596,3,0
780000,-0.006202,19.932970,-0.009686,-0.025902,25.471582,0.059279,0.001560,0.010310,1.571192,-0.030929,0.000808,0.002518,-0.000077,-0.002849,0.000015,0.002692,0.006403,0.128899,0.004540,0.188173,0.188171,0.172564,0.709615,0.000000,0.000000,0.000000,0.000000,0.000000,0.000000,0.000000,0.000000,0.000000,0.000000,0.000000,0.000000,0.125011,3,0
790000,-0.006262,20.193626,-0.009011,-0.025956,25.483906,0.060552,0.001593,0.010758,1.571192,-0.031964,0.000844,0.002501,-0.000082,-0.002982,0.000015,0.005724,0.006465,0.188183,0.002593,0.188756,0.188754,0.172681,0.701819,0.000000,0.000000,0.000000,0.000000,0.000000,0.000000,0.000000,0.000000,0.000000,0.000000,0.000000,0.000000,0.182370,3,0
800000,-0.006320,20.451841,-0.010096,-0.025982,25.491793,0.059243,0.001633,0.011012,1.571192,-0.032555,0.000880,0.002850,-0.000087,-0.003060,0.000016,0.002396,0.006525,0.106316,-0.059054,0.189330,0.189328,0.172788,0.694062,0.000000,0.000000,0.000000,0.000000,0.000000,0.000000,0.000000,0.000000,0.000000,0.000000,0.000000,0.000000,0.103152,3,0
810000,-0.006375,20.709520,-0.010266,-0.025944,25.498688,0.059169,0.001659,0.011238,1.571193,-0.033041,0.000918,0.003010,-0.000091,-0.003125,0.000016,0.001332,0.006583,0.086567,-0.026763,0.189894,0.189892,0.172883,0.686352,0.000000,0.000000,0.000000,0.000000,0.000000,0.000000,0.000000,0.000000,0.000000,0.000000,0.000000,0.000000,0.084068,3,0
820000,-0.006426,20.969822,-0.009246,-0.025858,25.510141,0.060808,0.001696,0.011653,1.571197,-0.033988,0.000955,0.002920,-0.000097,-0.003254,0.000017,0.004529,0.006637,0.166759,0.014625,0.190447,0.190445,0.172966,0.678692,0.000000,0.000000,0.000000,0.000000,0.000000,0.000000,0.000000,0.000000,0.000000,0.000000,0.000000,0.000000,0.161594,3,0
830000,-0.006475,21.230190,-0.008539,-0.025817,25.521559,0.061803,0.001739,0.012073,1.571202,-0.034932,0.000994,0.002898,-0.000102,-0.003384,0.000017,0.004390,0.006688,0.164768,0.003268,0.190989,0.190987,0.173036,0.671088,0.000000,0.000000,0.000000,0.000000,0.000000,0.000000,0.000000,0.000000,0.000000,0.000000,0.000000,0.000000,0.159654,3,0
840000,-0.006521,21.490622,-0.007673,-0.025706,25.532932,0.063243,0.001768,0.012491,1.571195,-0.035873,0.001033,0.002844,-0.000107,-0.003516,0.000018,0.004290,0.006736,0.162712,0.008359,0.191518,0.191516,0.173093,0.663545,0.000000,0.000000,0.000000,0.000000,0.000000,0.000000,0.000000,0.000000,0.000000,0.000000,0.000000,0.000000,0.157653,3,0
850000,-0.006564,21.748568,-0.006702,-0.025641,25.539692,0.064827,0.001796,0.012722,1.571200,-0.036346,0.001073,0.002771,-0.000113,-0.003583,0.000018,0.001089,0.006781,0.081078,0.011455,0.192035,0.192033,0.173137,0.656067,0.000000,0.000000,0.000000,0.000000,0.000000,0.000000,0.000000,0.000000,0.000000,0.000000,0.000000,0.000000,0.078758,3,0
860000,-0.006606,22.007879,-0.008079,-0.025613,25.548771,0.062859,0.001820,0.013065,1.571194,-0.037060,0.001114,0.003220,-0.000119,-0.003687,0.000019,0.003182,0.006824,0.121248,-0.070416,0.192539,0.192537,0.173167,0.648659,0.000000,0.000000,0.000000,0.000000,0.000000,0.000000,0.000000,0.000000,0.000000,0.000000,0.000000,0.000000,0.117541,3,0
870000,-0.006644,22.269178,-0.006904,-0.025518,25.561380,0.064742,0.001865,0.013568,1.571202,-0.038128,0.001154,0.003096,-0.000125,-0.003844,0.000020,0.005285,0.006865,0.179905,0.018699,0.193030,0.193028,0.173183,0.641324,0.000000,0.000000,0.000000,0.000000,0.000000,0.000000,0.000000,0.000000,0.000000,0.000000,0.000000,0.000000,0.174245,3,0
880000,-0.006680,22.531803,-0.007239,-0.025475,25.576040,0.064488,0.001892,0.014171,1.571206,-0.039423,0.001196,0.003317,-0.000131,-0.004038,0.000021,0.007769,0.006903,0.216665,-0.034232,0.193508,0.193505,0.173185,0.634065,0.000000,0.000000,0.000000,0.000000,0.000000,0.000000,0.000000,0.000000,0.000000,0.000000,0.000000,0.000000,0.209783,3,0
890000,-0.006714,22.793810,-0.007431,-0.025397,25.589508,0.064117,0.001929,0.014715,1.571205,-0.040583,0.001238,0.003507,-0.000137,-0.004214,0.000022,0.006117,0.006938,0.192440,-0.029090,0.193972,0.193969,0.173173,0.626887,0.000000,0.000000,0.000000,0.000000,0.000000,0.000000,0.000000,0.000000,0.000000,0.000000,0.000000,0.000000,0.186339,3,0
900000,-0.006746,23.055202,-0.007253,-0.025387,25.601675,0.064424,0.001964,0.015215,1.571213,-0.041607,0.001281,0.003612,-0.000144,-0.004372,0.000023,0.004648,0.006972,0.168844,-0.016184,0.194422,0.194419,0.173146,0.619793,0.000000,0.000000,0.000000,0.000000,0.000000,0.000000,0.000000,0.000000,0.000000,0.000000,0.000000,0.000000,0.163511,3,0
910000,-0.006776,23.314693,-0.008426,-0.025245,25.610386,0.062972,0.002009,0.015530,1.571216,-0.042255,0.001324,0.004039,-0.000150,-0.004474,0.000023,0.002472,0.007003,0.106117,-0.063286,0.194859,0.194856,0.173105,0.612785,0.000000,0.000000,0.000000,0.000000,0.000000,0.000000,0.000000,0.000000,0.000000,0.000000,0.000000,0.000000,0.102892,3,0
920000,-0.006803,23.578119,-0.007450,-0.025176,25.625809,0.064653,0.002045,0.016193,1.571218,-0.043633,0.001368,0.003953,-0.000157,-0.004693,0.000024,0.008139,0.007032,0.224241,0.011866,0.195283,0.195279,0.173050,0.605866,0.000000,0.000000,0.000000,0.000000,0.000000,0.000000,0.000000,0.000000,0.000000,0.000000,0.000000,0.000000,0.217050,3,0
930000,-0.006828,23.840900,-0.006505,-0.025132,25.640024,0.066197,0.002082,0.016803,1.571226,-0.044864,0.001412,0.003879,-0.000164,-0.004892,0.000025,0.006423,0.007059,0.199207,0.010187,0.195693,0.195689,0.172981,0.599039,0.000000,0.000000,0.000000,0.000000,0.000000,0.000000,0.000000,0.000000,0.000000,0.000000,0.000000,0.000000,0.192832,3,0
940000,-0.006850,24.102392,-0.005610,-0.024924,25.651804,0.067510,0.002112,0.017288,1.571227,-0.045828,0.001456,0.003821,-0.000171,-0.005050,0.000026,0.003889,0.007081,0.154951,0.007940,0.196090,0.196086,0.172899,0.592306,0.000000,0.000000,0.000000,0.000000,0.000000,0.000000,0.000000,0.000000,0.000000,0.000000,0.000000,0.000000,0.150044,3,0
950000,-0.006870,24.361956,-0.005004,-0.024834,25.659996,0.068603,0.002154,0.017598,1.571236,-0.046404,0.001500,0.003838,-0.000179,-0.005146,0.000027,0.001378,0.007102,0.092129,-0.002706,0.196474,0.196470,0.172802,0.585669,0.000000,0.000000,0.000000,0.000000,0.000000,0.000000,0.000000,0.000000,0.000000,0.000000,0.000000,0.000000,0.089376,3,0
960000,-0.006886,24.621565,-0.004115,-0.024631,25.668156,0.069886,0.002197,0.017912,1.571241,-0.046975,0.001545,0.003787,-0.000186,-0.005243,0.000027,0.001348,0.007120,0.090908,0.006822,0.196845,0.196841,0.172692,0.579130,0.000000,0.000000,0.000000,0.000000,0.000000,0.000000,0.000000,0.000000,0.000000,0.000000,0.000000,0.000000,0.088196,3,0
970000,-0.006902,24.884487,-0.003114,-0.024588,25.682051,0.071451,0.002239,0.018531,1.571236,-0.048168,0.001591,0.003708,-0.000194,-0.005448,0.000028,0.005786,0.007136,0.189039,0.010386,0.197204,0.197199,0.172569,0.572689,0.000000,0.000000,0.000000,0.000000,0.000000,0.000000,0.000000,0.000000,0.000000,0.000000,0.000000,0.000000,0.182957,3,0
980000,-0.006914,25.143480,-0.002049,-0.024385,25.688740,0.073085,0.002271,0.018776,1.571242,-0.048581,0.001636,0.003620,-0.000202,-0.005519,0.000028,0.000715,0.007150,0.065130,0.011905,0.197550,0.197545,0.172433,0.566349,0.000000,0.000000,0.000000,0.000000,0.000000,0.000000,0.000000,0.000000,0.000000,0.000000,0.000000,0.000000,0.063365,3,0
990000,-0.006926,25.406462,-0.002948,-0.024311,25.702528,0.071802,0.002308,0.019386,1.571238,-0.049751,0.001682,0.004031,-0.000210,-0.005728,0.000030,0.005974,0.007161,0.183767,-0.056838,0.197884,0.197879,0.172284,0.560111,0.000000,0.000000,0.000000,0.000000,0.000000,0.000000,0.000000,0.000000,0.000000,0.000000,0.000000,0.000000,0.177839,3,0
1000000,-0.006934,25.665493,-0.002082,-0.024128,25.709097,0.073165,0.002340,0.019625,1.571253,-0.050133,0.001728,0.003993,-0.000218,-0.005796,0.000030,0.000588,0.007171,0.059801,0.004845,0.198207,0.198202,0.172122,0.553976,0.000000,0.000000,0.000000,0.000000,0.000000,0.000000,0.000000,0.000000,0.000000,0.000000,0.000000,0.000000,0.058239,3,0
1010000,-0.006942,25.924572,-0.001387,-0.024048,25.715633,0.074010,0.002377,0.019865,1.571254,-0.050513,0.001774,0.004003,-0.000227,-0.005865,0.000030,0.000572,0.007179,0.059128,-0.001499,0.198519,0.198513,0.171949,0.547944,0.000000,0.000000,0.000000,0.000000,0.000000,0.000000,0.000000,0.000000,0.000000,0.000000,0.000000,0.000000,0.057591,3,0
1020000,-0.006947,26.186989,-0.000133,-0.023971,25.728041,0.075704,0.002426,0.020415,1.571249,-0.051528,0.001821,0.003864,-0.000235,-0.006053,0.000031,0.004073,0.007185,0.157804,0.017864,0.198820,0.198814,0.171764,0.542017,0.000000,0.000000,0.000000,0.000000,0.000000,0.000000,0.000000,0.000000,0.000000,0.000000,0.000000,0.000000,0.152735,3,0
1030000,-0.006952,26.449404,-0.001501,-0.023836,25.740170,0.073745,0.002472,0.020965,1.571248,-0.052522,0.001868,0.004421,-0.000244,-0.006241,0.000032,0.004710,0.007189,0.153690,-0.074391,0.199110,0.199104,0.171568,0.536194,0.000000,0.000000,0.000000,0.000000,0.000000,0.000000,0.000000,0.000000,0.000000,0.000000,0.000000,0.000000,0.148749,3,0
1040000,-0.006954,26.711809,-0.000909,-0.023688,25.752216,0.074475,0.002512,0.021505,1.571256,-0.053490,0.001915,0.004455,-0.000253,-0.006426,0.000033,0.003618,0.007193,0.149578,-0.005144,0.199391,0.199384,0.171361,0.530477,0.000000,0.000000,0.000000,0.000000,0.000000,0.000000,0.000000,0.000000,0.000000,0.000000,0.000000,0.000000,0.144775,3,0
1050000,-0.006955,26.971561,-0.001159,-0.023518,25.759409,0.074177,0.002565,0.021778,1.571255,-0.053919,0.001962,0.004722,-0.000262,-0.006510,0.000034,0.000909,0.007194,0.065962,-0.035136,0.199662,0.199655,0.171143,0.524865,0.000000,0.000000,0.000000,0.000000,0.000000,0.000000,0.000000,0.000000,0.000000,0.000000,0.000000,0.000000,0.064143,3,0
1060000,-0.006953,27.231340,-0.000285,-0.023398,25.766500,0.075372,0.002604,0.022049,1.571257,-0.054339,0.002009,0.004686,-0.000271,-0.006593,0.000034,0.000683,0.007193,0.064564,0.004391,0.199923,0.199916,0.170915,0.519358,0.000000,0.000000,0.000000,0.000000,0.000000,0.000000,0.000000,0.000000,0.000000,0.000000,0.000000,0.000000,0.062798,3,0
1070000,-0.006951,27.493139,-0.001759,-0.023135,25.777058,0.073295,0.002642,0.022534,1.571267,-0.055141,0.002057,0.005292,-0.000280,-0.006754,0.000035,0.003432,0.007189,0.122774,-0.078397,0.200177,0.200169,0.170677,0.513956,0.000000,0.000000,0.000000,0.000000,0.000000,0.000000,0.000000,0.000000,0.000000,0.000000,0.000000,0.000000,0.118877,3,0
1080000,-0.006943,27.751608,-0.000524,-0.022867,25.781677,0.075040,0.002684,0.022643,1.571272,-0.055271,0.002104,0.005155,-0.000289,-0.006780,0.000035,0.000121,0.007184,0.019901,0.017320,0.200421,0.200413,0.170430,0.508660,0.000000,0.000000,0.000000,0.000000,0.000000,0.000000,0.000000,0.000000,0.000000,0.000000,0.000000,0.000000,0.020452,3,0
1090000,-0.006935,28.014112,-0.001287,-0.022628,25.793264,0.073826,0.002731,0.023195,1.571270,-0.056182,0.002152,0.005572,-0.000299,-0.006969,0.000036,0.003586,0.007174,0.139086,-0.053362,0.200659,0.200650,0.170174,0.503468,0.000000,0.000000,0.000000,0.000000,0.000000,0.000000,0.000000,0.000000,0.000000,0.000000,0.000000,0.000000,0.134611,3,0
1100000,-0.006925,28.276600,-0.001877,-0.022503,25.804832,0.072773,0.002768,0.023736,1.571266,-0.057067,0.002200,0.005939,-0.000308,-0.007154,0.000037,0.003294,0.007164,0.134890,-0.046835,0.200889,0.200880,0.169909,0.498382,0.000000,0.000000,0.000000,0.000000,0.000000,0.000000,0.000000,0.000000,0.000000,0.000000,0.000000,0.000000,0.130555,3,0
1110000,-0.006914,28.539734,-0.002543,-0.022362,25.817249,0.071870,0.002804,0.024351,1.571261,-0.058056,0.002248,0.006328,-0.000318,-0.007365,0.000038,0.004055,0.007153,0.150593,-0.049292,0.201111,0.201102,0.169637,0.493399,0.000000,0.000000,0.000000,0.000000,0.000000,0.000000,0.000000,0.000000,0.000000,0.000000,0.000000,0.000000,0.145706,3,0
1120000,-0.006902,28.801502,-0.002825,-0.022257,25.827280,0.071295,0.002842,0.024802,1.571268,-0.058753,0.002295,0.006610,-0.000328,-0.007515,0.000039,0.002022,0.007141,0.106001,-0.035486,0.201328,0.201318,0.169356,0.488520,0.000000,0.000000,0.000000,0.000000,0.000000,0.000000,0.000000,0.000000,0.000000,0.000000,0.000000,0.000000,0.102674,3,0
1130000,-0.006890,29.061928,-0.004145,-0.022127,25.834818,0.069514,0.002885,0.025095,1.571269,-0.059168,0.002343,0.007195,-0.000338,-0.007607,0.000039,0.001491,0.007128,0.062799,-0.072335,0.201538,0.201528,0.169068,0.483744,0.000000,0.000000,0.000000,0.000000,0.000000,0.000000,0.000000,0.000000,0.000000,0.000000,0.000000,0.000000,0.061074,3,0
1140000,-0.006876,29.321026,-0.005454,-0.021982,25.839846,0.067979,0.002939,0.025230,1.571267,-0.059307,0.002391,0.007782,-0.000348,-0.007640,0.000040,0.000910,0.007114,0.020966,-0.071617,0.201743,0.201732,0.168774,0.479069,0.000000,0.000000,0.000000,0.000000,0.000000,0.000000,0.000000,0.000000,0.000000,0.000000,0.000000,0.000000,0.021390,3,0
1150000,-0.006860,29.583492,-0.006684,-0.021739,25.850639,0.066335,0.002983,0.025761,1.571275,-0.060095,0.002439,0.008336,-0.000358,-0.007818,0.000041,0.003062,0.007098,0.119638,-0.068011,0.201943,0.201932,0.168473,0.474495,0.000000,0.000000,0.000000,0.000000,0.000000,0.000000,0.000000,0.000000,0.000000,0.000000,0.000000,0.000000,0.115810,3,0
1160000,-0.006841,29.846596,-0.005334,-0.021597,25.862446,0.068312,0.003035,0.026336,1.571275,-0.060986,0.002486,0.008125,-0.000369,-0.008021,0.000042,0.003057,0.007081,0.135368,0.024513,0.202138,0.202126,0.168165,0.470022,0.000000,0.000000,0.000000,0.000000,0.000000,0.000000,0.000000,0.000000,0.000000,0.000000,0.000000,0.000000,0.130989,3,0
1170000,-0.006821,30.106312,-0.005258,-0.021312,25.868193,0.068304,0.003087,0.026523,1.571271,-0.061191,0.002533,0.008306,-0.000379,-0.008069,0.000042,0.000242,0.007059,0.031178,-0.021893,0.202329,0.202317,0.167852,0.465648,0.000000,0.000000,0.000000,0.000000,0.000000,0.000000,0.000000,0.000000,0.000000,0.000000,0.000000,0.000000,0.030887,3,0
1180000,-0.006799,30.368727,-0.005803,-0.021012,25.878609,0.067591,0.003133,0.027026,1.571265,-0.061912,0.002580,0.008670,-0.000390,-0.008239,0.000043,0.002247,0.007035,0.109346,-0.043989,0.202516,0.202503,0.167534,0.461371,0.000000,0.000000,0.000000,0.000000,0.000000,0.000000,0.000000,0.000000,0.000000,0.000000,0.000000,0.000000,0.105870,3,0
1190000,-0.006774,30.629766,-0.005035,-0.020740,25.886553,0.068631,0.003179,0.027355,1.571276,-0.062343,0.002626,0.008639,-0.000401,-0.008341,0.000043,0.000700,0.007011,0.065493,0.003169,0.202700,0.202686,0.167210,0.457193,0.000000,0.000000,0.000000,0.000000,0.000000,0.000000,0.000000,0.000000,0.000000,0.000000,0.000000,0.000000,0.063642,3,0
1200000,-0.006748,30.889454,-0.005208,-0.020518,25.891876,0.068356,0.003237,0.027521,1.571280,-0.062495,0.002672,0.008903,-0.000412,-0.008379,0.000044,0.000250,0.006983,0.023043,-0.031127,0.202880,0.202866,0.166882,0.453110,0.000000,0.000000,0.000000,0.000000,0.000000,0.000000,0.000000,0.000000,0.000000,0.000000,0.000000,0.000000,0.023261,3,0
1210000,-0.006721,31.151169,-0.005282,-0.020369,25.900831,0.068238,0.003293,0.027929,1.571283,-0.063029,0.002719,0.009132,-0.000423,-0.008511,0.000044,0.001195,0.006955,0.081366,-0.027360,0.203058,0.203043,0.166550,0.449122,0.000000,0.000000,0.000000,0.000000,0.000000,0.000000,0.000000,0.000000,0.000000,0.000000,0.000000,0.000000,0.078896,3,0
1220000,-0.006692,31.412863,-0.005529,-0.020111,25.909546,0.068096,0.003334,0.028331,1.571283,-0.063542,0.002765,0.009417,-0.000434,-0.008639,0.000045,0.001171,0.006926,0.077986,-0.033670,0.203233,0.203217,0.166214,0.445228,0.000000,0.000000,0.000000,0.000000,0.000000,0.000000,0.000000,0.000000,0.000000,0.000000,0.000000,0.000000,0.075637,3,0
1230000,-0.006662,31.673183,-0.005557,-0.019903,25.915672,0.068111,0.003381,0.028556,1.571296,-0.063771,0.002811,0.009639,-0.000445,-0.008698,0.000045,0.000312,0.006895,0.034872,-0.025843,0.203406,0.203390,0.165874,0.441425,0.000000,0.000000,0.000000,0.000000,0.000000,0.000000,0.000000,0.000000,0.000000,0.000000,0.000000,0.000000,0.034340,3,0
1240000,-0.006629,31.934847,-0.005088,-0.019575,25.924126,0.068703,0.003431,0.028937,1.571298,-0.064246,0.002856,0.009701,-0.000457,-0.008820,0.000046,0.000868,0.006862,0.072674,-0.007772,0.203578,0.203561,0.165531,0.437714,0.000000,0.000000,0.000000,0.000000,0.000000,0.000000,0.000000,0.000000,0.000000,0.000000,0.000000,0.000000,0.070520,3,0
1250000,-0.006595,32.193115,-0.005442,-0.019248,25.926420,0.068236,0.003483,0.028871,1.571299,-0.064051,0.002901,0.010040,-0.000468,-0.008770,0.000046,0.000390,0.006826,-0.030045,-0.038233,0.203748,0.203730,0.165185,0.434092,0.000000,0.000000,0.000000,0.000000,0.000000,0.000000,0.000000,0.000000,0.000000,0.000000,0.000000,0.000000,0.029770,3,0
1260000,-0.006557,32.451401,-0.004107,-0.018964,25.928679,0.070134,0.003539,0.028811,1.571316,-0.063855,0.002945,0.009837,-0.000480,-0.008718,0.000046,0.000239,0.006789,-0.029907,0.023242,0.203917,0.203898,0.164837,0.430558,0.000000,0.000000,0.000000,0.000000,0.000000,0.000000,0.000000,0.000000,0.000000,0.000000,0.000000,0.000000,0.029624,3,0
1270000,-0.006519,32.712421,-0.004243,-0.018636,25.935783,0.070003,0.003584,0.029089,1.571331,-0.064179,0.002989,0.010106,-0.000491,-0.008805,0.000046,0.000558,0.006748,0.049725,-0.030708,0.204085,0.204065,0.164486,0.427111,0.000000,0.000000,0.000000,0.000000,0.000000,0.000000,0.000000,0.000000,0.000000,0.000000,0.000000,0.000000,0.048471,3,0
1280000,-0.006479,32.974777,-0.003786,-0.018410,25.945324,0.070648,0.003626,0.029543,1.571330,-0.064743,0.003033,0.010177,-0.000503,-0.008958,0.000047,0.001233,0.006707,0.086815,-0.008871,0.204252,0.204232,0.164133,0.423751,0.000000,0.000000,0.000000,0.000000,0.000000,0.000000,0.000000,0.000000,0.000000,0.000000,0.000000,0.000000,0.084108,3,0
1290000,-0.006437,33.234383,-0.002968,-0.018118,25.949821,0.071653,0.003686,0.029625,1.571337,-0.064764,0.003076,0.010143,-0.000515,-0.008964,0.000047,0.000011,0.006664,0.003277,0.003778,0.204420,0.204399,0.163779,0.420474,0.000000,0.000000,0.000000,0.000000,0.000000,0.000000,0.000000,0.000000,0.000000,0.000000,0.000000,0.000000,0.007174,3,0
1300000,-0.006393,33.492638,-0.001919,-0.017765,25.951687,0.073082,0.003728,0.029527,1.571346,-0.064520,0.003119,0.010041,-0.000527,-0.008896,0.000047,0.000258,0.006619,-0.037704,0.011658,0.204587,0.204565,0.163423,0.417279,0.000000,0.000000,0.000000,0.000000,0.000000,0.000000,0.000000,0.000000,0.000000,0.000000,0.000000,0.000000,0.036976,3,0
1310000,-0.006349,33.752953,-0.001844,-0.017548,25.957268,0.073124,0.003775,0.029689,1.571355,-0.064663,0.003162,0.010261,-0.000539,-0.008937,0.000047,0.000182,0.006572,0.022079,-0.024358,0.204755,0.204732,0.163067,0.414166,0.000000,0.000000,0.000000,0.000000,0.000000,0.000000,0.000000,0.000000,0.000000,0.000000,0.000000,0.000000,0.022249,3,0
1320000,-0.006303,34.011906,-0.001986,-0.017239,25.960394,0.073123,0.003817,0.029677,1.571370,-0.064538,0.003204,0.010562,-0.000551,-0.008902,0.000047,0.000243,0.006525,-0.019623,-0.032744,0.204922,0.204899,0.162709,0.411133,0.000000,0.000000,0.000000,0.000000,0.000000,0.000000,0.000000,0.000000,0.000000,0.000000,0.000000,0.000000,0.019979,3,0
1330000,-0.006255,34.272224,-0.001768,-0.016918,25.965927,0.073241,0.003860,0.029845,1.571385,-0.064664,0.003246,0.010736,-0.000563,-0.008940,0.000048,0.000128,0.006476,0.019581,-0.019136,0.205091,0.205066,0.162351,0.408179,0.000000,0.000000,0.000000,0.000000,0.000000,0.000000,0.000000,0.000000,0.000000,0.000000,0.000000,0.000000,0.019917,3,0
1340000,-0.006207,34.532536,-0.002465,-0.016628,25.971367,0.072438,0.003901,0.029999,1.571384,-0.064777,0.003288,0.011227,-0.000575,-0.008975,0.000048,0.000516,0.006425,0.017632,-0.053247,0.205260,0.205235,0.161993,0.405301,0.000000,0.000000,0.000000,0.000000,0.000000,0.000000,0.000000,0.000000,0.000000,0.000000,0.000000,0.000000,0.018118,3,0
1350000,-0.006155,34.793510,-0.001321,-0.016271,25.977877,0.073777,0.003954,0.030231,1.571387,-0.065003,0.003329,0.011079,-0.000587,-0.009042,0.000048,0.000249,0.006374,0.035568,0.015446,0.205430,0.205404,0.161634,0.402498,0.000000,0.000000,0.000000,0.000000,0.000000,0.000000,0.000000,0.000000,0.000000,0.000000,0.000000,0.000000,0.034898,3,0
1360000,-0.006102,35.052422,-0.000900,-0.015945,25.980537,0.074134,0.004004,0.030169,1.571394,-0.064834,0.003369,0.011196,-0.000599,-0.008992,0.000048,0.000145,0.006318,-0.026684,-0.012194,0.205601,0.205574,0.161276,0.399769,0.000000,0.000000,0.000000,0.000000,0.000000,0.000000,0.000000,0.000000,0.000000,0.000000,0.000000,0.000000,0.026485,3,0
1370000,-0.006048,35.313381,0.000144,-0.015694,25.986755,0.075352,0.004063,0.030397,1.571398,-0.065038,0.003408,0.011088,-0.000611,-0.009054,0.000049,0.000196,0.006263,0.032440,0.011111,0.205774,0.205745,0.160919,0.397112,0.000000,0.000000,0.000000,0.000000,0.000000,0.000000,0.000000,0.000000,0.000000,0.000000,0.000000,0.000000,0.031908,3,0
1380000,-0.005995,35.573647,-0.001184,-0.015431,25.991741,0.073837,0.004116,0.030516,1.571403,-0.065103,0.003449,0.011824,-0.000623,-0.009078,0.000049,0.001012,0.006206,0.009968,-0.078105,0.205947,0.205917,0.160561,0.394526,0.000000,0.000000,0.000000,0.000000,0.000000,0.000000,0.000000,0.000000,0.000000,0.000000,0.000000,0.000000,0.011329,3,0
1390000,-0.005939,35.836617,-0.000794,-0.015073,26.001507,0.074298,0.004178,0.031011,1.571405,-0.065650,0.003488,0.011936,-0.000635,-0.009252,0.000050,0.001268,0.006149,0.087597,-0.012904,0.206122,0.206091,0.160205,0.392010,0.000000,0.000000,0.000000,0.000000,0.000000,0.000000,0.000000,0.000000,0.000000,0.000000,0.000000,0.000000,0.084795,3,0
1400000,-0.005881,36.100212,-0.000116,-0.014772,26.012243,0.074981,0.004237,0.031584,1.571401,-0.066290,0.003526,0.011944,-0.000647,-0.009459,0.000051,0.001708,0.006090,0.102829,-0.002098,0.206299,0.206267,0.159850,0.389562,0.000000,0.000000,0.000000,0.000000,0.000000,0.000000,0.000000,0.000000,0.000000,0.000000,0.000000,0.000000,0.099467,3,0
1410000,-0.005823,36.362377,-0.000968,-0.014481,26.020248,0.073679,0.004297,0.031959,1.571397,-0.066649,0.003565,0.012513,-0.000659,-0.009579,0.000052,0.001130,0.006029,0.057796,-0.060148,0.206477,0.206444,0.159496,0.387181,0.000000,0.000000,0.000000,0.000000,0.000000,0.000000,0.000000,0.000000,0.000000,0.000000,0.000000,0.000000,0.056101,3,0
1420000,-0.005763,36.625168,-0.000265,-0.014130,26.029272,0.074414,0.004341,0.032413,1.571406,-0.067104,0.003602,0.012514,-0.000671,-0.009730,0.000052,0.000884,0.005968,0.073856,-0.001133,0.206656,0.206622,0.159143,0.384865,0.000000,0.000000,0.000000,0.000000,0.000000,0.000000,0.000000,0.000000,0.000000,0.000000,0.000000,0.000000,0.071544,3,0
1430000,-0.005700,36.888584,0.000350,-0.013721,26.039406,0.075015,0.004404,0.032932,1.571417,-0.067651,0.003638,0.012546,-0.000684,-0.009915,0.000053,0.001292,0.005903,0.089279,-0.004566,0.206837,0.206802,0.158792,0.382614,0.000000,0.000000,0.000000,0.000000,0.000000,0.000000,0.000000,0.000000,0.000000,0.000000,0.000000,0.000000,0.086389,3,0
1440000,-0.005637,37.147820,0.000521,-0.013390,26.041822,0.075317,0.004458,0.032839,1.571422,-0.067437,0.003675,0.012771,-0.000696,-0.009843,0.000053,0.000286,0.005838,-0.035091,-0.022566,0.207020,0.206984,0.158443,0.380425,0.000000,0.000000,0.000000,0.000000,0.000000,0.000000,0.000000,0.000000,0.000000,0.000000,0.000000,0.000000,0.034352,3,0
1450000,-0.005571,37.405670,0.001446,-0.012989,26.041742,0.076612,0.004509,0.032524,1.571435,-0.066979,0.003709,0.012727,-0.000708,-0.009684,0.000053,0.000932,0.005770,-0.075680,0.005566,0.207205,0.207168,0.158096,0.378297,0.000000,0.000000,0.000000,0.000000,0.000000,0.000000,0.000000,0.000000,0.000000,0.000000,0.000000,0.000000,0.073279,3,0
1460000,-0.005504,37.669033,0.002284,-0.012719,26.051521,0.077583,0.004562,0.033029,1.571437,-0.067484,0.003744,0.012685,-0.000720,-0.009861,0.000053,0.001140,0.005702,0.083927,0.003007,0.207392,0.207353,0.157751,0.376228,0.000000,0.000000,0.000000,0.000000,0.000000,0.000000,0.000000,0.000000,0.000000,0.000000,0.000000,0.000000,0.081215,3,0
1470000,-0.005437,37.927509,0.003411,-0.012410,26.052330,0.078863,0.004621,0.032787,1.571447,-0.067123,0.003777,0.012570,-0.000732,-0.009732,0.000053,0.000615,0.005632,-0.060261,0.012591,0.207580,0.207541,0.157408,0.374218,0.000000,0.000000,0.000000,0.000000,0.000000,0.000000,0.000000,0.000000,0.000000,0.000000,0.000000,0.000000,0.058428,3,0
1480000,-0.005368,38.189430,0.004543,-0.012066,26.059381,0.080305,0.004667,0.033067,1.571463,-0.067355,0.003810,0.012435,-0.000744,-0.009815,0.000054,0.000278,0.005561,0.039078,0.013025,0.207771,0.207730,0.157067,0.372264,0.000000,0.000000,0.000000,0.000000,0.000000,0.000000,0.000000,0.000000,0.000000,0.000000,0.000000,0.000000,0.038107,3,0
1490000,-0.005301,38.449238,0.004615,-0.011840,26.062521,0.080370,0.004715,0.033028,1.571470,-0.067213,0.003843,0.012723,-0.000756,-0.009765,0.000053,0.000231,0.005490,-0.024124,-0.028553,0.207963,0.207920,0.156729,0.370366,0.000000,0.000000,0.000000,0.000000,0.000000,0.000000,0.000000,0.000000,0.000000,0.000000,0.000000,0.000000,0.023888,3,0
1500000,-0.005231,38.709709,0.005643,-0.011520,26.066751,0.081406,0.004763,0.033069,1.571478,-0.067180,0.003874,0.012642,-0.000768,-0.009752,0.000054,0.000021,0.005419,-0.005657,0.008236,0.208156,0.208113,0.156394,0.368522,0.000000,0.000000,0.000000,0.000000,0.000000,0.000000,0.000000,0.000000,0.000000,0.000000,0.000000,0.000000,0.007561,3,0
1510000,-0.005162,38.967403,0.005713,-0.011210,26.065899,0.081370,0.004811,0.032686,1.571484,-0.066672,0.003906,0.012954,-0.000779,-0.009561,0.000053,0.001372,0.005346,-0.087261,-0.029640,0.208352,0.208307,0.156061,0.366731,0.000000,0.000000,0.000000,0.000000,0.000000,0.000000,0.000000,0.000000,0.000000,0.000000,0.000000,0.000000,0.084398,3,0
1520000,-0.005092,39.227180,0.005665,-0.010927,26.068708,0.081200,0.004869,0.032627,1.571494,-0.066517,0.003938,0.013299,-0.000791,-0.009503,0.000053,0.000306,0.005274,-0.026886,-0.033762,0.208549,0.208503,0.155731,0.364990,0.000000,0.000000,0.000000,0.000000,0.000000,0.000000,0.000000,0.000000,0.000000,0.000000,0.000000,0.000000,0.026454,3,0
1530000,-0.005020,39.489006,0.006442,-0.010565,26.075315,0.082040,0.004919,0.032880,1.571506,-0.066697,0.003968,0.013309,-0.000803,-0.009574,0.000053,0.000163,0.005201,0.031368,-0.001431,0.208747,0.208700,0.155404,0.363299,0.000000,0.000000,0.000000,0.000000,0.000000,0.000000,0.000000,0.000000,0.000000,0.000000,0.000000,0.000000,0.030691,3,0
1540000,-0.004947,39.750774,0.007635,-0.010241,26.081577,0.083508,0.004974,0.033115,1.571506,-0.066856,0.003997,0.013159,-0.000814,-0.009636,0.000054,0.000162,0.005125,0.027905,0.014224,0.208947,0.208898,0.155080,0.361657,0.000000,0.000000,0.000000,0.000000,0.000000,0.000000,0.000000,0.000000,0.000000,0.000000,0.000000,0.000000,0.027386,3,0
1550000,-0.004874,40.009735,0.006416,-0.009816,26.082705,0.082056,0.005023,0.032909,1.571507,-0.066546,0.004028,0.013992,-0.000825,-0.009516,0.000053,0.001544,0.005048,-0.055016,-0.080522,0.209149,0.209099,0.154760,0.360063,0.000000,0.000000,0.000000,0.000000,0.000000,0.000000,0.000000,0.000000,0.000000,0.000000,0.000000,0.000000,0.053339,3,0
1560000,-0.004801,40.267296,0.005870,-0.009547,26.081244,0.081247,0.005071,0.032464,1.571522,-0.066012,0.004057,0.014567,-0.000837,-0.009301,0.000053,0.001944,0.004973,-0.095318,-0.054271,0.209352,0.209300,0.154442,0.358515,0.000000,0.000000,0.000000,0.000000,0.000000,0.000000,0.000000,0.000000,0.000000,0.000000,0.000000,0.000000,0.092132,3,0
1570000,-0.004725,40.524853,0.006837,-0.009227,26.079668,0.082476,0.005131,0.032008,1.571531,-0.065486,0.004084,0.014536,-0.000848,-0.009083,0.000052,0.001442,0.004896,-0.094437,0.004734,0.209556,0.209503,0.154128,0.357011,0.000000,0.000000,0.000000,0.000000,0.000000,0.000000,0.000000,0.000000,0.000000,0.000000,0.000000,0.000000,0.091259,3,0
1580000,-0.004649,40.785904,0.007209,-0.008823,26.084576,0.082762,0.005189,0.032124,1.571547,-0.065519,0.004111,0.014721,-0.000859,-0.009098,0.000052,0.000061,0.004816,0.005840,-0.017938,0.209761,0.209707,0.153818,0.355551,0.000000,0.000000,0.000000,0.000000,0.000000,0.000000,0.000000,0.000000,0.000000,0.000000,0.000000,0.000000,0.007301,3,0
1590000,-0.004571,41.044819,0.007991,-0.008555,26.085459,0.083662,0.005250,0.031878,1.571555,-0.065210,0.004137,0.014761,-0.000870,-0.008966,0.000052,0.000518,0.004737,-0.056469,-0.002734,0.209967,0.209912,0.153511,0.354134,0.000000,0.000000,0.000000,0.000000,0.000000,0.000000,0.000000,0.000000,0.000000,0.000000,0.000000,0.000000,0.054684,3,0
1600000,-0.004494,41.306507,0.008673,-0.008203,26.091318,0.084361,0.005308,0.032082,1.571561,-0.065332,0.004163,0.014821,-0.000881,-0.009019,0.000052,0.000091,0.004656,0.022549,-0.006183,0.210174,0.210117,0.153207,0.352757,0.000000,0.000000,0.000000,0.000000,0.000000,0.000000,0.000000,0.000000,0.000000,0.000000,0.000000,0.000000,0.022218,3,0
1610000,-0.004415,41.565369,0.008232,-0.007780,26.092009,0.083581,0.005351,0.031820,1.571566,-0.065009,0.004189,0.015371,-0.000891,-0.008880,0.000052,0.001016,0.004574,-0.060291,-0.051323,0.210382,0.210324,0.152907,0.351421,0.000000,0.000000,0.000000,0.000000,0.000000,0.000000,0.000000,0.000000,0.000000,0.000000,0.000000,0.000000,0.058360,3,0
1620000,-0.004335,41.827686,0.009194,-0.007488,26.099024,0.084557,0.005408,0.032116,1.571576,-0.065214,0.004213,0.015310,-0.000902,-0.008972,0.000052,0.000248,0.004493,0.038666,0.005047,0.210591,0.210531,0.152611,0.350124,0.000000,0.000000,0.000000,0.000000,0.000000,0.000000,0.000000,0.000000,0.000000,0.000000,0.000000,0.000000,0.037563,3,0
1630000,-0.004257,42.089962,0.008042,-0.007203,26.105919,0.083191,0.005448,0.032399,1.571583,-0.065398,0.004239,0.016135,-0.000912,-0.009062,0.000053,0.001203,0.004410,0.034698,-0.078729,0.210800,0.210739,0.152318,0.348866,0.000000,0.000000,0.000000,0.000000,0.000000,0.000000,0.000000,0.000000,0.000000,0.000000,0.000000,0.000000,0.033728,3,0
1640000,-0.004178,42.352169,0.007150,-0.006891,26.112431,0.081916,0.005505,0.032660,1.571597,-0.065558,0.004264,0.016851,-0.000923,-0.009141,0.000053,0.000907,0.004329,0.030785,-0.068043,0.211009,0.210947,0.152029,0.347643,0.000000,0.000000,0.000000,0.000000,0.000000,0.000000,0.000000,0.000000,0.000000,0.000000,0.000000,0.000000,0.029975,3,0
1650000,-0.004098,42.612904,0.006508,-0.006454,26.116158,0.081141,0.005553,0.032663,1.571600,-0.065492,0.004288,0.017475,-0.000933,-0.009115,0.000053,0.000581,0.004246,-0.012821,-0.058282,0.211219,0.211155,0.151744,0.346456,0.000000,0.000000,0.000000,0.000000,0.000000,0.000000,0.000000,0.000000,0.000000,0.000000,0.000000,0.000000,0.013047,3,0
1660000,-0.004017,42.871494,0.005925,-0.006146,26.115969,0.080480,0.005604,0.032304,1.571605,-0.065110,0.004311,0.018096,-0.000942,-0.008937,0.000052,0.001422,0.004162,-0.074806,-0.056503,0.211429,0.211363,0.151463,0.345305,0.000000,0.000000,0.000000,0.000000,0.000000,0.000000,0.000000,0.000000,0.000000,0.000000,0.000000,0.000000,0.072301,3,0
1670000,-0.003934,43.131454,0.006847,-0.005892,26.118229,0.081357,0.005653,0.032162,1.571609,-0.064933,0.004332,0.018062,-0.000952,-0.008850,0.000052,0.000205,0.004078,-0.035210,0.003945,0.211639,0.211572,0.151186,0.344187,0.000000,0.000000,0.000000,0.000000,0.000000,0.000000,0.000000,0.000000,0.000000,0.000000,0.000000,0.000000,0.034193,3,0
1680000,-0.003853,43.389294,0.006406,-0.005536,26.116386,0.080808,0.005710,0.031660,1.571626,-0.064451,0.004353,0.018638,-0.000962,-0.008617,0.000051,0.001926,0.003992,-0.096401,-0.051389,0.211848,0.211780,0.150913,0.343100,0.000000,0.000000,0.000000,0.000000,0.000000,0.000000,0.000000,0.000000,0.000000,0.000000,0.000000,0.000000,0.093094,3,0
1690000,-0.003771,43.649246,0.005287,-0.005202,26.118532,0.079338,0.005748,0.031519,1.571625,-0.064272,0.004375,0.019484,-0.000971,-0.008534,0.000051,0.001188,0.003907,-0.036160,-0.077476,0.212057,0.211988,0.150643,0.342044,0.000000,0.000000,0.000000,0.000000,0.000000,0.000000,0.000000,0.000000,0.000000,0.000000,0.000000,0.000000,0.035108,3,0
1700000,-0.003687,43.909859,0.005228,-0.004815,26.121737,0.079364,0.005790,0.031485,1.571638,-0.064185,0.004395,0.019865,-0.000981,-0.008493,0.000051,0.000249,0.003822,-0.017830,-0.034649,0.212266,0.212195,0.150378,0.341018,0.000000,0.000000,0.000000,0.000000,0.000000,0.000000,0.000000,0.000000,0.000000,0.000000,0.000000,0.000000,0.017602,3,0
1710000,-0.003603,44.167603,0.005538,-0.004487,26.119720,0.079900,0.005832,0.030949,1.571656,-0.063704,0.004414,0.020118,-0.000990,-0.008246,0.000050,0.001668,0.003735,-0.099564,-0.021027,0.212474,0.212402,0.150116,0.340023,0.000000,0.000000,0.000000,0.000000,0.000000,0.000000,0.000000,0.000000,0.000000,0.000000,0.000000,0.000000,0.096114,3,0
1720000,-0.003520,44.425365,0.004496,-0.004235,26.117651,0.078764,0.005869,0.030428,1.571660,-0.063233,0.004434,0.020967,-0.000999,-0.008004,0.000050,0.002497,0.003648,-0.098862,-0.075373,0.212681,0.212608,0.149859,0.339055,0.000000,0.000000,0.000000,0.000000,0.000000,0.000000,0.000000,0.000000,0.000000,0.000000,0.000000,0.000000,0.095448,3,0
