time_us,pos_x,pos_y,pos_z,vel_x,vel_y,vel_z,roll,pitch,yaw,bias_ax,bias_ay,bias_az,bias_gx,bias_gy,bias_gz,nis,innov_x,innov_y,innov_z,cov_pos_x,cov_pos_y,cov_pos_z,cov_yaw,des_speed,des_heading,des_climb,pid_speed,pid_yaw,pid_alt,speed_meas,yaw_meas,climb_meas,fwd_accel,yaw_rate,vert_accel,drift_m,nav_mode,mission_state
0,0.000003,0.149998,0.000000,0.000419,24.999741,0.000014,-0.000001,0.000011,1.570813,0.000000,0.000000,0.000000,0.000000,0.000000,0.000000,0.006250,-0.000004,-0.250000,-0.000000,2.400038,2.400038,3.600017,1.000518,0.000000,0.000000,0.000000,0.000000,0.000000,0.000000,0.000000,0.000000,0.000000,0.000000,0.000000,0.000000,0.149998,1,0
10000,0.000007,0.376584,0.030116,0.000774,24.999563,0.000113,-0.000001,0.000023,1.570835,0.000000,-0.000000,-0.000000,0.000000,0.000000,0.000000,0.001471,-0.000010,-0.081933,0.080307,1.714420,1.714420,2.250079,1.001073,0.000000,0.000000,0.000000,0.000000,0.000000,0.000000,0.000000,0.000000,0.000000,0.000000,0.000000,0.000000,0.058522,3,0
20000,0.000014,0.593354,0.034839,0.001096,24.999132,-0.000037,-0.000010,0.000039,1.570860,0.000002,-0.000000,-0.000000,0.000000,0.000000,0.000000,0.002933,-0.000018,-0.149486,0.017319,1.333616,1.333616,1.636554,1.001655,0.000000,0.000000,0.000000,0.000000,0.000000,0.000000,0.000000,0.000000,0.000000,0.000000,0.000000,0.000000,0.116260,3,0
30000,0.000023,0.838196,0.038911,0.001335,24.999117,-0.000285,-0.000020,0.000048,1.570890,0.000002,-0.000000,-0.000001,0.000000,0.000000,0.000000,0.000157,-0.000028,-0.028310,0.019011,1.091392,1.091392,1.286065,1.002257,0.000000,0.000000,0.000000,0.000000,0.000000,0.000000,0.000000,0.000000,0.000000,0.000000,0.000000,0.000000,0.023161,3,0
40000,0.000032,1.088982,0.039825,0.001565,24.999224,-0.000419,-0.000024,0.000055,1.570911,0.000002,-0.000000,-0.000001,0.000000,0.000000,0.000000,0.000007,-0.000038,0.005152,0.005200,0.923811,0.923811,1.059385,1.002869,0.000000,0.000000,0.000000,0.000000,0.000000,0.000000,0.000000,0.000000,0.000000,0.000000,0.000000,0.000000,0.004359,3,0
50000,0.000044,1.335374,0.042131,0.001872,24.999136,-0.000713,-0.000031,0.000071,1.570928,0.000003,-0.000000,-0.000001,0.000000,0.000000,0.000000,0.000139,-0.000051,-0.026966,0.015411,0.801036,0.801036,0.900822,1.003484,0.000000,0.000000,0.000000,0.000000,0.000000,0.000000,0.000000,0.000000,0.000000,0.000000,0.000000,0.000000,0.023366,3,0
60000,0.000059,1.578919,0.038247,0.002218,24.998840,-0.001225,-0.000044,0.000089,1.570945,0.000006,-0.000000,0.000000,0.000000,0.000000,0.000000,0.000567,-0.000066,-0.054690,-0.029651,0.707270,0.707270,0.783741,1.004094,0.000000,0.000000,0.000000,0.000000,0.000000,0.000000,0.000000,0.000000,0.000000,0.000000,0.000000,0.000000,0.048243,3,0
70000,0.000074,1.828902,0.036164,0.002456,24.998808,-0.001406,-0.000052,0.000108,1.570976,0.000006,-0.000000,0.000002,0.000000,0.000000,0.000000,0.000047,-0.000083,-0.000047,-0.017902,0.633370,0.633370,0.693801,1.004688,0.000000,0.000000,0.000000,0.000000,0.000000,0.000000,0.000000,0.000000,0.000000,0.000000,0.000000,0.000000,0.000085,3,0
80000,0.000093,2.079694,0.036622,0.002821,24.998962,-0.001622,-0.000069,0.000127,1.570999,0.000005,-0.000000,0.000001,0.000000,0.000000,0.000000,0.000014,-0.000103,0.008395,0.004572,0.573673,0.573673,0.622594,1.005260,0.000000,0.000000,0.000000,0.000000,0.000000,0.000000,0.000000,0.000000,0.000000,0.000000,0.000000,0.000000,0.007593,3,0
90000,0.000114,2.327610,0.039372,0.003207,24.998848,-0.001554,-0.000079,0.000140,1.571030,0.000009,-0.000000,-0.000002,0.000000,0.000000,0.000000,0.000216,-0.000125,-0.023730,0.029401,0.524488,0.524488,0.564865,1.005801,0.000000,0.000000,0.000000,0.000000,0.000000,0.000000,0.000000,0.000000,0.000000,0.000000,0.000000,0.000000,0.021656,3,0
100000,0.000138,2.582939,0.034907,0.003567,24.999460,-0.002018,-0.000082,0.000144,1.571056,-0.000002,-0.000000,0.000005,0.000000,-0.000000,-0.000000,0.001079,-0.000150,0.066297,-0.051619,0.483303,0.483303,0.517162,1.006301,0.000000,0.000000,0.000000,0.000000,0.000000,0.000000,0.000000,0.000000,0.000000,0.000000,0.000000,0.000000,0.060957,3,0
110000,0.000163,2.839605,0.035571,0.003804,25.000479,-0.002055,-0.000084,0.000159,1.571077,-0.000018,-0.000000,0.000004,0.000000,-0.000000,-0.000000,0.001240,-0.000176,0.089266,0.008614,0.448353,0.448353,0.477121,1.006754,0.000000,0.000000,0.000000,0.000000,0.000000,0.000000,0.000000,0.000000,0.000000,0.000000,0.000000,0.000000,0.082596,3,0
120000,0.000190,3.086253,0.034314,0.004184,24.999855,-0.002503,-0.000088,0.000173,1.571091,-0.000008,-0.000000,0.000007,0.000000,-0.000000,-0.000000,0.000402,-0.000204,-0.048135,-0.016704,0.418358,0.418358,0.443071,1.007150,0.000000,0.000000,0.000000,0.000000,0.000000,0.000000,0.000000,0.000000,0.000000,0.000000,0.000000,0.000000,0.044779,3,0
130000,0.000221,3.340375,0.034411,0.004592,25.000732,-0.002540,-0.000092,0.000196,1.571122,-0.000024,-0.000000,0.000007,0.000000,-0.000000,-0.000000,0.000620,-0.000236,0.063042,0.001777,0.392369,0.392369,0.413797,1.007481,0.000000,0.000000,0.000000,0.000000,0.000000,0.000000,0.000000,0.000000,0.000000,0.000000,0.000000,0.000000,0.058920,3,0
140000,0.000253,3.596982,0.036661,0.004891,25.002211,-0.002306,-0.000103,0.000217,1.571136,-0.000056,-0.000000,-0.000003,0.000000,-0.000001,-0.000000,0.001987,-0.000270,0.107095,0.035186,0.369666,0.369666,0.388393,1.007739,0.000000,0.000000,0.000000,0.000000,0.000000,0.000000,0.000000,0.000000,0.000000,0.000000,0.000000,0.000000,0.100497,3,0
150000,0.000288,3.853352,0.038635,0.005264,25.003819,-0.002201,-0.000120,0.000234,1.571165,-0.000092,-0.000000,-0.000014,0.000000,-0.000002,-0.000000,0.002029,-0.000306,0.108900,0.032775,0.349695,0.349695,0.366172,1.007915,0.000000,0.000000,0.000000,0.000000,0.000000,0.000000,0.000000,0.000000,0.000000,0.000000,0.000000,0.000000,0.102553,3,0
160000,0.000324,4.109529,0.039711,0.005479,25.005531,-0.002014,-0.000129,0.000258,1.571181,-0.000134,-0.000000,-0.000021,0.000000,-0.000003,-0.000000,0.001995,-0.000343,0.110940,0.019027,0.332020,0.332020,0.346600,1.008002,0.000000,0.000000,0.000000,0.000000,0.000000,0.000000,0.000000,0.000000,0.000000,0.000000,0.000000,0.000000,0.104801,3,0
170000,0.000361,4.365551,0.037702,0.005713,25.007347,-0.002800,-0.000141,0.000283,1.571213,-0.000183,-0.000001,-0.000006,0.000000,-0.000004,-0.000000,0.002229,-0.000381,0.113171,-0.036204,0.316297,0.316297,0.329260,1.007991,0.000000,0.000000,0.000000,0.000000,0.000000,0.000000,0.000000,0.000000,0.000000,0.000000,0.000000,0.000000,0.107206,3,0
180000,0.000401,4.621447,0.039290,0.006114,25.009333,-0.002454,-0.000150,0.000306,1.571240,-0.000238,-0.000001,-0.000020,0.000000,-0.000005,-0.000000,0.002265,-0.000422,0.115557,0.030927,0.302246,0.302246,0.313817,1.007875,0.000000,0.000000,0.000000,0.000000,0.000000,0.000000,0.000000,0.000000,0.000000,0.000000,0.000000,0.000000,0.109736,3,0
190000,0.000443,4.871482,0.039668,0.006481,25.009304,-0.002303,-0.000153,0.000312,1.571259,-0.000237,-0.000001,-0.000025,0.000000,-0.000005,-0.000000,0.000010,-0.000466,-0.001205,0.008039,0.289641,0.289641,0.300003,1.007645,0.000000,0.000000,0.000000,0.000000,0.000000,0.000000,0.000000,0.000000,0.000000,0.000000,0.000000,0.000000,0.001230,3,0
200000,0.000488,5.122830,0.040917,0.006821,25.009735,-0.001941,-0.000161,0.000323,1.571288,-0.000253,-0.000001,-0.000040,0.000000,-0.000006,-0.000000,0.000228,-0.000511,0.027065,0.026551,0.278295,0.278295,0.287598,1.007295,0.000000,0.000000,0.000000,0.000000,0.000000,0.000000,0.000000,0.000000,0.000000,0.000000,0.000000,0.000000,0.025814,3,0
210000,0.000533,5.374453,0.040626,0.007055,25.010412,-0.002407,-0.000169,0.000335,1.571310,-0.000275,-0.000002,-0.000036,0.000000,-0.000006,-0.000000,0.000191,-0.000558,0.034138,-0.005803,0.268054,0.268054,0.276421,1.006816,0.000000,0.000000,0.000000,0.000000,0.000000,0.000000,0.000000,0.000000,0.000000,0.000000,0.000000,0.000000,0.032617,3,0
220000,0.000581,5.626323,0.040485,0.007386,25.011267,-0.002484,-0.000184,0.000344,1.571324,-0.000303,-0.000002,-0.000034,0.000000,-0.000007,-0.000000,0.000268,-0.000607,0.040934,-0.002636,0.258787,0.258787,0.266321,1.006202,0.000000,0.000000,0.000000,0.000000,0.000000,0.000000,0.000000,0.000000,0.000000,0.000000,0.000000,0.000000,0.039173,3,0
230000,0.000631,5.883395,0.038092,0.007745,25.014769,-0.003890,-0.000190,0.000388,1.571348,-0.000430,-0.000003,0.000007,0.000000,-0.000011,-0.000000,0.004927,-0.000659,0.166754,-0.055166,0.250385,0.250385,0.257172,1.005446,0.000000,0.000000,0.000000,0.000000,0.000000,0.000000,0.000000,0.000000,0.000000,0.000000,0.000000,0.000000,0.159797,3,0
240000,0.000683,6.137930,0.036597,0.008034,25.017130,-0.004765,-0.000198,0.000427,1.571372,-0.000520,-0.000003,0.000036,0.000000,-0.000014,-0.000000,0.002077,-0.000712,0.108438,-0.035069,0.242756,0.242756,0.248866,1.004541,0.000000,0.000000,0.000000,0.000000,0.000000,0.000000,0.000000,0.000000,0.000000,0.000000,0.000000,0.000000,0.104052,3,0
250000,0.000737,6.391735,0.037361,0.008389,25.019300,-0.004378,-0.000201,0.000470,1.571385,-0.000602,-0.000004,0.000018,0.000000,-0.000017,-0.000000,0.001433,-0.000767,0.092425,0.020190,0.235818,0.235818,0.241314,1.003481,0.000000,0.000000,0.000000,0.000000,0.000000,0.000000,0.000000,0.000000,0.000000,0.000000,0.000000,0.000000,0.088795,3,0
260000,0.000792,6.644878,0.038890,0.008668,25.021088,-0.003583,-0.000220,0.000509,1.571409,-0.000676,-0.000005,-0.000020,0.000000,-0.000020,-0.000000,0.001214,-0.000824,0.077147,0.040278,0.229504,0.229504,0.234436,1.002258,0.000000,0.000000,0.000000,0.000000,0.000000,0.000000,0.000000,0.000000,0.000000,0.000000,0.000000,0.000000,0.074200,3,0
270000,0.000849,6.895938,0.039057,0.008899,25.021646,-0.003528,-0.000219,0.000520,1.571440,-0.000700,-0.000006,-0.000026,0.000000,-0.000021,-0.000000,0.000088,-0.000882,0.022774,0.005354,0.223754,0.223754,0.228165,1.000869,0.000000,0.000000,0.000000,0.000000,0.000000,0.000000,0.000000,0.000000,0.000000,0.000000,0.000000,0.000000,0.021941,3,0
280000,0.000906,7.148701,0.037397,0.009174,25.023502,-0.004657,-0.000227,0.000562,1.571472,-0.000777,-0.000007,0.000022,0.000000,-0.000024,-0.000000,0.001092,-0.000941,0.069890,-0.043798,0.218516,0.218516,0.222443,0.999307,0.000000,0.000000,0.000000,0.000000,0.000000,0.000000,0.000000,0.000000,0.000000,0.000000,0.000000,0.000000,0.067351,3,0
290000,0.000966,7.405169,0.036106,0.009516,25.028145,-0.005681,-0.000244,0.000636,1.571501,-0.000983,-0.000008,0.000062,0.000000,-0.000032,-0.000000,0.005108,-0.001002,0.174930,-0.034329,0.213744,0.213744,0.217219,0.997567,0.000000,0.000000,0.000000,0.000000,0.000000,0.000000,0.000000,0.000000,0.000000,0.000000,0.000000,0.000000,0.168701,3,0
300000,0.001027,7.660929,0.035213,0.009771,25.032375,-0.006399,-0.000247,0.000703,1.571533,-0.001180,-0.000009,0.000091,0.000000,-0.000041,-0.000000,0.004053,-0.001064,0.156963,-0.023586,0.209399,0.209399,0.212446,0.995645,0.000000,0.000000,0.000000,0.000000,0.000000,0.000000,0.000000,0.000000,0.000000,0.000000,0.000000,0.000000,0.151489,3,0
310000,0.001089,7.918078,0.036612,0.010016,25.037937,-0.005626,-0.000260,0.000796,1.571555,-0.001446,-0.000010,0.000035,0.000000,-0.000053,-0.000000,0.006684,-0.001127,0.199345,0.042279,0.205444,0.205444,0.208087,0.993536,0.000000,0.000000,0.000000,0.000000,0.000000,0.000000,0.000000,0.000000,0.000000,0.000000,0.000000,0.000000,0.192522,3,0
320000,0.001152,8.170525,0.035151,0.010318,25.039768,-0.006922,-0.000268,0.000825,1.571575,-0.001533,-0.000012,0.000093,0.000000,-0.000057,-0.000000,0.000881,-0.001192,0.061413,-0.041236,0.201848,0.201848,0.204105,0.991236,0.000000,0.000000,0.000000,0.000000,0.000000,0.000000,0.000000,0.000000,0.000000,0.000000,0.000000,0.000000,0.059358,3,0
330000,0.001216,8.425127,0.033954,0.010533,25.043596,-0.007834,-0.000271,0.000891,1.571594,-0.001724,-0.000014,0.000143,0.000001,-0.000066,-0.000000,0.002784,-0.001258,0.127010,-0.033768,0.198582,0.198582,0.200469,0.988743,0.000000,0.000000,0.000000,0.000000,0.000000,0.000000,0.000000,0.000000,0.000000,0.000000,0.000000,0.000000,0.122813,3,0
340000,0.001282,8.680476,0.033885,0.010887,25.048195,-0.007973,-0.000281,0.000970,1.571624,-0.001962,-0.000016,0.000143,0.000001,-0.000077,-0.000000,0.003661,-0.001326,0.150675,0.000338,0.195622,0.195622,0.197151,0.986053,0.000000,0.000000,0.000000,0.000000,0.000000,0.000000,0.000000,0.000000,0.000000,0.000000,0.000000,0.000000,0.145768,3,0
350000,0.001350,8.933345,0.035052,0.011161,25.050541,-0.007152,-0.000281,0.001025,1.571652,-0.002086,-0.000018,0.000079,0.000001,-0.000083,-0.000000,0.001129,-0.001394,0.074190,0.038636,0.192944,0.192944,0.194125,0.983163,0.000000,0.000000,0.000000,0.000000,0.000000,0.000000,0.000000,0.000000,0.000000,0.000000,0.000000,0.000000,0.071817,3,0
360000,0.001417,9.188909,0.033387,0.011363,25.055798,-0.008789,-0.000297,0.001119,1.571675,-0.002365,-0.000021,0.000166,0.000001,-0.000098,-0.000000,0.004494,-0.001464,0.159239,-0.049923,0.190527,0.190527,0.191370,0.980072,0.000000,0.000000,0.000000,0.000000,0.000000,0.000000,0.000000,0.000000,0.000000,0.000000,0.000000,0.000000,0.154189,3,0
370000,0.001486,9.445803,0.032212,0.011656,25.062504,-0.009981,-0.000314,0.001260,1.571703,-0.002737,-0.000023,0.000229,0.000001,-0.000118,-0.000000,0.006767,-0.001534,0.201807,-0.034467,0.188353,0.188353,0.188863,0.976779,0.000000,0.000000,0.000000,0.000000,0.000000,0.000000,0.000000,0.000000,0.000000,0.000000,0.000000,0.000000,0.195477,3,0
380000,0.001556,9.703362,0.033199,0.011877,25.070105,-0.008977,-0.000331,0.001413,1.571723,-0.003169,-0.000026,0.000161,0.000001,-0.000142,-0.000000,0.008239,-0.001605,0.223150,0.034950,0.186405,0.186405,0.186586,0.973281,0.000000,0.000000,0.000000,0.000000,0.000000,0.000000,0.000000,0.000000,0.000000,0.000000,0.000000,0.000000,0.216224,3,0
390000,0.001625,9.957285,0.032807,0.012054,25.073786,-0.009310,-0.000345,0.001494,1.571737,-0.003381,-0.000030,0.000181,0.000001,-0.000154,-0.000001,0.001786,-0.001677,0.104669,-0.009800,0.184665,0.184665,0.184522,0.969580,0.000000,0.000000,0.000000,0.000000,0.000000,0.000000,0.000000,0.000000,0.000000,0.000000,0.000000,0.000000,0.101460,3,0
400000,0.001696,10.211963,0.033321,0.012383,25.078501,-0.008933,-0.000353,0.001586,1.571769,-0.003654,-0.000033,0.000139,0.000002,-0.000169,-0.000001,0.002755,-0.001750,0.129011,0.020031,0.183121,0.183121,0.182656,0.965674,0.000000,0.000000,0.000000,0.000000,0.000000,0.000000,0.000000,0.000000,0.000000,0.000000,0.000000,0.000000,0.125085,3,0
410000,0.001768,10.466771,0.033971,0.012690,25.083529,-0.008329,-0.000367,0.001699,1.571786,-0.003947,-0.000037,0.000085,0.000002,-0.000187,-0.000001,0.002945,-0.001824,0.132712,0.024575,0.181758,0.181758,0.180971,0.961565,0.000000,0.000000,0.000000,0.000000,0.000000,0.000000,0.000000,0.000000,0.000000,0.000000,0.000000,0.000000,0.128704,3,0
420000,0.001842,10.724103,0.033672,0.012966,25.091621,-0.008636,-0.000375,0.001883,1.571818,-0.004444,-0.000041,0.000101,0.000002,-0.000217,-0.000001,0.007537,-0.001899,0.215796,-0.007210,0.180564,0.180564,0.179456,0.957254,0.000000,0.000000,0.000000,0.000000,0.000000,0.000000,0.000000,0.000000,0.000000,0.000000,0.000000,0.000000,0.209309,3,0
430000,0.001916,10.980914,0.032724,0.013254,25.099211,-0.009970,-0.000378,0.002054,1.571848,-0.004916,-0.000046,0.000170,0.000002,-0.000247,-0.000001,0.006406,-0.001975,0.196930,-0.028896,0.179527,0.179527,0.178097,0.952742,0.000000,0.000000,0.000000,0.000000,0.000000,0.000000,0.000000,0.000000,0.000000,0.000000,0.000000,0.000000,0.191047,3,0
440000,0.001990,11.237226,0.033331,0.013471,25.106293,-0.009207,-0.000390,0.002220,1.571864,-0.005362,-0.000051,0.000110,0.000003,-0.000276,-0.000001,0.005251,-0.002051,0.178589,0.023995,0.178636,0.178637,0.176883,0.948032,0.000000,0.000000,0.000000,0.000000,0.000000,0.000000,0.000000,0.000000,0.000000,0.000000,0.000000,0.000000,0.173284,3,0
450000,0.002066,11.494825,0.032138,0.013757,25.115166,-0.010600,-0.000395,0.002425,1.571886,-0.005933,-0.000056,0.000207,0.000003,-0.000313,-0.000001,0.008084,-0.002129,0.220389,-0.037530,0.177883,0.177883,0.175803,0.943126,0.000000,0.000000,0.000000,0.000000,0.000000,0.000000,0.000000,0.000000,0.000000,0.000000,0.000000,0.000000,0.213866,3,0
460000,0.002141,11.753100,0.033485,0.013998,25.125059,-0.008855,-0.000397,0.002653,1.571921,-0.006580,-0.000062,0.000073,0.000003,-0.000357,-0.000001,0.009798,-0.002206,0.241007,0.049867,0.177256,0.177256,0.174847,0.938027,0.000000,0.000000,0.000000,0.000000,0.000000,0.000000,0.000000,0.000000,0.000000,0.000000,0.000000,0.000000,0.233897,3,0
470000,0.002216,12.009698,0.033426,0.014129,25.132635,-0.009114,-0.000411,0.002847,1.571938,-0.007085,-0.000068,0.000069,0.000004,-0.000392,-0.000001,0.005325,-0.002283,0.181423,0.001124,0.176747,0.176747,0.174006,0.932738,0.000000,0.000000,0.000000,0.000000,0.000000,0.000000,0.000000,0.000000,0.000000,0.000000,0.000000,0.000000,0.176093,3,0
480000,0.002291,12.264659,0.034673,0.014310,25.138103,-0.007601,-0.000422,0.002991,1.571969,-0.007441,-0.000075,-0.000065,0.000004,-0.000417,-0.000001,0.002818,-0.002360,0.123537,0.046383,0.176348,0.176348,0.173271,0.927265,0.000000,0.000000,0.000000,0.000000,0.000000,0.000000,0.000000,0.000000,0.000000,0.000000,0.000000,0.000000,0.119928,3,0
490000,0.002364,12.521519,0.035451,0.014406,25.146210,-0.006536,-0.000423,0.003191,1.571995,-0.007997,-0.000082,-0.000154,0.000005,-0.000458,-0.000002,0.005776,-0.002436,0.186584,0.029691,0.176051,0.176051,0.172634,0.921611,0.000000,0.000000,0.000000,0.000000,0.000000,0.000000,0.000000,0.000000,0.000000,0.000000,0.000000,0.000000,0.181125,3,0
500000,0.002437,12.779080,0.035061,0.014510,25.155436,-0.006940,-0.000433,0.003431,1.572014,-0.008636,-0.000089,-0.000119,0.000005,-0.000505,-0.000002,0.007017,-0.002510,0.207947,-0.011309,0.175848,0.175848,0.172087,0.915782,0.000000,0.000000,0.000000,0.000000,0.000000,0.000000,0.000000,0.000000,0.000000,0.000000,0.000000,0.000000,0.201867,3,0
510000,0.002510,13.036171,0.034129,0.014752,25.164062,-0.008162,-0.000438,0.003658,1.572035,-0.009235,-0.000097,-0.000023,0.000006,-0.000550,-0.000002,0.005917,-0.002585,0.188840,-0.030109,0.175733,0.175733,0.171622,0.909783,0.000000,0.000000,0.000000,0.000000,0.000000,0.000000,0.000000,0.000000,0.000000,0.000000,0.000000,0.000000,0.183326,3,0
520000,0.002582,13.292218,0.032778,0.014902,25.171030,-0.010020,-0.000441,0.003854,1.572068,-0.009727,-0.000105,0.000123,0.000007,-0.000588,-0.000002,0.003977,-0.002660,0.150332,-0.044432,0.175698,0.175698,0.171234,0.903619,0.000000,0.000000,0.000000,0.000000,0.000000,0.000000,0.000000,0.000000,0.000000,0.000000,0.000000,0.000000,0.145953,3,0
530000,0.002655,13.550150,0.034116,0.015151,25.180870,-0.008389,-0.000453,0.004117,1.572085,-0.010441,-0.000114,-0.000049,0.000007,-0.000645,-0.000002,0.007706,-0.002735,0.212276,0.050612,0.175738,0.175738,0.170914,0.897297,0.000000,0.000000,0.000000,0.000000,0.000000,0.000000,0.000000,0.000000,0.000000,0.000000,0.000000,0.000000,0.206077,3,0
540000,0.002727,13.805866,0.035129,0.015315,25.187386,-0.006867,-0.000461,0.004286,1.572101,-0.010902,-0.000124,-0.000184,0.000008,-0.000682,-0.000002,0.003111,-0.002809,0.133157,0.038563,0.175846,0.175846,0.170658,0.890823,0.000000,0.000000,0.000000,0.000000,0.000000,0.000000,0.000000,0.000000,0.000000,0.000000,0.000000,0.000000,0.129283,3,0
550000,0.002798,14.064645,0.034306,0.015479,25.198534,-0.008120,-0.000478,0.004598,1.572136,-0.011739,-0.000133,-0.000090,0.000009,-0.000751,-0.000003,0.009064,-0.002883,0.235195,-0.026474,0.176017,0.176017,0.170460,0.884204,0.000000,0.000000,0.000000,0.000000,0.000000,0.000000,0.000000,0.000000,0.000000,0.000000,0.000000,0.000000,0.228312,3,0
560000,0.002869,14.319444,0.035569,0.015606,25.203566,-0.006445,-0.000483,0.004732,1.572155,-0.012088,-0.000144,-0.000265,0.000010,-0.000780,-0.000003,0.001844,-0.002956,0.095578,0.047436,0.176245,0.176245,0.170314,0.877447,0.000000,0.000000,0.000000,0.000000,0.000000,0.000000,0.000000,0.000000,0.000000,0.000000,0.000000,0.000000,0.092815,3,0
570000,0.002939,14.574986,0.034479,0.015808,25.209618,-0.008192,-0.000492,0.004902,1.572184,-0.012534,-0.000155,-0.000129,0.000011,-0.000819,-0.000003,0.002504,-0.003028,0.119035,-0.036072,0.176525,0.176525,0.170214,0.870559,0.000000,0.000000,0.000000,0.000000,0.000000,0.000000,0.000000,0.000000,0.000000,0.000000,0.000000,0.000000,0.115570,3,0
580000,0.003009,14.830680,0.033369,0.015978,25.215889,-0.009667,-0.000512,0.005092,1.572206,-0.013002,-0.000167,0.000012,0.000012,-0.000860,-0.000003,0.002616,-0.003100,0.121858,-0.036242,0.176853,0.176853,0.170157,0.863548,0.000000,0.000000,0.000000,0.000000,0.000000,0.000000,0.000000,0.000000,0.000000,0.000000,0.000000,0.000000,0.118304,3,0
590000,0.003078,15.088284,0.032526,0.016049,25.225199,-0.010953,-0.000526,0.005366,1.572226,-0.013726,-0.000179,0.000117,0.000013,-0.000924,-0.000003,0.005599,-0.003171,0.184165,-0.026226,0.177223,0.177223,0.170138,0.856421,0.000000,0.000000,0.000000,0.000000,0.000000,0.000000,0.000000,0.000000,0.000000,0.000000,0.000000,0.000000,0.178752,3,0
600000,0.003146,15.344250,0.032435,0.016264,25.231810,-0.011194,-0.000529,0.005566,1.572260,-0.014231,-0.000192,0.000113,0.000014,-0.000970,-0.000003,0.002539,-0.003242,0.125256,0.000762,0.177632,0.177632,0.170152,0.849186,0.000000,0.000000,0.000000,0.000000,0.000000,0.000000,0.000000,0.000000,0.000000,0.000000,0.000000,0.000000,0.121588,3,0
610000,0.003213,15.601542,0.032049,0.016393,25.240562,-0.011915,-0.000541,0.005838,1.572290,-0.014920,-0.000205,0.000153,0.000015,-0.001034,-0.000003,0.004549,-0.003311,0.167407,-0.009550,0.178075,0.178075,0.170195,0.841851,0.000000,0.000000,0.000000,0.000000,0.000000,0.000000,0.000000,0.000000,0.000000,0.000000,0.000000,0.000000,0.162470,3,0
620000,0.003280,15.861334,0.030749,0.016545,25.253407,-0.013622,-0.000554,0.006244,1.572321,-0.015963,-0.000219,0.000330,0.000017,-0.001133,-0.000004,0.010225,-0.003380,0.247969,-0.041588,0.178548,0.178548,0.170264,0.834424,0.000000,0.000000,0.000000,0.000000,0.000000,0.000000,0.000000,0.000000,0.000000,0.000000,0.000000,0.000000,0.240612,3,0
630000,0.003344,16.119452,0.031470,0.016558,25.263447,-0.012630,-0.000564,0.006553,1.572355,-0.016765,-0.000233,0.000196,0.000018,-0.001210,-0.000004,0.005795,-0.003447,0.186836,0.030295,0.179048,0.179048,0.170355,0.826913,0.000000,0.000000,0.000000,0.000000,0.000000,0.000000,0.000000,0.000000,0.000000,0.000000,0.000000,0.000000,0.181292,3,0
640000,0.003406,16.375906,0.032662,0.016585,25.270597,-0.010696,-0.000578,0.006777,1.572383,-0.017324,-0.000248,-0.000012,0.000020,-0.001265,-0.000004,0.002975,-0.003512,0.127407,0.046385,0.179570,0.179571,0.170465,0.819327,0.000000,0.000000,0.000000,0.000000,0.000000,0.000000,0.000000,0.000000,0.000000,0.000000,0.000000,0.000000,0.123641,3,0
650000,0.003468,16.634890,0.032631,0.016683,25.281874,-0.010916,-0.000585,0.007151,1.572410,-0.018257,-0.000263,-0.000026,0.000021,-0.001359,-0.000005,0.007053,-0.003575,0.208822,0.002819,0.180113,0.180113,0.170591,0.811672,0.000000,0.000000,0.000000,0.000000,0.000000,0.000000,0.000000,0.000000,0.000000,0.000000,0.000000,0.000000,0.202582,3,0
660000,0.003528,16.890991,0.031863,0.016761,25.288273,-0.011882,-0.000607,0.007360,1.572440,-0.018752,-0.000280,0.000082,0.000023,-0.001409,-0.000005,0.002001,-0.003637,0.108757,-0.023157,0.180672,0.180673,0.170729,0.803959,0.000000,0.000000,0.000000,0.000000,0.000000,0.000000,0.000000,0.000000,0.000000,0.000000,0.000000,0.000000,0.105541,3,0
670000,0.003586,17.149038,0.032620,0.016801,25.297834,-0.010838,-0.000612,0.007682,1.572462,-0.019543,-0.000296,-0.000067,0.000025,-0.001491,-0.000005,0.004864,-0.003698,0.170652,0.030883,0.181246,0.181246,0.170877,0.796194,0.000000,0.000000,0.000000,0.000000,0.000000,0.000000,0.000000,0.000000,0.000000,0.000000,0.000000,0.000000,0.165536,3,0
680000,0.003643,17.409014,0.031996,0.016862,25.310619,-0.011940,-0.000625,0.008125,1.572490,-0.020631,-0.000313,0.000019,0.000026,-0.001606,-0.000005,0.008647,-0.003756,0.230574,-0.017950,0.181830,0.181830,0.171033,0.788385,0.000000,0.000000,0.000000,0.000000,0.000000,0.000000,0.000000,0.000000,0.000000,0.000000,0.000000,0.000000,0.223615,3,0
690000,0.003697,17.665461,0.032249,0.016885,25.317268,-0.011483,-0.000650,0.008353,1.572512,-0.021157,-0.000331,-0.000046,0.000028,-0.001663,-0.000006,0.001972,-0.003813,0.109623,0.013065,0.182423,0.182423,0.171193,0.780541,0.000000,0.000000,0.000000,0.000000,0.000000,0.000000,0.000000,0.000000,0.000000,0.000000,0.000000,0.000000,0.106355,3,0
700000,0.003752,17.922047,0.032834,0.017020,25.324234,-0.010646,-0.000657,0.008596,1.572539,-0.021701,-0.000350,-0.000171,0.000030,-0.001722,-0.000006,0.002110,-0.003870,0.111534,0.024598,0.183021,0.183022,0.171357,0.772670,0.000000,0.000000,0.000000,0.000000,0.000000,0.000000,0.000000,0.000000,0.000000,0.000000,0.000000,0.000000,0.108196,3,0
710000,0.003805,18.180592,0.034036,0.017153,25.334326,-0.008929,-0.000672,0.008962,1.572557,-0.022557,-0.000368,-0.000409,0.000033,-0.001818,-0.000006,0.005175,-0.003925,0.172941,0.045878,0.183624,0.183625,0.171522,0.764778,0.000000,0.000000,0.000000,0.000000,0.000000,0.000000,0.000000,0.000000,0.000000,0.000000,0.000000,0.000000,0.167691,3,0
720000,0.003857,18.441080,0.034449,0.017230,25.347773,-0.008301,-0.000680,0.009442,1.572580,-0.023725,-0.000388,-0.000503,0.000035,-0.001950,-0.000007,0.008775,-0.003979,0.232355,0.017631,0.184229,0.184229,0.171685,0.756874,0.000000,0.000000,0.000000,0.000000,0.000000,0.000000,0.000000,0.000000,0.000000,0.000000,0.000000,0.000000,0.225255,3,0
730000,0.003907,18.699209,0.035163,0.017201,25.356943,-0.007118,-0.000701,0.009786,1.572614,-0.024494,-0.000407,-0.000652,0.000037,-0.002039,-0.000007,0.003794,-0.004031,0.150644,0.027863,0.184834,0.184834,0.171846,0.748965,0.000000,0.000000,0.000000,0.000000,0.000000,0.000000,0.000000,0.000000,0.000000,0.000000,0.000000,0.000000,0.146056,3,0
740000,0.003954,18.957453,0.035416,0.017152,25.366301,-0.006710,-0.000721,0.010121,1.572650,-0.025274,-0.000428,-0.000715,0.000040,-0.002130,-0.000007,0.003699,-0.004080,0.150846,0.011349,0.185437,0.185437,0.172003,0.741058,0.000000,0.000000,0.000000,0.000000,0.000000,0.000000,0.000000,0.000000,0.000000,0.000000,0.000000,0.000000,0.146238,3,0
750000,0.003999,19.217657,0.036422,0.017103,25.378881,-0.005197,-0.000735,0.010590,1.572682,-0.026379,-0.000449,-0.000923,0.000042,-0.002262,-0.000008,0.007391,-0.004127,0.210573,0.037454,0.186037,0.186037,0.172154,0.733160,0.000000,0.000000,0.000000,0.000000,0.000000,0.000000,0.000000,0.000000,0.000000,0.000000,0.000000,0.000000,0.204084,3,0
760000,0.004043,19.479185,0.036255,0.017104,25.393597,-0.005687,-0.000757,0.011166,1.572707,-0.027699,-0.000470,-0.000903,0.000045,-0.002422,-0.000008,0.009971,-0.004172,0.248426,-0.003863,0.186632,0.186632,0.172299,0.725277,0.000000,0.000000,0.000000,0.000000,0.000000,0.000000,0.000000,0.000000,0.000000,0.000000,0.000000,0.000000,0.240734,3,0
770000,0.004085,19.736441,0.037395,0.017160,25.400671,-0.004157,-0.000766,0.011427,1.572728,-0.028269,-0.000492,-0.001141,0.000048,-0.002493,-0.000008,0.002100,-0.004217,0.106026,0.041762,0.187221,0.187221,0.172435,0.717416,0.000000,0.000000,0.000000,0.000000,0.000000,0.000000,0.000000,0.000000,0.000000,0.000000,0.000000,0.000000,0.102800,3,0
780000,0.004126,19.996304,0.036437,0.017246,25.412197,-0.005661,-0.000782,0.011885,1.572746,-0.029285,-0.000515,-0.000960,0.000050,-0.002620,-0.000009,0.005790,-0.004260,0.186638,-0.031781,0.187802,0.187803,0.172562,0.709584,0.000000,0.000000,0.000000,0.000000,0.000000,0.000000,0.000000,0.000000,0.000000,0.000000,0.000000,0.000000,0.180843,3,0
790000,0.004167,20.253756,0.035769,0.017287,25.419481,-0.006725,-0.000803,0.012153,1.572767,-0.029867,-0.000538,-0.000838,0.000053,-0.002694,-0.000009,0.001875,-0.004302,0.105570,-0.021156,0.188376,0.188376,0.172680,0.701786,0.000000,0.000000,0.000000,0.000000,0.000000,0.000000,0.000000,0.000000,0.000000,0.000000,0.000000,0.000000,0.102340,3,0
800000,0.004206,20.515699,0.035838,0.017318,25.434574,-0.006534,-0.000822,0.012767,1.572803,-0.031235,-0.000561,-0.000869,0.000056,-0.002872,-0.000010,0.009745,-0.004342,0.245623,0.004781,0.188940,0.188940,0.172786,0.694029,0.000000,0.000000,0.000000,0.000000,0.000000,0.000000,0.000000,0.000000,0.000000,0.000000,0.000000,0.000000,0.237925,3,0
810000,0.004242,20.777702,0.037100,0.017306,25.449570,-0.004769,-0.000836,0.013375,1.572837,-0.032596,-0.000584,-0.001150,0.000060,-0.003051,-0.000010,0.009798,-0.004381,0.241953,0.046215,0.189494,0.189494,0.172881,0.686317,0.000000,0.000000,0.000000,0.000000,0.000000,0.000000,0.000000,0.000000,0.000000,0.000000,0.000000,0.000000,0.234350,3,0
820000,0.004277,21.037872,0.036992,0.017237,25.461203,-0.005102,-0.000844,0.013840,1.572861,-0.033611,-0.000609,-0.001140,0.000063,-0.003187,-0.000011,0.005151,-0.004417,0.178589,-0.001978,0.190037,0.190037,0.172964,0.678656,0.000000,0.000000,0.000000,0.000000,0.000000,0.000000,0.000000,0.000000,0.000000,0.000000,0.000000,0.000000,0.172985,3,0
830000,0.004310,21.296221,0.035432,0.017160,25.469458,-0.007381,-0.000862,0.014177,1.572894,-0.034284,-0.000634,-0.000819,0.000066,-0.003279,-0.000011,0.002658,-0.004451,0.117092,-0.052275,0.190568,0.190568,0.173034,0.671051,0.000000,0.000000,0.000000,0.000000,0.000000,0.000000,0.000000,0.000000,0.000000,0.000000,0.000000,0.000000,0.113455,3,0
840000,0.004341,21.555929,0.034964,0.017125,25.480061,-0.008336,-0.000885,0.014607,1.572918,-0.035193,-0.000659,-0.000737,0.000070,-0.003405,-0.000011,0.004002,-0.004484,0.156843,-0.013485,0.191088,0.191088,0.173092,0.663506,0.000000,0.000000,0.000000,0.000000,0.000000,0.000000,0.000000,0.000000,0.000000,0.000000,0.000000,0.000000,0.151910,3,0
850000,0.004371,21.816347,0.033733,0.017095,25.491631,-0.010254,-0.000906,0.015088,1.572941,-0.036219,-0.000685,-0.000489,0.000073,-0.003549,-0.000012,0.005218,-0.004515,0.175335,-0.039653,0.191595,0.191595,0.173135,0.656027,0.000000,0.000000,0.000000,0.000000,0.000000,0.000000,0.000000,0.000000,0.000000,0.000000,0.000000,0.000000,0.169791,3,0
860000,0.004399,22.078100,0.034018,0.017078,25.505518,-0.009952,-0.000921,0.015685,1.572959,-0.037475,-0.000710,-0.000580,0.000077,-0.003729,-0.000012,0.007352,-0.004544,0.212984,0.013604,0.192089,0.192089,0.173165,0.648617,0.000000,0.000000,0.000000,0.000000,0.000000,0.000000,0.000000,0.000000,0.000000,0.000000,0.000000,0.000000,0.206212,3,0
870000,0.004425,22.337984,0.033197,0.016967,25.515858,-0.011055,-0.000945,0.016121,1.572980,-0.038366,-0.000737,-0.000421,0.000081,-0.003858,-0.000013,0.003728,-0.004571,0.149879,-0.024918,0.192571,0.192571,0.173181,0.641280,0.000000,0.000000,0.000000,0.000000,0.000000,0.000000,0.000000,0.000000,0.000000,0.000000,0.000000,0.000000,0.145137,3,0
880000,0.004448,22.596655,0.032218,0.016860,25.523897,-0.012621,-0.000959,0.016462,1.573012,-0.039017,-0.000764,-0.000227,0.000085,-0.003954,-0.000013,0.002050,-0.004596,0.108561,-0.029939,0.193039,0.193038,0.173183,0.634020,0.000000,0.000000,0.000000,0.000000,0.000000,0.000000,0.000000,0.000000,0.000000,0.000000,0.000000,0.000000,0.105162,3,0
890000,0.004470,22.856045,0.032523,0.016871,25.533125,-0.012329,-0.000979,0.016867,1.573036,-0.039790,-0.000791,-0.000329,0.000089,-0.004070,-0.000013,0.002688,-0.004620,0.128115,0.015105,0.193493,0.193493,0.173171,0.626841,0.000000,0.000000,0.000000,0.000000,0.000000,0.000000,0.000000,0.000000,0.000000,0.000000,0.000000,0.000000,0.124064,3,0
900000,0.004492,23.116146,0.032424,0.016872,25.543545,-0.012587,-0.000996,0.017318,1.573071,-0.040684,-0.000818,-0.000339,0.000093,-0.004206,-0.000014,0.003486,-0.004642,0.146935,0.000996,0.193934,0.193934,0.173144,0.619745,0.000000,0.000000,0.000000,0.000000,0.000000,0.000000,0.000000,0.000000,0.000000,0.000000,0.000000,0.000000,0.142256,3,0
910000,0.004512,23.378237,0.033460,0.016905,25.557312,-0.011232,-0.001016,0.017951,1.573103,-0.041937,-0.000845,-0.000617,0.000097,-0.004400,-0.000015,0.007032,-0.004663,0.204792,0.040490,0.194362,0.194361,0.173103,0.612735,0.000000,0.000000,0.000000,0.000000,0.000000,0.000000,0.000000,0.000000,0.000000,0.000000,0.000000,0.000000,0.198210,3,0
920000,0.004531,23.638420,0.033741,0.016861,25.567467,-0.011041,-0.001036,0.018401,1.573137,-0.042807,-0.000873,-0.000714,0.000102,-0.004536,-0.000015,0.003256,-0.004683,0.141352,0.013819,0.194776,0.194775,0.173048,0.605815,0.000000,0.000000,0.000000,0.000000,0.000000,0.000000,0.000000,0.000000,0.000000,0.000000,0.000000,0.000000,0.136838,3,0
930000,0.004550,23.899302,0.032788,0.016879,25.578802,-0.012433,-0.001051,0.018918,1.573165,-0.043796,-0.000902,-0.000517,0.000106,-0.004694,-0.000015,0.004236,-0.004703,0.159372,-0.029074,0.195177,0.195176,0.172979,0.598986,0.000000,0.000000,0.000000,0.000000,0.000000,0.000000,0.000000,0.000000,0.000000,0.000000,0.000000,0.000000,0.154255,3,0
940000,0.004567,24.158281,0.031429,0.016769,25.586729,-0.014249,-0.001081,0.019259,1.573187,-0.044402,-0.000931,-0.000221,0.000111,-0.004792,-0.000016,0.001822,-0.004720,0.097166,-0.042761,0.195564,0.195564,0.172896,0.592251,0.000000,0.000000,0.000000,0.000000,0.000000,0.000000,0.000000,0.000000,0.000000,0.000000,0.000000,0.000000,0.094109,3,0
950000,0.004581,24.417973,0.032211,0.016657,25.595705,-0.012943,-0.001099,0.019669,1.573221,-0.045131,-0.000959,-0.000451,0.000116,-0.004912,-0.000016,0.002356,-0.004736,0.116411,0.032175,0.195939,0.195938,0.172800,0.585612,0.000000,0.000000,0.000000,0.000000,0.000000,0.000000,0.000000,0.000000,0.000000,0.000000,0.000000,0.000000,0.112703,3,0
960000,0.004595,24.679668,0.032160,0.016628,25.608133,-0.012935,-0.001128,0.020262,1.573257,-0.046232,-0.000988,-0.000476,0.000121,-0.005096,-0.000017,0.004925,-0.004750,0.174692,0.002862,0.196301,0.196300,0.172690,0.579070,0.000000,0.000000,0.000000,0.000000,0.000000,0.000000,0.000000,0.000000,0.000000,0.000000,0.000000,0.000000,0.169040,3,0
970000,0.004607,24.943344,0.032508,0.016622,25.623981,-0.012530,-0.001147,0.021032,1.573295,-0.047693,-0.001017,-0.000603,0.000126,-0.005343,-0.000018,0.008647,-0.004764,0.230932,0.016839,0.196650,0.196650,0.172566,0.572628,0.000000,0.000000,0.000000,0.000000,0.000000,0.000000,0.000000,0.000000,0.000000,0.000000,0.000000,0.000000,0.223411,3,0
980000,0.004618,25.205709,0.032500,0.016484,25.637308,-0.012714,-0.001171,0.021677,1.573331,-0.048875,-0.001046,-0.000639,0.000131,-0.005547,-0.000018,0.005569,-0.004775,0.185766,0.004348,0.196988,0.196987,0.172430,0.566286,0.000000,0.000000,0.000000,0.000000,0.000000,0.000000,0.000000,0.000000,0.000000,0.000000,0.000000,0.000000,0.179726,3,0
990000,0.004628,25.466776,0.033580,0.016486,25.648087,-0.011051,-0.001195,0.022181,1.573364,-0.049780,-0.001075,-0.000951,0.000136,-0.005705,-0.000019,0.003539,-0.004786,0.141937,0.042148,0.197314,0.197312,0.172281,0.560046,0.000000,0.000000,0.000000,0.000000,0.000000,0.000000,0.000000,0.000000,0.000000,0.000000,0.000000,0.000000,0.137348,3,0
1000000,0.004636,25.727213,0.034401,0.016366,25.657612,-0.010008,-0.001225,0.022617,1.573396,-0.050545,-0.001105,-0.001196,0.000142,-0.005840,-0.000019,0.002471,-0.004794,0.119307,0.032681,0.197628,0.197626,0.172120,0.553908,0.000000,0.000000,0.000000,0.000000,0.000000,0.000000,0.000000,0.000000,0.000000,0.000000,0.000000,0.000000,0.115471,3,0
1010000,0.004644,25.989651,0.033180,0.016334,25.670557,-0.011647,-0.001244,0.023262,1.573422,-0.051684,-0.001135,-0.000912,0.000147,-0.006046,-0.000020,0.005289,-0.004802,0.176836,-0.038974,0.197931,0.197929,0.171946,0.547875,0.000000,0.000000,0.000000,0.000000,0.000000,0.000000,0.000000,0.000000,0.000000,0.000000,0.000000,0.000000,0.171064,3,0
1020000,0.004651,26.249466,0.031947,0.016212,25.678814,-0.013433,-0.001261,0.023631,1.573445,-0.052287,-0.001165,-0.000624,0.000152,-0.006156,-0.000020,0.001647,-0.004809,0.093180,-0.038829,0.198223,0.198221,0.171761,0.541945,0.000000,0.000000,0.000000,0.000000,0.000000,0.000000,0.000000,0.000000,0.000000,0.000000,0.000000,0.000000,0.090219,3,0
1030000,0.004656,26.510632,0.032439,0.016187,25.689354,-0.012845,-0.001286,0.024129,1.573474,-0.053139,-0.001195,-0.000796,0.000158,-0.006314,-0.000021,0.002868,-0.004815,0.131466,0.022143,0.198505,0.198503,0.171565,0.536121,0.000000,0.000000,0.000000,0.000000,0.000000,0.000000,0.000000,0.000000,0.000000,0.000000,0.000000,0.000000,0.127202,3,0
1040000,0.004659,26.769838,0.032879,0.016041,25.696243,-0.012090,-0.001311,0.024433,1.573502,-0.053587,-0.001226,-0.000950,0.000164,-0.006398,-0.000021,0.000835,-0.004819,0.068983,0.019960,0.198778,0.198775,0.171357,0.530401,0.000000,0.000000,0.000000,0.000000,0.000000,0.000000,0.000000,0.000000,0.000000,0.000000,0.000000,0.000000,0.066861,3,0
1050000,0.004660,27.031725,0.033867,0.015851,25.707699,-0.010907,-0.001340,0.025009,1.573536,-0.054548,-0.001256,-0.001256,0.000170,-0.006582,-0.000022,0.003765,-0.004820,0.147650,0.039144,0.199040,0.199038,0.171139,0.524787,0.000000,0.000000,0.000000,0.000000,0.000000,0.000000,0.000000,0.000000,0.000000,0.000000,0.000000,0.000000,0.142830,3,0
1060000,0.004659,27.292957,0.034059,0.015688,25.717979,-0.010608,-0.001367,0.025508,1.573564,-0.055359,-0.001287,-0.001345,0.000176,-0.006739,-0.000022,0.002508,-0.004820,0.124193,0.010774,0.199294,0.199292,0.170911,0.519278,0.000000,0.000000,0.000000,0.000000,0.000000,0.000000,0.000000,0.000000,0.000000,0.000000,0.000000,0.000000,0.120158,3,0
1070000,0.004657,27.554863,0.034002,0.015492,25.729362,-0.010673,-0.001401,0.026082,1.573588,-0.056284,-0.001317,-0.001365,0.000182,-0.006921,-0.000023,0.003215,-0.004817,0.141163,0.001902,0.199540,0.199537,0.170674,0.513874,0.000000,0.000000,0.000000,0.000000,0.000000,0.000000,0.000000,0.000000,0.000000,0.000000,0.000000,0.000000,0.136548,3,0
1080000,0.004653,27.814783,0.034931,0.015438,25.737089,-0.009659,-0.001435,0.026441,1.573606,-0.056794,-0.001348,-0.001657,0.000188,-0.007023,-0.000023,0.001200,-0.004814,0.077930,0.036704,0.199777,0.199774,0.170426,0.508576,0.000000,0.000000,0.000000,0.000000,0.000000,0.000000,0.000000,0.000000,0.000000,0.000000,0.000000,0.000000,0.075480,3,0
1090000,0.004649,28.076057,0.033788,0.015251,25.747063,-0.011395,-0.001458,0.026936,1.573632,-0.057559,-0.001379,-0.001372,0.000195,-0.007178,-0.000023,0.002393,-0.004809,0.116117,-0.036615,0.200006,0.200003,0.170170,0.503383,0.000000,0.000000,0.000000,0.000000,0.000000,0.000000,0.000000,0.000000,0.000000,0.000000,0.000000,0.000000,0.112342,3,0
1100000,0.004644,28.337337,0.033700,0.015226,25.756975,-0.011455,-0.001485,0.027416,1.573662,-0.058304,-0.001409,-0.001386,0.000201,-0.007332,-0.000024,0.002067,-0.004804,0.113167,0.001099,0.200229,0.200225,0.169906,0.498294,0.000000,0.000000,0.000000,0.000000,0.000000,0.000000,0.000000,0.000000,0.000000,0.000000,0.000000,0.000000,0.109489,3,0
1110000,0.004638,28.601280,0.032224,0.015100,25.771402,-0.013557,-0.001519,0.028188,1.573689,-0.059557,-0.001440,-0.001012,0.000207,-0.007594,-0.000025,0.006173,-0.004797,0.189730,-0.047799,0.200444,0.200440,0.169633,0.493309,0.000000,0.000000,0.000000,0.000000,0.000000,0.000000,0.000000,0.000000,0.000000,0.000000,0.000000,0.000000,0.183448,3,0
1120000,0.004629,28.861193,0.033053,0.014902,25.778612,-0.012314,-0.001547,0.028518,1.573722,-0.059983,-0.001470,-0.001292,0.000214,-0.007684,-0.000025,0.000870,-0.004790,0.064796,0.034286,0.200654,0.200649,0.169352,0.488428,0.000000,0.000000,0.000000,0.000000,0.000000,0.000000,0.000000,0.000000,0.000000,0.000000,0.000000,0.000000,0.062802,3,0
1130000,0.004619,29.123791,0.034170,0.014831,25.790510,-0.010742,-0.001577,0.029138,1.573740,-0.060925,-0.001500,-0.001660,0.000221,-0.007886,-0.000026,0.003604,-0.004780,0.142752,0.044281,0.200857,0.200853,0.169064,0.483650,0.000000,0.000000,0.000000,0.000000,0.000000,0.000000,0.000000,0.000000,0.000000,0.000000,0.000000,0.000000,0.138053,3,0
1140000,0.004610,29.384373,0.033932,0.014794,25.798700,-0.011196,-0.001599,0.029520,1.573756,-0.061446,-0.001531,-0.001628,0.000227,-0.008000,-0.000026,0.001008,-0.004770,0.078823,-0.004428,0.201056,0.201050,0.168769,0.478973,0.000000,0.000000,0.000000,0.000000,0.000000,0.000000,0.000000,0.000000,0.000000,0.000000,0.000000,0.000000,0.076321,3,0
1150000,0.004600,29.646959,0.035119,0.014721,25.810154,-0.009529,-0.001631,0.030121,1.573789,-0.062346,-0.001561,-0.002020,0.000234,-0.008198,-0.000027,0.003343,-0.004760,0.136225,0.046511,0.201249,0.201243,0.168468,0.474397,0.000000,0.000000,0.000000,0.000000,0.000000,0.000000,0.000000,0.000000,0.000000,0.000000,0.000000,0.000000,0.131739,3,0
1160000,0.004589,29.910862,0.034375,0.014505,25.823849,-0.010530,-0.001656,0.030873,1.573823,-0.063483,-0.001591,-0.001840,0.000241,-0.008454,-0.000028,0.004837,-0.004748,0.171705,-0.022798,0.201438,0.201432,0.168161,0.469922,0.000000,0.000000,0.000000,0.000000,0.000000,0.000000,0.000000,0.000000,0.000000,0.000000,0.000000,0.000000,0.166003,3,0
1170000,0.004575,30.174719,0.034343,0.014305,25.837330,-0.010819,-0.001686,0.031612,1.573851,-0.064582,-0.001621,-0.001876,0.000248,-0.008705,-0.000028,0.004448,-0.004735,0.166086,0.003083,0.201622,0.201616,0.167847,0.465546,0.000000,0.000000,0.000000,0.000000,0.000000,0.000000,0.000000,0.000000,0.000000,0.000000,0.000000,0.000000,0.160570,3,0
1180000,0.004562,30.436525,0.033404,0.014221,25.847054,-0.012251,-0.001717,0.032105,1.573875,-0.065251,-0.001651,-0.001635,0.000255,-0.008860,-0.000029,0.001783,-0.004720,0.100887,-0.029423,0.201803,0.201796,0.167529,0.461269,0.000000,0.000000,0.000000,0.000000,0.000000,0.000000,0.000000,0.000000,0.000000,0.000000,0.000000,0.000000,0.097599,3,0
1190000,0.004548,30.697645,0.032444,0.014100,25.855473,-0.013686,-0.001746,0.032511,1.573894,-0.065765,-0.001682,-0.001387,0.000262,-0.008981,-0.000029,0.001115,-0.004706,0.077528,-0.029780,0.201981,0.201973,0.167205,0.457088,0.000000,0.000000,0.000000,0.000000,0.000000,0.000000,0.000000,0.000000,0.000000,0.000000,0.000000,0.000000,0.075055,3,0
1200000,0.004533,30.956081,0.031609,0.013993,25.859093,-0.014754,-0.001783,0.032586,1.573922,-0.065735,-0.001713,-0.001173,0.000269,-0.008974,-0.000029,0.000109,-0.004691,-0.004766,-0.025068,0.202155,0.202147,0.166877,0.453004,0.000000,0.000000,0.000000,0.000000,0.000000,0.000000,0.000000,0.000000,0.000000,0.000000,0.000000,0.000000,0.006464,3,0
1210000,0.004516,31.218567,0.032784,0.013839,25.869770,-0.013108,-0.001807,0.033141,1.573941,-0.066489,-0.001743,-0.001592,0.000277,-0.009155,-0.000030,0.002486,-0.004674,0.114462,0.047939,0.202327,0.202319,0.166544,0.449015,0.000000,0.000000,0.000000,0.000000,0.000000,0.000000,0.000000,0.000000,0.000000,0.000000,0.000000,0.000000,0.110697,3,0
1220000,0.004498,31.479681,0.033976,0.013725,25.877874,-0.011474,-0.001839,0.033541,1.573973,-0.066952,-0.001772,-0.002012,0.000284,-0.009268,-0.000030,0.001178,-0.004656,0.070536,0.047978,0.202497,0.202488,0.166208,0.445119,0.000000,0.000000,0.000000,0.000000,0.000000,0.000000,0.000000,0.000000,0.000000,0.000000,0.000000,0.000000,0.068307,3,0
1230000,0.004479,31.742128,0.034848,0.013586,25.888256,-0.010385,-0.001864,0.034089,1.573993,-0.067659,-0.001801,-0.002332,0.000292,-0.009444,-0.000031,0.002076,-0.004637,0.107525,0.036015,0.202665,0.202655,0.165868,0.441315,0.000000,0.000000,0.000000,0.000000,0.000000,0.000000,0.000000,0.000000,0.000000,0.000000,0.000000,0.000000,0.103992,3,0
1240000,0.004462,32.004547,0.033372,0.013490,25.898380,-0.012252,-0.001889,0.034622,1.574021,-0.068342,-0.001831,-0.001908,0.000299,-0.009617,-0.000031,0.002121,-0.004617,0.103401,-0.049432,0.202831,0.202821,0.165525,0.437602,0.000000,0.000000,0.000000,0.000000,0.000000,0.000000,0.000000,0.000000,0.000000,0.000000,0.000000,0.000000,0.100003,3,0
1250000,0.004442,32.264240,0.034171,0.013365,25.903566,-0.011279,-0.001924,0.034812,1.574038,-0.068471,-0.001861,-0.002205,0.000307,-0.009649,-0.000031,0.000250,-0.004598,0.019787,0.033612,0.202996,0.202986,0.165179,0.433979,0.000000,0.000000,0.000000,0.000000,0.000000,0.000000,0.000000,0.000000,0.000000,0.000000,0.000000,0.000000,0.019628,3,0
1260000,0.004422,32.525963,0.034578,0.013277,25.912401,-0.010879,-0.001957,0.035250,1.574062,-0.068983,-0.001890,-0.002381,0.000315,-0.009782,-0.000032,0.001046,-0.004577,0.078106,0.019204,0.203161,0.203149,0.164830,0.430445,0.000000,0.000000,0.000000,0.000000,0.000000,0.000000,0.000000,0.000000,0.000000,0.000000,0.000000,0.000000,0.075592,3,0
1270000,0.004402,32.784298,0.033435,0.013055,25.915089,-0.012614,-0.001992,0.035244,1.574085,-0.068823,-0.001920,-0.002045,0.000323,-0.009740,-0.000032,0.000331,-0.004555,-0.024677,-0.037620,0.203324,0.203312,0.164480,0.426998,0.000000,0.000000,0.000000,0.000000,0.000000,0.000000,0.000000,0.000000,0.000000,0.000000,0.000000,0.000000,0.024249,3,0
1280000,0.004381,33.045357,0.032021,0.012975,25.922636,-0.014649,-0.002019,0.035596,1.574107,-0.069184,-0.001950,-0.001631,0.000330,-0.009838,-0.000032,0.000844,-0.004534,0.054905,-0.046801,0.203487,0.203474,0.164127,0.423636,0.000000,0.000000,0.000000,0.000000,0.000000,0.000000,0.000000,0.000000,0.000000,0.000000,0.000000,0.000000,0.053220,3,0
1290000,0.004359,33.306400,0.031391,0.012764,25.929956,-0.015367,-0.002051,0.035935,1.574124,-0.069525,-0.001979,-0.001478,0.000338,-0.009930,-0.000032,0.000491,-0.004511,0.052193,-0.017497,0.203650,0.203636,0.163772,0.420359,0.000000,0.000000,0.000000,0.000000,0.000000,0.000000,0.000000,0.000000,0.000000,0.000000,0.000000,0.000000,0.050607,3,0
1300000,0.004335,33.566071,0.031547,0.012601,25.934822,-0.015242,-0.002089,0.036079,1.574153,-0.069588,-0.002008,-0.001583,0.000346,-0.009947,-0.000032,0.000040,-0.004487,0.009747,0.011503,0.203813,0.203799,0.163417,0.417164,0.000000,0.000000,0.000000,0.000000,0.000000,0.000000,0.000000,0.000000,0.000000,0.000000,0.000000,0.000000,0.010368,3,0
1310000,0.004311,33.827782,0.030515,0.012439,25.943222,-0.016631,-0.002116,0.036505,1.574185,-0.070032,-0.002036,-0.001298,0.000354,-0.010072,-0.000033,0.000916,-0.004462,0.068089,-0.032028,0.203976,0.203961,0.163060,0.414051,0.000000,0.000000,0.000000,0.000000,0.000000,0.000000,0.000000,0.000000,0.000000,0.000000,0.000000,0.000000,0.065910,3,0
1320000,0.004283,34.089455,0.031395,0.012163,25.951315,-0.015481,-0.002143,0.036906,1.574210,-0.070448,-0.002064,-0.001660,0.000362,-0.010189,-0.000033,0.000922,-0.004435,0.064720,0.038861,0.204140,0.204124,0.162702,0.411017,0.000000,0.000000,0.000000,0.000000,0.000000,0.000000,0.000000,0.000000,0.000000,0.000000,0.000000,0.000000,0.062669,3,0
1330000,0.004257,34.348396,0.030777,0.012022,25.954514,-0.016394,-0.002177,0.036929,1.574241,-0.070332,-0.002093,-0.001501,0.000370,-0.010156,-0.000033,0.000103,-0.004406,-0.018124,-0.017047,0.204304,0.204288,0.162344,0.408061,0.000000,0.000000,0.000000,0.000000,0.000000,0.000000,0.000000,0.000000,0.000000,0.000000,0.000000,0.000000,0.018019,3,0
1340000,0.004228,34.611412,0.031267,0.011849,25.965004,-0.015934,-0.002203,0.037497,1.574272,-0.070978,-0.002119,-0.001740,0.000378,-0.010343,-0.000034,0.001732,-0.004378,0.100601,0.024723,0.204470,0.204452,0.161986,0.405184,0.000000,0.000000,0.000000,0.000000,0.000000,0.000000,0.000000,0.000000,0.000000,0.000000,0.000000,0.000000,0.097268,3,0
1350000,0.004200,34.874374,0.031290,0.011748,25.975220,-0.016050,-0.002230,0.038057,1.574301,-0.071592,-0.002146,-0.001818,0.000386,-0.010525,-0.000034,0.001492,-0.004348,0.095909,0.007269,0.204636,0.204618,0.161627,0.402381,0.000000,0.000000,0.000000,0.000000,0.000000,0.000000,0.000000,0.000000,0.000000,0.000000,0.000000,0.000000,0.092735,3,0
1360000,0.004170,35.134567,0.032094,0.011527,25.980309,-0.015054,-0.002254,0.038229,1.574330,-0.071665,-0.002173,-0.002156,0.000395,-0.010546,-0.000034,0.000236,-0.004318,0.011753,0.036024,0.204804,0.204784,0.161269,0.399652,0.000000,0.000000,0.000000,0.000000,0.000000,0.000000,0.000000,0.000000,0.000000,0.000000,0.000000,0.000000,0.012098,3,0
1370000,0.004139,35.396114,0.031651,0.011281,25.987886,-0.015881,-0.002279,0.038586,1.574355,-0.071981,-0.002200,-0.002063,0.000403,-0.010642,-0.000035,0.000418,-0.004285,0.049690,-0.010527,0.204973,0.204952,0.160911,0.396997,0.000000,0.000000,0.000000,0.000000,0.000000,0.000000,0.000000,0.000000,0.000000,0.000000,0.000000,0.000000,0.048171,3,0
1380000,0.004106,35.658306,0.031797,0.011008,25.996531,-0.015622,-0.002306,0.039021,1.574385,-0.072401,-0.002226,-0.002181,0.000411,-0.010771,-0.000035,0.000734,-0.004252,0.066372,0.011752,0.205143,0.205122,0.160553,0.394413,0.000000,0.000000,0.000000,0.000000,0.000000,0.000000,0.000000,0.000000,0.000000,0.000000,0.000000,0.000000,0.064237,3,0
1390000,0.004072,35.916378,0.031505,0.010718,25.997698,-0.016086,-0.002341,0.038860,1.574408,-0.072043,-0.002253,-0.002125,0.000420,-0.010660,-0.000035,0.000526,-0.004216,-0.056755,-0.005253,0.205315,0.205292,0.160197,0.391899,0.000000,0.000000,0.000000,0.000000,0.000000,0.000000,0.000000,0.000000,0.000000,0.000000,0.000000,0.000000,0.054964,3,0
1400000,0.004035,36.178551,0.031764,0.010472,26.006027,-0.015890,-0.002379,0.039286,1.574422,-0.072437,-0.002278,-0.002287,0.000428,-0.010784,-0.000035,0.000681,-0.004179,0.062866,0.016167,0.205489,0.205465,0.159842,0.389451,0.000000,0.000000,0.000000,0.000000,0.000000,0.000000,0.000000,0.000000,0.000000,0.000000,0.000000,0.000000,0.060849,3,0
1410000,0.003998,36.437950,0.032341,0.010284,26.009285,-0.015103,-0.002407,0.039308,1.574436,-0.072308,-0.002304,-0.002549,0.000436,-0.010742,-0.000035,0.000194,-0.004141,-0.020481,0.027655,0.205664,0.205639,0.159488,0.387071,0.000000,0.000000,0.000000,0.000000,0.000000,0.000000,0.000000,0.000000,0.000000,0.000000,0.000000,0.000000,0.020176,3,0
1420000,0.003960,36.700756,0.033043,0.010004,26.018568,-0.014189,-0.002438,0.039810,1.574466,-0.072790,-0.002328,-0.002873,0.000445,-0.010898,-0.000036,0.001152,-0.004101,0.077908,0.032587,0.205841,0.205815,0.159135,0.384756,0.000000,0.000000,0.000000,0.000000,0.000000,0.000000,0.000000,0.000000,0.000000,0.000000,0.000000,0.000000,0.075345,3,0
1430000,0.003920,36.963505,0.033547,0.009725,26.027699,-0.013535,-0.002469,0.040293,1.574499,-0.073243,-0.002352,-0.003124,0.000453,-0.011048,-0.000036,0.000971,-0.004059,0.073433,0.024870,0.206020,0.205993,0.158784,0.382505,0.000000,0.000000,0.000000,0.000000,0.000000,0.000000,0.000000,0.000000,0.000000,0.000000,0.000000,0.000000,0.071023,3,0
1440000,0.003880,37.225525,0.032590,0.009568,26.035501,-0.014684,-0.002509,0.040661,1.574513,-0.073547,-0.002376,-0.002831,0.000461,-0.011151,-0.000037,0.000545,-0.004018,0.049137,-0.030803,0.206201,0.206173,0.158434,0.380318,0.000000,0.000000,0.000000,0.000000,0.000000,0.000000,0.000000,0.000000,0.000000,0.000000,0.000000,0.000000,0.047602,3,0
1450000,0.003840,37.486122,0.032614,0.009387,26.040667,-0.014854,-0.002537,0.040816,1.574528,-0.073581,-0.002400,-0.002897,0.000469,-0.011163,-0.000037,0.000015,-0.003977,0.005711,0.006667,0.206384,0.206355,0.158087,0.378192,0.000000,0.000000,0.000000,0.000000,0.000000,0.000000,0.000000,0.000000,0.000000,0.000000,0.000000,0.000000,0.006721,3,0
1460000,0.003799,37.746696,0.032117,0.009269,26.045530,-0.015595,-0.002565,0.040958,1.574547,-0.073603,-0.002424,-0.002768,0.000477,-0.011171,-0.000037,0.000032,-0.003935,0.003487,-0.013135,0.206569,0.206539,0.157742,0.376124,0.000000,0.000000,0.000000,0.000000,0.000000,0.000000,0.000000,0.000000,0.000000,0.000000,0.000000,0.000000,0.005075,3,0
1470000,0.003758,38.007931,0.031502,0.008970,26.051554,-0.016246,-0.002589,0.041198,1.574567,-0.073733,-0.002448,-0.002600,0.000486,-0.011217,-0.000037,0.000123,-0.003892,0.021168,-0.017328,0.206756,0.206724,0.157399,0.374115,0.000000,0.000000,0.000000,0.000000,0.000000,0.000000,0.000000,0.000000,0.000000,0.000000,0.000000,0.000000,0.020778,3,0
1480000,0.003715,38.267761,0.030266,0.008689,26.055010,-0.017649,-0.002629,0.041208,1.574598,-0.073606,-0.002472,-0.002189,0.000494,-0.011173,-0.000037,0.000351,-0.003847,-0.021458,-0.041131,0.206945,0.206912,0.157058,0.372163,0.000000,0.000000,0.000000,0.000000,0.000000,0.000000,0.000000,0.000000,0.000000,0.000000,0.000000,0.000000,0.021056,3,0
1490000,0.003671,38.528259,0.029614,0.008434,26.059681,-0.018426,-0.002652,0.041310,1.574629,-0.073589,-0.002495,-0.002008,0.000502,-0.011168,-0.000037,0.000057,-0.003802,-0.003017,-0.018119,0.207136,0.207101,0.156720,0.370267,0.000000,0.000000,0.000000,0.000000,0.000000,0.000000,0.000000,0.000000,0.000000,0.000000,0.000000,0.000000,0.004690,3,0
1500000,0.003626,38.789410,0.029577,0.008289,26.065393,-0.018558,-0.002692,0.041503,1.574652,-0.073676,-0.002517,-0.002069,0.000510,-0.011199,-0.000037,0.000043,-0.003756,0.014740,0.005835,0.207328,0.207293,0.156384,0.368425,0.000000,0.000000,0.000000,0.000000,0.000000,0.000000,0.000000,0.000000,0.000000,0.000000,0.000000,0.000000,0.014687,3,0
1510000,0.003581,39.051212,0.029437,0.008044,26.072165,-0.018980,-0.002725,0.041795,1.574680,-0.073864,-0.002539,-0.002096,0.000518,-0.011269,-0.000037,0.000166,-0.003709,0.031841,0.002159,0.207523,0.207486,0.156052,0.366636,0.000000,0.000000,0.000000,0.000000,0.000000,0.000000,0.000000,0.000000,0.000000,0.000000,0.000000,0.000000,0.030947,3,0
1520000,0.003534,39.310207,0.029748,0.007787,26.073746,-0.018746,-0.002765,0.041636,1.574708,-0.073564,-0.002560,-0.002280,0.000526,-0.011155,-0.000037,0.000482,-0.003661,-0.051121,0.019097,0.207719,0.207681,0.155722,0.364898,0.000000,0.000000,0.000000,0.000000,0.000000,0.000000,0.000000,0.000000,0.000000,0.000000,0.000000,0.000000,0.049473,3,0
1530000,0.003488,39.570587,0.028530,0.007677,26.077787,-0.020156,-0.002798,0.041691,1.574724,-0.073497,-0.002582,-0.001874,0.000534,-0.011131,-0.000037,0.000283,-0.003613,-0.011948,-0.039820,0.207917,0.207877,0.155395,0.363210,0.000000,0.000000,0.000000,0.000000,0.000000,0.000000,0.000000,0.000000,0.000000,0.000000,0.000000,0.000000,0.012059,3,0
1540000,0.003442,39.831627,0.027199,0.007451,26.083092,-0.021856,-0.002835,0.041854,1.574753,-0.073534,-0.002604,-0.001432,0.000542,-0.011147,-0.000037,0.000315,-0.003565,0.005936,-0.043527,0.208117,0.208075,0.155071,0.361572,0.000000,0.000000,0.000000,0.000000,0.000000,0.000000,0.000000,0.000000,0.000000,0.000000,0.000000,0.000000,0.006678,3,0
1550000,0.003395,40.093311,0.026985,0.007306,26.089432,-0.022272,-0.002870,0.042111,1.574768,-0.073666,-0.002623,-0.001441,0.000550,-0.011199,-0.000037,0.000088,-0.003518,0.023148,0.000520,0.208318,0.208275,0.154750,0.359981,0.000000,0.000000,0.000000,0.000000,0.000000,0.000000,0.000000,0.000000,0.000000,0.000000,0.000000,0.000000,0.022599,3,0
1560000,0.003347,40.354248,0.027437,0.007064,26.094240,-0.021567,-0.002896,0.042228,1.574797,-0.073664,-0.002643,-0.001711,0.000558,-0.011197,-0.000037,0.000114,-0.003468,-0.000057,0.026266,0.208520,0.208476,0.154433,0.358436,0.000000,0.000000,0.000000,0.000000,0.000000,0.000000,0.000000,0.000000,0.000000,0.000000,0.000000,0.000000,0.003348,3,0
1570000,0.003300,40.613773,0.026222,0.006909,26.096386,-0.022895,-0.002927,0.042128,1.574814,-0.073428,-0.002663,-0.001299,0.000566,-0.011103,-0.000037,0.000540,-0.003418,-0.042370,-0.039200,0.208724,0.208678,0.154119,0.356936,0.000000,0.000000,0.000000,0.000000,0.000000,0.000000,0.000000,0.000000,0.000000,0.000000,0.000000,0.000000,0.041038,3,0
1580000,0.003253,40.873970,0.025375,0.006705,26.099730,-0.024061,-0.002959,0.042117,1.574829,-0.073297,-0.002683,-0.001044,0.000574,-0.011050,-0.000037,0.000186,-0.003370,-0.023613,-0.024142,0.208929,0.208882,0.153808,0.355480,0.000000,0.000000,0.000000,0.000000,0.000000,0.000000,0.000000,0.000000,0.000000,0.000000,0.000000,0.000000,0.023028,3,0
1590000,0.003204,41.132748,0.025137,0.006532,26.100431,-0.024385,-0.002989,0.041866,1.574855,-0.072937,-0.002702,-0.001028,0.000582,-0.010898,-0.000037,0.000685,-0.003320,-0.065174,-0.000349,0.209135,0.209087,0.153501,0.354066,0.000000,0.000000,0.000000,0.000000,0.000000,0.000000,0.000000,0.000000,0.000000,0.000000,0.000000,0.000000,0.062986,3,0
1600000,0.003156,41.392204,0.025318,0.006347,26.102350,-0.024248,-0.003024,0.041729,1.574878,-0.072685,-0.002720,-0.001190,0.000590,-0.010790,-0.000037,0.000381,-0.003270,-0.045654,0.016385,0.209343,0.209293,0.153197,0.352694,0.000000,0.000000,0.000000,0.000000,0.000000,0.000000,0.000000,0.000000,0.000000,0.000000,0.000000,0.000000,0.044173,3,0
1610000,0.003106,41.653019,0.026315,0.006153,26.106712,-0.023012,-0.003064,0.041799,1.574910,-0.072645,-0.002737,-0.001699,0.000597,-0.010770,-0.000037,0.000394,-0.003219,-0.006947,0.048678,0.209551,0.209499,0.152897,0.351362,0.000000,0.000000,0.000000,0.000000,0.000000,0.000000,0.000000,0.000000,0.000000,0.000000,0.000000,0.000000,0.007377,3,0
1620000,0.003057,41.915188,0.027150,0.006020,26.113466,-0.022166,-0.003092,0.042093,1.574923,-0.072806,-0.002753,-0.002151,0.000605,-0.010839,-0.000037,0.000441,-0.003168,0.030376,0.042340,0.209760,0.209707,0.152601,0.350070,0.000000,0.000000,0.000000,0.000000,0.000000,0.000000,0.000000,0.000000,0.000000,0.000000,0.000000,0.000000,0.029482,3,0
1630000,0.003007,42.173126,0.027422,0.005764,26.112396,-0.021924,-0.003119,0.041671,1.574947,-0.072310,-0.002770,-0.002330,0.000613,-0.010616,-0.000036,0.001440,-0.003116,-0.092705,0.018693,0.209969,0.209915,0.152309,0.348815,0.000000,0.000000,0.000000,0.000000,0.000000,0.000000,0.000000,0.000000,0.000000,0.000000,0.000000,0.000000,0.089509,3,0
1640000,0.002958,42.435249,0.026752,0.005624,26.118885,-0.022875,-0.003152,0.041950,1.574965,-0.072454,-0.002786,-0.002151,0.000620,-0.010682,-0.000037,0.000168,-0.003065,0.027069,-0.017357,0.210179,0.210123,0.152020,0.347596,0.000000,0.000000,0.000000,0.000000,0.000000,0.000000,0.000000,0.000000,0.000000,0.000000,0.000000,0.000000,0.026282,3,0
1650000,0.002907,42.697296,0.027290,0.005369,26.125233,-0.022332,-0.003186,0.042201,1.574994,-0.072575,-0.002801,-0.002483,0.000627,-0.010736,-0.000037,0.000242,-0.003014,0.023304,0.030697,0.210390,0.210332,0.151735,0.346414,0.000000,0.000000,0.000000,0.000000,0.000000,0.000000,0.000000,0.000000,0.000000,0.000000,0.000000,0.000000,0.022682,3,0
1660000,0.002857,42.959286,0.027407,0.005139,26.131426,-0.022024,-0.003221,0.042440,1.575025,-0.072676,-0.002816,-0.002634,0.000635,-0.010783,-0.000037,0.000094,-0.002961,0.019619,0.013710,0.210600,0.210541,0.151454,0.345267,0.000000,0.000000,0.000000,0.000000,0.000000,0.000000,0.000000,0.000000,0.000000,0.000000,0.000000,0.000000,0.019147,3,0
1670000,0.002807,43.218426,0.026580,0.005004,26.132259,-0.022881,-0.003249,0.042180,1.575050,-0.072351,-0.002832,-0.002355,0.000642,-0.010630,-0.000037,0.000750,-0.002908,-0.063522,-0.024700,0.210811,0.210750,0.151177,0.344154,0.000000,0.000000,0.000000,0.000000,0.000000,0.000000,0.000000,0.000000,0.000000,0.000000,0.000000,0.000000,0.061363,3,0
1680000,0.002756,43.476143,0.026320,0.004776,26.130367,-0.023088,-0.003275,0.041675,1.575061,-0.071824,-0.002848,-0.002306,0.000649,-0.010374,-0.000036,0.001742,-0.002856,-0.104004,-0.002246,0.211022,0.210959,0.150903,0.343072,0.000000,0.000000,0.000000,0.000000,0.000000,0.000000,0.000000,0.000000,0.000000,0.000000,0.000000,0.000000,0.100387,3,0
1690000,0.002706,43.733871,0.025110,0.004592,26.128416,-0.024571,-0.003304,0.041179,1.575091,-0.071309,-0.002865,-0.001849,0.000656,-0.010123,-0.000035,0.001977,-0.002804,-0.103275,-0.039997,0.211232,0.211168,0.150634,0.342020,0.000000,0.000000,0.000000,0.000000,0.000000,0.000000,0.000000,0.000000,0.000000,0.000000,0.000000,0.000000,0.099688,3,0
1700000,0.002654,43.995094,0.024399,0.004286,26.132908,-0.025295,-0.003336,0.041273,1.575121,-0.071294,-0.002879,-0.001647,0.000663,-0.010117,-0.000036,0.000059,-0.002750,-0.003159,-0.018545,0.211442,0.211376,0.150369,0.340999,0.000000,0.000000,0.000000,0.000000,0.000000,0.000000,0.000000,0.000000,0.000000,0.000000,0.000000,0.000000,0.004044,3,0
1710000,0.002601,44.254169,0.023314,0.003972,26.133511,-0.026411,-0.003377,0.040996,1.575133,-0.070974,-0.002894,-0.001261,0.000670,-0.009956,-0.000035,0.000881,-0.002695,-0.065643,-0.033931,0.211652,0.211584,0.150107,0.340008,0.000000,0.000000,0.000000,0.000000,0.000000,0.000000,0.000000,0.000000,0.000000,0.000000,0.000000,0.000000,0.063393,3,0
