time_us,pos_x,pos_y,pos_z,vel_x,vel_y,vel_z,roll,pitch,yaw,bias_ax,bias_ay,bias_az,bias_gx,bias_gy,bias_gz,nis,innov_x,innov_y,innov_z,cov_pos_x,cov_pos_y,cov_pos_z,cov_yaw,des_speed,des_heading,des_climb,pid_speed,pid_yaw,pid_alt,speed_meas,yaw_meas,climb_meas,fwd_accel,yaw_rate,vert_accel,drift_m,nav_mode,mission_state
0,0.000002,0.149991,0.000001,0.000295,24.998596,0.000209,0.000005,0.000014,1.570806,0.000000,0.000000,0.000000,0.000000,0.000000,0.000000,0.006249,-0.000003,-0.249988,-0.000002,2.400038,2.400038,3.600017,1.000518,0.000000,0.000000,0.000000,0.000000,0.000000,0.000000,0.000000,0.000000,0.000000,0.000000,0.000000,0.000000,0.149991,1,0
10000,0.000006,0.399284,0.000441,0.000671,24.997509,0.000372,0.000014,0.000025,1.570811,0.000000,-0.000000,-0.000000,0.000000,0.000000,0.000000,0.000001,-0.000008,-0.002388,0.001163,1.714420,1.714420,2.250079,1.001073,0.000000,0.000000,0.000000,0.000000,0.000000,0.000000,0.000000,0.000000,0.000000,0.000000,0.000000,0.000000,0.001706,3,0
20000,0.000012,0.646331,0.016288,0.000986,24.996372,0.000410,0.000025,0.000032,1.570832,0.000000,-0.000000,-0.000000,0.000000,0.000000,0.000000,0.000431,-0.000016,-0.013123,0.058090,1.333616,1.333616,1.636554,1.001655,0.000000,0.000000,0.000000,0.000000,0.000000,0.000000,0.000000,0.000000,0.000000,0.000000,0.000000,0.000000,0.010206,3,0
30000,0.000022,0.881506,0.026459,0.001418,24.995066,0.000411,0.000039,0.000047,1.570842,0.000002,-0.000000,-0.000001,0.000000,0.000000,0.000000,0.001195,-0.000027,-0.081250,0.047438,1.091392,1.091392,1.286065,1.002257,0.000000,0.000000,0.000000,0.000000,0.000000,0.000000,0.000000,0.000000,0.000000,0.000000,0.000000,0.000000,0.066470,3,0
40000,0.000034,1.125579,0.031360,0.001829,24.993830,0.000558,0.000045,0.000047,1.570861,0.000003,-0.000000,-0.000002,0.000000,0.000000,0.000000,0.000310,-0.000040,-0.038105,0.027732,0.923811,0.923811,1.059385,1.002869,0.000000,0.000000,0.000000,0.000000,0.000000,0.000000,0.000000,0.000000,0.000000,0.000000,0.000000,0.000000,0.032239,3,0
50000,0.000049,1.374991,0.031416,0.002287,24.992702,0.000440,0.000049,0.000049,1.570880,0.000003,-0.000000,-0.000002,0.000000,0.000000,0.000000,0.000002,-0.000057,-0.003861,0.000348,0.801036,0.801036,0.900822,1.003484,0.000000,0.000000,0.000000,0.000000,0.000000,0.000000,0.000000,0.000000,0.000000,0.000000,0.000000,0.000000,0.003346,3,0
60000,0.000068,1.630202,0.036407,0.002748,24.991858,0.000630,0.000069,0.000057,1.570892,0.000000,-0.000000,-0.000004,0.000000,-0.000000,-0.000000,0.000508,-0.000077,0.044922,0.038175,0.707270,0.707270,0.783741,1.004094,0.000000,0.000000,0.000000,0.000000,0.000000,0.000000,0.000000,0.000000,0.000000,0.000000,0.000000,0.000000,0.039627,3,0
70000,0.000089,1.885191,0.031947,0.003233,24.991020,0.000279,0.000081,0.000055,1.570905,-0.000004,-0.000000,-0.000001,0.000000,-0.000000,-0.000000,0.000565,-0.000100,0.048146,-0.038619,0.633370,0.633370,0.693801,1.004689,0.000000,0.000000,0.000000,0.000000,0.000000,0.000000,0.000000,0.000000,0.000000,0.000000,0.000000,0.000000,0.043064,3,0
80000,0.000114,2.136221,0.030484,0.003624,24.989985,0.000093,0.000094,0.000062,1.570916,-0.000005,-0.000000,0.000000,0.000000,-0.000000,-0.000000,0.000051,-0.000126,0.011833,-0.014111,0.573673,0.573673,0.622594,1.005261,0.000000,0.000000,0.000000,0.000000,0.000000,0.000000,0.000000,0.000000,0.000000,0.000000,0.000000,0.000000,0.010702,3,0
90000,0.000140,2.382578,0.027280,0.003980,24.988483,0.000028,0.000096,0.000071,1.570921,0.000000,-0.000000,0.000004,0.000000,0.000000,0.000000,0.000423,-0.000153,-0.040398,-0.034067,0.524488,0.524488,0.564865,1.005801,0.000000,0.000000,0.000000,0.000000,0.000000,0.000000,0.000000,0.000000,0.000000,0.000000,0.000000,0.000000,0.036867,3,0
100000,0.000169,2.636577,0.031187,0.004390,24.987906,0.000305,0.000097,0.000075,1.570933,-0.000008,-0.000000,-0.000002,0.000000,-0.000000,-0.000000,0.000715,-0.000184,0.051201,0.045336,0.483304,0.483304,0.517162,1.006302,0.000000,0.000000,0.000000,0.000000,0.000000,0.000000,0.000000,0.000000,0.000000,0.000000,0.000000,0.000000,0.047077,3,0
110000,0.000200,2.886146,0.029349,0.004701,24.986794,0.000275,0.000107,0.000072,1.570947,-0.000007,-0.000000,0.000002,0.000000,-0.000000,-0.000000,0.000085,-0.000216,-0.004003,-0.023168,0.448354,0.448354,0.477121,1.006755,0.000000,0.000000,0.000000,0.000000,0.000000,0.000000,0.000000,0.000000,0.000000,0.000000,0.000000,0.000000,0.003709,3,0
120000,0.000233,3.137730,0.029222,0.004995,24.986082,0.000407,0.000115,0.000077,1.570964,-0.000012,-0.000000,0.000002,0.000000,-0.000000,-0.000000,0.000095,-0.000250,0.024743,-0.001777,0.418359,0.418359,0.443071,1.007151,0.000000,0.000000,0.000000,0.000000,0.000000,0.000000,0.000000,0.000000,0.000000,0.000000,0.000000,0.000000,0.023019,3,0
130000,0.000268,3.389646,0.026719,0.005443,24.985376,0.000005,0.000126,0.000091,1.570986,-0.000021,-0.000000,0.000011,0.000000,-0.000000,-0.000000,0.000361,-0.000287,0.031594,-0.036360,0.392369,0.392369,0.413797,1.007483,0.000000,0.000000,0.000000,0.000000,0.000000,0.000000,0.000000,0.000000,0.000000,0.000000,0.000000,0.000000,0.029529,3,0
140000,0.000307,3.643062,0.028344,0.005859,24.985138,0.000407,0.000130,0.000105,1.570993,-0.000038,-0.000000,0.000004,0.000000,-0.000001,-0.000000,0.000624,-0.000327,0.057989,0.025090,0.369666,0.369666,0.388393,1.007741,0.000000,0.000000,0.000000,0.000000,0.000000,0.000000,0.000000,0.000000,0.000000,0.000000,0.000000,0.000000,0.054417,3,0
150000,0.000348,3.895416,0.029590,0.006285,24.984623,0.000499,0.000135,0.000115,1.571013,-0.000052,-0.000000,-0.000003,0.000000,-0.000001,-0.000000,0.000357,-0.000370,0.043123,0.020379,0.349695,0.349695,0.366172,1.007917,0.000000,0.000000,0.000000,0.000000,0.000000,0.000000,0.000000,0.000000,0.000000,0.000000,0.000000,0.000000,0.040611,3,0
160000,0.000392,4.150174,0.028672,0.006695,24.984823,0.000485,0.000150,0.000133,1.571030,-0.000086,-0.000001,0.000003,0.000000,-0.000002,-0.000000,0.001286,-0.000415,0.088958,-0.016015,0.332021,0.332021,0.346600,1.008004,0.000000,0.000000,0.000000,0.000000,0.000000,0.000000,0.000000,0.000000,0.000000,0.000000,0.000000,0.000000,0.084036,3,0
170000,0.000438,4.400702,0.028849,0.007042,24.983927,0.000673,0.000170,0.000141,1.571053,-0.000092,-0.000001,0.000002,0.000000,-0.000002,-0.000000,0.000029,-0.000463,0.013108,0.003101,0.316297,0.316297,0.329260,1.007994,0.000000,0.000000,0.000000,0.000000,0.000000,0.000000,0.000000,0.000000,0.000000,0.000000,0.000000,0.000000,0.012425,3,0
180000,0.000486,4.651589,0.030027,0.007339,24.983168,0.000855,0.000175,0.000142,1.571075,-0.000102,-0.000001,-0.000009,0.000000,-0.000002,-0.000000,0.000149,-0.000512,0.021015,0.022436,0.302247,0.302247,0.313817,1.007878,0.000000,0.000000,0.000000,0.000000,0.000000,0.000000,0.000000,0.000000,0.000000,0.000000,0.000000,0.000000,0.019962,3,0
190000,0.000536,4.900870,0.030552,0.007734,24.981976,0.001114,0.000185,0.000154,1.571099,-0.000096,-0.000001,-0.000014,0.000000,-0.000002,-0.000000,0.000037,-0.000563,-0.011198,0.010313,0.289641,0.289641,0.300003,1.007649,0.000000,0.000000,0.000000,0.000000,0.000000,0.000000,0.000000,0.000000,0.000000,0.000000,0.000000,0.000000,0.010670,3,0
200000,0.000588,5.153350,0.029576,0.008048,24.981861,0.000852,0.000199,0.000162,1.571103,-0.000129,-0.000002,-0.000002,0.000000,-0.000003,-0.000000,0.000595,-0.000617,0.057598,-0.020620,0.278296,0.278296,0.287598,1.007299,0.000000,0.000000,0.000000,0.000000,0.000000,0.000000,0.000000,0.000000,0.000000,0.000000,0.000000,0.000000,0.054929,3,0
210000,0.000642,5.405108,0.027803,0.008415,24.981546,0.000315,0.000218,0.000181,1.571107,-0.000157,-0.000002,0.000022,0.000000,-0.000004,-0.000000,0.000542,-0.000672,0.043665,-0.038693,0.268054,0.268054,0.276421,1.006821,0.000000,0.000000,0.000000,0.000000,0.000000,0.000000,0.000000,0.000000,0.000000,0.000000,0.000000,0.000000,0.041720,3,0
220000,0.000699,5.660513,0.027477,0.008772,24.983000,0.000182,0.000229,0.000214,1.571118,-0.000248,-0.000003,0.000027,0.000000,-0.000006,-0.000000,0.002698,-0.000730,0.129852,-0.007438,0.258788,0.258788,0.266321,1.006207,0.000000,0.000000,0.000000,0.000000,0.000000,0.000000,0.000000,0.000000,0.000000,0.000000,0.000000,0.000000,0.124253,3,0
230000,0.000757,5.913389,0.029185,0.009100,24.983524,0.001060,0.000234,0.000233,1.571131,-0.000304,-0.000003,-0.000002,0.000000,-0.000008,-0.000000,0.001109,-0.000790,0.073220,0.039782,0.250386,0.250386,0.257172,1.005451,0.000000,0.000000,0.000000,0.000000,0.000000,0.000000,0.000000,0.000000,0.000000,0.000000,0.000000,0.000000,0.070168,3,0
240000,0.000817,6.168009,0.026864,0.009407,24.984997,-0.000213,0.000254,0.000270,1.571138,-0.000401,-0.000004,0.000043,0.000000,-0.000012,-0.000000,0.002751,-0.000851,0.118524,-0.056161,0.242757,0.242757,0.248866,1.004547,0.000000,0.000000,0.000000,0.000000,0.000000,0.000000,0.000000,0.000000,0.000000,0.000000,0.000000,0.000000,0.113731,3,0
250000,0.000879,6.418750,0.026556,0.009838,24.984474,-0.000297,0.000274,0.000287,1.571145,-0.000422,-0.000005,0.000050,0.000000,-0.000012,-0.000000,0.000094,-0.000915,0.022920,-0.007630,0.235820,0.235819,0.241314,1.003487,0.000000,0.000000,0.000000,0.000000,0.000000,0.000000,0.000000,0.000000,0.000000,0.000000,0.000000,0.000000,0.022036,3,0
260000,0.000945,6.675839,0.027772,0.010316,24.987947,0.000255,0.000294,0.000348,1.571167,-0.000604,-0.000006,0.000020,0.000000,-0.000019,-0.000000,0.005921,-0.000983,0.189641,0.031225,0.229506,0.229506,0.234436,1.002265,0.000000,0.000000,0.000000,0.000000,0.000000,0.000000,0.000000,0.000000,0.000000,0.000000,0.000000,0.000000,0.182389,3,0
270000,0.001013,6.929122,0.026113,0.010688,24.989124,-0.000574,0.000312,0.000375,1.571185,-0.000698,-0.000007,0.000065,0.000000,-0.000023,-0.000000,0.001652,-0.001052,0.091549,-0.043738,0.223756,0.223756,0.228165,1.000876,0.000000,0.000000,0.000000,0.000000,0.000000,0.000000,0.000000,0.000000,0.000000,0.000000,0.000000,0.000000,0.088141,3,0
280000,0.001084,7.186144,0.025469,0.011124,24.993031,-0.000993,0.000324,0.000454,1.571205,-0.000915,-0.000008,0.000084,0.000000,-0.000031,-0.000000,0.006222,-0.001125,0.196074,-0.017233,0.218518,0.218518,0.222443,0.999314,0.000000,0.000000,0.000000,0.000000,0.000000,0.000000,0.000000,0.000000,0.000000,0.000000,0.000000,0.000000,0.188936,3,0
290000,0.001156,7.438141,0.024115,0.011428,24.993549,-0.001899,0.000334,0.000486,1.571221,-0.000984,-0.000009,0.000127,0.000000,-0.000034,-0.000000,0.000768,-0.001198,0.058287,-0.037126,0.213747,0.213747,0.217219,0.997575,0.000000,0.000000,0.000000,0.000000,0.000000,0.000000,0.000000,0.000000,0.000000,0.000000,0.000000,0.000000,0.056222,3,0
300000,0.001230,7.695182,0.024577,0.011880,24.998068,-0.001527,0.000353,0.000576,1.571242,-0.001240,-0.000011,0.000110,0.000000,-0.000045,-0.000000,0.006715,-0.001275,0.203863,0.013579,0.209402,0.209401,0.212446,0.995653,0.000000,0.000000,0.000000,0.000000,0.000000,0.000000,0.000000,0.000000,0.000000,0.000000,0.000000,0.000000,0.196752,3,0
310000,0.001308,7.951498,0.025895,0.012353,25.002087,-0.000617,0.000368,0.000669,1.571252,-0.001487,-0.000013,0.000059,0.000000,-0.000056,-0.000000,0.005766,-0.001354,0.185324,0.038456,0.205447,0.205447,0.208087,0.993545,0.000000,0.000000,0.000000,0.000000,0.000000,0.000000,0.000000,0.000000,0.000000,0.000000,0.000000,0.000000,0.178983,3,0
320000,0.001387,8.203132,0.026117,0.012758,25.002489,-0.000327,0.000375,0.000704,1.571262,-0.001555,-0.000015,0.000050,0.000001,-0.000059,-0.000000,0.000382,-0.001436,0.048242,0.006679,0.201851,0.201851,0.204105,0.991246,0.000000,0.000000,0.000000,0.000000,0.000000,0.000000,0.000000,0.000000,0.000000,0.000000,0.000000,0.000000,0.046639,3,0
330000,0.001468,8.459573,0.027202,0.013083,25.007141,0.000459,0.000379,0.000794,1.571274,-0.001846,-0.000017,0.000001,0.000001,-0.000073,-0.000000,0.006248,-0.001519,0.194182,0.032592,0.198586,0.198586,0.200469,0.988753,0.000000,0.000000,0.000000,0.000000,0.000000,0.000000,0.000000,0.000000,0.000000,0.000000,0.000000,0.000000,0.187761,3,0
340000,0.001552,8.712139,0.028060,0.013492,25.008429,0.001120,0.000392,0.000836,1.571284,-0.001968,-0.000019,-0.000040,0.000001,-0.000079,-0.000000,0.001062,-0.001604,0.076847,0.026001,0.195627,0.195626,0.197151,0.986064,0.000000,0.000000,0.000000,0.000000,0.000000,0.000000,0.000000,0.000000,0.000000,0.000000,0.000000,0.000000,0.074358,3,0
350000,0.001637,8.968069,0.029355,0.013934,25.013083,0.002363,0.000397,0.000938,1.571295,-0.002271,-0.000022,-0.000105,0.000001,-0.000094,-0.000000,0.005602,-0.001691,0.182088,0.039639,0.192949,0.192949,0.194125,0.983175,0.000000,0.000000,0.000000,0.000000,0.000000,0.000000,0.000000,0.000000,0.000000,0.000000,0.000000,0.000000,0.176240,3,0
360000,0.001723,9.222788,0.030110,0.014245,25.016710,0.002917,0.000402,0.001017,1.571306,-0.002526,-0.000025,-0.000145,0.000001,-0.000108,-0.000000,0.003468,-0.001780,0.144779,0.022931,0.190533,0.190533,0.191370,0.980084,0.000000,0.000000,0.000000,0.000000,0.000000,0.000000,0.000000,0.000000,0.000000,0.000000,0.000000,0.000000,0.140192,3,0
370000,0.001812,9.476357,0.030640,0.014653,25.019293,0.003224,0.000416,0.001085,1.571317,-0.002726,-0.000029,-0.000175,0.000001,-0.000118,-0.000000,0.001949,-0.001871,0.108692,0.015967,0.188360,0.188359,0.188863,0.976791,0.000000,0.000000,0.000000,0.000000,0.000000,0.000000,0.000000,0.000000,0.000000,0.000000,0.000000,0.000000,0.105296,3,0
380000,0.001902,9.730685,0.029281,0.015053,25.022776,0.001743,0.000434,0.001184,1.571331,-0.002984,-0.000032,-0.000089,0.000002,-0.000133,-0.000001,0.003197,-0.001963,0.133402,-0.044704,0.186412,0.186411,0.186586,0.973295,0.000000,0.000000,0.000000,0.000000,0.000000,0.000000,0.000000,0.000000,0.000000,0.000000,0.000000,0.000000,0.129271,3,0
390000,0.001993,9.986360,0.028320,0.015362,25.027973,0.000577,0.000443,0.001315,1.571348,-0.003343,-0.000037,-0.000025,0.000002,-0.000153,-0.000001,0.005237,-0.002056,0.177222,-0.031775,0.184673,0.184672,0.184523,0.969594,0.000000,0.000000,0.000000,0.000000,0.000000,0.000000,0.000000,0.000000,0.000000,0.000000,0.000000,0.000000,0.171779,3,0
400000,0.002085,10.242727,0.028464,0.015640,25.033987,0.000803,0.000457,0.001468,1.571369,-0.003766,-0.000041,-0.000034,0.000002,-0.000177,-0.000001,0.006454,-0.002150,0.199801,0.004497,0.183129,0.183128,0.182656,0.965689,0.000000,0.000000,0.000000,0.000000,0.000000,0.000000,0.000000,0.000000,0.000000,0.000000,0.000000,0.000000,0.193715,3,0
410000,0.002177,10.496762,0.027596,0.015980,25.037476,0.000009,0.000472,0.001564,1.571391,-0.004036,-0.000046,0.000030,0.000002,-0.000194,-0.000001,0.002555,-0.002245,0.122283,-0.029131,0.181767,0.181766,0.180971,0.961580,0.000000,0.000000,0.000000,0.000000,0.000000,0.000000,0.000000,0.000000,0.000000,0.000000,0.000000,0.000000,0.118599,3,0
420000,0.002271,10.753332,0.028350,0.016296,25.044098,0.001026,0.000481,0.001721,1.571406,-0.004511,-0.000051,-0.000028,0.000003,-0.000223,-0.000001,0.006973,-0.002341,0.206155,0.025128,0.180573,0.180572,0.179456,0.957270,0.000000,0.000000,0.000000,0.000000,0.000000,0.000000,0.000000,0.000000,0.000000,0.000000,0.000000,0.000000,0.199963,3,0
430000,0.002366,11.011176,0.027648,0.016721,25.052481,0.000254,0.000484,0.001932,1.571423,-0.005105,-0.000057,0.000030,0.000003,-0.000260,-0.000001,0.010015,-0.002439,0.247703,-0.024038,0.179537,0.179536,0.178097,0.952758,0.000000,0.000000,0.000000,0.000000,0.000000,0.000000,0.000000,0.000000,0.000000,0.000000,0.000000,0.000000,0.240302,3,0
440000,0.002462,11.266716,0.028246,0.017079,25.058088,0.000969,0.000488,0.002080,1.571443,-0.005526,-0.000063,-0.000021,0.000003,-0.000287,-0.000001,0.004668,-0.002538,0.168684,0.020136,0.178648,0.178647,0.176883,0.948048,0.000000,0.000000,0.000000,0.000000,0.000000,0.000000,0.000000,0.000000,0.000000,0.000000,0.000000,0.000000,0.163680,3,0
450000,0.002560,11.523552,0.028496,0.017502,25.065416,0.001381,0.000507,0.002273,1.571461,-0.006073,-0.000070,-0.000042,0.000004,-0.000323,-0.000001,0.007231,-0.002638,0.211272,0.008125,0.177895,0.177894,0.175803,0.943143,0.000000,0.000000,0.000000,0.000000,0.000000,0.000000,0.000000,0.000000,0.000000,0.000000,0.000000,0.000000,0.205024,3,0
460000,0.002659,11.778723,0.029375,0.017913,25.070599,0.002467,0.000514,0.002425,1.571470,-0.006484,-0.000077,-0.000122,0.000004,-0.000351,-0.000001,0.003937,-0.002740,0.153152,0.029646,0.177269,0.177268,0.174848,0.938044,0.000000,0.000000,0.000000,0.000000,0.000000,0.000000,0.000000,0.000000,0.000000,0.000000,0.000000,0.000000,0.148651,3,0
470000,0.002759,12.032271,0.028723,0.018239,25.073761,0.001627,0.000532,0.002525,1.571493,-0.006753,-0.000085,-0.000057,0.000005,-0.000370,-0.000001,0.001603,-0.002843,0.096718,-0.023341,0.176761,0.176760,0.174007,0.932756,0.000000,0.000000,0.000000,0.000000,0.000000,0.000000,0.000000,0.000000,0.000000,0.000000,0.000000,0.000000,0.093909,3,0
480000,0.002860,12.287740,0.028099,0.018609,25.079615,0.001008,0.000537,0.002692,1.571504,-0.007218,-0.000093,0.000008,0.000005,-0.000403,-0.000002,0.004285,-0.002946,0.161201,-0.022267,0.176363,0.176362,0.173272,0.927283,0.000000,0.000000,0.000000,0.000000,0.000000,0.000000,0.000000,0.000000,0.000000,0.000000,0.000000,0.000000,0.156489,3,0
490000,0.002962,12.542759,0.027291,0.019004,25.084770,0.000086,0.000544,0.002847,1.571519,-0.007647,-0.000102,0.000093,0.000006,-0.000434,-0.000002,0.003498,-0.003051,0.144221,-0.028525,0.176067,0.176065,0.172634,0.921630,0.000000,0.000000,0.000000,0.000000,0.000000,0.000000,0.000000,0.000000,0.000000,0.000000,0.000000,0.000000,0.140021,3,0
500000,0.003063,12.800257,0.027307,0.019209,25.093739,0.000083,0.000546,0.003099,1.571538,-0.008346,-0.000112,0.000091,0.000007,-0.000486,-0.000002,0.008345,-0.003155,0.227091,0.000488,0.175865,0.175864,0.172087,0.915801,0.000000,0.000000,0.000000,0.000000,0.000000,0.000000,0.000000,0.000000,0.000000,0.000000,0.000000,0.000000,0.220455,3,0
510000,0.003163,13.058445,0.027674,0.019416,25.103594,0.000463,0.000551,0.003387,1.571555,-0.009132,-0.000122,0.000050,0.000008,-0.000545,-0.000002,0.009963,-0.003258,0.247808,0.012773,0.175751,0.175749,0.171623,0.909802,0.000000,0.000000,0.000000,0.000000,0.000000,0.000000,0.000000,0.000000,0.000000,0.000000,0.000000,0.000000,0.240571,3,0
520000,0.003263,13.314988,0.026936,0.019749,25.111147,-0.000651,0.000568,0.003619,1.571567,-0.009747,-0.000133,0.000136,0.000008,-0.000593,-0.000002,0.005849,-0.003362,0.188310,-0.026055,0.175717,0.175716,0.171234,0.903639,0.000000,0.000000,0.000000,0.000000,0.000000,0.000000,0.000000,0.000000,0.000000,0.000000,0.000000,0.000000,0.182825,3,0
530000,0.003364,13.573991,0.025831,0.020048,25.122389,-0.002178,0.000570,0.003955,1.571582,-0.010655,-0.000144,0.000267,0.000009,-0.000665,-0.000003,0.012006,-0.003465,0.269633,-0.038618,0.175758,0.175756,0.170915,0.897317,0.000000,0.000000,0.000000,0.000000,0.000000,0.000000,0.000000,0.000000,0.000000,0.000000,0.000000,0.000000,0.261757,3,0
540000,0.003465,13.831344,0.026196,0.020366,25.131149,-0.001751,0.000575,0.004228,1.571599,-0.011379,-0.000156,0.000219,0.000010,-0.000723,-0.000003,0.007119,-0.003569,0.209306,0.013584,0.175868,0.175866,0.170659,0.890844,0.000000,0.000000,0.000000,0.000000,0.000000,0.000000,0.000000,0.000000,0.000000,0.000000,0.000000,0.000000,0.203200,3,0
550000,0.003565,14.088819,0.026034,0.020602,25.140089,-0.002067,0.000581,0.004511,1.571612,-0.012127,-0.000169,0.000237,0.000011,-0.000785,-0.000003,0.007161,-0.003672,0.210291,-0.005130,0.176040,0.176037,0.170461,0.884225,0.000000,0.000000,0.000000,0.000000,0.000000,0.000000,0.000000,0.000000,0.000000,0.000000,0.000000,0.000000,0.204153,3,0
560000,0.003665,14.347001,0.024525,0.020934,25.150255,-0.004261,0.000578,0.004816,1.571626,-0.012971,-0.000182,0.000431,0.000012,-0.000856,-0.000003,0.009083,-0.003776,0.231031,-0.052488,0.176269,0.176267,0.170314,0.877468,0.000000,0.000000,0.000000,0.000000,0.000000,0.000000,0.000000,0.000000,0.000000,0.000000,0.000000,0.000000,0.224275,3,0
570000,0.003765,14.602376,0.024658,0.021191,25.155825,-0.003832,0.000594,0.004997,1.571643,-0.013465,-0.000197,0.000408,0.000014,-0.000899,-0.000003,0.002818,-0.003879,0.131779,0.006067,0.176550,0.176548,0.170215,0.870580,0.000000,0.000000,0.000000,0.000000,0.000000,0.000000,0.000000,0.000000,0.000000,0.000000,0.000000,0.000000,0.127956,3,0
580000,0.003864,14.862006,0.024896,0.021496,25.168358,-0.003555,0.000599,0.005391,1.571671,-0.014517,-0.000212,0.000369,0.000015,-0.000991,-0.000004,0.012155,-0.003981,0.273925,0.009684,0.176879,0.176877,0.170158,0.863569,0.000000,0.000000,0.000000,0.000000,0.000000,0.000000,0.000000,0.000000,0.000000,0.000000,0.000000,0.000000,0.265877,3,0
590000,0.003962,15.117628,0.024720,0.021684,25.174355,-0.003724,0.000604,0.005598,1.571682,-0.015042,-0.000228,0.000389,0.000016,-0.001038,-0.000004,0.002887,-0.004083,0.133442,-0.005034,0.177251,0.177248,0.170139,0.856442,0.000000,0.000000,0.000000,0.000000,0.000000,0.000000,0.000000,0.000000,0.000000,0.000000,0.000000,0.000000,0.129561,3,0
600000,0.004059,15.376931,0.026020,0.021877,25.186184,-0.001786,0.000613,0.005986,1.571705,-0.016070,-0.000244,0.000196,0.000018,-0.001132,-0.000004,0.010916,-0.004183,0.255462,0.047055,0.177661,0.177658,0.170153,0.849207,0.000000,0.000000,0.000000,0.000000,0.000000,0.000000,0.000000,0.000000,0.000000,0.000000,0.000000,0.000000,0.247930,3,0
610000,0.004155,15.636931,0.024614,0.022101,25.199089,-0.003902,0.000620,0.006425,1.571728,-0.017200,-0.000261,0.000401,0.000019,-0.001237,-0.000005,0.012564,-0.004282,0.274343,-0.049022,0.178105,0.178102,0.170196,0.841871,0.000000,0.000000,0.000000,0.000000,0.000000,0.000000,0.000000,0.000000,0.000000,0.000000,0.000000,0.000000,0.266233,3,0
620000,0.004250,15.892302,0.025226,0.022307,25.204432,-0.002802,0.000631,0.006610,1.571736,-0.017677,-0.000280,0.000303,0.000021,-0.001282,-0.000005,0.002175,-0.004381,0.113607,0.022831,0.178579,0.178576,0.170265,0.834444,0.000000,0.000000,0.000000,0.000000,0.000000,0.000000,0.000000,0.000000,0.000000,0.000000,0.000000,0.000000,0.110308,3,0
630000,0.004343,16.151384,0.025826,0.022430,25.215891,-0.001917,0.000641,0.007013,1.571762,-0.018690,-0.000299,0.000206,0.000023,-0.001380,-0.000005,0.009078,-0.004477,0.235882,0.022019,0.179080,0.179077,0.170356,0.826933,0.000000,0.000000,0.000000,0.000000,0.000000,0.000000,0.000000,0.000000,0.000000,0.000000,0.000000,0.000000,0.228883,3,0
640000,0.004436,16.409985,0.024774,0.022732,25.226517,-0.003565,0.000650,0.007388,1.571770,-0.019634,-0.000318,0.000369,0.000025,-0.001473,-0.000006,0.007708,-0.004572,0.215233,-0.036422,0.179605,0.179602,0.170466,0.819346,0.000000,0.000000,0.000000,0.000000,0.000000,0.000000,0.000000,0.000000,0.000000,0.000000,0.000000,0.000000,0.208837,3,0
650000,0.004528,16.670492,0.024250,0.022939,25.240303,-0.004108,0.000645,0.007865,1.571799,-0.020861,-0.000339,0.000448,0.000027,-0.001596,-0.000006,0.012242,-0.004668,0.274590,-0.017406,0.180149,0.180145,0.170592,0.811691,0.000000,0.000000,0.000000,0.000000,0.000000,0.000000,0.000000,0.000000,0.000000,0.000000,0.000000,0.000000,0.266384,3,0
660000,0.004618,16.927505,0.024550,0.023112,25.248043,-0.003557,0.000646,0.008150,1.571818,-0.021558,-0.000360,0.000392,0.000029,-0.001667,-0.000007,0.003815,-0.004761,0.153093,0.011902,0.180709,0.180706,0.170730,0.803977,0.000000,0.000000,0.000000,0.000000,0.000000,0.000000,0.000000,0.000000,0.000000,0.000000,0.000000,0.000000,0.148555,3,0
670000,0.004707,17.186453,0.024556,0.023289,25.258904,-0.003384,0.000649,0.008550,1.571829,-0.022550,-0.000382,0.000385,0.000032,-0.001770,-0.000007,0.007411,-0.004853,0.214067,0.001282,0.181284,0.181280,0.170878,0.796212,0.000000,0.000000,0.000000,0.000000,0.000000,0.000000,0.000000,0.000000,0.000000,0.000000,0.000000,0.000000,0.207653,3,0
680000,0.004793,17.442499,0.025219,0.023407,25.264727,-0.002243,0.000648,0.008780,1.571839,-0.023088,-0.000405,0.000266,0.000034,-0.001827,-0.000007,0.002202,-0.004943,0.114042,0.024325,0.181870,0.181866,0.171034,0.788403,0.000000,0.000000,0.000000,0.000000,0.000000,0.000000,0.000000,0.000000,0.000000,0.000000,0.000000,0.000000,0.110688,3,0
690000,0.004879,17.699291,0.026276,0.023657,25.271799,-0.000523,0.000648,0.009064,1.571857,-0.023741,-0.000429,0.000078,0.000037,-0.001898,-0.000007,0.003234,-0.005032,0.136240,0.037730,0.182464,0.182460,0.171195,0.780558,0.000000,0.000000,0.000000,0.000000,0.000000,0.000000,0.000000,0.000000,0.000000,0.000000,0.000000,0.000000,0.132185,3,0
700000,0.004963,17.956821,0.027183,0.023746,25.280077,0.001012,0.000648,0.009388,1.571869,-0.024510,-0.000454,-0.000083,0.000040,-0.001982,-0.000008,0.004185,-0.005119,0.157684,0.031763,0.183064,0.183061,0.171358,0.772686,0.000000,0.000000,0.000000,0.000000,0.000000,0.000000,0.000000,0.000000,0.000000,0.000000,0.000000,0.000000,0.152953,3,0
710000,0.005047,18.213865,0.026027,0.023991,25.287521,-0.000802,0.000640,0.009686,1.571888,-0.025197,-0.000479,0.000127,0.000042,-0.002059,-0.000008,0.003379,-0.005205,0.138617,-0.040850,0.183669,0.183665,0.171523,0.764794,0.000000,0.000000,0.000000,0.000000,0.000000,0.000000,0.000000,0.000000,0.000000,0.000000,0.000000,0.000000,0.134469,3,0
720000,0.005128,18.475313,0.026483,0.024067,25.302366,0.000079,0.000645,0.010261,1.571909,-0.026600,-0.000505,0.000042,0.000045,-0.002218,-0.000009,0.012628,-0.005290,0.279078,0.015945,0.184275,0.184271,0.171686,0.756889,0.000000,0.000000,0.000000,0.000000,0.000000,0.000000,0.000000,0.000000,0.000000,0.000000,0.000000,0.000000,0.270555,3,0
730000,0.005207,18.732553,0.027502,0.024248,25.309803,0.001577,0.000637,0.010560,1.571925,-0.027297,-0.000533,-0.000148,0.000049,-0.002299,-0.000009,0.003229,-0.005373,0.136753,0.035463,0.184881,0.184877,0.171848,0.748979,0.000000,0.000000,0.000000,0.000000,0.000000,0.000000,0.000000,0.000000,0.000000,0.000000,0.000000,0.000000,0.132640,3,0
740000,0.005285,18.991144,0.027138,0.024303,25.319536,0.000846,0.000636,0.010954,1.571939,-0.028216,-0.000560,-0.000076,0.000052,-0.002407,-0.000009,0.005129,-0.005453,0.177622,-0.013321,0.185486,0.185482,0.172004,0.741071,0.000000,0.000000,0.000000,0.000000,0.000000,0.000000,0.000000,0.000000,0.000000,0.000000,0.000000,0.000000,0.172212,3,0
750000,0.005361,19.251076,0.028088,0.024478,25.331438,0.002399,0.000637,0.011448,1.571953,-0.029355,-0.000589,-0.000257,0.000055,-0.002543,-0.000010,0.007790,-0.005532,0.217117,0.032629,0.186087,0.186083,0.172156,0.733171,0.000000,0.000000,0.000000,0.000000,0.000000,0.000000,0.000000,0.000000,0.000000,0.000000,0.000000,0.000000,0.210451,3,0
760000,0.005436,19.512953,0.027943,0.024644,25.346617,0.002358,0.000633,0.012069,1.571984,-0.030816,-0.000618,-0.000224,0.000059,-0.002721,-0.000011,0.012235,-0.005610,0.275129,-0.006186,0.186684,0.186679,0.172300,0.725287,0.000000,0.000000,0.000000,0.000000,0.000000,0.000000,0.000000,0.000000,0.000000,0.000000,0.000000,0.000000,0.266625,3,0
770000,0.005510,19.773655,0.026834,0.024819,25.359592,0.000736,0.000634,0.012600,1.572008,-0.032063,-0.000648,-0.000001,0.000062,-0.002875,-0.000011,0.008933,-0.005687,0.231768,-0.039613,0.187274,0.187270,0.172436,0.717425,0.000000,0.000000,0.000000,0.000000,0.000000,0.000000,0.000000,0.000000,0.000000,0.000000,0.000000,0.000000,0.224603,3,0
780000,0.005581,20.032570,0.027292,0.024849,25.369431,0.001530,0.000623,0.013016,1.572024,-0.032987,-0.000679,-0.000091,0.000066,-0.002991,-0.000012,0.004695,-0.005762,0.169724,0.015497,0.187857,0.187853,0.172564,0.709591,0.000000,0.000000,0.000000,0.000000,0.000000,0.000000,0.000000,0.000000,0.000000,0.000000,0.000000,0.000000,0.164504,3,0
790000,0.005651,20.294077,0.027364,0.024978,25.383610,0.001613,0.000624,0.013628,1.572054,-0.034356,-0.000710,-0.000103,0.000070,-0.003166,-0.000012,0.009987,-0.005834,0.248653,0.001774,0.188432,0.188428,0.172681,0.701792,0.000000,0.000000,0.000000,0.000000,0.000000,0.000000,0.000000,0.000000,0.000000,0.000000,0.000000,0.000000,0.240911,3,0
800000,0.005719,20.552521,0.027414,0.025030,25.392323,0.001590,0.000612,0.014013,1.572080,-0.035169,-0.000743,-0.000111,0.000075,-0.003271,-0.000013,0.003448,-0.005904,0.146032,0.001110,0.188998,0.188993,0.172788,0.694032,0.000000,0.000000,0.000000,0.000000,0.000000,0.000000,0.000000,0.000000,0.000000,0.000000,0.000000,0.000000,0.141547,3,0
810000,0.005783,20.814203,0.028205,0.025052,25.406641,0.002913,0.000605,0.014630,1.572110,-0.036549,-0.000776,-0.000272,0.000079,-0.003454,-0.000013,0.009834,-0.005972,0.245321,0.026615,0.189553,0.189549,0.172883,0.686319,0.000000,0.000000,0.000000,0.000000,0.000000,0.000000,0.000000,0.000000,0.000000,0.000000,0.000000,0.000000,0.237640,3,0
820000,0.005847,21.076571,0.026830,0.025068,25.421932,0.000778,0.000607,0.015292,1.572130,-0.038038,-0.000809,0.000023,0.000084,-0.003653,-0.000014,0.011454,-0.006037,0.261799,-0.048901,0.190098,0.190093,0.172966,0.678656,0.000000,0.000000,0.000000,0.000000,0.000000,0.000000,0.000000,0.000000,0.000000,0.000000,0.000000,0.000000,0.253573,3,0
830000,0.005908,21.333931,0.026266,0.025156,25.428257,-0.000123,0.000598,0.015568,1.572144,-0.038605,-0.000844,0.000145,0.000088,-0.003731,-0.000015,0.001641,-0.006102,0.098675,-0.019895,0.190631,0.190626,0.173036,0.671049,0.000000,0.000000,0.000000,0.000000,0.000000,0.000000,0.000000,0.000000,0.000000,0.000000,0.000000,0.000000,0.095724,3,0
840000,0.005969,21.592663,0.025288,0.025274,25.436945,-0.001542,0.000595,0.015961,1.572170,-0.039413,-0.000880,0.000356,0.000093,-0.003842,-0.000015,0.003330,-0.006164,0.139433,-0.033962,0.191152,0.191147,0.173093,0.663502,0.000000,0.000000,0.000000,0.000000,0.000000,0.000000,0.000000,0.000000,0.000000,0.000000,0.000000,0.000000,0.135124,3,0
850000,0.006027,21.851484,0.025271,0.025416,25.445723,-0.001650,0.000581,0.016350,1.572181,-0.040226,-0.000915,0.000355,0.000098,-0.003957,-0.000015,0.003125,-0.006226,0.139040,-0.000153,0.191661,0.191656,0.173136,0.656020,0.000000,0.000000,0.000000,0.000000,0.000000,0.000000,0.000000,0.000000,0.000000,0.000000,0.000000,0.000000,0.134733,3,0
860000,0.006084,22.109751,0.026395,0.025468,25.453259,-0.000099,0.000578,0.016709,1.572195,-0.040925,-0.000952,0.000102,0.000103,-0.004057,-0.000016,0.002531,-0.006286,0.118679,0.039461,0.192156,0.192152,0.173166,0.648608,0.000000,0.000000,0.000000,0.000000,0.000000,0.000000,0.000000,0.000000,0.000000,0.000000,0.000000,0.000000,0.115039,3,0
870000,0.006138,22.370020,0.026746,0.025460,25.464220,0.000487,0.000563,0.017230,1.572222,-0.041985,-0.000989,0.000022,0.000109,-0.004212,-0.000016,0.005164,-0.006342,0.178398,0.012004,0.192639,0.192634,0.173182,0.641269,0.000000,0.000000,0.000000,0.000000,0.000000,0.000000,0.000000,0.000000,0.000000,0.000000,0.000000,0.000000,0.172779,3,0
880000,0.006192,22.632910,0.026896,0.025615,25.479763,0.000780,0.000553,0.017951,1.572249,-0.043518,-0.001027,-0.000013,0.000115,-0.004438,-0.000017,0.010578,-0.006398,0.255960,0.004804,0.193108,0.193103,0.173184,0.634007,0.000000,0.000000,0.000000,0.000000,0.000000,0.000000,0.000000,0.000000,0.000000,0.000000,0.000000,0.000000,0.247800,3,0
890000,0.006244,22.895187,0.026747,0.025572,25.494102,0.000660,0.000556,0.018625,1.572276,-0.044915,-0.001065,0.000022,0.000120,-0.004648,-0.000018,0.008653,-0.006452,0.231459,-0.005679,0.193564,0.193559,0.173172,0.626824,0.000000,0.000000,0.000000,0.000000,0.000000,0.000000,0.000000,0.000000,0.000000,0.000000,0.000000,0.000000,0.224078,3,0
900000,0.006292,23.152994,0.027561,0.025572,25.500269,0.001884,0.000556,0.018925,1.572283,-0.045452,-0.001104,-0.000165,0.000126,-0.004730,-0.000018,0.001390,-0.006503,0.088314,0.027877,0.194007,0.194002,0.173145,0.619726,0.000000,0.000000,0.000000,0.000000,0.000000,0.000000,0.000000,0.000000,0.000000,0.000000,0.000000,0.000000,0.085690,3,0
910000,0.006341,23.412821,0.026454,0.025697,25.509880,0.000407,0.000545,0.019389,1.572294,-0.046361,-0.001144,0.000098,0.000132,-0.004870,-0.000019,0.003812,-0.006553,0.148508,-0.039201,0.194436,0.194431,0.173104,0.612713,0.000000,0.000000,0.000000,0.000000,0.000000,0.000000,0.000000,0.000000,0.000000,0.000000,0.000000,0.000000,0.143836,3,0
920000,0.006387,23.671413,0.026791,0.025662,25.517206,0.000800,0.000542,0.019758,1.572307,-0.047021,-0.001184,0.000018,0.000139,-0.004974,-0.000019,0.001883,-0.006602,0.107252,0.011464,0.194852,0.194847,0.173049,0.605790,0.000000,0.000000,0.000000,0.000000,0.000000,0.000000,0.000000,0.000000,0.000000,0.000000,0.000000,0.000000,0.103966,3,0
930000,0.006431,23.931374,0.027142,0.025601,25.526875,0.001215,0.000536,0.020246,1.572330,-0.047930,-0.001225,-0.000066,0.000145,-0.005120,-0.000020,0.003503,-0.006647,0.146769,0.011808,0.195254,0.195249,0.172980,0.598958,0.000000,0.000000,0.000000,0.000000,0.000000,0.000000,0.000000,0.000000,0.000000,0.000000,0.000000,0.000000,0.142138,3,0
940000,0.006474,24.189442,0.026221,0.025725,25.533092,-0.000264,0.000529,0.020561,1.572340,-0.048464,-0.001266,0.000159,0.000152,-0.005206,-0.000020,0.001356,-0.006692,0.085501,-0.032399,0.195643,0.195638,0.172897,0.592220,0.000000,0.000000,0.000000,0.000000,0.000000,0.000000,0.000000,0.000000,0.000000,0.000000,0.000000,0.000000,0.082967,3,0
950000,0.006517,24.452785,0.024753,0.025796,25.548651,-0.002358,0.000518,0.021337,1.572366,-0.050000,-0.001307,0.000514,0.000159,-0.005459,-0.000021,0.010094,-0.006736,0.244825,-0.051114,0.196019,0.196014,0.172801,0.585578,0.000000,0.000000,0.000000,0.000000,0.000000,0.000000,0.000000,0.000000,0.000000,0.000000,0.000000,0.000000,0.236917,3,0
960000,0.006557,24.714184,0.024741,0.025812,25.560602,-0.002425,0.000502,0.021949,1.572380,-0.051134,-0.001349,0.000509,0.000166,-0.005648,-0.000022,0.005237,-0.006779,0.180117,0.000296,0.196382,0.196377,0.172690,0.579033,0.000000,0.000000,0.000000,0.000000,0.000000,0.000000,0.000000,0.000000,0.000000,0.000000,0.000000,0.000000,0.174344,3,0
970000,0.006596,24.973001,0.024399,0.025867,25.567783,-0.003046,0.000487,0.022305,1.572405,-0.051752,-0.001392,0.000587,0.000173,-0.005753,-0.000022,0.001560,-0.006820,0.097509,-0.011079,0.196733,0.196728,0.172567,0.572587,0.000000,0.000000,0.000000,0.000000,0.000000,0.000000,0.000000,0.000000,0.000000,0.000000,0.000000,0.000000,0.094543,3,0
980000,0.006635,25.235800,0.024664,0.025966,25.581900,-0.002697,0.000478,0.023036,1.572429,-0.053126,-0.001435,0.000509,0.000180,-0.005990,-0.000023,0.007567,-0.006860,0.216318,0.010113,0.197072,0.197067,0.172430,0.566242,0.000000,0.000000,0.000000,0.000000,0.000000,0.000000,0.000000,0.000000,0.000000,0.000000,0.000000,0.000000,0.209318,3,0
990000,0.006670,25.494026,0.025509,0.025906,25.587839,-0.001332,0.000464,0.023325,1.572450,-0.053589,-0.001479,0.000287,0.000188,-0.006072,-0.000023,0.001007,-0.006898,0.072649,0.030283,0.197399,0.197393,0.172281,0.559998,0.000000,0.000000,0.000000,0.000000,0.000000,0.000000,0.000000,0.000000,0.000000,0.000000,0.000000,0.000000,0.070575,3,0
1000000,0.006705,25.755594,0.024419,0.025848,25.599628,-0.002819,0.000451,0.023945,1.572460,-0.054694,-0.001522,0.000561,0.000196,-0.006268,-0.000024,0.005017,-0.006933,0.172186,-0.037711,0.197714,0.197709,0.172120,0.553857,0.000000,0.000000,0.000000,0.000000,0.000000,0.000000,0.000000,0.000000,0.000000,0.000000,0.000000,0.000000,0.166648,3,0
1010000,0.006738,26.017841,0.024886,0.025937,25.612488,-0.002254,0.000429,0.024623,1.572472,-0.055909,-0.001566,0.000429,0.000204,-0.006487,-0.000025,0.005801,-0.006968,0.188801,0.017209,0.198018,0.198013,0.171946,0.547819,0.000000,0.000000,0.000000,0.000000,0.000000,0.000000,0.000000,0.000000,0.000000,0.000000,0.000000,0.000000,0.182694,3,0
1020000,0.006770,26.276154,0.025251,0.025914,25.618240,-0.001648,0.000410,0.024909,1.572482,-0.056332,-0.001611,0.000326,0.000212,-0.006565,-0.000025,0.000730,-0.007001,0.065580,0.013462,0.198312,0.198306,0.171761,0.541886,0.000000,0.000000,0.000000,0.000000,0.000000,0.000000,0.000000,0.000000,0.000000,0.000000,0.000000,0.000000,0.063772,3,0
1030000,0.006800,26.537161,0.026367,0.025913,25.628628,-0.000188,0.000399,0.025452,1.572500,-0.057270,-0.001656,0.000024,0.000221,-0.006739,-0.000026,0.003656,-0.007033,0.145147,0.039508,0.198595,0.198589,0.171565,0.536057,0.000000,0.000000,0.000000,0.000000,0.000000,0.000000,0.000000,0.000000,0.000000,0.000000,0.000000,0.000000,0.140507,3,0
1040000,0.006830,26.799505,0.025771,0.025979,25.641157,-0.001074,0.000389,0.026137,1.572512,-0.058455,-0.001701,0.000179,0.000229,-0.006963,-0.000027,0.005430,-0.007063,0.182224,-0.020913,0.198868,0.198863,0.171357,0.530333,0.000000,0.000000,0.000000,0.000000,0.000000,0.000000,0.000000,0.000000,0.000000,0.000000,0.000000,0.000000,0.176318,3,0
1050000,0.006858,27.059212,0.026609,0.026021,25.648911,-0.000062,0.000377,0.026542,1.572521,-0.059097,-0.001747,-0.000052,0.000238,-0.007086,-0.000027,0.001720,-0.007094,0.098663,0.029772,0.199132,0.199126,0.171139,0.524715,0.000000,0.000000,0.000000,0.000000,0.000000,0.000000,0.000000,0.000000,0.000000,0.000000,0.000000,0.000000,0.095635,3,0
1060000,0.006885,27.322258,0.026619,0.025945,25.662451,-0.000022,0.000362,0.027299,1.572542,-0.060381,-0.001793,-0.000060,0.000247,-0.007336,-0.000028,0.006242,-0.007122,0.196697,0.000233,0.199386,0.199381,0.170911,0.519201,0.000000,0.000000,0.000000,0.000000,0.000000,0.000000,0.000000,0.000000,0.000000,0.000000,0.000000,0.000000,0.190285,3,0
1070000,0.006910,27.581984,0.027322,0.025913,25.669975,0.000891,0.000337,0.027690,1.572553,-0.060986,-0.001839,-0.000255,0.000256,-0.007455,-0.000028,0.001487,-0.007149,0.092548,0.024653,0.199632,0.199627,0.170673,0.513793,0.000000,0.000000,0.000000,0.000000,0.000000,0.000000,0.000000,0.000000,0.000000,0.000000,0.000000,0.000000,0.089734,3,0
1080000,0.006936,27.843065,0.026033,0.025944,25.679871,-0.001082,0.000325,0.028230,1.572572,-0.061847,-0.001885,0.000101,0.000265,-0.007627,-0.000029,0.003109,-0.007174,0.130930,-0.045706,0.199870,0.199865,0.170425,0.508491,0.000000,0.000000,0.000000,0.000000,0.000000,0.000000,0.000000,0.000000,0.000000,0.000000,0.000000,0.000000,0.126760,3,0
1090000,0.006958,28.102837,0.025841,0.025823,25.687386,-0.001171,0.000304,0.028633,1.572586,-0.062428,-0.001932,0.000149,0.000275,-0.007745,-0.000030,0.001275,-0.007198,0.088415,-0.006484,0.200101,0.200095,0.170169,0.503293,0.000000,0.000000,0.000000,0.000000,0.000000,0.000000,0.000000,0.000000,0.000000,0.000000,0.000000,0.000000,0.085749,3,0
1100000,0.006979,28.364630,0.025787,0.025721,25.698259,-0.001324,0.000289,0.029255,1.572609,-0.063393,-0.001979,0.000156,0.000285,-0.007944,-0.000030,0.003473,-0.007220,0.146633,-0.001535,0.200324,0.200318,0.169904,0.498199,0.000000,0.000000,0.000000,0.000000,0.000000,0.000000,0.000000,0.000000,0.000000,0.000000,0.000000,0.000000,0.141909,3,0
1110000,0.006998,28.626419,0.025463,0.025691,25.709066,-0.001640,0.000275,0.029855,1.572636,-0.064337,-0.002026,0.000241,0.000294,-0.008142,-0.000031,0.003330,-0.007240,0.143156,-0.011123,0.200540,0.200535,0.169631,0.493209,0.000000,0.000000,0.000000,0.000000,0.000000,0.000000,0.000000,0.000000,0.000000,0.000000,0.000000,0.000000,0.138549,3,0
1120000,0.007016,28.885546,0.024648,0.025565,25.715061,-0.002630,0.000266,0.030158,1.572646,-0.064736,-0.002074,0.000468,0.000304,-0.008226,-0.000031,0.000722,-0.007258,0.060169,-0.028327,0.200750,0.200745,0.169350,0.488323,0.000000,0.000000,0.000000,0.000000,0.000000,0.000000,0.000000,0.000000,0.000000,0.000000,0.000000,0.000000,0.058579,3,0
1130000,0.007032,29.147373,0.024522,0.025559,25.725792,-0.002800,0.000243,0.030773,1.572661,-0.065653,-0.002121,0.000492,0.000315,-0.008424,-0.000032,0.003119,-0.007276,0.138922,-0.003580,0.200955,0.200949,0.169062,0.483539,0.000000,0.000000,0.000000,0.000000,0.000000,0.000000,0.000000,0.000000,0.000000,0.000000,0.000000,0.000000,0.134454,3,0
1140000,0.007048,29.409197,0.024258,0.025553,25.736383,-0.003110,0.000217,0.031375,1.572684,-0.066549,-0.002168,0.000556,0.000325,-0.008620,-0.000033,0.002974,-0.007292,0.135412,-0.008470,0.201153,0.201148,0.168767,0.478857,0.000000,0.000000,0.000000,0.000000,0.000000,0.000000,0.000000,0.000000,0.000000,0.000000,0.000000,0.000000,0.131062,3,0
1150000,0.007063,29.669680,0.023838,0.025513,25.744537,-0.003775,0.000188,0.031816,1.572699,-0.067159,-0.002216,0.000666,0.000335,-0.008755,-0.000033,0.001407,-0.007308,0.092150,-0.013832,0.201347,0.201341,0.168466,0.474276,0.000000,0.000000,0.000000,0.000000,0.000000,0.000000,0.000000,0.000000,0.000000,0.000000,0.000000,0.000000,0.089338,3,0
1160000,0.007076,29.930843,0.022596,0.025406,25.753702,-0.005330,0.000166,0.032343,1.572707,-0.067888,-0.002264,0.001019,0.000346,-0.008919,-0.000034,0.002253,-0.007321,0.109890,-0.043003,0.201537,0.201531,0.168158,0.469795,0.000000,0.000000,0.000000,0.000000,0.000000,0.000000,0.000000,0.000000,0.000000,0.000000,0.000000,0.000000,0.106435,3,0
1170000,0.007088,30.192007,0.021480,0.025313,25.762724,-0.006735,0.000150,0.032863,1.572715,-0.068598,-0.002312,0.001333,0.000357,-0.009081,-0.000034,0.002089,-0.007334,0.107061,-0.038023,0.201722,0.201716,0.167844,0.465414,0.000000,0.000000,0.000000,0.000000,0.000000,0.000000,0.000000,0.000000,0.000000,0.000000,0.000000,0.000000,0.103705,3,0
1180000,0.007098,30.455847,0.020589,0.025196,25.776529,-0.007787,0.000140,0.033680,1.572744,-0.069815,-0.002360,0.001573,0.000368,-0.009363,-0.000036,0.005588,-0.007344,0.183748,-0.029538,0.201903,0.201897,0.167526,0.461131,0.000000,0.000000,0.000000,0.000000,0.000000,0.000000,0.000000,0.000000,0.000000,0.000000,0.000000,0.000000,0.177706,3,0
1190000,0.007107,30.719643,0.020475,0.025177,25.790096,-0.007855,0.000125,0.034485,1.572761,-0.070993,-0.002408,0.001575,0.000379,-0.009640,-0.000037,0.005123,-0.007354,0.178194,-0.001281,0.202081,0.202075,0.167202,0.456945,0.000000,0.000000,0.000000,0.000000,0.000000,0.000000,0.000000,0.000000,0.000000,0.000000,0.000000,0.000000,0.172340,3,0
1200000,0.007113,30.978033,0.020870,0.025029,25.793970,-0.007175,0.000095,0.034644,1.572767,-0.071082,-0.002456,0.001430,0.000391,-0.009661,-0.000037,0.000085,-0.007361,0.013657,0.016973,0.202256,0.202250,0.166873,0.452855,0.000000,0.000000,0.000000,0.000000,0.000000,0.000000,0.000000,0.000000,0.000000,0.000000,0.000000,0.000000,0.014992,3,0
1210000,0.007118,31.237133,0.020606,0.024885,25.798920,-0.007617,0.000076,0.034887,1.572791,-0.071304,-0.002504,0.001487,0.000402,-0.009715,-0.000037,0.000197,-0.007366,0.033531,-0.006865,0.202429,0.202422,0.166540,0.448859,0.000000,0.000000,0.000000,0.000000,0.000000,0.000000,0.000000,0.000000,0.000000,0.000000,0.000000,0.000000,0.033173,3,0
1220000,0.007122,31.497602,0.019289,0.024780,25.806261,-0.009184,0.000045,0.035294,1.572812,-0.071786,-0.002553,0.001870,0.000414,-0.009833,-0.000037,0.001182,-0.007370,0.072569,-0.044795,0.202599,0.202592,0.166204,0.444957,0.000000,0.000000,0.000000,0.000000,0.000000,0.000000,0.000000,0.000000,0.000000,0.000000,0.000000,0.000000,0.070479,3,0
1230000,0.007123,31.760092,0.020047,0.024619,25.817133,-0.008179,0.000023,0.035933,1.572831,-0.072640,-0.002600,0.001596,0.000426,-0.010046,-0.000038,0.002888,-0.007373,0.130087,0.030800,0.202767,0.202760,0.165863,0.441147,0.000000,0.000000,0.000000,0.000000,0.000000,0.000000,0.000000,0.000000,0.000000,0.000000,0.000000,0.000000,0.125892,3,0
1240000,0.007123,32.022552,0.020189,0.024531,25.827852,-0.007775,-0.000007,0.036561,1.572853,-0.073468,-0.002648,0.001518,0.000438,-0.010255,-0.000039,0.002572,-0.007372,0.125912,0.008096,0.202934,0.202927,0.165520,0.437429,0.000000,0.000000,0.000000,0.000000,0.000000,0.000000,0.000000,0.000000,0.000000,0.000000,0.000000,0.000000,0.121863,3,0
1250000,0.007121,32.284313,0.021085,0.024371,25.837263,-0.006713,-0.000037,0.037094,1.572869,-0.074135,-0.002696,0.001200,0.000451,-0.010426,-0.000039,0.001884,-0.007371,0.101891,0.035464,0.203099,0.203092,0.165174,0.433800,0.000000,0.000000,0.000000,0.000000,0.000000,0.000000,0.000000,0.000000,0.000000,0.000000,0.000000,0.000000,0.098699,3,0
1260000,0.007117,32.544708,0.022356,0.024308,25.844090,-0.005184,-0.000059,0.037446,1.572880,-0.074516,-0.002743,0.000765,0.000464,-0.010526,-0.000040,0.000950,-0.007368,0.058704,0.048804,0.203264,0.203256,0.164825,0.430259,0.000000,0.000000,0.000000,0.000000,0.000000,0.000000,0.000000,0.000000,0.000000,0.000000,0.000000,0.000000,0.057162,3,0
1270000,0.007116,32.807125,0.020952,0.024267,25.854330,-0.007044,-0.000084,0.038065,1.572905,-0.075281,-0.002791,0.001196,0.000476,-0.010727,-0.000040,0.002579,-0.007364,0.116306,-0.049203,0.203427,0.203420,0.164474,0.426806,0.000000,0.000000,0.000000,0.000000,0.000000,0.000000,0.000000,0.000000,0.000000,0.000000,0.000000,0.000000,0.112587,3,0
1280000,0.007112,33.068832,0.020672,0.024137,25.863270,-0.007386,-0.000110,0.038587,1.572918,-0.075884,-0.002839,0.001257,0.000489,-0.010889,-0.000041,0.001391,-0.007362,0.092331,-0.007575,0.203591,0.203583,0.164120,0.423438,0.000000,0.000000,0.000000,0.000000,0.000000,0.000000,0.000000,0.000000,0.000000,0.000000,0.000000,0.000000,0.089482,3,0
1290000,0.007106,33.329170,0.021713,0.024021,25.869722,-0.006209,-0.000139,0.038919,1.572933,-0.076201,-0.002886,0.000886,0.000502,-0.010975,-0.000041,0.000671,-0.007357,0.049202,0.040969,0.203754,0.203746,0.163766,0.420154,0.000000,0.000000,0.000000,0.000000,0.000000,0.000000,0.000000,0.000000,0.000000,0.000000,0.000000,0.000000,0.048059,3,0
1300000,0.007099,33.588833,0.021412,0.023810,25.874786,-0.006596,-0.000155,0.039149,1.572953,-0.076380,-0.002934,0.000963,0.000515,-0.011024,-0.000041,0.000141,-0.007348,0.027344,-0.008735,0.203917,0.203908,0.163410,0.416953,0.000000,0.000000,0.000000,0.000000,0.000000,0.000000,0.000000,0.000000,0.000000,0.000000,0.000000,0.000000,0.027350,3,0
1310000,0.007089,33.851208,0.022610,0.023611,25.884771,-0.005100,-0.000188,0.039743,1.572970,-0.077060,-0.002980,0.000531,0.000528,-0.011215,-0.000042,0.002156,-0.007340,0.105572,0.046639,0.204080,0.204071,0.163052,0.413834,0.000000,0.000000,0.000000,0.000000,0.000000,0.000000,0.000000,0.000000,0.000000,0.000000,0.000000,0.000000,0.102228,3,0
1320000,0.007078,34.110165,0.023035,0.023505,25.888390,-0.004712,-0.000211,0.039866,1.572984,-0.077072,-0.003027,0.000370,0.000542,-0.011219,-0.000042,0.000060,-0.007328,0.002129,0.017621,0.204244,0.204235,0.162694,0.410794,0.000000,0.000000,0.000000,0.000000,0.000000,0.000000,0.000000,0.000000,0.000000,0.000000,0.000000,0.000000,0.007371,3,0
1330000,0.007068,34.371845,0.021862,0.023310,25.896816,-0.006374,-0.000231,0.040363,1.573008,-0.077598,-0.003074,0.000745,0.000555,-0.011370,-0.000043,0.001345,-0.007316,0.081078,-0.041435,0.204408,0.204399,0.162336,0.407833,0.000000,0.000000,0.000000,0.000000,0.000000,0.000000,0.000000,0.000000,0.000000,0.000000,0.000000,0.000000,0.078634,3,0
1340000,0.007055,34.630108,0.021780,0.023146,25.899080,-0.006443,-0.000265,0.040389,1.573021,-0.077459,-0.003121,0.000753,0.000569,-0.011329,-0.000042,0.000084,-0.007304,-0.021656,-0.000699,0.204573,0.204564,0.161977,0.404948,0.000000,0.000000,0.000000,0.000000,0.000000,0.000000,0.000000,0.000000,0.000000,0.000000,0.000000,0.000000,0.022074,3,0
1350000,0.007039,34.889755,0.021906,0.022936,25.903780,-0.006165,-0.000300,0.040589,1.573025,-0.077576,-0.003168,0.000686,0.000583,-0.011363,-0.000043,0.000070,-0.007288,0.018246,0.007063,0.204740,0.204730,0.161618,0.402139,0.000000,0.000000,0.000000,0.000000,0.000000,0.000000,0.000000,0.000000,0.000000,0.000000,0.000000,0.000000,0.018978,3,0
1360000,0.007024,35.150768,0.021608,0.022829,25.910915,-0.006515,-0.000331,0.040984,1.573035,-0.077938,-0.003214,0.000763,0.000596,-0.011472,-0.000043,0.000539,-0.007272,0.056732,-0.008666,0.204907,0.204897,0.161259,0.399405,0.000000,0.000000,0.000000,0.000000,0.000000,0.000000,0.000000,0.000000,0.000000,0.000000,0.000000,0.000000,0.055243,3,0
1370000,0.007007,35.409042,0.021407,0.022615,25.913002,-0.006625,-0.000361,0.040993,1.573041,-0.077777,-0.003260,0.000813,0.000610,-0.011423,-0.000043,0.000117,-0.007255,-0.025440,-0.005165,0.205076,0.205065,0.160901,0.396742,0.000000,0.000000,0.000000,0.000000,0.000000,0.000000,0.000000,0.000000,0.000000,0.000000,0.000000,0.000000,0.025550,3,0
1380000,0.006989,35.669384,0.021235,0.022553,25.918856,-0.006954,-0.000390,0.041274,1.573057,-0.077994,-0.003306,0.000847,0.000625,-0.011490,-0.000043,0.000200,-0.007237,0.034325,-0.003830,0.205246,0.205235,0.160543,0.394152,0.000000,0.000000,0.000000,0.000000,0.000000,0.000000,0.000000,0.000000,0.000000,0.000000,0.000000,0.000000,0.033879,3,0
1390000,0.006973,35.932442,0.020429,0.022506,25.929489,-0.008041,-0.000424,0.041937,1.573069,-0.078701,-0.003350,0.001095,0.000638,-0.011712,-0.000044,0.002143,-0.007219,0.111866,-0.027294,0.205418,0.205406,0.160186,0.391631,0.000000,0.000000,0.000000,0.000000,0.000000,0.000000,0.000000,0.000000,0.000000,0.000000,0.000000,0.000000,0.108261,3,0
1400000,0.006952,36.192719,0.021439,0.022259,25.934984,-0.006585,-0.000454,0.042187,1.573087,-0.078871,-0.003395,0.000703,0.000653,-0.011766,-0.000044,0.000403,-0.007200,0.027611,0.040936,0.205592,0.205579,0.159831,0.389178,0.000000,0.000000,0.000000,0.000000,0.000000,0.000000,0.000000,0.000000,0.000000,0.000000,0.000000,0.000000,0.027560,3,0
1410000,0.006930,36.455711,0.022134,0.022136,25.945322,-0.005760,-0.000484,0.042824,1.573109,-0.079524,-0.003439,0.000416,0.000668,-0.011977,-0.000045,0.001926,-0.007177,0.105221,0.028882,0.205767,0.205754,0.159476,0.386792,0.000000,0.000000,0.000000,0.000000,0.000000,0.000000,0.000000,0.000000,0.000000,0.000000,0.000000,0.000000,0.101852,3,0
1420000,0.006911,36.714561,0.021370,0.022066,25.948019,-0.006536,-0.000514,0.042854,1.573117,-0.079411,-0.003484,0.000675,0.000682,-0.011940,-0.000044,0.000180,-0.007155,-0.018723,-0.026719,0.205944,0.205931,0.159123,0.384471,0.000000,0.000000,0.000000,0.000000,0.000000,0.000000,0.000000,0.000000,0.000000,0.000000,0.000000,0.000000,0.019357,3,0
1430000,0.006891,36.975471,0.020331,0.021939,25.954374,-0.007751,-0.000550,0.043188,1.573125,-0.079664,-0.003528,0.001026,0.000696,-0.012024,-0.000045,0.000490,-0.007134,0.040462,-0.036693,0.206123,0.206109,0.158771,0.382214,0.000000,0.000000,0.000000,0.000000,0.000000,0.000000,0.000000,0.000000,0.000000,0.000000,0.000000,0.000000,0.039673,3,0
1440000,0.006870,37.234310,0.019348,0.021842,25.956917,-0.008912,-0.000584,0.043211,1.573133,-0.079535,-0.003572,0.001363,0.000711,-0.011980,-0.000044,0.000275,-0.007113,-0.021721,-0.034345,0.206304,0.206290,0.158422,0.380020,0.000000,0.000000,0.000000,0.000000,0.000000,0.000000,0.000000,0.000000,0.000000,0.000000,0.000000,0.000000,0.022073,3,0
1450000,0.006846,37.493153,0.020117,0.021655,25.959391,-0.008081,-0.000626,0.043222,1.573152,-0.079396,-0.003615,0.001047,0.000726,-0.011933,-0.000044,0.000259,-0.007091,-0.022163,0.032582,0.206487,0.206472,0.158074,0.377887,0.000000,0.000000,0.000000,0.000000,0.000000,0.000000,0.000000,0.000000,0.000000,0.000000,0.000000,0.000000,0.022465,3,0
1460000,0.006822,37.754742,0.020622,0.021554,25.966839,-0.007428,-0.000650,0.043638,1.573166,-0.079739,-0.003657,0.000820,0.000741,-0.012052,-0.000045,0.000611,-0.007066,0.056915,0.022477,0.206672,0.206656,0.157728,0.375813,0.000000,0.000000,0.000000,0.000000,0.000000,0.000000,0.000000,0.000000,0.000000,0.000000,0.000000,0.000000,0.055380,3,0
1470000,0.006797,38.014248,0.019525,0.021296,25.970537,-0.008644,-0.000675,0.043732,1.573176,-0.079707,-0.003700,0.001206,0.000756,-0.012041,-0.000044,0.000261,-0.007039,-0.005962,-0.039024,0.206858,0.206842,0.157384,0.373799,0.000000,0.000000,0.000000,0.000000,0.000000,0.000000,0.000000,0.000000,0.000000,0.000000,0.000000,0.000000,0.008910,3,0
1480000,0.006772,38.277184,0.018316,0.021097,25.980249,-0.009949,-0.000714,0.044346,1.573193,-0.080266,-0.003742,0.001618,0.000770,-0.012241,-0.000045,0.001674,-0.007013,0.092312,-0.042633,0.207047,0.207030,0.157043,0.371840,0.000000,0.000000,0.000000,0.000000,0.000000,0.000000,0.000000,0.000000,0.000000,0.000000,0.000000,0.000000,0.089380,3,0
1490000,0.006744,38.538681,0.018063,0.020835,25.987375,-0.010171,-0.000752,0.044728,1.573218,-0.080553,-0.003784,0.001669,0.000785,-0.012345,-0.000046,0.000383,-0.006985,0.047951,-0.005715,0.207237,0.207220,0.156704,0.369938,0.000000,0.000000,0.000000,0.000000,0.000000,0.000000,0.000000,0.000000,0.000000,0.000000,0.000000,0.000000,0.046784,3,0
1500000,0.006715,38.802208,0.017844,0.020734,25.997972,-0.010293,-0.000778,0.045406,1.573225,-0.081172,-0.003824,0.001698,0.000800,-0.012573,-0.000046,0.001766,-0.006956,0.104443,-0.004156,0.207430,0.207412,0.156368,0.368090,0.000000,0.000000,0.000000,0.000000,0.000000,0.000000,0.000000,0.000000,0.000000,0.000000,0.000000,0.000000,0.101053,3,0
1510000,0.006685,39.062222,0.018733,0.020612,26.002192,-0.009225,-0.000806,0.045525,1.573247,-0.081167,-0.003864,0.001314,0.000816,-0.012571,-0.000046,0.000244,-0.006926,-0.000156,0.038188,0.207624,0.207605,0.156035,0.366296,0.000000,0.000000,0.000000,0.000000,0.000000,0.000000,0.000000,0.000000,0.000000,0.000000,0.000000,0.000000,0.006686,3,0
1520000,0.006653,39.320152,0.019612,0.020347,26.002510,-0.007973,-0.000842,0.045326,1.573260,-0.080804,-0.003905,0.000947,0.000831,-0.012433,-0.000046,0.000839,-0.006893,-0.061424,0.037160,0.207820,0.207801,0.155705,0.364553,0.000000,0.000000,0.000000,0.000000,0.000000,0.000000,0.000000,0.000000,0.000000,0.000000,0.000000,0.000000,0.059664,3,0
1530000,0.006621,39.582245,0.019095,0.020119,26.010275,-0.008646,-0.000875,0.045778,1.573280,-0.081144,-0.003944,0.001108,0.000846,-0.012564,-0.000046,0.000600,-0.006858,0.058338,-0.016603,0.208018,0.207998,0.155377,0.362859,0.000000,0.000000,0.000000,0.000000,0.000000,0.000000,0.000000,0.000000,0.000000,0.000000,0.000000,0.000000,0.056700,3,0
1540000,0.006587,39.841522,0.019559,0.019954,26.012871,-0.007938,-0.000905,0.045776,1.573294,-0.080998,-0.003983,0.000896,0.000862,-0.012507,-0.000046,0.000180,-0.006825,-0.024918,0.021165,0.208218,0.208197,0.155053,0.361215,0.000000,0.000000,0.000000,0.000000,0.000000,0.000000,0.000000,0.000000,0.000000,0.000000,0.000000,0.000000,0.024937,3,0
1550000,0.006552,40.102867,0.019660,0.019696,26.019287,-0.007644,-0.000946,0.046099,1.573318,-0.081191,-0.004022,0.000819,0.000877,-0.012584,-0.000046,0.000200,-0.006788,0.033840,0.007095,0.208419,0.208397,0.154732,0.359620,0.000000,0.000000,0.000000,0.000000,0.000000,0.000000,0.000000,0.000000,0.000000,0.000000,0.000000,0.000000,0.033316,3,0
1560000,0.006515,40.360714,0.020899,0.019446,26.019121,-0.006010,-0.000975,0.045852,1.573322,-0.080797,-0.004060,0.000307,0.000893,-0.012425,-0.000046,0.001181,-0.006751,-0.068539,0.050755,0.208622,0.208599,0.154414,0.358070,0.000000,0.000000,0.000000,0.000000,0.000000,0.000000,0.000000,0.000000,0.000000,0.000000,0.000000,0.000000,0.066471,3,0
1570000,0.006476,40.619965,0.021696,0.019201,26.021515,-0.004859,-0.001008,0.045813,1.573338,-0.080635,-0.004097,-0.000031,0.000909,-0.012359,-0.000045,0.000314,-0.006711,-0.028202,0.033201,0.208826,0.208802,0.154099,0.356565,0.000000,0.000000,0.000000,0.000000,0.000000,0.000000,0.000000,0.000000,0.000000,0.000000,0.000000,0.000000,0.027978,3,0
1580000,0.006440,40.881294,0.020464,0.019052,26.027706,-0.006364,-0.001050,0.046119,1.573346,-0.080810,-0.004135,0.000441,0.000924,-0.012432,-0.000046,0.000502,-0.006671,0.030586,-0.046023,0.209031,0.209007,0.153788,0.355105,0.000000,0.000000,0.000000,0.000000,0.000000,0.000000,0.000000,0.000000,0.000000,0.000000,0.000000,0.000000,0.030209,3,0
1590000,0.006401,41.140491,0.021595,0.018930,26.029911,-0.005133,-0.001093,0.046071,1.573364,-0.080628,-0.004171,-0.000039,0.000940,-0.012355,-0.000045,0.000525,-0.006634,-0.032013,0.046628,0.209238,0.209212,0.153480,0.353687,0.000000,0.000000,0.000000,0.000000,0.000000,0.000000,0.000000,0.000000,0.000000,0.000000,0.000000,0.000000,0.031548,3,0
1600000,0.006364,41.399693,0.020435,0.018752,26.032148,-0.006345,-0.001126,0.046029,1.573386,-0.080454,-0.004208,0.000422,0.000955,-0.012280,-0.000045,0.000490,-0.006592,-0.032806,-0.043650,0.209446,0.209419,0.153176,0.352311,0.000000,0.000000,0.000000,0.000000,0.000000,0.000000,0.000000,0.000000,0.000000,0.000000,0.000000,0.000000,0.032299,3,0
1610000,0.006323,41.663044,0.021086,0.018457,26.041891,-0.005609,-0.001157,0.046635,1.573399,-0.080915,-0.004243,0.000109,0.000971,-0.012481,-0.000046,0.001320,-0.006553,0.085667,0.028559,0.209654,0.209627,0.152876,0.350975,0.000000,0.000000,0.000000,0.000000,0.000000,0.000000,0.000000,0.000000,0.000000,0.000000,0.000000,0.000000,0.082921,3,0
1620000,0.006282,41.925636,0.020657,0.018233,26.050137,-0.006069,-0.001186,0.047122,1.573411,-0.081244,-0.004277,0.000250,0.000986,-0.012626,-0.000046,0.000634,-0.006509,0.060764,-0.014316,0.209864,0.209835,0.152579,0.349679,0.000000,0.000000,0.000000,0.000000,0.000000,0.000000,0.000000,0.000000,0.000000,0.000000,0.000000,0.000000,0.058971,3,0
1630000,0.006239,42.187462,0.021036,0.017979,26.056902,-0.005838,-0.001227,0.047461,1.573429,-0.081437,-0.004311,0.000058,0.001002,-0.012713,-0.000046,0.000273,-0.006466,0.036640,0.017642,0.210074,0.210045,0.152286,0.348422,0.000000,0.000000,0.000000,0.000000,0.000000,0.000000,0.000000,0.000000,0.000000,0.000000,0.000000,0.000000,0.035905,3,0
1640000,0.006197,42.445759,0.019975,0.017713,26.057016,-0.007022,-0.001272,0.047211,1.573440,-0.081092,-0.004346,0.000494,0.001017,-0.012556,-0.000046,0.000972,-0.006420,-0.066223,-0.039998,0.210285,0.210254,0.151997,0.347200,0.000000,0.000000,0.000000,0.000000,0.000000,0.000000,0.000000,0.000000,0.000000,0.000000,0.000000,0.000000,0.064207,3,0
1650000,0.006151,42.705444,0.020636,0.017494,26.059650,-0.006238,-0.001310,0.047192,1.573457,-0.080952,-0.004379,0.000192,0.001033,-0.012490,-0.000046,0.000252,-0.006376,-0.026337,0.028759,0.210496,0.210464,0.151711,0.346015,0.000000,0.000000,0.000000,0.000000,0.000000,0.000000,0.000000,0.000000,0.000000,0.000000,0.000000,0.000000,0.026144,3,0
1660000,0.006106,42.964420,0.019858,0.017186,26.060884,-0.007099,-0.001345,0.047051,1.573462,-0.080710,-0.004413,0.000507,0.001048,-0.012376,-0.000045,0.000503,-0.006327,-0.047504,-0.028663,0.210707,0.210674,0.151430,0.344864,0.000000,0.000000,0.000000,0.000000,0.000000,0.000000,0.000000,0.000000,0.000000,0.000000,0.000000,0.000000,0.046246,3,0
1670000,0.006058,43.223377,0.020535,0.016983,26.062023,-0.006392,-0.001383,0.046902,1.573471,-0.080460,-0.004445,0.000200,0.001064,-0.012257,-0.000045,0.000518,-0.006280,-0.048065,0.029426,0.210918,0.210885,0.151152,0.343746,0.000000,0.000000,0.000000,0.000000,0.000000,0.000000,0.000000,0.000000,0.000000,0.000000,0.000000,0.000000,0.046765,3,0
1680000,0.006010,43.484425,0.020932,0.016773,26.067022,-0.005962,-0.001429,0.047089,1.573477,-0.080514,-0.004476,-0.000001,0.001079,-0.012283,-0.000045,0.000081,-0.006230,0.011028,0.018451,0.211129,0.211095,0.150878,0.342661,0.000000,0.000000,0.000000,0.000000,0.000000,0.000000,0.000000,0.000000,0.000000,0.000000,0.000000,0.000000,0.012223,3,0
1690000,0.005960,43.747528,0.021690,0.016448,26.075775,-0.004986,-0.001469,0.047619,1.573494,-0.080850,-0.004506,-0.000371,0.001094,-0.012449,-0.000045,0.000927,-0.006178,0.067989,0.033057,0.211340,0.211304,0.150608,0.341608,0.000000,0.000000,0.000000,0.000000,0.000000,0.000000,0.000000,0.000000,0.000000,0.000000,0.000000,0.000000,0.065871,3,0
1700000,0.005911,44.005661,0.020694,0.016191,26.075321,-0.006005,-0.001514,0.047297,1.573514,-0.080479,-0.004537,0.000061,0.001109,-0.012263,-0.000044,0.001173,-0.006125,-0.075928,-0.038397,0.211551,0.211514,0.150343,0.340586,0.000000,0.000000,0.000000,0.000000,0.000000,0.000000,0.000000,0.000000,0.000000,0.000000,0.000000,0.000000,0.073496,3,0
1710000,0.005859,44.267292,0.021684,0.016051,26.081278,-0.005055,-0.001551,0.047560,1.573523,-0.080591,-0.004566,-0.000405,0.001125,-0.012320,-0.000045,0.000387,-0.006075,0.023766,0.042291,0.211761,0.211723,0.150081,0.339594,0.000000,0.000000,0.000000,0.000000,0.000000,0.000000,0.000000,0.000000,0.000000,0.000000,0.000000,0.000000,0.023671,3,0
1720000,0.005810,44.526070,0.021009,0.015813,26.081852,-0.005741,-0.001589,0.047341,1.573540,-0.080309,-0.004596,-0.000114,0.001140,-0.012174,-0.000044,0.000672,-0.006021,-0.059013,-0.025510,0.211970,0.211931,0.149823,0.338630,0.000000,0.000000,0.000000,0.000000,0.000000,0.000000,0.000000,0.000000,0.000000,0.000000,0.000000,0.000000,0.057230,3,0
