time_us,pos_x,pos_y,pos_z,vel_x,vel_y,vel_z,roll,pitch,yaw,bias_ax,bias_ay,bias_az,bias_gx,bias_gy,bias_gz,nis,innov_x,innov_y,innov_z,cov_pos_x,cov_pos_y,cov_pos_z,cov_yaw,des_speed,des_heading,des_climb,pid_speed,pid_yaw,pid_alt,speed_meas,yaw_meas,climb_meas,fwd_accel,yaw_rate,vert_accel,drift_m,nav_mode,mission_state
0,0.000005,0.149996,-0.000001,0.000883,24.999424,-0.000245,-0.000014,0.000018,1.570802,0.000000,0.000000,0.000000,0.000000,0.000000,0.000000,0.006250,-0.000009,-0.249997,0.000002,2.400038,2.400038,3.600017,1.000518,0.000000,0.000000,0.000000,0.000000,0.000000,0.000000,0.000000,0.000000,0.000000,0.000000,0.000000,0.000000,0.149996,1,0
10000,0.000016,0.359538,-0.020614,0.001728,24.998791,-0.000719,-0.000019,0.000028,1.570812,0.000000,-0.000000,0.000000,0.000000,0.000000,0.000000,0.002700,-0.000023,-0.141561,-0.054950,1.714420,1.714420,2.250079,1.001073,0.000000,0.000000,0.000000,0.000000,0.000000,0.000000,0.000000,0.000000,0.000000,0.000000,0.000000,0.000000,0.101112,3,0
20000,0.000034,0.615435,-0.008814,0.002742,24.998524,-0.000910,-0.000023,0.000040,1.570814,0.000000,-0.000000,-0.000000,0.000000,-0.000000,-0.000000,0.000319,-0.000044,0.026603,0.043301,1.333616,1.333616,1.636554,1.001655,0.000000,0.000000,0.000000,0.000000,0.000000,0.000000,0.000000,0.000000,0.000000,0.000000,0.000000,0.000000,0.020690,3,0
30000,0.000059,0.863484,-0.009411,0.003768,24.998068,-0.001226,-0.000024,0.000049,1.570831,0.000000,-0.000000,-0.000000,0.000000,0.000000,0.000000,0.000016,-0.000072,-0.010623,-0.002730,1.091392,1.091392,1.286065,1.002257,0.000000,0.000000,0.000000,0.000000,0.000000,0.000000,0.000000,0.000000,0.000000,0.000000,0.000000,0.000000,0.008691,3,0
40000,0.000088,1.104242,-0.013815,0.004599,24.997511,-0.001564,-0.000037,0.000052,1.570839,0.000002,-0.000000,0.000001,-0.000000,0.000000,0.000000,0.000590,-0.000105,-0.059879,-0.024860,0.923811,0.923811,1.059385,1.002869,0.000000,0.000000,0.000000,0.000000,0.000000,0.000000,0.000000,0.000000,0.000000,0.000000,0.000000,0.000000,0.050660,3,0
50000,0.000124,1.343272,-0.016787,0.005483,24.996758,-0.001843,-0.000034,0.000075,1.570856,0.000006,-0.000000,0.000001,-0.000000,0.000000,0.000000,0.001025,-0.000143,-0.081964,-0.019677,0.801036,0.801036,0.900822,1.003484,0.000000,0.000000,0.000000,0.000000,0.000000,0.000000,0.000000,0.000000,0.000000,0.000000,0.000000,0.000000,0.071021,3,0
60000,0.000166,1.585861,-0.015437,0.006395,24.995987,-0.002017,-0.000036,0.000094,1.570870,0.000009,-0.000000,0.000001,0.000000,0.000000,0.000000,0.000591,-0.000188,-0.062559,0.010492,0.707270,0.707270,0.783741,1.004094,0.000000,0.000000,0.000000,0.000000,0.000000,0.000000,0.000000,0.000000,0.000000,0.000000,0.000000,0.000000,0.055185,3,0
70000,0.000215,1.830886,-0.018852,0.007388,24.995256,-0.002534,-0.000051,0.000112,1.570879,0.000013,-0.000000,0.000003,0.000000,0.000000,0.000000,0.000452,-0.000240,-0.046714,-0.029330,0.633370,0.633370,0.693801,1.004688,0.000000,0.000000,0.000000,0.000000,0.000000,0.000000,0.000000,0.000000,0.000000,0.000000,0.000000,0.000000,0.041784,3,0
80000,0.000270,2.077650,-0.022831,0.008352,24.994593,-0.003251,-0.000052,0.000117,1.570898,0.000017,-0.000000,0.000007,0.000000,0.000000,0.000000,0.000384,-0.000298,-0.033306,-0.038057,0.573673,0.573673,0.622594,1.005260,0.000000,0.000000,0.000000,0.000000,0.000000,0.000000,0.000000,0.000000,0.000000,0.000000,0.000000,0.000000,0.030123,3,0
90000,0.000331,2.325702,-0.019969,0.009302,24.994156,-0.003397,-0.000055,0.000129,1.570901,0.000019,-0.000000,0.000003,0.000000,0.000000,0.000000,0.000214,-0.000363,-0.021639,0.030783,0.524488,0.524488,0.564865,1.005801,0.000000,0.000000,0.000000,0.000000,0.000000,0.000000,0.000000,0.000000,0.000000,0.000000,0.000000,0.000000,0.019750,3,0
100000,0.000398,2.577936,-0.021365,0.010181,24.994118,-0.003785,-0.000067,0.000147,1.570906,0.000015,-0.000000,0.000005,0.000000,0.000000,0.000000,0.000162,-0.000433,0.028498,-0.015770,0.483303,0.483303,0.517162,1.006302,0.000000,0.000000,0.000000,0.000000,0.000000,0.000000,0.000000,0.000000,0.000000,0.000000,0.000000,0.000000,0.026205,3,0
110000,0.000471,2.834921,-0.018307,0.011080,24.994701,-0.003731,-0.000081,0.000172,1.570912,-0.000003,-0.000000,-0.000002,0.000000,-0.000000,-0.000000,0.001605,-0.000509,0.094328,0.038966,0.448353,0.448353,0.477121,1.006755,0.000000,0.000000,0.000000,0.000000,0.000000,0.000000,0.000000,0.000000,0.000000,0.000000,0.000000,0.000000,0.087281,3,0
120000,0.000549,3.088769,-0.018389,0.011973,24.994942,-0.004200,-0.000085,0.000185,1.570923,-0.000015,-0.000000,-0.000002,0.000000,-0.000000,-0.000000,0.000486,-0.000591,0.056004,-0.000537,0.418358,0.418358,0.443071,1.007151,0.000000,0.000000,0.000000,0.000000,0.000000,0.000000,0.000000,0.000000,0.000000,0.000000,0.000000,0.000000,0.052102,3,0
130000,0.000634,3.341378,-0.015137,0.012864,24.995203,-0.003782,-0.000088,0.000200,1.570935,-0.000025,-0.000001,-0.000014,0.000000,-0.000001,-0.000000,0.000612,-0.000678,0.040699,0.047786,0.392369,0.392369,0.413797,1.007482,0.000000,0.000000,0.000000,0.000000,0.000000,0.000000,0.000000,0.000000,0.000000,0.000000,0.000000,0.000000,0.038043,3,0
140000,0.000724,3.596642,-0.015922,0.013808,24.995991,-0.004149,-0.000085,0.000230,1.570940,-0.000051,-0.000001,-0.000010,0.000000,-0.000001,-0.000000,0.001185,-0.000772,0.086273,-0.011508,0.369666,0.369666,0.388393,1.007740,0.000000,0.000000,0.000000,0.000000,0.000000,0.000000,0.000000,0.000000,0.000000,0.000000,0.000000,0.000000,0.080961,3,0
150000,0.000821,3.854128,-0.013477,0.014702,24.997459,-0.003885,-0.000094,0.000254,1.570944,-0.000094,-0.000001,-0.000024,0.000000,-0.000002,-0.000000,0.002880,-0.000872,0.129184,0.040786,0.349695,0.349695,0.366172,1.007917,0.000000,0.000000,0.000000,0.000000,0.000000,0.000000,0.000000,0.000000,0.000000,0.000000,0.000000,0.000000,0.121658,3,0
160000,0.000924,4.107999,-0.013451,0.015685,24.998247,-0.003995,-0.000100,0.000281,1.570965,-0.000121,-0.000001,-0.000024,0.000000,-0.000003,-0.000000,0.000782,-0.000978,0.070473,0.001135,0.332020,0.332020,0.346600,1.008004,0.000000,0.000000,0.000000,0.000000,0.000000,0.000000,0.000000,0.000000,0.000000,0.000000,0.000000,0.000000,0.066580,3,0
170000,0.001032,4.359838,-0.012767,0.016575,24.998508,-0.004263,-0.000099,0.000297,1.570978,-0.000136,-0.000002,-0.000030,0.000000,-0.000003,-0.000000,0.000224,-0.001090,0.035262,0.013287,0.316297,0.316297,0.329260,1.007993,0.000000,0.000000,0.000000,0.000000,0.000000,0.000000,0.000000,0.000000,0.000000,0.000000,0.000000,0.000000,0.033419,3,0
180000,0.001147,4.614932,-0.010890,0.017538,24.999910,-0.003997,-0.000102,0.000331,1.570988,-0.000185,-0.000003,-0.000047,0.000000,-0.000004,-0.000000,0.001844,-0.001208,0.101483,0.036754,0.302246,0.302246,0.313817,1.007877,0.000000,0.000000,0.000000,0.000000,0.000000,0.000000,0.000000,0.000000,0.000000,0.000000,0.000000,0.000000,0.096378,3,0
190000,0.001268,4.868068,-0.012705,0.018490,25.000700,-0.004911,-0.000106,0.000358,1.570991,-0.000219,-0.000003,-0.000028,0.000000,-0.000005,-0.000000,0.000870,-0.001332,0.065043,-0.035440,0.289641,0.289641,0.300003,1.007648,0.000000,0.000000,0.000000,0.000000,0.000000,0.000000,0.000000,0.000000,0.000000,0.000000,0.000000,0.000000,0.061916,3,0
200000,0.001393,5.123178,-0.011687,0.019326,25.002417,-0.004928,-0.000123,0.000392,1.571006,-0.000283,-0.000004,-0.000041,0.000000,-0.000007,-0.000000,0.002006,-0.001461,0.110083,0.022348,0.278295,0.278295,0.287598,1.007298,0.000000,0.000000,0.000000,0.000000,0.000000,0.000000,0.000000,0.000000,0.000000,0.000000,0.000000,0.000000,0.104986,3,0
210000,0.001524,5.379153,-0.013499,0.020150,25.004742,-0.006026,-0.000129,0.000432,1.571024,-0.000368,-0.000005,-0.000017,0.000000,-0.000009,-0.000000,0.003059,-0.001595,0.133260,-0.038161,0.268053,0.268053,0.276421,1.006820,0.000000,0.000000,0.000000,0.000000,0.000000,0.000000,0.000000,0.000000,0.000000,0.000000,0.000000,0.000000,0.127316,3,0
220000,0.001660,5.630763,-0.012018,0.021094,25.005156,-0.005718,-0.000139,0.000458,1.571040,-0.000394,-0.000006,-0.000041,0.000000,-0.000010,-0.000000,0.000403,-0.001735,0.036294,0.034795,0.258786,0.258786,0.266321,1.006206,0.000000,0.000000,0.000000,0.000000,0.000000,0.000000,0.000000,0.000000,0.000000,0.000000,0.000000,0.000000,0.034768,3,0
230000,0.001802,5.883439,-0.011824,0.021999,25.006075,-0.005827,-0.000138,0.000491,1.571055,-0.000442,-0.000008,-0.000046,0.000000,-0.000012,-0.000000,0.000640,-0.001881,0.062985,0.005921,0.250385,0.250385,0.257172,1.005450,0.000000,0.000000,0.000000,0.000000,0.000000,0.000000,0.000000,0.000000,0.000000,0.000000,0.000000,0.000000,0.060384,3,0
240000,0.001949,6.141103,-0.012975,0.022847,25.009912,-0.006458,-0.000141,0.000549,1.571060,-0.000597,-0.000009,-0.000024,0.000000,-0.000017,-0.000000,0.005764,-0.002031,0.187998,-0.026327,0.242755,0.242755,0.248866,1.004545,0.000000,0.000000,0.000000,0.000000,0.000000,0.000000,0.000000,0.000000,0.000000,0.000000,0.000000,0.000000,0.180403,3,0
250000,0.002100,6.396273,-0.012230,0.023632,25.012472,-0.006332,-0.000153,0.000594,1.571072,-0.000712,-0.000011,-0.000042,0.000000,-0.000021,-0.000000,0.002734,-0.002186,0.129086,0.020201,0.235817,0.235817,0.241314,1.003485,0.000000,0.000000,0.000000,0.000000,0.000000,0.000000,0.000000,0.000000,0.000000,0.000000,0.000000,0.000000,0.124030,3,0
260000,0.002255,6.653738,-0.014134,0.024437,25.016745,-0.007688,-0.000170,0.000661,1.571092,-0.000896,-0.000014,0.000003,0.000000,-0.000028,-0.000000,0.006261,-0.002345,0.191952,-0.047035,0.229503,0.229503,0.234436,1.002263,0.000000,0.000000,0.000000,0.000000,0.000000,0.000000,0.000000,0.000000,0.000000,0.000000,0.000000,0.000000,0.184624,3,0
270000,0.002415,6.905906,-0.013798,0.025247,25.017815,-0.007591,-0.000181,0.000689,1.571111,-0.000952,-0.000016,-0.000009,0.000001,-0.000030,-0.000000,0.000483,-0.002508,0.053718,0.010910,0.223753,0.223753,0.228165,1.000874,0.000000,0.000000,0.000000,0.000000,0.000000,0.000000,0.000000,0.000000,0.000000,0.000000,0.000000,0.000000,0.051771,3,0
280000,0.002578,7.162609,-0.015830,0.026010,25.021978,-0.008918,-0.000188,0.000759,1.571125,-0.001149,-0.000019,0.000049,0.000001,-0.000038,-0.000000,0.005607,-0.002675,0.179239,-0.052738,0.218515,0.218515,0.222443,0.999312,0.000000,0.000000,0.000000,0.000000,0.000000,0.000000,0.000000,0.000000,0.000000,0.000000,0.000000,0.000000,0.172731,3,0
290000,0.002747,7.419270,-0.014458,0.026926,25.026342,-0.008024,-0.000200,0.000843,1.571140,-0.001363,-0.000022,0.000002,0.000001,-0.000046,-0.000000,0.005524,-0.002848,0.180921,0.040380,0.213743,0.213743,0.217219,0.997573,0.000000,0.000000,0.000000,0.000000,0.000000,0.000000,0.000000,0.000000,0.000000,0.000000,0.000000,0.000000,0.174498,3,0
300000,0.002919,7.671743,-0.015614,0.027739,25.027880,-0.008966,-0.000212,0.000878,1.571154,-0.001442,-0.000026,0.000040,0.000001,-0.000050,-0.000000,0.000795,-0.003025,0.063367,-0.030352,0.209397,0.209397,0.212446,0.995651,0.000000,0.000000,0.000000,0.000000,0.000000,0.000000,0.000000,0.000000,0.000000,0.000000,0.000000,0.000000,0.061225,3,0
310000,0.003097,7.925073,-0.014879,0.028636,25.030048,-0.008646,-0.000222,0.000940,1.571157,-0.001561,-0.000030,0.000008,0.000001,-0.000055,-0.000001,0.001374,-0.003207,0.089184,0.023864,0.205442,0.205442,0.208087,0.993542,0.000000,0.000000,0.000000,0.000000,0.000000,0.000000,0.000000,0.000000,0.000000,0.000000,0.000000,0.000000,0.086186,3,0
320000,0.003278,8.183223,-0.016098,0.029475,25.036371,-0.009622,-0.000221,0.001052,1.571162,-0.001892,-0.000035,0.000055,0.000001,-0.000070,-0.000001,0.008955,-0.003392,0.233412,-0.033264,0.201845,0.201846,0.204105,0.991243,0.000000,0.000000,0.000000,0.000000,0.000000,0.000000,0.000000,0.000000,0.000000,0.000000,0.000000,0.000000,0.225583,3,0
330000,0.003464,8.440659,-0.017510,0.030337,25.042437,-0.010820,-0.000236,0.001159,1.571182,-0.002212,-0.000041,0.000113,0.000002,-0.000085,-0.000001,0.007614,-0.003583,0.213744,-0.039352,0.198580,0.198580,0.200469,0.988750,0.000000,0.000000,0.000000,0.000000,0.000000,0.000000,0.000000,0.000000,0.000000,0.000000,0.000000,0.000000,0.206699,3,0
340000,0.003654,8.698080,-0.016169,0.031179,25.048752,-0.009822,-0.000236,0.001291,1.571207,-0.002552,-0.000046,0.000044,0.000002,-0.000102,-0.000001,0.007747,-0.003777,0.214674,0.044171,0.195619,0.195620,0.197151,0.986060,0.000000,0.000000,0.000000,0.000000,0.000000,0.000000,0.000000,0.000000,0.000000,0.000000,0.000000,0.000000,0.207707,3,0
350000,0.003846,8.952943,-0.015725,0.031885,25.052839,-0.009756,-0.000237,0.001377,1.571227,-0.002779,-0.000053,0.000015,0.000002,-0.000113,-0.000001,0.003036,-0.003974,0.136098,0.016908,0.192941,0.192941,0.194125,0.983171,0.000000,0.000000,0.000000,0.000000,0.000000,0.000000,0.000000,0.000000,0.000000,0.000000,0.000000,0.000000,0.131778,3,0
360000,0.004042,9.207902,-0.016040,0.032703,25.057009,-0.010090,-0.000251,0.001462,1.571236,-0.003024,-0.000060,0.000027,0.000003,-0.000126,-0.000001,0.003156,-0.004175,0.139623,-0.006774,0.190524,0.190525,0.191370,0.980080,0.000000,0.000000,0.000000,0.000000,0.000000,0.000000,0.000000,0.000000,0.000000,0.000000,0.000000,0.000000,0.135249,3,0
370000,0.004240,9.461713,-0.016342,0.033404,25.060169,-0.010430,-0.000251,0.001545,1.571253,-0.003214,-0.000068,0.000039,0.000003,-0.000136,-0.000001,0.001732,-0.004378,0.103289,-0.006371,0.188350,0.188350,0.188863,0.976787,0.000000,0.000000,0.000000,0.000000,0.000000,0.000000,0.000000,0.000000,0.000000,0.000000,0.000000,0.000000,0.100136,3,0
380000,0.004442,9.715047,-0.018082,0.034244,25.063025,-0.012245,-0.000254,0.001612,1.571266,-0.003384,-0.000077,0.000140,0.000003,-0.000146,-0.000001,0.001699,-0.004584,0.087992,-0.052523,0.186401,0.186401,0.186586,0.973290,0.000000,0.000000,0.000000,0.000000,0.000000,0.000000,0.000000,0.000000,0.000000,0.000000,0.000000,0.000000,0.085374,3,0
390000,0.004645,9.971598,-0.017885,0.034909,25.069365,-0.012121,-0.000266,0.001762,1.571286,-0.003774,-0.000087,0.000119,0.000004,-0.000168,-0.000002,0.006004,-0.004793,0.192452,0.010456,0.184661,0.184662,0.184522,0.969589,0.000000,0.000000,0.000000,0.000000,0.000000,0.000000,0.000000,0.000000,0.000000,0.000000,0.000000,0.000000,0.186587,3,0
400000,0.004851,10.227612,-0.018330,0.035709,25.075354,-0.012605,-0.000279,0.001896,1.571300,-0.004143,-0.000097,0.000141,0.000005,-0.000189,-0.000002,0.004936,-0.005004,0.174383,-0.010604,0.183116,0.183117,0.182656,0.965684,0.000000,0.000000,0.000000,0.000000,0.000000,0.000000,0.000000,0.000000,0.000000,0.000000,0.000000,0.000000,0.169130,3,0
410000,0.005059,10.481912,-0.017191,0.036375,25.079340,-0.011412,-0.000297,0.002000,1.571308,-0.004402,-0.000109,0.000048,0.000005,-0.000204,-0.000002,0.002505,-0.005217,0.117099,0.041982,0.181753,0.181754,0.180971,0.961575,0.000000,0.000000,0.000000,0.000000,0.000000,0.000000,0.000000,0.000000,0.000000,0.000000,0.000000,0.000000,0.113664,3,0
420000,0.005268,10.740540,-0.016158,0.037111,25.088837,-0.010371,-0.000307,0.002218,1.571322,-0.005002,-0.000121,-0.000040,0.000006,-0.000241,-0.000002,0.011200,-0.005432,0.260336,0.038442,0.180558,0.180559,0.179456,0.957265,0.000000,0.000000,0.000000,0.000000,0.000000,0.000000,0.000000,0.000000,0.000000,0.000000,0.000000,0.000000,0.252556,3,0
430000,0.005480,10.994450,-0.015397,0.037870,25.092560,-0.009836,-0.000314,0.002318,1.571331,-0.005244,-0.000135,-0.000111,0.000007,-0.000256,-0.000002,0.001793,-0.005649,0.101007,0.029268,0.179521,0.179522,0.178097,0.952753,0.000000,0.000000,0.000000,0.000000,0.000000,0.000000,0.000000,0.000000,0.000000,0.000000,0.000000,0.000000,0.098138,3,0
440000,0.005693,11.253251,-0.016517,0.038574,25.102621,-0.011183,-0.000334,0.002564,1.571341,-0.005904,-0.000149,-0.000025,0.000008,-0.000299,-0.000003,0.011514,-0.005868,0.264517,-0.034596,0.178630,0.178631,0.176883,0.948043,0.000000,0.000000,0.000000,0.000000,0.000000,0.000000,0.000000,0.000000,0.000000,0.000000,0.000000,0.000000,0.256705,3,0
450000,0.005908,11.511515,-0.016604,0.039236,25.112019,-0.011520,-0.000344,0.002790,1.571369,-0.006536,-0.000165,-0.000027,0.000009,-0.000340,-0.000003,0.009648,-0.006088,0.244164,0.000960,0.177876,0.177877,0.175803,0.943137,0.000000,0.000000,0.000000,0.000000,0.000000,0.000000,0.000000,0.000000,0.000000,0.000000,0.000000,0.000000,0.236999,3,0
460000,0.006124,11.767500,-0.018046,0.039976,25.118500,-0.013473,-0.000363,0.002951,1.571388,-0.006979,-0.000182,0.000095,0.000010,-0.000370,-0.000003,0.004729,-0.006310,0.164716,-0.045422,0.177249,0.177250,0.174847,0.938038,0.000000,0.000000,0.000000,0.000000,0.000000,0.000000,0.000000,0.000000,0.000000,0.000000,0.000000,0.000000,0.159967,3,0
470000,0.006340,12.023022,-0.018687,0.040647,25.124493,-0.014465,-0.000372,0.003114,1.571405,-0.007388,-0.000200,0.000143,0.000011,-0.000399,-0.000004,0.003561,-0.006533,0.147211,-0.017335,0.176739,0.176741,0.174007,0.932751,0.000000,0.000000,0.000000,0.000000,0.000000,0.000000,0.000000,0.000000,0.000000,0.000000,0.000000,0.000000,0.143015,3,0
480000,0.006557,12.281599,-0.018334,0.041219,25.134781,-0.013984,-0.000388,0.003380,1.571431,-0.008107,-0.000219,0.000093,0.000013,-0.000449,-0.000004,0.010122,-0.006755,0.249450,0.017247,0.176340,0.176341,0.173272,0.927278,0.000000,0.000000,0.000000,0.000000,0.000000,0.000000,0.000000,0.000000,0.000000,0.000000,0.000000,0.000000,0.242207,3,0
490000,0.006772,12.536177,-0.017875,0.041726,25.139397,-0.013472,-0.000406,0.003505,1.571446,-0.008435,-0.000240,0.000030,0.000014,-0.000473,-0.000004,0.002038,-0.006977,0.110044,0.020887,0.176042,0.176043,0.172634,0.921624,0.000000,0.000000,0.000000,0.000000,0.000000,0.000000,0.000000,0.000000,0.000000,0.000000,0.000000,0.000000,0.107029,3,0
500000,0.006988,12.793821,-0.018587,0.042334,25.148502,-0.014380,-0.000428,0.003743,1.571469,-0.009090,-0.000262,0.000092,0.000016,-0.000522,-0.000005,0.007430,-0.007198,0.213240,-0.020070,0.175839,0.175840,0.172087,0.915796,0.000000,0.000000,0.000000,0.000000,0.000000,0.000000,0.000000,0.000000,0.000000,0.000000,0.000000,0.000000,0.207108,3,0
510000,0.007203,13.052154,-0.018753,0.042971,25.158558,-0.014807,-0.000446,0.004016,1.571494,-0.009832,-0.000285,0.000094,0.000018,-0.000578,-0.000005,0.008853,-0.007420,0.233810,-0.000668,0.175723,0.175724,0.171623,0.909797,0.000000,0.000000,0.000000,0.000000,0.000000,0.000000,0.000000,0.000000,0.000000,0.000000,0.000000,0.000000,0.227077,3,0
520000,0.007419,13.308841,-0.019765,0.043604,25.166361,-0.016354,-0.000456,0.004235,1.571511,-0.010401,-0.000310,0.000192,0.000019,-0.000622,-0.000006,0.005064,-0.007643,0.174164,-0.030137,0.175688,0.175689,0.171234,0.903633,0.000000,0.000000,0.000000,0.000000,0.000000,0.000000,0.000000,0.000000,0.000000,0.000000,0.000000,0.000000,0.169227,3,0
530000,0.007633,13.565073,-0.021257,0.044058,25.173359,-0.018554,-0.000481,0.004436,1.571533,-0.010926,-0.000337,0.000350,0.000021,-0.000663,-0.000006,0.004295,-0.007863,0.155946,-0.046501,0.175727,0.175728,0.170915,0.897312,0.000000,0.000000,0.000000,0.000000,0.000000,0.000000,0.000000,0.000000,0.000000,0.000000,0.000000,0.000000,0.151571,3,0
540000,0.007845,13.823771,-0.020694,0.044532,25.184235,-0.017800,-0.000500,0.004749,1.571561,-0.011749,-0.000364,0.000257,0.000024,-0.000730,-0.000007,0.009255,-0.008082,0.237585,0.026374,0.175834,0.175836,0.170659,0.890838,0.000000,0.000000,0.000000,0.000000,0.000000,0.000000,0.000000,0.000000,0.000000,0.000000,0.000000,0.000000,0.230756,3,0
550000,0.008055,14.079076,-0.019897,0.045022,25.189758,-0.016734,-0.000524,0.004926,1.571573,-0.012168,-0.000394,0.000133,0.000026,-0.000764,-0.000007,0.002453,-0.008299,0.117930,0.034428,0.176004,0.176006,0.170460,0.884219,0.000000,0.000000,0.000000,0.000000,0.000000,0.000000,0.000000,0.000000,0.000000,0.000000,0.000000,0.000000,0.114754,3,0
560000,0.008263,14.335697,-0.019946,0.045426,25.197374,-0.016650,-0.000534,0.005151,1.571595,-0.012756,-0.000425,0.000117,0.000029,-0.000814,-0.000008,0.004195,-0.008513,0.160754,0.004157,0.176231,0.176233,0.170314,0.877463,0.000000,0.000000,0.000000,0.000000,0.000000,0.000000,0.000000,0.000000,0.000000,0.000000,0.000000,0.000000,0.156251,3,0
570000,0.008470,14.594209,-0.019158,0.045958,25.208021,-0.015629,-0.000562,0.005474,1.571615,-0.013588,-0.000457,-0.000011,0.000032,-0.000885,-0.000008,0.008178,-0.008727,0.222118,0.033745,0.176511,0.176513,0.170215,0.870575,0.000000,0.000000,0.000000,0.000000,0.000000,0.000000,0.000000,0.000000,0.000000,0.000000,0.000000,0.000000,0.215750,3,0
580000,0.008674,14.850489,-0.018235,0.046386,25.214966,-0.014487,-0.000589,0.005685,1.571630,-0.014135,-0.000491,-0.000161,0.000035,-0.000933,-0.000009,0.003529,-0.008938,0.142411,0.038168,0.176838,0.176840,0.170158,0.863564,0.000000,0.000000,0.000000,0.000000,0.000000,0.000000,0.000000,0.000000,0.000000,0.000000,0.000000,0.000000,0.138486,3,0
590000,0.008877,15.111018,-0.018753,0.046846,25.228739,-0.015114,-0.000604,0.006107,1.571646,-0.015251,-0.000527,-0.000109,0.000038,-0.001032,-0.000010,0.013054,-0.009147,0.283640,-0.013140,0.177207,0.177209,0.170138,0.856437,0.000000,0.000000,0.000000,0.000000,0.000000,0.000000,0.000000,0.000000,0.000000,0.000000,0.000000,0.000000,0.275406,3,0
600000,0.009078,15.371051,-0.018996,0.047333,25.241699,-0.015497,-0.000622,0.006508,1.571660,-0.016303,-0.000564,-0.000097,0.000041,-0.001128,-0.000011,0.011077,-0.009355,0.261519,-0.003195,0.177615,0.177617,0.170153,0.849202,0.000000,0.000000,0.000000,0.000000,0.000000,0.000000,0.000000,0.000000,0.000000,0.000000,0.000000,0.000000,0.253940,3,0
610000,0.009276,15.631772,-0.017822,0.047708,25.255703,-0.013679,-0.000639,0.006945,1.571681,-0.017455,-0.000603,-0.000294,0.000045,-0.001235,-0.000012,0.013019,-0.009560,0.279660,0.046869,0.178057,0.178060,0.170196,0.841868,0.000000,0.000000,0.000000,0.000000,0.000000,0.000000,0.000000,0.000000,0.000000,0.000000,0.000000,0.000000,0.271519,3,0
620000,0.009471,15.890809,-0.018978,0.048030,25.266922,-0.015426,-0.000662,0.007306,1.571707,-0.018370,-0.000644,-0.000141,0.000049,-0.001322,-0.000012,0.007880,-0.009761,0.217588,-0.035859,0.178530,0.178532,0.170265,0.834441,0.000000,0.000000,0.000000,0.000000,0.000000,0.000000,0.000000,0.000000,0.000000,0.000000,0.000000,0.000000,0.211326,3,0
630000,0.009663,16.146990,-0.018405,0.048480,25.273346,-0.014442,-0.000688,0.007520,1.571726,-0.018874,-0.000687,-0.000254,0.000053,-0.001370,-0.000013,0.002354,-0.009960,0.117468,0.025644,0.179029,0.179031,0.170356,0.826930,0.000000,0.000000,0.000000,0.000000,0.000000,0.000000,0.000000,0.000000,0.000000,0.000000,0.000000,0.000000,0.114371,3,0
640000,0.009852,16.405689,-0.019660,0.048733,25.283895,-0.016151,-0.000706,0.007879,1.571749,-0.019747,-0.000731,-0.000080,0.000057,-0.001456,-0.000014,0.006678,-0.010155,0.199167,-0.039088,0.179551,0.179553,0.170466,0.819344,0.000000,0.000000,0.000000,0.000000,0.000000,0.000000,0.000000,0.000000,0.000000,0.000000,0.000000,0.000000,0.193458,3,0
650000,0.010038,16.665695,-0.020360,0.049064,25.296597,-0.017211,-0.000720,0.008302,1.571782,-0.020814,-0.000777,0.000006,0.000062,-0.001562,-0.000015,0.009274,-0.010348,0.238543,-0.018907,0.180093,0.180095,0.170592,0.811690,0.000000,0.000000,0.000000,0.000000,0.000000,0.000000,0.000000,0.000000,0.000000,0.000000,0.000000,0.000000,0.231600,3,0
660000,0.010220,16.924004,-0.021455,0.049364,25.306355,-0.018881,-0.000751,0.008630,1.571803,-0.021621,-0.000825,0.000156,0.000067,-0.001644,-0.000015,0.005263,-0.010537,0.177198,-0.032360,0.180651,0.180654,0.170730,0.803976,0.000000,0.000000,0.000000,0.000000,0.000000,0.000000,0.000000,0.000000,0.000000,0.000000,0.000000,0.000000,0.172167,3,0
670000,0.010398,17.182426,-0.020580,0.049713,25.316071,-0.017526,-0.000783,0.008968,1.571823,-0.022442,-0.000874,-0.000024,0.000072,-0.001730,-0.000016,0.005322,-0.010723,0.177221,0.037438,0.181224,0.181227,0.170878,0.796211,0.000000,0.000000,0.000000,0.000000,0.000000,0.000000,0.000000,0.000000,0.000000,0.000000,0.000000,0.000000,0.172182,3,0
680000,0.010573,17.441565,-0.020791,0.049929,25.327034,-0.017742,-0.000817,0.009355,1.571840,-0.023372,-0.000925,-0.000019,0.000077,-0.001828,-0.000017,0.006292,-0.010903,0.197004,-0.001248,0.181807,0.181810,0.171033,0.788403,0.000000,0.000000,0.000000,0.000000,0.000000,0.000000,0.000000,0.000000,0.000000,0.000000,0.000000,0.000000,0.191327,3,0
690000,0.010742,17.702620,-0.019908,0.050145,25.341150,-0.016342,-0.000835,0.009867,1.571857,-0.024599,-0.000978,-0.000205,0.000083,-0.001960,-0.000018,0.010819,-0.011080,0.255817,0.037204,0.182399,0.182402,0.171194,0.780559,0.000000,0.000000,0.000000,0.000000,0.000000,0.000000,0.000000,0.000000,0.000000,0.000000,0.000000,0.000000,0.248274,3,0
700000,0.010909,17.962545,-0.019545,0.050421,25.353119,-0.015756,-0.000868,0.010311,1.571886,-0.025639,-0.001032,-0.000300,0.000089,-0.002074,-0.000019,0.007427,-0.011253,0.213289,0.018489,0.182997,0.183001,0.171358,0.772688,0.000000,0.000000,0.000000,0.000000,0.000000,0.000000,0.000000,0.000000,0.000000,0.000000,0.000000,0.000000,0.207071,3,0
710000,0.011073,18.221954,-0.019880,0.050690,25.364115,-0.016110,-0.000900,0.010707,1.571905,-0.026589,-0.001089,-0.000269,0.000095,-0.002179,-0.000020,0.005970,-0.011422,0.191792,-0.006222,0.183600,0.183603,0.171522,0.764796,0.000000,0.000000,0.000000,0.000000,0.000000,0.000000,0.000000,0.000000,0.000000,0.000000,0.000000,0.000000,0.186252,3,0
720000,0.011231,18.479630,-0.019912,0.050837,25.371948,-0.016324,-0.000936,0.010992,1.571922,-0.027248,-0.001147,-0.000294,0.000102,-0.002254,-0.000021,0.002800,-0.011587,0.131062,0.004617,0.184204,0.184207,0.171686,0.756892,0.000000,0.000000,0.000000,0.000000,0.000000,0.000000,0.000000,0.000000,0.000000,0.000000,0.000000,0.000000,0.127533,3,0
730000,0.011387,18.739254,-0.019817,0.051113,25.383242,-0.016123,-0.000974,0.011406,1.571945,-0.028225,-0.001206,-0.000344,0.000109,-0.002366,-0.000022,0.005951,-0.011749,0.191368,0.009078,0.184808,0.184811,0.171847,0.748983,0.000000,0.000000,0.000000,0.000000,0.000000,0.000000,0.000000,0.000000,0.000000,0.000000,0.000000,0.000000,0.185824,3,0
740000,0.011538,18.997742,-0.020008,0.051321,25.392363,-0.016347,-0.001001,0.011749,1.571961,-0.029003,-0.001268,-0.000340,0.000116,-0.002458,-0.000023,0.003672,-0.011906,0.150299,-0.001002,0.185410,0.185414,0.172004,0.741076,0.000000,0.000000,0.000000,0.000000,0.000000,0.000000,0.000000,0.000000,0.000000,0.000000,0.000000,0.000000,0.146111,3,0
750000,0.011687,19.258797,-0.020645,0.051517,25.405815,-0.017498,-0.001041,0.012263,1.571987,-0.030207,-0.001330,-0.000252,0.000123,-0.002601,-0.000024,0.008585,-0.012060,0.229662,-0.016382,0.186009,0.186013,0.172155,0.733177,0.000000,0.000000,0.000000,0.000000,0.000000,0.000000,0.000000,0.000000,0.000000,0.000000,0.000000,0.000000,0.222848,3,0
760000,0.011832,19.521160,-0.022101,0.051727,25.421459,-0.019867,-0.001077,0.012879,1.572019,-0.031625,-0.001395,-0.000006,0.000131,-0.002773,-0.000026,0.011827,-0.012210,0.266655,-0.044501,0.186604,0.186608,0.172300,0.725294,0.000000,0.000000,0.000000,0.000000,0.000000,0.000000,0.000000,0.000000,0.000000,0.000000,0.000000,0.000000,0.258633,3,0
770000,0.011972,19.781717,-0.022713,0.051882,25.433704,-0.020828,-0.001102,0.013373,1.572048,-0.032717,-0.001461,0.000073,0.000139,-0.002908,-0.000027,0.006707,-0.012357,0.202923,-0.014295,0.187192,0.187196,0.172436,0.717434,0.000000,0.000000,0.000000,0.000000,0.000000,0.000000,0.000000,0.000000,0.000000,0.000000,0.000000,0.000000,0.196957,3,0
780000,0.012107,20.041725,-0.021887,0.051982,25.444937,-0.019457,-0.001136,0.013828,1.572070,-0.033701,-0.001529,-0.000136,0.000148,-0.003031,-0.000028,0.005512,-0.012499,0.180790,0.036017,0.187773,0.187777,0.172564,0.709601,0.000000,0.000000,0.000000,0.000000,0.000000,0.000000,0.000000,0.000000,0.000000,0.000000,0.000000,0.000000,0.175551,3,0
790000,0.012238,20.304306,-0.020745,0.052175,25.460457,-0.017926,-0.001175,0.014469,1.572094,-0.035125,-0.001597,-0.000411,0.000157,-0.003213,-0.000030,0.011173,-0.012636,0.258612,0.046563,0.188345,0.188349,0.172681,0.701803,0.000000,0.000000,0.000000,0.000000,0.000000,0.000000,0.000000,0.000000,0.000000,0.000000,0.000000,0.000000,0.250793,3,0
800000,0.012365,20.563803,-0.020866,0.052167,25.470438,-0.018124,-0.001218,0.014866,1.572107,-0.035987,-0.001668,-0.000425,0.000166,-0.003324,-0.000031,0.003900,-0.012767,0.154905,0.002109,0.188908,0.188913,0.172788,0.694045,0.000000,0.000000,0.000000,0.000000,0.000000,0.000000,0.000000,0.000000,0.000000,0.000000,0.000000,0.000000,0.150537,3,0
810000,0.012488,20.825260,-0.021080,0.052324,25.483725,-0.018487,-0.001257,0.015417,1.572142,-0.037188,-0.001740,-0.000422,0.000176,-0.003483,-0.000032,0.007375,-0.012895,0.213371,-0.001061,0.189461,0.189466,0.172883,0.686333,0.000000,0.000000,0.000000,0.000000,0.000000,0.000000,0.000000,0.000000,0.000000,0.000000,0.000000,0.000000,0.207010,3,0
820000,0.012607,21.087399,-0.021788,0.052376,25.497971,-0.019647,-0.001288,0.016025,1.572172,-0.038497,-0.001814,-0.000315,0.000185,-0.003658,-0.000034,0.008624,-0.013019,0.230085,-0.018008,0.190004,0.190008,0.172965,0.678672,0.000000,0.000000,0.000000,0.000000,0.000000,0.000000,0.000000,0.000000,0.000000,0.000000,0.000000,0.000000,0.223156,3,0
830000,0.012722,21.349579,-0.023363,0.052391,25.512178,-0.021797,-0.001331,0.016633,1.572201,-0.039797,-0.001889,-0.000024,0.000195,-0.003835,-0.000036,0.008656,-0.013138,0.226231,-0.047776,0.190534,0.190539,0.173036,0.671066,0.000000,0.000000,0.000000,0.000000,0.000000,0.000000,0.000000,0.000000,0.000000,0.000000,0.000000,0.000000,0.219415,3,0
840000,0.012831,21.612431,-0.022596,0.052416,25.527430,-0.020583,-0.001371,0.017284,1.572225,-0.041200,-0.001965,-0.000241,0.000206,-0.004029,-0.000037,0.009684,-0.013254,0.242210,0.034191,0.191053,0.191058,0.173093,0.663522,0.000000,0.000000,0.000000,0.000000,0.000000,0.000000,0.000000,0.000000,0.000000,0.000000,0.000000,0.000000,0.234848,3,0
850000,0.012938,21.873407,-0.023940,0.052500,25.539209,-0.022728,-0.001404,0.017790,1.572258,-0.042242,-0.002043,0.000005,0.000217,-0.004175,-0.000039,0.005390,-0.013364,0.177996,-0.039273,0.191560,0.191564,0.173136,0.656042,0.000000,0.000000,0.000000,0.000000,0.000000,0.000000,0.000000,0.000000,0.000000,0.000000,0.000000,0.000000,0.172797,3,0
860000,0.013039,22.131886,-0.024021,0.052429,25.546446,-0.022694,-0.001449,0.018088,1.572271,-0.042807,-0.002122,-0.000030,0.000228,-0.004256,-0.000039,0.001514,-0.013470,0.095810,0.005095,0.192053,0.192058,0.173166,0.648632,0.000000,0.000000,0.000000,0.000000,0.000000,0.000000,0.000000,0.000000,0.000000,0.000000,0.000000,0.000000,0.093655,3,0
870000,0.013136,22.391075,-0.024838,0.052449,25.554729,-0.023672,-0.001489,0.018437,1.572294,-0.043494,-0.002202,0.000100,0.000240,-0.004355,-0.000040,0.002252,-0.013571,0.115566,-0.020394,0.192534,0.192538,0.173182,0.641295,0.000000,0.000000,0.000000,0.000000,0.000000,0.000000,0.000000,0.000000,0.000000,0.000000,0.000000,0.000000,0.112627,3,0
880000,0.013229,22.652891,-0.025854,0.052464,25.567671,-0.025251,-0.001524,0.019018,1.572313,-0.044659,-0.002284,0.000273,0.000251,-0.004527,-0.000042,0.006232,-0.013668,0.194231,-0.026873,0.193001,0.193006,0.173184,0.634035,0.000000,0.000000,0.000000,0.000000,0.000000,0.000000,0.000000,0.000000,0.000000,0.000000,0.000000,0.000000,0.188448,3,0
890000,0.013319,22.912174,-0.027267,0.052413,25.576000,-0.027259,-0.001575,0.019384,1.572333,-0.045331,-0.002367,0.000536,0.000263,-0.004628,-0.000043,0.002285,-0.013761,0.111197,-0.040095,0.193455,0.193460,0.173172,0.626855,0.000000,0.000000,0.000000,0.000000,0.000000,0.000000,0.000000,0.000000,0.000000,0.000000,0.000000,0.000000,0.108432,3,0
900000,0.013403,23.172159,-0.028647,0.052310,25.585342,-0.028990,-0.001620,0.019794,1.572357,-0.046123,-0.002451,0.000790,0.000276,-0.004748,-0.000044,0.003000,-0.013850,0.130136,-0.038323,0.193895,0.193900,0.173145,0.619758,0.000000,0.000000,0.000000,0.000000,0.000000,0.000000,0.000000,0.000000,0.000000,0.000000,0.000000,0.000000,0.126642,3,0
910000,0.013483,23.433483,-0.029245,0.052232,25.597078,-0.029622,-0.001676,0.020322,1.572377,-0.047154,-0.002536,0.000858,0.000289,-0.004907,-0.000045,0.004614,-0.013934,0.168240,-0.010622,0.194322,0.194327,0.173105,0.612749,0.000000,0.000000,0.000000,0.000000,0.000000,0.000000,0.000000,0.000000,0.000000,0.000000,0.000000,0.000000,0.163348,3,0
920000,0.013557,23.694838,-0.028297,0.052257,25.608713,-0.028239,-0.001729,0.020847,1.572408,-0.048171,-0.002621,0.000559,0.000303,-0.005067,-0.000047,0.004737,-0.014013,0.165224,0.043291,0.194736,0.194740,0.173050,0.605828,0.000000,0.000000,0.000000,0.000000,0.000000,0.000000,0.000000,0.000000,0.000000,0.000000,0.000000,0.000000,0.160436,3,0
930000,0.013630,23.954283,-0.029628,0.052136,25.616861,-0.029989,-0.001777,0.021208,1.572434,-0.048807,-0.002709,0.000807,0.000316,-0.005168,-0.000048,0.001941,-0.014087,0.102543,-0.036288,0.195136,0.195141,0.172981,0.598999,0.000000,0.000000,0.000000,0.000000,0.000000,0.000000,0.000000,0.000000,0.000000,0.000000,0.000000,0.000000,0.100139,3,0
940000,0.013698,24.212484,-0.029948,0.052118,25.622608,-0.030163,-0.001836,0.021463,1.572456,-0.049192,-0.002797,0.000810,0.000330,-0.005230,-0.000048,0.000646,-0.014159,0.061682,-0.000655,0.195523,0.195528,0.172898,0.592263,0.000000,0.000000,0.000000,0.000000,0.000000,0.000000,0.000000,0.000000,0.000000,0.000000,0.000000,0.000000,0.061223,3,0
950000,0.013761,24.471403,-0.029014,0.052077,25.629646,-0.028892,-0.001886,0.021780,1.572475,-0.049703,-0.002885,0.000504,0.000346,-0.005314,-0.000049,0.001410,-0.014227,0.081728,0.043104,0.195897,0.195902,0.172801,0.585624,0.000000,0.000000,0.000000,0.000000,0.000000,0.000000,0.000000,0.000000,0.000000,0.000000,0.000000,0.000000,0.080248,3,0
960000,0.013821,24.732328,-0.028613,0.052055,25.640068,-0.028141,-0.001947,0.022262,1.572493,-0.050590,-0.002974,0.000330,0.000361,-0.005462,-0.000050,0.003323,-0.014289,0.140802,0.024046,0.196258,0.196263,0.172691,0.579082,0.000000,0.000000,0.000000,0.000000,0.000000,0.000000,0.000000,0.000000,0.000000,0.000000,0.000000,0.000000,0.136896,3,0
970000,0.013880,24.994585,-0.030097,0.051973,25.652679,-0.030331,-0.002002,0.022868,1.572525,-0.051718,-0.003065,0.000623,0.000376,-0.005653,-0.000052,0.005418,-0.014349,0.177956,-0.041590,0.196607,0.196612,0.172568,0.572639,0.000000,0.000000,0.000000,0.000000,0.000000,0.000000,0.000000,0.000000,0.000000,0.000000,0.000000,0.000000,0.172682,3,0
980000,0.013934,25.257502,-0.030959,0.051781,25.666363,-0.031374,-0.002060,0.023531,1.572557,-0.052952,-0.003156,0.000757,0.000391,-0.005865,-0.000054,0.006153,-0.014407,0.193876,-0.019302,0.196944,0.196949,0.172431,0.566297,0.000000,0.000000,0.000000,0.000000,0.000000,0.000000,0.000000,0.000000,0.000000,0.000000,0.000000,0.000000,0.188028,3,0
990000,0.013985,25.519760,-0.032011,0.051624,25.678656,-0.032896,-0.002105,0.024125,1.572587,-0.054035,-0.003248,0.000938,0.000407,-0.006055,-0.000056,0.004763,-0.014459,0.169369,-0.025522,0.197269,0.197274,0.172282,0.560056,0.000000,0.000000,0.000000,0.000000,0.000000,0.000000,0.000000,0.000000,0.000000,0.000000,0.000000,0.000000,0.164395,3,0
1000000,0.014027,25.778746,-0.030732,0.051368,25.685081,-0.031039,-0.002159,0.024402,1.572599,-0.054457,-0.003340,0.000522,0.000424,-0.006129,-0.000057,0.001248,-0.014507,0.066017,0.056221,0.197583,0.197587,0.172121,0.553918,0.000000,0.000000,0.000000,0.000000,0.000000,0.000000,0.000000,0.000000,0.000000,0.000000,0.000000,0.000000,0.065367,3,0
1010000,0.014066,26.040403,-0.030321,0.051155,25.696144,-0.030433,-0.002208,0.024947,1.572612,-0.055389,-0.003433,0.000329,0.000441,-0.006297,-0.000058,0.003523,-0.014547,0.144909,0.025367,0.197885,0.197890,0.171947,0.547884,0.000000,0.000000,0.000000,0.000000,0.000000,0.000000,0.000000,0.000000,0.000000,0.000000,0.000000,0.000000,0.140833,3,0
1020000,0.014103,26.302723,-0.030964,0.050918,25.708103,-0.031044,-0.002263,0.025556,1.572639,-0.056433,-0.003527,0.000411,0.000458,-0.006488,-0.000060,0.004257,-0.014584,0.161449,-0.011731,0.198176,0.198181,0.171762,0.541954,0.000000,0.000000,0.000000,0.000000,0.000000,0.000000,0.000000,0.000000,0.000000,0.000000,0.000000,0.000000,0.156752,3,0
1030000,0.014134,26.563066,-0.030453,0.050750,25.716486,-0.030211,-0.002318,0.025956,1.572650,-0.057066,-0.003621,0.000190,0.000476,-0.006605,-0.000061,0.001711,-0.014619,0.097795,0.028878,0.198458,0.198462,0.171566,0.536129,0.000000,0.000000,0.000000,0.000000,0.000000,0.000000,0.000000,0.000000,0.000000,0.000000,0.000000,0.000000,0.095611,3,0
1040000,0.014162,26.825407,-0.030153,0.050603,25.728235,-0.029705,-0.002386,0.026560,1.572677,-0.058076,-0.003715,0.000022,0.000494,-0.006795,-0.000063,0.004001,-0.014648,0.155432,0.021254,0.198729,0.198734,0.171358,0.530408,0.000000,0.000000,0.000000,0.000000,0.000000,0.000000,0.000000,0.000000,0.000000,0.000000,0.000000,0.000000,0.150950,3,0
1050000,0.014187,27.086420,-0.029233,0.050415,25.737642,-0.028414,-0.002439,0.027012,1.572702,-0.058802,-0.003810,-0.000311,0.000512,-0.006933,-0.000064,0.002340,-0.014675,0.111639,0.042856,0.198991,0.198996,0.171141,0.524794,0.000000,0.000000,0.000000,0.000000,0.000000,0.000000,0.000000,0.000000,0.000000,0.000000,0.000000,0.000000,0.108865,3,0
1060000,0.014211,27.346785,-0.030332,0.050286,25.745750,-0.029701,-0.002501,0.027406,1.572725,-0.059385,-0.003906,-0.000095,0.000531,-0.007047,-0.000065,0.001445,-0.014698,0.089077,-0.028484,0.199245,0.199249,0.170912,0.519284,0.000000,0.000000,0.000000,0.000000,0.000000,0.000000,0.000000,0.000000,0.000000,0.000000,0.000000,0.000000,0.087283,3,0
1070000,0.014229,27.610470,-0.030152,0.049962,25.759478,-0.029589,-0.002572,0.028139,1.572745,-0.060606,-0.004001,-0.000236,0.000550,-0.007287,-0.000067,0.005684,-0.014719,0.186455,0.017077,0.199489,0.199493,0.170675,0.513880,0.000000,0.000000,0.000000,0.000000,0.000000,0.000000,0.000000,0.000000,0.000000,0.000000,0.000000,0.000000,0.180817,3,0
1080000,0.014245,27.868828,-0.030147,0.049758,25.763803,-0.029312,-0.002636,0.028293,1.572752,-0.060751,-0.004097,-0.000320,0.000569,-0.007315,-0.000067,0.000131,-0.014736,0.022024,0.010611,0.199726,0.199729,0.170427,0.508581,0.000000,0.000000,0.000000,0.000000,0.000000,0.000000,0.000000,0.000000,0.000000,0.000000,0.000000,0.000000,0.025617,3,0
1090000,0.014257,28.128557,-0.030354,0.049566,25.770554,-0.029350,-0.002704,0.028600,1.572761,-0.061157,-0.004194,-0.000347,0.000589,-0.007398,-0.000068,0.000652,-0.014749,0.061806,0.003124,0.199955,0.199958,0.170171,0.503388,0.000000,0.000000,0.000000,0.000000,0.000000,0.000000,0.000000,0.000000,0.000000,0.000000,0.000000,0.000000,0.061423,3,0
1100000,0.014268,28.388975,-0.031656,0.049269,25.778440,-0.030864,-0.002758,0.028973,1.572781,-0.061688,-0.004292,-0.000068,0.000608,-0.007507,-0.000069,0.001278,-0.014758,0.080313,-0.035503,0.200176,0.200179,0.169906,0.498298,0.000000,0.000000,0.000000,0.000000,0.000000,0.000000,0.000000,0.000000,0.000000,0.000000,0.000000,0.000000,0.078933,3,0
1110000,0.014274,28.652060,-0.032493,0.049047,25.790792,-0.032107,-0.002814,0.029641,1.572802,-0.062729,-0.004388,0.000072,0.000628,-0.007724,-0.000071,0.004099,-0.014767,0.157761,-0.018359,0.200391,0.200394,0.169634,0.493312,0.000000,0.000000,0.000000,0.000000,0.000000,0.000000,0.000000,0.000000,0.000000,0.000000,0.000000,0.000000,0.153157,3,0
1120000,0.014276,28.911127,-0.032577,0.048680,25.795923,-0.031961,-0.002890,0.029853,1.572807,-0.062951,-0.004486,0.000001,0.000649,-0.007771,-0.000072,0.000230,-0.014770,0.033703,0.008493,0.200600,0.200603,0.169353,0.488430,0.000000,0.000000,0.000000,0.000000,0.000000,0.000000,0.000000,0.000000,0.000000,0.000000,0.000000,0.000000,0.035566,3,0
1130000,0.014274,29.170887,-0.032862,0.048439,25.802179,-0.032078,-0.002958,0.030146,1.572826,-0.063301,-0.004583,-0.000012,0.000670,-0.007847,-0.000072,0.000486,-0.014769,0.052889,0.001290,0.200803,0.200806,0.169065,0.483650,0.000000,0.000000,0.000000,0.000000,0.000000,0.000000,0.000000,0.000000,0.000000,0.000000,0.000000,0.000000,0.053074,3,0
1140000,0.014267,29.429333,-0.031724,0.048129,25.806189,-0.030645,-0.003019,0.030281,1.572832,-0.063376,-0.004680,-0.000439,0.000692,-0.007863,-0.000072,0.000496,-0.014765,0.011734,0.052044,0.201001,0.201003,0.168770,0.478973,0.000000,0.000000,0.000000,0.000000,0.000000,0.000000,0.000000,0.000000,0.000000,0.000000,0.000000,0.000000,0.018227,3,0
1150000,0.014261,29.689819,-0.032795,0.047841,25.813648,-0.031808,-0.003096,0.030655,1.572844,-0.063849,-0.004777,-0.000219,0.000713,-0.007968,-0.000073,0.000973,-0.014755,0.071310,-0.027102,0.201193,0.201195,0.168469,0.474396,0.000000,0.000000,0.000000,0.000000,0.000000,0.000000,0.000000,0.000000,0.000000,0.000000,0.000000,0.000000,0.070378,3,0
1160000,0.014250,29.951645,-0.032772,0.047605,25.823389,-0.031660,-0.003158,0.031163,1.572870,-0.064570,-0.004874,-0.000329,0.000735,-0.008129,-0.000075,0.001971,-0.014746,0.108932,0.012421,0.201381,0.201383,0.168161,0.469920,0.000000,0.000000,0.000000,0.000000,0.000000,0.000000,0.000000,0.000000,0.000000,0.000000,0.000000,0.000000,0.106236,3,0
1170000,0.014236,30.211452,-0.033009,0.047231,25.829493,-0.031717,-0.003227,0.031439,1.572880,-0.064873,-0.004971,-0.000356,0.000757,-0.008198,-0.000076,0.000374,-0.014731,0.045797,0.002927,0.201565,0.201566,0.167848,0.465542,0.000000,0.000000,0.000000,0.000000,0.000000,0.000000,0.000000,0.000000,0.000000,0.000000,0.000000,0.000000,0.046491,3,0
1180000,0.014220,30.470604,-0.033058,0.046983,25.834372,-0.031798,-0.003309,0.031634,1.572885,-0.065035,-0.005068,-0.000440,0.000780,-0.008235,-0.000076,0.000147,-0.014715,0.024475,0.009783,0.201746,0.201746,0.167529,0.461263,0.000000,0.000000,0.000000,0.000000,0.000000,0.000000,0.000000,0.000000,0.000000,0.000000,0.000000,0.000000,0.027598,3,0
1190000,0.014199,30.729778,-0.033213,0.046572,25.839136,-0.031812,-0.003385,0.031821,1.572890,-0.065191,-0.005165,-0.000492,0.000803,-0.008272,-0.000076,0.000131,-0.014694,0.023701,0.005944,0.201922,0.201923,0.167206,0.457081,0.000000,0.000000,0.000000,0.000000,0.000000,0.000000,0.000000,0.000000,0.000000,0.000000,0.000000,0.000000,0.026948,3,0
1200000,0.014175,30.990314,-0.032897,0.046260,25.846312,-0.031237,-0.003460,0.032172,1.572913,-0.065604,-0.005262,-0.000692,0.000826,-0.008370,-0.000077,0.000753,-0.014671,0.062664,0.022977,0.202096,0.202096,0.166877,0.452995,0.000000,0.000000,0.000000,0.000000,0.000000,0.000000,0.000000,0.000000,0.000000,0.000000,0.000000,0.000000,0.062192,3,0
1210000,0.014149,31.249510,-0.033034,0.045890,25.850941,-0.031171,-0.003542,0.032350,1.572936,-0.065741,-0.005358,-0.000748,0.000849,-0.008403,-0.000077,0.000110,-0.014643,0.020721,0.006382,0.202268,0.202267,0.166545,0.449003,0.000000,0.000000,0.000000,0.000000,0.000000,0.000000,0.000000,0.000000,0.000000,0.000000,0.000000,0.000000,0.024518,3,0
1220000,0.014116,31.510065,-0.031650,0.045487,25.858051,-0.029364,-0.003620,0.032690,1.572954,-0.066132,-0.005453,-0.001282,0.000874,-0.008498,-0.000078,0.001220,-0.014613,0.059666,0.061445,0.202437,0.202436,0.166209,0.445106,0.000000,0.000000,0.000000,0.000000,0.000000,0.000000,0.000000,0.000000,0.000000,0.000000,0.000000,0.000000,0.059358,3,0
1230000,0.014082,31.768604,-0.030929,0.045095,25.861443,-0.028513,-0.003701,0.032775,1.572958,-0.066115,-0.005548,-0.001602,0.000898,-0.008494,-0.000078,0.000255,-0.014576,-0.002171,0.036844,0.202604,0.202603,0.165869,0.441300,0.000000,0.000000,0.000000,0.000000,0.000000,0.000000,0.000000,0.000000,0.000000,0.000000,0.000000,0.000000,0.014237,3,0
1240000,0.014046,32.027847,-0.031160,0.044699,25.865944,-0.028768,-0.003787,0.032942,1.572966,-0.066231,-0.005643,-0.001621,0.000922,-0.008523,-0.000079,0.000084,-0.014538,0.017559,0.002085,0.202770,0.202768,0.165525,0.437585,0.000000,0.000000,0.000000,0.000000,0.000000,0.000000,0.000000,0.000000,0.000000,0.000000,0.000000,0.000000,0.022024,3,0
1250000,0.014005,32.287777,-0.030142,0.044320,25.871733,-0.027526,-0.003868,0.033202,1.572977,-0.066469,-0.005737,-0.002043,0.000947,-0.008583,-0.000079,0.000618,-0.014498,0.036572,0.047670,0.202934,0.202932,0.165179,0.433960,0.000000,0.000000,0.000000,0.000000,0.000000,0.000000,0.000000,0.000000,0.000000,0.000000,0.000000,0.000000,0.038013,3,0
1260000,0.013962,32.551079,-0.029304,0.043953,25.883440,-0.026359,-0.003950,0.033875,1.573002,-0.067349,-0.005830,-0.002416,0.000972,-0.008811,-0.000081,0.003214,-0.014454,0.134407,0.040897,0.203098,0.203095,0.164831,0.430423,0.000000,0.000000,0.000000,0.000000,0.000000,0.000000,0.000000,0.000000,0.000000,0.000000,0.000000,0.000000,0.130608,3,0
1270000,0.013921,32.812992,-0.030407,0.043636,25.892559,-0.027846,-0.004018,0.034377,1.573015,-0.067938,-0.005925,-0.002154,0.000997,-0.008966,-0.000083,0.001477,-0.014407,0.089657,-0.030305,0.203260,0.203257,0.164480,0.426973,0.000000,0.000000,0.000000,0.000000,0.000000,0.000000,0.000000,0.000000,0.000000,0.000000,0.000000,0.000000,0.087728,3,0
1280000,0.013873,33.073524,-0.029513,0.043320,25.899076,-0.026494,-0.004106,0.034687,1.573035,-0.068238,-0.006017,-0.002542,0.001022,-0.009046,-0.000083,0.000679,-0.014362,0.046318,0.043034,0.203423,0.203419,0.164127,0.423609,0.000000,0.000000,0.000000,0.000000,0.000000,0.000000,0.000000,0.000000,0.000000,0.000000,0.000000,0.000000,0.046851,3,0
1290000,0.013823,33.333374,-0.028483,0.042916,25.904243,-0.025244,-0.004188,0.034891,1.573046,-0.068394,-0.006109,-0.002973,0.001048,-0.009088,-0.000084,0.000495,-0.014311,0.024265,0.047614,0.203585,0.203580,0.163772,0.420329,0.000000,0.000000,0.000000,0.000000,0.000000,0.000000,0.000000,0.000000,0.000000,0.000000,0.000000,0.000000,0.027217,3,0
1300000,0.013774,33.597279,-0.029674,0.042481,25.916494,-0.026745,-0.004266,0.035630,1.573073,-0.069321,-0.006202,-0.002678,0.001073,-0.009343,-0.000086,0.003469,-0.014256,0.142067,-0.033976,0.203747,0.203742,0.163417,0.417131,0.000000,0.000000,0.000000,0.000000,0.000000,0.000000,0.000000,0.000000,0.000000,0.000000,0.000000,0.000000,0.137931,3,0
1310000,0.013720,33.859097,-0.030133,0.042039,25.925041,-0.027415,-0.004342,0.036093,1.573082,-0.069820,-0.006294,-0.002625,0.001098,-0.009482,-0.000088,0.000990,-0.014203,0.076828,-0.006679,0.203910,0.203904,0.163060,0.414015,0.000000,0.000000,0.000000,0.000000,0.000000,0.000000,0.000000,0.000000,0.000000,0.000000,0.000000,0.000000,0.075473,3,0
1320000,0.013667,34.122234,-0.031471,0.041712,25.935843,-0.029099,-0.004428,0.036728,1.573094,-0.070554,-0.006386,-0.002281,0.001124,-0.009690,-0.000089,0.002336,-0.014146,0.113110,-0.038805,0.204073,0.204066,0.162702,0.410979,0.000000,0.000000,0.000000,0.000000,0.000000,0.000000,0.000000,0.000000,0.000000,0.000000,0.000000,0.000000,0.110112,3,0
1330000,0.013612,34.383293,-0.032745,0.041385,25.942711,-0.030730,-0.004503,0.037068,1.573105,-0.070871,-0.006477,-0.001954,0.001149,-0.009781,-0.000090,0.000624,-0.014089,0.048649,-0.036048,0.204237,0.204230,0.162344,0.408022,0.000000,0.000000,0.000000,0.000000,0.000000,0.000000,0.000000,0.000000,0.000000,0.000000,0.000000,0.000000,0.048921,3,0
1340000,0.013554,34.642296,-0.033791,0.041017,25.945868,-0.032100,-0.004590,0.037114,1.573123,-0.070785,-0.006569,-0.001700,0.001175,-0.009757,-0.000090,0.000183,-0.014030,-0.013691,-0.027290,0.204402,0.204394,0.161985,0.405141,0.000000,0.000000,0.000000,0.000000,0.000000,0.000000,0.000000,0.000000,0.000000,0.000000,0.000000,0.000000,0.018937,3,0
1350000,0.013491,34.900627,-0.033428,0.040608,25.947689,-0.031721,-0.004674,0.037060,1.573125,-0.070564,-0.006658,-0.001932,0.001202,-0.009691,-0.000090,0.000324,-0.013969,-0.034176,0.025444,0.204568,0.204559,0.161627,0.402335,0.000000,0.000000,0.000000,0.000000,0.000000,0.000000,0.000000,0.000000,0.000000,0.000000,0.000000,0.000000,0.035659,3,0
1360000,0.013428,35.159660,-0.034282,0.040217,25.950853,-0.032854,-0.004756,0.037096,1.573135,-0.070475,-0.006747,-0.001745,0.001228,-0.009665,-0.000089,0.000128,-0.013901,-0.014221,-0.019894,0.204735,0.204725,0.161268,0.399604,0.000000,0.000000,0.000000,0.000000,0.000000,0.000000,0.000000,0.000000,0.000000,0.000000,0.000000,0.000000,0.019210,3,0
1370000,0.013359,35.423447,-0.033261,0.039812,25.962406,-0.031517,-0.004833,0.037787,1.573162,-0.071262,-0.006832,-0.002236,0.001255,-0.009903,-0.000092,0.002938,-0.013835,0.124294,0.050877,0.204903,0.204892,0.160910,0.396945,0.000000,0.000000,0.000000,0.000000,0.000000,0.000000,0.000000,0.000000,0.000000,0.000000,0.000000,0.000000,0.120797,3,0
1380000,0.013291,35.682419,-0.033813,0.039260,25.965296,-0.032216,-0.004912,0.037803,1.573174,-0.071134,-0.006920,-0.002151,0.001282,-0.009863,-0.000091,0.000110,-0.013760,-0.020340,-0.008797,0.205073,0.205061,0.160553,0.394357,0.000000,0.000000,0.000000,0.000000,0.000000,0.000000,0.000000,0.000000,0.000000,0.000000,0.000000,0.000000,0.023719,3,0
1390000,0.013216,35.944794,-0.033186,0.038717,25.974251,-0.031272,-0.005000,0.038296,1.573198,-0.071626,-0.007005,-0.002501,0.001310,-0.010017,-0.000093,0.001231,-0.013686,0.078484,0.035923,0.205244,0.205231,0.160196,0.391839,0.000000,0.000000,0.000000,0.000000,0.000000,0.000000,0.000000,0.000000,0.000000,0.000000,0.000000,0.000000,0.076945,3,0
1400000,0.013139,36.205082,-0.032530,0.038242,25.979292,-0.030577,-0.005078,0.038477,1.573215,-0.071717,-0.007089,-0.002851,0.001337,-0.010045,-0.000093,0.000282,-0.013607,0.014809,0.036581,0.205417,0.205403,0.159841,0.389389,0.000000,0.000000,0.000000,0.000000,0.000000,0.000000,0.000000,0.000000,0.000000,0.000000,0.000000,0.000000,0.019423,3,0
1410000,0.013058,36.468079,-0.031814,0.037705,25.989128,-0.029688,-0.005161,0.039042,1.573224,-0.072292,-0.007171,-0.003236,0.001365,-0.010229,-0.000095,0.001650,-0.013524,0.092411,0.038957,0.205591,0.205577,0.159487,0.387006,0.000000,0.000000,0.000000,0.000000,0.000000,0.000000,0.000000,0.000000,0.000000,0.000000,0.000000,0.000000,0.090199,3,0
1420000,0.012978,36.731018,-0.031858,0.037270,25.998653,-0.029586,-0.005251,0.039598,1.573239,-0.072837,-0.007253,-0.003343,0.001392,-0.010407,-0.000097,0.001284,-0.013439,0.087742,0.009972,0.205768,0.205753,0.159134,0.384688,0.000000,0.000000,0.000000,0.000000,0.000000,0.000000,0.000000,0.000000,0.000000,0.000000,0.000000,0.000000,0.085724,3,0
1430000,0.012896,36.989124,-0.032152,0.036828,25.999367,-0.029864,-0.005347,0.039434,1.573238,-0.072490,-0.007336,-0.003334,0.001420,-0.010292,-0.000096,0.000534,-0.013354,-0.056023,-0.000116,0.205946,0.205930,0.158783,0.382434,0.000000,0.000000,0.000000,0.000000,0.000000,0.000000,0.000000,0.000000,0.000000,0.000000,0.000000,0.000000,0.055616,3,0
1440000,0.012810,37.248611,-0.031953,0.036268,26.002661,-0.029734,-0.005443,0.039461,1.573257,-0.072391,-0.007418,-0.003516,0.001447,-0.010258,-0.000095,0.000127,-0.013267,-0.015953,0.018927,0.206127,0.206110,0.158433,0.380243,0.000000,0.000000,0.000000,0.000000,0.000000,0.000000,0.000000,0.000000,0.000000,0.000000,0.000000,0.000000,0.020034,3,0
1450000,0.012724,37.511517,-0.032855,0.035821,26.012014,-0.030712,-0.005531,0.040003,1.573272,-0.072897,-0.007498,-0.003307,0.001474,-0.010431,-0.000097,0.001201,-0.013176,0.082348,-0.022474,0.206309,0.206291,0.158086,0.378113,0.000000,0.000000,0.000000,0.000000,0.000000,0.000000,0.000000,0.000000,0.000000,0.000000,0.000000,0.000000,0.080525,3,0
1460000,0.012637,37.772305,-0.033345,0.035397,26.017389,-0.031251,-0.005618,0.040219,1.573285,-0.073008,-0.007578,-0.003243,0.001502,-0.010470,-0.000097,0.000088,-0.013087,0.018143,-0.006772,0.206493,0.206474,0.157740,0.376042,0.000000,0.000000,0.000000,0.000000,0.000000,0.000000,0.000000,0.000000,0.000000,0.000000,0.000000,0.000000,0.021599,3,0
1470000,0.012546,38.033745,-0.033428,0.034921,26.023907,-0.031219,-0.005705,0.040513,1.573297,-0.073222,-0.007656,-0.003337,0.001529,-0.010545,-0.000098,0.000244,-0.012994,0.035603,0.009010,0.206679,0.206659,0.157397,0.374029,0.000000,0.000000,0.000000,0.000000,0.000000,0.000000,0.000000,0.000000,0.000000,0.000000,0.000000,0.000000,0.036596,3,0
1480000,0.012454,38.295151,-0.034291,0.034361,26.030256,-0.032344,-0.005796,0.040800,1.573315,-0.073420,-0.007734,-0.003136,0.001557,-0.010616,-0.000099,0.000267,-0.012897,0.032524,-0.020718,0.206868,0.206847,0.157056,0.372074,0.000000,0.000000,0.000000,0.000000,0.000000,0.000000,0.000000,0.000000,0.000000,0.000000,0.000000,0.000000,0.033778,3,0
1490000,0.012356,38.556511,-0.033922,0.033786,26.036402,-0.032039,-0.005893,0.041064,1.573332,-0.073594,-0.007810,-0.003407,0.001585,-0.010678,-0.000100,0.000283,-0.012800,0.029480,0.026844,0.207058,0.207036,0.156718,0.370173,0.000000,0.000000,0.000000,0.000000,0.000000,0.000000,0.000000,0.000000,0.000000,0.000000,0.000000,0.000000,0.031031,3,0
1500000,0.012261,38.818527,-0.035006,0.033325,26.043800,-0.033458,-0.005978,0.041424,1.573347,-0.073872,-0.007886,-0.003125,0.001612,-0.010781,-0.000101,0.000507,-0.012697,0.046360,-0.028868,0.207250,0.207226,0.156382,0.368328,0.000000,0.000000,0.000000,0.000000,0.000000,0.000000,0.000000,0.000000,0.000000,0.000000,0.000000,0.000000,0.046403,3,0
1510000,0.012161,39.080486,-0.035192,0.032833,26.051016,-0.033529,-0.006068,0.041781,1.573364,-0.074123,-0.007959,-0.003193,0.001640,-0.010874,-0.000102,0.000325,-0.012597,0.042698,0.006045,0.207443,0.207419,0.156049,0.366536,0.000000,0.000000,0.000000,0.000000,0.000000,0.000000,0.000000,0.000000,0.000000,0.000000,0.000000,0.000000,0.042978,3,0
1520000,0.012055,39.341698,-0.034238,0.032184,26.056782,-0.032279,-0.006163,0.042008,1.573372,-0.074232,-0.008030,-0.003699,0.001668,-0.010914,-0.000102,0.000489,-0.012491,0.019215,0.049915,0.207639,0.207613,0.155719,0.364796,0.000000,0.000000,0.000000,0.000000,0.000000,0.000000,0.000000,0.000000,0.000000,0.000000,0.000000,0.000000,0.022130,3,0
1530000,0.011950,39.600124,-0.034490,0.031539,26.057386,-0.032644,-0.006255,0.041781,1.573388,-0.073865,-0.008103,-0.003713,0.001696,-0.010773,-0.000101,0.000667,-0.012378,-0.063145,0.002441,0.207836,0.207810,0.155392,0.363106,0.000000,0.000000,0.000000,0.000000,0.000000,0.000000,0.000000,0.000000,0.000000,0.000000,0.000000,0.000000,0.062119,3,0
1540000,0.011839,39.863373,-0.034184,0.030886,26.066559,-0.032414,-0.006354,0.042304,1.573397,-0.074301,-0.008171,-0.003982,0.001724,-0.010943,-0.000102,0.001057,-0.012266,0.076000,0.025178,0.208035,0.208007,0.155068,0.361463,0.000000,0.000000,0.000000,0.000000,0.000000,0.000000,0.000000,0.000000,0.000000,0.000000,0.000000,0.000000,0.074317,3,0
1550000,0.011728,40.123100,-0.034358,0.030280,26.069290,-0.032351,-0.006451,0.042274,1.573413,-0.074139,-0.008241,-0.004035,0.001751,-0.010878,-0.000102,0.000158,-0.012150,-0.028309,0.005628,0.208236,0.208206,0.154747,0.359869,0.000000,0.000000,0.000000,0.000000,0.000000,0.000000,0.000000,0.000000,0.000000,0.000000,0.000000,0.000000,0.029735,3,0
1560000,0.011617,40.384197,-0.035584,0.029780,26.074455,-0.033845,-0.006542,0.042452,1.573431,-0.074199,-0.008311,-0.003678,0.001778,-0.010903,-0.000102,0.000237,-0.012033,0.010120,-0.034869,0.208438,0.208407,0.154429,0.358321,0.000000,0.000000,0.000000,0.000000,0.000000,0.000000,0.000000,0.000000,0.000000,0.000000,0.000000,0.000000,0.015174,3,0
1570000,0.011500,40.643852,-0.034356,0.029287,26.076891,-0.032136,-0.006636,0.042384,1.573443,-0.074012,-0.008375,-0.004299,0.001807,-0.010825,-0.000102,0.000791,-0.011918,-0.032364,0.060797,0.208641,0.208609,0.154115,0.356818,0.000000,0.000000,0.000000,0.000000,0.000000,0.000000,0.000000,0.000000,0.000000,0.000000,0.000000,0.000000,0.033277,3,0
1580000,0.011385,40.905575,-0.035012,0.028814,26.083109,-0.032804,-0.006718,0.042649,1.573446,-0.074159,-0.008442,-0.004171,0.001834,-0.010886,-0.000103,0.000158,-0.011795,0.026024,-0.012793,0.208846,0.208813,0.153804,0.355359,0.000000,0.000000,0.000000,0.000000,0.000000,0.000000,0.000000,0.000000,0.000000,0.000000,0.000000,0.000000,0.027576,3,0
1590000,0.011268,41.165855,-0.035367,0.028170,26.086515,-0.032977,-0.006818,0.042683,1.573447,-0.074064,-0.008507,-0.004156,0.001861,-0.010847,-0.000102,0.000069,-0.011675,-0.017094,-0.001147,0.209052,0.209018,0.153497,0.353943,0.000000,0.000000,0.000000,0.000000,0.000000,0.000000,0.000000,0.000000,0.000000,0.000000,0.000000,0.000000,0.019979,3,0
1600000,0.011149,41.428185,-0.035995,0.027542,26.093618,-0.033800,-0.006903,0.043029,1.573467,-0.074289,-0.008571,-0.004046,0.001888,-0.010943,-0.000103,0.000308,-0.011551,0.040653,-0.011213,0.209260,0.209224,0.153193,0.352567,0.000000,0.000000,0.000000,0.000000,0.000000,0.000000,0.000000,0.000000,0.000000,0.000000,0.000000,0.000000,0.040787,3,0
1610000,0.011025,41.690437,-0.035292,0.027033,26.100611,-0.032792,-0.006993,0.043352,1.573476,-0.074485,-0.008630,-0.004485,0.001915,-0.011027,-0.000104,0.000514,-0.011426,0.036678,0.041241,0.209468,0.209431,0.152893,0.351234,0.000000,0.000000,0.000000,0.000000,0.000000,0.000000,0.000000,0.000000,0.000000,0.000000,0.000000,0.000000,0.037085,3,0
1620000,0.010900,41.950546,-0.035078,0.026406,26.103437,-0.032534,-0.007093,0.043314,1.573495,-0.074339,-0.008690,-0.004703,0.001942,-0.010961,-0.000104,0.000209,-0.011296,-0.026855,0.021195,0.209677,0.209639,0.152597,0.349939,0.000000,0.000000,0.000000,0.000000,0.000000,0.000000,0.000000,0.000000,0.000000,0.000000,0.000000,0.000000,0.028112,3,0
1630000,0.010771,42.209923,-0.033998,0.025832,26.104933,-0.031261,-0.007176,0.043159,1.573510,-0.074076,-0.008747,-0.005276,0.001970,-0.010842,-0.000103,0.000890,-0.011166,-0.048447,0.055096,0.209887,0.209847,0.152304,0.348682,0.000000,0.000000,0.000000,0.000000,0.000000,0.000000,0.000000,0.000000,0.000000,0.000000,0.000000,0.000000,0.047967,3,0
1640000,0.010646,42.472080,-0.034931,0.025179,26.111479,-0.032247,-0.007265,0.043468,1.573531,-0.074237,-0.008807,-0.005025,0.001996,-0.010916,-0.000104,0.000260,-0.011030,0.030102,-0.024168,0.210097,0.210056,0.152015,0.347461,0.000000,0.000000,0.000000,0.000000,0.000000,0.000000,0.000000,0.000000,0.000000,0.000000,0.000000,0.000000,0.030931,3,0
1650000,0.010518,42.729294,-0.035906,0.024544,26.108913,-0.033272,-0.007351,0.042929,1.573545,-0.073648,-0.008866,-0.004716,0.002022,-0.010645,-0.000102,0.002183,-0.010898,-0.112846,-0.026714,0.210308,0.210265,0.151730,0.346278,0.000000,0.000000,0.000000,0.000000,0.000000,0.000000,0.000000,0.000000,0.000000,0.000000,0.000000,0.000000,0.109405,3,0
1660000,0.010387,42.991390,-0.035915,0.024016,26.115194,-0.033067,-0.007441,0.043208,1.573552,-0.073790,-0.008921,-0.004862,0.002049,-0.010711,-0.000102,0.000168,-0.010765,0.027546,0.013082,0.210519,0.210475,0.151448,0.345127,0.000000,0.000000,0.000000,0.000000,0.000000,0.000000,0.000000,0.000000,0.000000,0.000000,0.000000,0.000000,0.028542,3,0
1670000,0.010252,43.251320,-0.035253,0.023432,26.117424,-0.031992,-0.007527,0.043110,1.573555,-0.073603,-0.008974,-0.005273,0.002075,-0.010621,-0.000102,0.000473,-0.010628,-0.035824,0.039093,0.210731,0.210685,0.151171,0.344010,0.000000,0.000000,0.000000,0.000000,0.000000,0.000000,0.000000,0.000000,0.000000,0.000000,0.000000,0.000000,0.036046,3,0
1680000,0.010117,43.509129,-0.035232,0.022792,26.115646,-0.031738,-0.007609,0.042652,1.573565,-0.073110,-0.009027,-0.005388,0.002101,-0.010382,-0.000100,0.001556,-0.010487,-0.096985,0.012645,0.210942,0.210895,0.150897,0.342925,0.000000,0.000000,0.000000,0.000000,0.000000,0.000000,0.000000,0.000000,0.000000,0.000000,0.000000,0.000000,0.094120,3,0
1690000,0.009982,43.768333,-0.035327,0.022269,26.116493,-0.031694,-0.007701,0.042425,1.573581,-0.072826,-0.009079,-0.005466,0.002127,-0.010242,-0.000099,0.000544,-0.010347,-0.056591,0.008400,0.211153,0.211105,0.150628,0.341872,0.000000,0.000000,0.000000,0.000000,0.000000,0.000000,0.000000,0.000000,0.000000,0.000000,0.000000,0.000000,0.055501,3,0
1700000,0.009843,44.031010,-0.034363,0.021679,26.123665,-0.030397,-0.007789,0.042784,1.573587,-0.073031,-0.009126,-0.006035,0.002153,-0.010342,-0.000100,0.000733,-0.010206,0.042011,0.051597,0.211364,0.211314,0.150362,0.340849,0.000000,0.000000,0.000000,0.000000,0.000000,0.000000,0.000000,0.000000,0.000000,0.000000,0.000000,0.000000,0.041724,3,0
1710000,0.009703,44.291512,-0.033752,0.021000,26.126831,-0.029436,-0.007870,0.042772,1.573596,-0.072920,-0.009173,-0.006426,0.002179,-0.010285,-0.000100,0.000308,-0.010060,-0.021946,0.036349,0.211575,0.211523,0.150101,0.339856,0.000000,0.000000,0.000000,0.000000,0.000000,0.000000,0.000000,0.000000,0.000000,0.000000,0.000000,0.000000,0.023282,3,0
