time_us,pos_x,pos_y,pos_z,vel_x,vel_y,vel_z,roll,pitch,yaw,bias_ax,bias_ay,bias_az,bias_gx,bias_gy,bias_gz,nis,innov_x,innov_y,innov_z,cov_pos_x,cov_pos_y,cov_pos_z,cov_yaw,des_speed,des_heading,des_climb,pid_speed,pid_yaw,pid_alt,speed_meas,yaw_meas,climb_meas,fwd_accel,yaw_rate,vert_accel,drift_m,nav_mode,mission_state
0,0.000003,0.150003,0.000001,0.000533,25.000513,0.000139,0.000008,-0.000008,1.570796,0.000000,0.000000,0.000000,0.000000,0.000000,0.000000,0.006250,-0.000005,-0.250008,-0.000001,2.400038,2.400038,3.600017,1.000518,0.000000,0.000000,0.000000,0.000000,0.000000,0.000000,0.000000,0.000000,0.000000,0.000000,0.000000,0.000000,0.150003,1,0
10000,0.000010,0.359558,0.005024,0.001034,25.000998,0.000223,0.000014,-0.000019,1.570799,0.000000,-0.000000,-0.000000,0.000000,0.000000,0.000000,0.002405,-0.000014,-0.141590,0.013389,1.714420,1.714420,2.250079,1.001073,0.000000,0.000000,0.000000,0.000000,0.000000,0.000000,0.000000,0.000000,0.000000,0.000000,0.000000,0.000000,0.101132,3,0
20000,0.000020,0.575710,0.011727,0.001555,25.001183,0.000247,0.000022,-0.000033,1.570798,0.000002,-0.000000,-0.000000,0.000000,0.000000,0.000000,0.003082,-0.000025,-0.152359,0.024570,1.333616,1.333616,1.636554,1.001655,0.000000,0.000000,0.000000,0.000000,0.000000,0.000000,0.000000,0.000000,0.000000,0.000000,0.000000,0.000000,0.118494,3,0
30000,0.000032,0.805704,0.019861,0.001983,25.001547,0.000662,0.000030,-0.000054,1.570793,0.000004,-0.000000,-0.000001,0.000000,0.000000,0.000000,0.001841,-0.000039,-0.110088,0.037923,1.091392,1.091392,1.286065,1.002257,0.000000,0.000000,0.000000,0.000000,0.000000,0.000000,0.000000,0.000000,0.000000,0.000000,0.000000,0.000000,0.090063,3,0
40000,0.000049,1.043154,0.020024,0.002599,25.001932,0.000735,0.000029,-0.000057,1.570788,0.000006,-0.000000,-0.000001,0.000000,0.000000,0.000000,0.000940,-0.000058,-0.081660,0.000879,0.923811,0.923811,1.059385,1.002869,0.000000,0.000000,0.000000,0.000000,0.000000,0.000000,0.000000,0.000000,0.000000,0.000000,0.000000,0.000000,0.069087,3,0
50000,0.000069,1.298347,0.016359,0.003076,25.002724,0.000924,0.000032,-0.000074,1.570774,0.000004,-0.000000,0.000000,0.000000,0.000000,0.000000,0.000301,-0.000080,0.038708,-0.024479,0.801036,0.801036,0.900822,1.003484,0.000000,0.000000,0.000000,0.000000,0.000000,0.000000,0.000000,0.000000,0.000000,0.000000,0.000000,0.000000,0.033541,3,0
60000,0.000092,1.550980,0.017164,0.003527,25.003481,0.001064,0.000034,-0.000087,1.570776,0.000003,-0.000000,-0.000000,0.000000,-0.000000,-0.000000,0.000077,-0.000105,0.022054,0.006088,0.707270,0.707270,0.783741,1.004094,0.000000,0.000000,0.000000,0.000000,0.000000,0.000000,0.000000,0.000000,0.000000,0.000000,0.000000,0.000000,0.019454,3,0
70000,0.000119,1.793468,0.013331,0.004031,25.003675,0.001096,0.000041,-0.000109,1.570762,0.000009,-0.000000,0.000002,0.000000,0.000000,0.000000,0.000926,-0.000133,-0.071556,-0.033267,0.633370,0.633370,0.693801,1.004688,0.000000,0.000000,0.000000,0.000000,0.000000,0.000000,0.000000,0.000000,0.000000,0.000000,0.000000,0.000000,0.064003,3,0
80000,0.000148,2.040095,0.011396,0.004525,25.004057,0.000898,0.000052,-0.000124,1.570757,0.000012,-0.000000,0.000004,0.000000,0.000000,0.000000,0.000245,-0.000164,-0.035741,-0.018746,0.573673,0.573673,0.622594,1.005260,0.000000,0.000000,0.000000,0.000000,0.000000,0.000000,0.000000,0.000000,0.000000,0.000000,0.000000,0.000000,0.032324,3,0
90000,0.000181,2.286312,0.013320,0.005053,25.004410,0.001150,0.000062,-0.000132,1.570747,0.000018,-0.000000,0.000002,0.000000,0.000000,0.000000,0.000355,-0.000199,-0.043825,0.020335,0.524488,0.524488,0.564865,1.005801,0.000000,0.000000,0.000000,0.000000,0.000000,0.000000,0.000000,0.000000,0.000000,0.000000,0.000000,0.000000,0.039994,3,0
100000,0.000219,2.532215,0.011722,0.005661,25.004654,0.001251,0.000068,-0.000153,1.570737,0.000026,-0.000000,0.000004,0.000000,0.000000,0.000000,0.000460,-0.000238,-0.051499,-0.018703,0.483304,0.483304,0.517162,1.006301,0.000000,0.000000,0.000000,0.000000,0.000000,0.000000,0.000000,0.000000,0.000000,0.000000,0.000000,0.000000,0.047351,3,0
110000,0.000259,2.789755,0.013208,0.006100,25.006453,0.001406,0.000069,-0.000164,1.570741,0.000007,-0.000000,0.000001,0.000000,-0.000000,-0.000000,0.001600,-0.000280,0.100174,0.018530,0.448354,0.448354,0.477121,1.006754,0.000000,0.000000,0.000000,0.000000,0.000000,0.000000,0.000000,0.000000,0.000000,0.000000,0.000000,0.000000,0.092688,3,0
120000,0.000302,3.045485,0.017351,0.006538,25.008047,0.002030,0.000070,-0.000173,1.570746,-0.000010,-0.000000,-0.000011,0.000000,-0.000000,-0.000000,0.001504,-0.000324,0.081164,0.055906,0.418359,0.418359,0.443071,1.007150,0.000000,0.000000,0.000000,0.000000,0.000000,0.000000,0.000000,0.000000,0.000000,0.000000,0.000000,0.000000,0.075505,3,0
130000,0.000349,3.299756,0.019554,0.007116,25.009577,0.002362,0.000082,-0.000180,1.570749,-0.000027,-0.000000,-0.000019,0.000000,-0.000001,-0.000000,0.000793,-0.000373,0.063964,0.031658,0.392369,0.392369,0.413797,1.007481,0.000000,0.000000,0.000000,0.000000,0.000000,0.000000,0.000000,0.000000,0.000000,0.000000,0.000000,0.000000,0.059782,3,0
140000,0.000399,3.549155,0.021032,0.007618,25.010008,0.002690,0.000088,-0.000189,1.570754,-0.000023,-0.000000,-0.000025,0.000000,-0.000001,-0.000000,0.000099,-0.000425,-0.011410,0.022451,0.369667,0.369667,0.388393,1.007739,0.000000,0.000000,0.000000,0.000000,0.000000,0.000000,0.000000,0.000000,0.000000,0.000000,0.000000,0.000000,0.010715,3,0
150000,0.000452,3.802597,0.018107,0.008088,25.011414,0.002046,0.000106,-0.000200,1.570758,-0.000043,-0.000001,-0.000009,0.000000,-0.000001,-0.000000,0.000880,-0.000480,0.057249,-0.048361,0.349695,0.349695,0.366172,1.007915,0.000000,0.000000,0.000000,0.000000,0.000000,0.000000,0.000000,0.000000,0.000000,0.000000,0.000000,0.000000,0.053914,3,0
160000,0.000507,4.055061,0.018251,0.008530,25.012747,0.002079,0.000111,-0.000210,1.570745,-0.000059,-0.000001,-0.000010,0.000000,-0.000001,-0.000000,0.000283,-0.000537,0.042338,0.002146,0.332021,0.332021,0.346600,1.008002,0.000000,0.000000,0.000000,0.000000,0.000000,0.000000,0.000000,0.000000,0.000000,0.000000,0.000000,0.000000,0.039998,3,0
170000,0.000567,4.304598,0.016797,0.009104,25.013296,0.001901,0.000110,-0.000225,1.570744,-0.000054,-0.000001,0.000001,0.000000,-0.000001,-0.000000,0.000135,-0.000598,-0.011350,-0.026932,0.316298,0.316298,0.329260,1.007992,0.000000,0.000000,0.000000,0.000000,0.000000,0.000000,0.000000,0.000000,0.000000,0.000000,0.000000,0.000000,0.010767,3,0
180000,0.000629,4.560622,0.016367,0.009562,25.015894,0.001924,0.000108,-0.000222,1.570739,-0.000110,-0.000001,0.000005,0.000000,-0.000003,-0.000000,0.002171,-0.000663,0.116808,-0.008602,0.302247,0.302247,0.313817,1.007876,0.000000,0.000000,0.000000,0.000000,0.000000,0.000000,0.000000,0.000000,0.000000,0.000000,0.000000,0.000000,0.110926,3,0
190000,0.000694,4.812701,0.016381,0.009995,25.017160,0.002111,0.000115,-0.000232,1.570745,-0.000131,-0.000002,0.000005,0.000000,-0.000003,-0.000000,0.000250,-0.000729,0.039669,-0.000148,0.289642,0.289642,0.300003,1.007646,0.000000,0.000000,0.000000,0.000000,0.000000,0.000000,0.000000,0.000000,0.000000,0.000000,0.000000,0.000000,0.037760,3,0
200000,0.000762,5.066857,0.015564,0.010449,25.019375,0.001988,0.000133,-0.000224,1.570747,-0.000181,-0.000002,0.000015,0.000000,-0.000005,-0.000000,0.001218,-0.000799,0.085760,-0.017523,0.278296,0.278296,0.287598,1.007296,0.000000,0.000000,0.000000,0.000000,0.000000,0.000000,0.000000,0.000000,0.000000,0.000000,0.000000,0.000000,0.081785,3,0
210000,0.000833,5.316638,0.016463,0.011002,25.019815,0.002508,0.000133,-0.000240,1.570748,-0.000175,-0.000003,0.000003,0.000000,-0.000004,-0.000000,0.000072,-0.000872,-0.009387,0.019048,0.268055,0.268055,0.276421,1.006818,0.000000,0.000000,0.000000,0.000000,0.000000,0.000000,0.000000,0.000000,0.000000,0.000000,0.000000,0.000000,0.009006,3,0
220000,0.000908,5.569384,0.018312,0.011594,25.021725,0.003310,0.000139,-0.000240,1.570747,-0.000216,-0.000003,-0.000025,0.000000,-0.000006,-0.000000,0.000822,-0.000949,0.058890,0.041095,0.258788,0.258788,0.266321,1.006204,0.000000,0.000000,0.000000,0.000000,0.000000,0.000000,0.000000,0.000000,0.000000,0.000000,0.000000,0.000000,0.056357,3,0
230000,0.000987,5.821472,0.019953,0.012146,25.023291,0.004354,0.000137,-0.000240,1.570743,-0.000250,-0.000004,-0.000053,0.000000,-0.000007,-0.000000,0.000542,-0.001030,0.044673,0.037437,0.250387,0.250387,0.257172,1.005448,0.000000,0.000000,0.000000,0.000000,0.000000,0.000000,0.000000,0.000000,0.000000,0.000000,0.000000,0.000000,0.042820,3,0
240000,0.001068,6.075382,0.021034,0.012617,25.025827,0.005126,0.000143,-0.000228,1.570745,-0.000325,-0.000005,-0.000073,0.000000,-0.000009,-0.000000,0.001417,-0.001113,0.090754,0.024951,0.242757,0.242757,0.248866,1.004543,0.000000,0.000000,0.000000,0.000000,0.000000,0.000000,0.000000,0.000000,0.000000,0.000000,0.000000,0.000000,0.087089,3,0
250000,0.001153,6.327827,0.022144,0.013203,25.027760,0.005986,0.000158,-0.000219,1.570733,-0.000374,-0.000006,-0.000096,0.000000,-0.000011,-0.000000,0.000603,-0.001200,0.055485,0.026231,0.235820,0.235820,0.241314,1.003483,0.000000,0.000000,0.000000,0.000000,0.000000,0.000000,0.000000,0.000000,0.000000,0.000000,0.000000,0.000000,0.053317,3,0
260000,0.001241,6.585024,0.020721,0.013654,25.032593,0.005132,0.000165,-0.000184,1.570737,-0.000548,-0.000007,-0.000060,0.000000,-0.000017,-0.000000,0.005466,-0.001290,0.180720,-0.037927,0.229507,0.229506,0.234436,1.002261,0.000000,0.000000,0.000000,0.000000,0.000000,0.000000,0.000000,0.000000,0.000000,0.000000,0.000000,0.000000,0.173812,3,0
270000,0.001332,6.842140,0.020112,0.014229,25.037697,0.004700,0.000174,-0.000129,1.570733,-0.000735,-0.000009,-0.000043,0.000000,-0.000025,-0.000000,0.005358,-0.001383,0.181901,-0.017364,0.223757,0.223757,0.228165,1.000872,0.000000,0.000000,0.000000,0.000000,0.000000,0.000000,0.000000,0.000000,0.000000,0.000000,0.000000,0.000000,0.175122,3,0
280000,0.001425,7.097023,0.018713,0.014702,25.041571,0.003967,0.000185,-0.000095,1.570731,-0.000872,-0.000011,-0.000000,0.000000,-0.000030,-0.000000,0.002695,-0.001479,0.123521,-0.039035,0.218519,0.218519,0.222443,0.999310,0.000000,0.000000,0.000000,0.000000,0.000000,0.000000,0.000000,0.000000,0.000000,0.000000,0.000000,0.000000,0.119031,3,0
290000,0.001522,7.351263,0.018603,0.015215,25.044987,0.003860,0.000190,-0.000058,1.570723,-0.000998,-0.000012,0.000005,0.000000,-0.000035,-0.000000,0.001848,-0.001578,0.107148,-0.004144,0.213748,0.213748,0.217219,0.997571,0.000000,0.000000,0.000000,0.000000,0.000000,0.000000,0.000000,0.000000,0.000000,0.000000,0.000000,0.000000,0.103342,3,0
300000,0.001620,7.604215,0.018096,0.015616,25.047510,0.003497,0.000201,-0.000042,1.570729,-0.001088,-0.000015,0.000024,0.000001,-0.000039,-0.000000,0.000862,-0.001678,0.071543,-0.015405,0.209403,0.209403,0.212446,0.995649,0.000000,0.000000,0.000000,0.000000,0.000000,0.000000,0.000000,0.000000,0.000000,0.000000,0.000000,0.000000,0.069065,3,0
310000,0.001720,7.860736,0.019236,0.016114,25.053026,0.004400,0.000216,0.000024,1.570733,-0.001323,-0.000017,-0.000018,0.000001,-0.000050,-0.000000,0.005171,-0.001781,0.176385,0.031828,0.205448,0.205448,0.208087,0.993541,0.000000,0.000000,0.000000,0.000000,0.000000,0.000000,0.000000,0.000000,0.000000,0.000000,0.000000,0.000000,0.170354,3,0
320000,0.001824,8.114594,0.018956,0.016621,25.056475,0.004358,0.000226,0.000050,1.570734,-0.001463,-0.000020,-0.000005,0.000001,-0.000056,-0.000000,0.001585,-0.001887,0.098720,-0.009575,0.201853,0.201853,0.204105,0.991241,0.000000,0.000000,0.000000,0.000000,0.000000,0.000000,0.000000,0.000000,0.000000,0.000000,0.000000,0.000000,0.095416,3,0
330000,0.001930,8.371872,0.017614,0.017177,25.063057,0.003219,0.000226,0.000128,1.570735,-0.001767,-0.000023,0.000057,0.000001,-0.000070,-0.000000,0.006895,-0.001996,0.202648,-0.041460,0.198588,0.198588,0.200469,0.988748,0.000000,0.000000,0.000000,0.000000,0.000000,0.000000,0.000000,0.000000,0.000000,0.000000,0.000000,0.000000,0.195950,3,0
340000,0.002039,8.626560,0.017359,0.017664,25.067595,0.003239,0.000237,0.000172,1.570725,-0.001963,-0.000026,0.000071,0.000001,-0.000080,-0.000000,0.002501,-0.002107,0.124213,-0.008837,0.195628,0.195628,0.197151,0.986058,0.000000,0.000000,0.000000,0.000000,0.000000,0.000000,0.000000,0.000000,0.000000,0.000000,0.000000,0.000000,0.120180,3,0
350000,0.002148,8.880078,0.018422,0.018034,25.071140,0.004258,0.000237,0.000208,1.570724,-0.002110,-0.000030,0.000018,0.000001,-0.000087,-0.000000,0.001418,-0.002220,0.088147,0.031830,0.192951,0.192951,0.194125,0.983169,0.000000,0.000000,0.000000,0.000000,0.000000,0.000000,0.000000,0.000000,0.000000,0.000000,0.000000,0.000000,0.085340,3,0
360000,0.002260,9.136907,0.018675,0.018567,25.077932,0.004402,0.000244,0.000304,1.570717,-0.002448,-0.000034,0.000007,0.000001,-0.000105,-0.000001,0.005983,-0.002335,0.192415,0.006622,0.190535,0.190535,0.191370,0.980079,0.000000,0.000000,0.000000,0.000000,0.000000,0.000000,0.000000,0.000000,0.000000,0.000000,0.000000,0.000000,0.186319,3,0
370000,0.002375,9.391287,0.017750,0.019051,25.082472,0.003547,0.000259,0.000367,1.570705,-0.002659,-0.000038,0.000063,0.000002,-0.000116,-0.000001,0.002268,-0.002452,0.114428,-0.030801,0.188362,0.188362,0.188863,0.976785,0.000000,0.000000,0.000000,0.000000,0.000000,0.000000,0.000000,0.000000,0.000000,0.000000,0.000000,0.000000,0.110861,3,0
380000,0.002491,9.646416,0.017505,0.019540,25.087749,0.003588,0.000265,0.000443,1.570697,-0.002926,-0.000043,0.000081,0.000002,-0.000131,-0.000001,0.003104,-0.002571,0.138309,-0.009097,0.186414,0.186414,0.186586,0.973288,0.000000,0.000000,0.000000,0.000000,0.000000,0.000000,0.000000,0.000000,0.000000,0.000000,0.000000,0.000000,0.134034,3,0
390000,0.002610,9.899211,0.019029,0.020055,25.090672,0.005235,0.000279,0.000465,1.570700,-0.003052,-0.000049,-0.000017,0.000002,-0.000138,-0.000001,0.001001,-0.002693,0.062036,0.048353,0.184676,0.184676,0.184522,0.969587,0.000000,0.000000,0.000000,0.000000,0.000000,0.000000,0.000000,0.000000,0.000000,0.000000,0.000000,0.000000,0.060183,3,0
400000,0.002729,10.152796,0.020641,0.020462,25.094423,0.007105,0.000286,0.000511,1.570690,-0.003237,-0.000055,-0.000125,0.000003,-0.000149,-0.000001,0.001662,-0.002815,0.087518,0.051145,0.183132,0.183132,0.182656,0.965682,0.000000,0.000000,0.000000,0.000000,0.000000,0.000000,0.000000,0.000000,0.000000,0.000000,0.000000,0.000000,0.084890,3,0
410000,0.002850,10.409555,0.021687,0.020845,25.101999,0.008477,0.000300,0.000642,1.570691,-0.003661,-0.000061,-0.000196,0.000003,-0.000174,-0.000001,0.006110,-0.002939,0.191715,0.032238,0.181770,0.181770,0.180971,0.961574,0.000000,0.000000,0.000000,0.000000,0.000000,0.000000,0.000000,0.000000,0.000000,0.000000,0.000000,0.000000,0.185929,3,0
420000,0.002970,10.662810,0.021385,0.021180,25.105452,0.008261,0.000311,0.000689,1.570682,-0.003831,-0.000068,-0.000166,0.000004,-0.000185,-0.000001,0.000915,-0.003063,0.074033,-0.013013,0.180577,0.180577,0.179456,0.957263,0.000000,0.000000,0.000000,0.000000,0.000000,0.000000,0.000000,0.000000,0.000000,0.000000,0.000000,0.000000,0.071866,3,0
430000,0.003093,10.919216,0.022826,0.021636,25.112875,0.010107,0.000322,0.000823,1.570687,-0.004260,-0.000076,-0.000275,0.000004,-0.000212,-0.000001,0.005494,-0.003188,0.178562,0.045701,0.179542,0.179541,0.178097,0.952751,0.000000,0.000000,0.000000,0.000000,0.000000,0.000000,0.000000,0.000000,0.000000,0.000000,0.000000,0.000000,0.173246,3,0
440000,0.003216,11.176320,0.022940,0.022059,25.121414,0.010187,0.000326,0.000975,1.570678,-0.004759,-0.000084,-0.000276,0.000005,-0.000244,-0.000001,0.006495,-0.003314,0.200386,0.000419,0.178653,0.178652,0.176883,0.948041,0.000000,0.000000,0.000000,0.000000,0.000000,0.000000,0.000000,0.000000,0.000000,0.000000,0.000000,0.000000,0.194446,3,0
450000,0.003339,11.432342,0.022469,0.022418,25.128490,0.009806,0.000337,0.001111,1.570674,-0.005179,-0.000093,-0.000225,0.000005,-0.000272,-0.000001,0.004302,-0.003441,0.161866,-0.019628,0.177900,0.177900,0.175803,0.943136,0.000000,0.000000,0.000000,0.000000,0.000000,0.000000,0.000000,0.000000,0.000000,0.000000,0.000000,0.000000,0.157102,3,0
460000,0.003464,11.690836,0.022142,0.022858,25.138988,0.009410,0.000345,0.001326,1.570668,-0.005833,-0.000103,-0.000186,0.000006,-0.000316,-0.000002,0.009644,-0.003569,0.243715,-0.014614,0.177275,0.177274,0.174847,0.938037,0.000000,0.000000,0.000000,0.000000,0.000000,0.000000,0.000000,0.000000,0.000000,0.000000,0.000000,0.000000,0.236539,3,0
470000,0.003589,11.946482,0.023021,0.023228,25.145695,0.010667,0.000355,0.001462,1.570666,-0.006234,-0.000113,-0.000261,0.000007,-0.000344,-0.000002,0.003481,-0.003698,0.144145,0.026993,0.176767,0.176767,0.174006,0.932749,0.000000,0.000000,0.000000,0.000000,0.000000,0.000000,0.000000,0.000000,0.000000,0.000000,0.000000,0.000000,0.139944,3,0
480000,0.003713,12.202849,0.023658,0.023561,25.153488,0.011317,0.000365,0.001614,1.570674,-0.006715,-0.000124,-0.000314,0.000007,-0.000378,-0.000002,0.004555,-0.003826,0.166738,0.018405,0.176370,0.176370,0.173271,0.927277,0.000000,0.000000,0.000000,0.000000,0.000000,0.000000,0.000000,0.000000,0.000000,0.000000,0.000000,0.000000,0.161879,3,0
490000,0.003838,12.461095,0.022508,0.023941,25.163906,0.009988,0.000376,0.001835,1.570665,-0.007395,-0.000136,-0.000183,0.000008,-0.000428,-0.000002,0.008751,-0.003954,0.228355,-0.043971,0.176074,0.176074,0.172634,0.921624,0.000000,0.000000,0.000000,0.000000,0.000000,0.000000,0.000000,0.000000,0.000000,0.000000,0.000000,0.000000,0.221687,3,0
500000,0.003963,12.719440,0.023571,0.024279,25.174503,0.011471,0.000386,0.002079,1.570668,-0.008097,-0.000149,-0.000286,0.000009,-0.000480,-0.000003,0.008627,-0.004083,0.228431,0.033525,0.175873,0.175873,0.172087,0.915795,0.000000,0.000000,0.000000,0.000000,0.000000,0.000000,0.000000,0.000000,0.000000,0.000000,0.000000,0.000000,0.221770,3,0
510000,0.004087,12.975556,0.022927,0.024595,25.181887,0.010615,0.000389,0.002242,1.570660,-0.008569,-0.000162,-0.000202,0.000010,-0.000516,-0.000003,0.003704,-0.004211,0.148891,-0.026554,0.175760,0.175759,0.171623,0.909796,0.000000,0.000000,0.000000,0.000000,0.000000,0.000000,0.000000,0.000000,0.000000,0.000000,0.000000,0.000000,0.144587,3,0
520000,0.004212,13.234140,0.022833,0.024994,25.192972,0.010579,0.000402,0.002491,1.570668,-0.009323,-0.000176,-0.000179,0.000011,-0.000574,-0.000003,0.008617,-0.004339,0.230640,-0.007034,0.175727,0.175726,0.171234,0.903633,0.000000,0.000000,0.000000,0.000000,0.000000,0.000000,0.000000,0.000000,0.000000,0.000000,0.000000,0.000000,0.223925,3,0
530000,0.004338,13.492829,0.022311,0.025418,25.204170,0.009710,0.000409,0.002763,1.570674,-0.010098,-0.000191,-0.000104,0.000012,-0.000636,-0.000003,0.008668,-0.004468,0.230371,-0.021984,0.175768,0.175768,0.170915,0.897312,0.000000,0.000000,0.000000,0.000000,0.000000,0.000000,0.000000,0.000000,0.000000,0.000000,0.000000,0.000000,0.223664,3,0
540000,0.004464,13.748711,0.021777,0.025859,25.211134,0.009072,0.000404,0.002921,1.570681,-0.010551,-0.000207,-0.000026,0.000014,-0.000672,-0.000004,0.002843,-0.004598,0.130601,-0.022268,0.175878,0.175878,0.170659,0.890839,0.000000,0.000000,0.000000,0.000000,0.000000,0.000000,0.000000,0.000000,0.000000,0.000000,0.000000,0.000000,0.126851,3,0
550000,0.004589,14.005904,0.020621,0.026229,25.220066,0.007567,0.000409,0.003125,1.570692,-0.011165,-0.000224,0.000132,0.000015,-0.000723,-0.000004,0.005148,-0.004728,0.172834,-0.043898,0.176051,0.176051,0.170460,0.884220,0.000000,0.000000,0.000000,0.000000,0.000000,0.000000,0.000000,0.000000,0.000000,0.000000,0.000000,0.000000,0.167826,3,0
560000,0.004715,14.263227,0.022021,0.026657,25.229267,0.009619,0.000420,0.003337,1.570690,-0.011801,-0.000242,-0.000041,0.000016,-0.000777,-0.000004,0.005252,-0.004858,0.173976,0.046619,0.176281,0.176281,0.170314,0.877464,0.000000,0.000000,0.000000,0.000000,0.000000,0.000000,0.000000,0.000000,0.000000,0.000000,0.000000,0.000000,0.168931,3,0
570000,0.004840,14.518927,0.021528,0.026904,25.235743,0.008734,0.000425,0.003498,1.570685,-0.012233,-0.000260,0.000038,0.000018,-0.000814,-0.000004,0.002226,-0.004987,0.115352,-0.020718,0.176564,0.176563,0.170215,0.870576,0.000000,0.000000,0.000000,0.000000,0.000000,0.000000,0.000000,0.000000,0.000000,0.000000,0.000000,0.000000,0.112061,3,0
580000,0.004964,14.777118,0.022130,0.027216,25.246130,0.009518,0.000426,0.003760,1.570695,-0.012992,-0.000280,-0.000033,0.000020,-0.000881,-0.000005,0.006369,-0.005115,0.197529,0.018182,0.176893,0.176893,0.170158,0.863566,0.000000,0.000000,0.000000,0.000000,0.000000,0.000000,0.000000,0.000000,0.000000,0.000000,0.000000,0.000000,0.191770,3,0
590000,0.005086,15.033668,0.022086,0.027443,25.253809,0.009584,0.000436,0.003963,1.570701,-0.013535,-0.000301,-0.000014,0.000022,-0.000929,-0.000005,0.003090,-0.005241,0.138022,-0.004968,0.177266,0.177265,0.170138,0.856439,0.000000,0.000000,0.000000,0.000000,0.000000,0.000000,0.000000,0.000000,0.000000,0.000000,0.000000,0.000000,0.134041,3,0
600000,0.005206,15.292713,0.022406,0.027712,25.265587,0.009956,0.000428,0.004279,1.570705,-0.014417,-0.000322,-0.000046,0.000024,-0.001010,-0.000006,0.007796,-0.005365,0.219337,0.007948,0.177677,0.177676,0.170152,0.849205,0.000000,0.000000,0.000000,0.000000,0.000000,0.000000,0.000000,0.000000,0.000000,0.000000,0.000000,0.000000,0.212906,3,0
610000,0.005326,15.551871,0.022599,0.027944,25.277479,0.010271,0.000424,0.004615,1.570702,-0.015317,-0.000345,-0.000061,0.000026,-0.001094,-0.000006,0.007734,-0.005489,0.218599,0.003295,0.178122,0.178121,0.170196,0.841870,0.000000,0.000000,0.000000,0.000000,0.000000,0.000000,0.000000,0.000000,0.000000,0.000000,0.000000,0.000000,0.212176,3,0
620000,0.005443,15.809364,0.021987,0.028130,25.286455,0.009469,0.000426,0.004850,1.570697,-0.015982,-0.000369,0.000047,0.000028,-0.001157,-0.000006,0.004150,-0.005610,0.158112,-0.025204,0.178597,0.178597,0.170265,0.834444,0.000000,0.000000,0.000000,0.000000,0.000000,0.000000,0.000000,0.000000,0.000000,0.000000,0.000000,0.000000,0.153502,3,0
630000,0.005559,16.065802,0.021561,0.028453,25.293680,0.008923,0.000426,0.005034,1.570696,-0.016494,-0.000393,0.000128,0.000030,-0.001206,-0.000007,0.002357,-0.005730,0.119196,-0.018395,0.179100,0.179099,0.170356,0.826934,0.000000,0.000000,0.000000,0.000000,0.000000,0.000000,0.000000,0.000000,0.000000,0.000000,0.000000,0.000000,0.115770,3,0
640000,0.005675,16.322378,0.022294,0.028770,25.301071,0.009938,0.000431,0.005235,1.570692,-0.017025,-0.000419,0.000026,0.000033,-0.001259,-0.000007,0.002460,-0.005850,0.121111,0.022692,0.179625,0.179624,0.170466,0.819349,0.000000,0.000000,0.000000,0.000000,0.000000,0.000000,0.000000,0.000000,0.000000,0.000000,0.000000,0.000000,0.117622,3,0
650000,0.005788,16.580288,0.022588,0.029000,25.310659,0.010269,0.000421,0.005504,1.570700,-0.017751,-0.000446,-0.000006,0.000036,-0.001332,-0.000007,0.004290,-0.005968,0.162643,0.006888,0.180170,0.180169,0.170592,0.811695,0.000000,0.000000,0.000000,0.000000,0.000000,0.000000,0.000000,0.000000,0.000000,0.000000,0.000000,0.000000,0.157865,3,0
660000,0.005901,16.836523,0.024062,0.029320,25.317255,0.012404,0.000411,0.005679,1.570702,-0.018222,-0.000473,-0.000232,0.000039,-0.001380,-0.000008,0.002111,-0.006085,0.103430,0.048198,0.180732,0.180731,0.170730,0.803983,0.000000,0.000000,0.000000,0.000000,0.000000,0.000000,0.000000,0.000000,0.000000,0.000000,0.000000,0.000000,0.100488,3,0
670000,0.006013,17.093500,0.023237,0.029647,25.325157,0.011122,0.000406,0.005897,1.570711,-0.018804,-0.000502,-0.000073,0.000041,-0.001440,-0.000008,0.002729,-0.006200,0.125431,-0.033307,0.181308,0.181307,0.170878,0.796219,0.000000,0.000000,0.000000,0.000000,0.000000,0.000000,0.000000,0.000000,0.000000,0.000000,0.000000,0.000000,0.121790,3,0
680000,0.006123,17.354225,0.024561,0.029840,25.339287,0.013118,0.000403,0.006339,1.570720,-0.019964,-0.000532,-0.000281,0.000045,-0.001563,-0.000009,0.010086,-0.006315,0.246075,0.042595,0.181894,0.181893,0.171034,0.788411,0.000000,0.000000,0.000000,0.000000,0.000000,0.000000,0.000000,0.000000,0.000000,0.000000,0.000000,0.000000,0.238694,3,0
690000,0.006231,17.612625,0.024224,0.030017,25.349432,0.012647,0.000389,0.006638,1.570715,-0.020752,-0.000563,-0.000201,0.000048,-0.001648,-0.000009,0.004403,-0.006427,0.164118,-0.016401,0.182490,0.182489,0.171194,0.780569,0.000000,0.000000,0.000000,0.000000,0.000000,0.000000,0.000000,0.000000,0.000000,0.000000,0.000000,0.000000,0.159248,3,0
700000,0.006337,17.874172,0.025469,0.030263,25.364738,0.014453,0.000392,0.007136,1.570713,-0.022036,-0.000595,-0.000400,0.000052,-0.001789,-0.000010,0.011470,-0.006537,0.263437,0.039241,0.183091,0.183090,0.171358,0.772698,0.000000,0.000000,0.000000,0.000000,0.000000,0.000000,0.000000,0.000000,0.000000,0.000000,0.000000,0.000000,0.255478,3,0
710000,0.006442,18.133366,0.026431,0.030485,25.375978,0.015941,0.000382,0.007501,1.570714,-0.022931,-0.000628,-0.000548,0.000055,-0.001889,-0.000010,0.005412,-0.006646,0.180645,0.028607,0.183697,0.183696,0.171523,0.764808,0.000000,0.000000,0.000000,0.000000,0.000000,0.000000,0.000000,0.000000,0.000000,0.000000,0.000000,0.000000,0.175234,3,0
720000,0.006544,18.390829,0.027585,0.030617,25.383926,0.017380,0.000378,0.007737,1.570712,-0.023535,-0.000662,-0.000731,0.000059,-0.001957,-0.000011,0.002535,-0.006752,0.120131,0.034814,0.184304,0.184303,0.171686,0.756905,0.000000,0.000000,0.000000,0.000000,0.000000,0.000000,0.000000,0.000000,0.000000,0.000000,0.000000,0.000000,0.116625,3,0
730000,0.006646,18.652092,0.026248,0.030875,25.398424,0.015342,0.000369,0.008225,1.570725,-0.024760,-0.000697,-0.000452,0.000063,-0.002099,-0.000012,0.009783,-0.006856,0.240284,-0.052679,0.184912,0.184910,0.171847,0.748996,0.000000,0.000000,0.000000,0.000000,0.000000,0.000000,0.000000,0.000000,0.000000,0.000000,0.000000,0.000000,0.232973,3,0
740000,0.006745,18.909128,0.027480,0.031116,25.405409,0.017264,0.000362,0.008441,1.570731,-0.025268,-0.000733,-0.000655,0.000068,-0.002159,-0.000012,0.001792,-0.006960,0.098150,0.037561,0.185517,0.185516,0.172004,0.741090,0.000000,0.000000,0.000000,0.000000,0.000000,0.000000,0.000000,0.000000,0.000000,0.000000,0.000000,0.000000,0.095355,3,0
750000,0.006843,19.168751,0.027478,0.031330,25.416782,0.017202,0.000355,0.008838,1.570738,-0.026207,-0.000770,-0.000623,0.000072,-0.002271,-0.000013,0.005188,-0.007062,0.178986,-0.006036,0.186120,0.186119,0.172156,0.733193,0.000000,0.000000,0.000000,0.000000,0.000000,0.000000,0.000000,0.000000,0.000000,0.000000,0.000000,0.000000,0.173568,3,0
760000,0.006940,19.427231,0.026352,0.031516,25.426092,0.015241,0.000338,0.009157,1.570731,-0.026939,-0.000808,-0.000372,0.000076,-0.002361,-0.000013,0.003409,-0.007162,0.137917,-0.045106,0.186718,0.186716,0.172300,0.725312,0.000000,0.000000,0.000000,0.000000,0.000000,0.000000,0.000000,0.000000,0.000000,0.000000,0.000000,0.000000,0.133803,3,0
770000,0.007034,19.686434,0.025680,0.031703,25.436586,0.014082,0.000338,0.009524,1.570738,-0.027787,-0.000847,-0.000211,0.000081,-0.002466,-0.000014,0.004154,-0.007261,0.157648,-0.028624,0.187309,0.187308,0.172437,0.717452,0.000000,0.000000,0.000000,0.000000,0.000000,0.000000,0.000000,0.000000,0.000000,0.000000,0.000000,0.000000,0.152887,3,0
780000,0.007126,19.946972,0.026874,0.031845,25.449333,0.015887,0.000326,0.009984,1.570736,-0.028857,-0.000887,-0.000424,0.000086,-0.002600,-0.000015,0.006462,-0.007357,0.196524,0.036691,0.187894,0.187892,0.172564,0.709622,0.000000,0.000000,0.000000,0.000000,0.000000,0.000000,0.000000,0.000000,0.000000,0.000000,0.000000,0.000000,0.190504,3,0
790000,0.007216,20.205713,0.027446,0.031995,25.458698,0.016646,0.000322,0.010298,1.570742,-0.029598,-0.000928,-0.000509,0.000092,-0.002695,-0.000015,0.002969,-0.007450,0.134645,0.014403,0.188470,0.188468,0.172681,0.701825,0.000000,0.000000,0.000000,0.000000,0.000000,0.000000,0.000000,0.000000,0.000000,0.000000,0.000000,0.000000,0.130616,3,0
800000,0.007303,20.468306,0.028178,0.032088,25.474684,0.017695,0.000317,0.010902,1.570757,-0.031009,-0.000971,-0.000628,0.000097,-0.002879,-0.000016,0.010446,-0.007541,0.253511,0.019745,0.189036,0.189035,0.172788,0.694069,0.000000,0.000000,0.000000,0.000000,0.000000,0.000000,0.000000,0.000000,0.000000,0.000000,0.000000,0.000000,0.245634,3,0
810000,0.007388,20.729061,0.028693,0.032285,25.487188,0.018162,0.000308,0.011370,1.570754,-0.032075,-0.001014,-0.000701,0.000103,-0.003020,-0.000017,0.005831,-0.007630,0.189547,0.011923,0.189593,0.189591,0.172883,0.686358,0.000000,0.000000,0.000000,0.000000,0.000000,0.000000,0.000000,0.000000,0.000000,0.000000,0.000000,0.000000,0.183706,3,0
820000,0.007472,20.987993,0.027520,0.032356,25.496321,0.016242,0.000307,0.011694,1.570753,-0.032800,-0.001057,-0.000417,0.000109,-0.003117,-0.000018,0.002988,-0.007716,0.127457,-0.046924,0.190139,0.190137,0.172966,0.678699,0.000000,0.000000,0.000000,0.000000,0.000000,0.000000,0.000000,0.000000,0.000000,0.000000,0.000000,0.000000,0.123643,3,0
830000,0.007554,21.248905,0.026804,0.032431,25.508835,0.015133,0.000302,0.012175,1.570760,-0.033870,-0.001102,-0.000232,0.000115,-0.003264,-0.000018,0.005772,-0.007801,0.186495,-0.030367,0.190673,0.190671,0.173036,0.671095,0.000000,0.000000,0.000000,0.000000,0.000000,0.000000,0.000000,0.000000,0.000000,0.000000,0.000000,0.000000,0.180725,3,0
840000,0.007631,21.509241,0.027890,0.032478,25.520334,0.016766,0.000282,0.012600,1.570755,-0.034820,-0.001148,-0.000436,0.000121,-0.003396,-0.000019,0.004520,-0.007883,0.164001,0.032438,0.191195,0.191193,0.173093,0.663552,0.000000,0.000000,0.000000,0.000000,0.000000,0.000000,0.000000,0.000000,0.000000,0.000000,0.000000,0.000000,0.158961,3,0
850000,0.007708,21.770914,0.026500,0.032642,25.534025,0.014611,0.000269,0.013142,1.570761,-0.036000,-0.001195,-0.000099,0.000128,-0.003562,-0.000020,0.007045,-0.007962,0.201735,-0.053828,0.191705,0.191703,0.173137,0.656075,0.000000,0.000000,0.000000,0.000000,0.000000,0.000000,0.000000,0.000000,0.000000,0.000000,0.000000,0.000000,0.195440,3,0
860000,0.007783,22.032633,0.026880,0.032797,25.547642,0.015159,0.000248,0.013678,1.570759,-0.037169,-0.001242,-0.000154,0.000134,-0.003730,-0.000021,0.006368,-0.008041,0.198349,0.008223,0.192202,0.192200,0.173167,0.648667,0.000000,0.000000,0.000000,0.000000,0.000000,0.000000,0.000000,0.000000,0.000000,0.000000,0.000000,0.000000,0.192153,3,0
870000,0.007855,22.294394,0.027330,0.032862,25.561028,0.015608,0.000243,0.014213,1.570755,-0.038327,-0.001290,-0.000225,0.000141,-0.003899,-0.000022,0.006157,-0.008116,0.194920,0.010521,0.192686,0.192684,0.173183,0.641332,0.000000,0.000000,0.000000,0.000000,0.000000,0.000000,0.000000,0.000000,0.000000,0.000000,0.000000,0.000000,0.188823,3,0
880000,0.007926,22.556833,0.026331,0.032888,25.575462,0.014101,0.000233,0.014798,1.570765,-0.039593,-0.001340,0.000033,0.000148,-0.004086,-0.000023,0.007472,-0.008189,0.211332,-0.039869,0.193157,0.193154,0.173185,0.634074,0.000000,0.000000,0.000000,0.000000,0.000000,0.000000,0.000000,0.000000,0.000000,0.000000,0.000000,0.000000,0.204680,3,0
890000,0.007993,22.818657,0.026016,0.032909,25.588610,0.013556,0.000225,0.015342,1.570763,-0.040723,-0.001390,0.000133,0.000156,-0.004256,-0.000024,0.005708,-0.008260,0.187294,-0.015609,0.193614,0.193611,0.173173,0.626896,0.000000,0.000000,0.000000,0.000000,0.000000,0.000000,0.000000,0.000000,0.000000,0.000000,0.000000,0.000000,0.181426,3,0
900000,0.008058,23.077940,0.026479,0.032942,25.597179,0.014006,0.000205,0.015650,1.570755,-0.041356,-0.001440,0.000055,0.000164,-0.004353,-0.000025,0.001785,-0.008327,0.104246,0.011450,0.194058,0.194055,0.173146,0.619802,0.000000,0.000000,0.000000,0.000000,0.000000,0.000000,0.000000,0.000000,0.000000,0.000000,0.000000,0.000000,0.101197,3,0
910000,0.008122,23.340509,0.025496,0.033052,25.611355,0.012584,0.000181,0.016259,1.570755,-0.042597,-0.001492,0.000313,0.000171,-0.004546,-0.000026,0.006880,-0.008393,0.202698,-0.038766,0.194488,0.194485,0.173106,0.612795,0.000000,0.000000,0.000000,0.000000,0.000000,0.000000,0.000000,0.000000,0.000000,0.000000,0.000000,0.000000,0.196295,3,0
920000,0.008182,23.603096,0.026337,0.033056,25.625448,0.013835,0.000157,0.016861,1.570762,-0.043818,-0.001544,0.000139,0.000180,-0.004738,-0.000027,0.006461,-0.008457,0.198412,0.024980,0.194905,0.194902,0.173051,0.605876,0.000000,0.000000,0.000000,0.000000,0.000000,0.000000,0.000000,0.000000,0.000000,0.000000,0.000000,0.000000,0.192141,3,0
930000,0.008241,23.861168,0.025731,0.033146,25.631475,0.012823,0.000145,0.017056,1.570764,-0.044159,-0.001597,0.000316,0.000188,-0.004793,-0.000027,0.000606,-0.008518,0.054958,-0.025781,0.195308,0.195305,0.172982,0.599050,0.000000,0.000000,0.000000,0.000000,0.000000,0.000000,0.000000,0.000000,0.000000,0.000000,0.000000,0.000000,0.053804,3,0
940000,0.008299,24.119961,0.026006,0.033226,25.638556,0.013293,0.000118,0.017312,1.570757,-0.044626,-0.001650,0.000279,0.000197,-0.004869,-0.000028,0.000926,-0.008579,0.075130,0.005083,0.195699,0.195695,0.172899,0.592317,0.000000,0.000000,0.000000,0.000000,0.000000,0.000000,0.000000,0.000000,0.000000,0.000000,0.000000,0.000000,0.073152,3,0
950000,0.008354,24.380116,0.026166,0.033249,25.648024,0.013576,0.000096,0.017697,1.570751,-0.045343,-0.001704,0.000269,0.000206,-0.004987,-0.000029,0.002124,-0.008636,0.114449,0.001000,0.196076,0.196072,0.172802,0.585680,0.000000,0.000000,0.000000,0.000000,0.000000,0.000000,0.000000,0.000000,0.000000,0.000000,0.000000,0.000000,0.111023,3,0
960000,0.008407,24.640314,0.024833,0.033225,25.657495,0.011529,0.000073,0.018073,1.570757,-0.046053,-0.001759,0.000628,0.000215,-0.005106,-0.000029,0.002476,-0.008691,0.112625,-0.050878,0.196441,0.196437,0.172692,0.579141,0.000000,0.000000,0.000000,0.000000,0.000000,0.000000,0.000000,0.000000,0.000000,0.000000,0.000000,0.000000,0.109260,3,0
970000,0.008458,24.898598,0.024070,0.033151,25.663456,0.010558,0.000059,0.018269,1.570759,-0.046377,-0.001815,0.000846,0.000224,-0.005162,-0.000030,0.000585,-0.008744,0.051121,-0.030581,0.196793,0.196789,0.172569,0.572701,0.000000,0.000000,0.000000,0.000000,0.000000,0.000000,0.000000,0.000000,0.000000,0.000000,0.000000,0.000000,0.050161,3,0
980000,0.008506,25.159557,0.024229,0.033200,25.674006,0.010626,0.000034,0.018707,1.570763,-0.047207,-0.001870,0.000828,0.000234,-0.005305,-0.000031,0.002768,-0.008795,0.130720,0.002061,0.197133,0.197129,0.172433,0.566362,0.000000,0.000000,0.000000,0.000000,0.000000,0.000000,0.000000,0.000000,0.000000,0.000000,0.000000,0.000000,0.126711,3,0
990000,0.008551,25.421194,0.025312,0.033214,25.685474,0.012015,0.000014,0.019220,1.570775,-0.048151,-0.001927,0.000573,0.000244,-0.005470,-0.000032,0.003731,-0.008843,0.147959,0.034237,0.197462,0.197457,0.172284,0.560124,0.000000,0.000000,0.000000,0.000000,0.000000,0.000000,0.000000,0.000000,0.000000,0.000000,0.000000,0.000000,0.143346,3,0
1000000,0.008596,25.684158,0.025346,0.033282,25.699284,0.012100,-0.000014,0.019854,1.570785,-0.049333,-0.001984,0.000588,0.000254,-0.005681,-0.000033,0.005494,-0.008889,0.184389,-0.002760,0.197778,0.197773,0.172123,0.553989,0.000000,0.000000,0.000000,0.000000,0.000000,0.000000,0.000000,0.000000,0.000000,0.000000,0.000000,0.000000,0.178517,3,0
1010000,0.008639,25.943178,0.025140,0.033213,25.705925,0.011849,-0.000033,0.020097,1.570784,-0.049722,-0.002041,0.000671,0.000264,-0.005751,-0.000033,0.000623,-0.008933,0.060440,-0.011400,0.198084,0.198078,0.171950,0.547957,0.000000,0.000000,0.000000,0.000000,0.000000,0.000000,0.000000,0.000000,0.000000,0.000000,0.000000,0.000000,0.059080,3,0
1020000,0.008679,26.203558,0.025732,0.033265,25.714813,0.012466,-0.000048,0.020459,1.570788,-0.050364,-0.002099,0.000543,0.000275,-0.005869,-0.000034,0.001655,-0.008977,0.099539,0.016745,0.198379,0.198373,0.171765,0.542030,0.000000,0.000000,0.000000,0.000000,0.000000,0.000000,0.000000,0.000000,0.000000,0.000000,0.000000,0.000000,0.096639,3,0
1030000,0.008720,26.463970,0.024532,0.033310,25.723764,0.010566,-0.000078,0.020824,1.570785,-0.050996,-0.002158,0.000888,0.000285,-0.005987,-0.000035,0.001889,-0.009018,0.097494,-0.046127,0.198663,0.198657,0.171568,0.536208,0.000000,0.000000,0.000000,0.000000,0.000000,0.000000,0.000000,0.000000,0.000000,0.000000,0.000000,0.000000,0.094666,3,0
1040000,0.008757,26.725063,0.024169,0.033192,25.733711,0.009950,-0.000101,0.021257,1.570788,-0.051745,-0.002217,0.001007,0.000296,-0.006129,-0.000036,0.002198,-0.009057,0.115297,-0.016233,0.198938,0.198932,0.171361,0.530491,0.000000,0.000000,0.000000,0.000000,0.000000,0.000000,0.000000,0.000000,0.000000,0.000000,0.000000,0.000000,0.111817,3,0
1050000,0.008794,26.984192,0.022873,0.033233,25.740164,0.008256,-0.000122,0.021485,1.570793,-0.052090,-0.002276,0.001381,0.000307,-0.006196,-0.000036,0.000851,-0.009095,0.052893,-0.048897,0.199203,0.199196,0.171143,0.524879,0.000000,0.000000,0.000000,0.000000,0.000000,0.000000,0.000000,0.000000,0.000000,0.000000,0.000000,0.000000,0.051885,3,0
1060000,0.008828,27.244680,0.023076,0.033210,25.748899,0.008444,-0.000150,0.021844,1.570793,-0.052690,-0.002336,0.001343,0.000319,-0.006313,-0.000037,0.001377,-0.009132,0.091883,0.004412,0.199459,0.199452,0.170915,0.519373,0.000000,0.000000,0.000000,0.000000,0.000000,0.000000,0.000000,0.000000,0.000000,0.000000,0.000000,0.000000,0.089267,3,0
1070000,0.008862,27.507177,0.021886,0.033236,25.760925,0.006884,-0.000184,0.022417,1.570795,-0.053668,-0.002396,0.001685,0.000331,-0.006507,-0.000038,0.003930,-0.009166,0.149370,-0.044584,0.199707,0.199699,0.170678,0.513971,0.000000,0.000000,0.000000,0.000000,0.000000,0.000000,0.000000,0.000000,0.000000,0.000000,0.000000,0.000000,0.144667,3,0
1080000,0.008892,27.770321,0.022650,0.033209,25.774094,0.007934,-0.000217,0.023045,1.570807,-0.054749,-0.002456,0.001483,0.000343,-0.006724,-0.000039,0.004503,-0.009199,0.165054,0.024801,0.199946,0.199938,0.170431,0.508675,0.000000,0.000000,0.000000,0.000000,0.000000,0.000000,0.000000,0.000000,0.000000,0.000000,0.000000,0.000000,0.159803,3,0
1090000,0.008922,28.032118,0.021484,0.033149,25.784624,0.006310,-0.000249,0.023538,1.570801,-0.055541,-0.002517,0.001823,0.000355,-0.006886,-0.000040,0.002660,-0.009229,0.120447,-0.043668,0.200178,0.200170,0.170175,0.503484,0.000000,0.000000,0.000000,0.000000,0.000000,0.000000,0.000000,0.000000,0.000000,0.000000,0.000000,0.000000,0.116768,3,0
1100000,0.008949,28.292580,0.020650,0.032995,25.792639,0.005283,-0.000270,0.023877,1.570809,-0.056050,-0.002578,0.002072,0.000367,-0.006991,-0.000041,0.001136,-0.009257,0.077213,-0.031561,0.200403,0.200394,0.169910,0.498397,0.000000,0.000000,0.000000,0.000000,0.000000,0.000000,0.000000,0.000000,0.000000,0.000000,0.000000,0.000000,0.075167,3,0
1110000,0.008974,28.554384,0.019713,0.032908,25.802940,0.003992,-0.000303,0.024362,1.570816,-0.056807,-0.002640,0.002345,0.000380,-0.007151,-0.000042,0.002334,-0.009283,0.114855,-0.034739,0.200621,0.200611,0.169637,0.493415,0.000000,0.000000,0.000000,0.000000,0.000000,0.000000,0.000000,0.000000,0.000000,0.000000,0.000000,0.000000,0.111374,3,0
1120000,0.008996,28.815514,0.019665,0.032776,25.811975,0.003850,-0.000332,0.024763,1.570826,-0.057410,-0.002701,0.002364,0.000393,-0.007279,-0.000043,0.001364,-0.009307,0.091494,-0.002891,0.200832,0.200822,0.169357,0.488535,0.000000,0.000000,0.000000,0.000000,0.000000,0.000000,0.000000,0.000000,0.000000,0.000000,0.000000,0.000000,0.088887,3,0
1130000,0.009015,29.075972,0.021029,0.032772,25.819685,0.005547,-0.000354,0.025076,1.570829,-0.057863,-0.002763,0.001976,0.000406,-0.007376,-0.000044,0.001139,-0.009329,0.068823,0.047243,0.201038,0.201028,0.169069,0.483759,0.000000,0.000000,0.000000,0.000000,0.000000,0.000000,0.000000,0.000000,0.000000,0.000000,0.000000,0.000000,0.067129,3,0
1140000,0.009035,29.334448,0.020008,0.032715,25.823929,0.004327,-0.000394,0.025165,1.570836,-0.057911,-0.002825,0.002290,0.000420,-0.007387,-0.000044,0.000260,-0.009348,0.007072,-0.038357,0.201238,0.201227,0.168775,0.479085,0.000000,0.000000,0.000000,0.000000,0.000000,0.000000,0.000000,0.000000,0.000000,0.000000,0.000000,0.000000,0.011327,3,0
1150000,0.009052,29.594959,0.020497,0.032611,25.831625,0.005055,-0.000425,0.025484,1.570843,-0.058350,-0.002886,0.002154,0.000434,-0.007484,-0.000044,0.000771,-0.009367,0.066620,0.016009,0.201433,0.201422,0.168473,0.474511,0.000000,0.000000,0.000000,0.000000,0.000000,0.000000,0.000000,0.000000,0.000000,0.000000,0.000000,0.000000,0.065018,3,0
1160000,0.009068,29.858822,0.019768,0.032497,25.845207,0.003842,-0.000466,0.026179,1.570853,-0.059434,-0.002949,0.002371,0.000447,-0.007729,-0.000046,0.004459,-0.009382,0.163849,-0.027270,0.201623,0.201612,0.168166,0.470039,0.000000,0.000000,0.000000,0.000000,0.000000,0.000000,0.000000,0.000000,0.000000,0.000000,0.000000,0.000000,0.158600,3,0
1170000,0.009080,30.117952,0.020417,0.032362,25.850130,0.004848,-0.000506,0.026310,1.570853,-0.059560,-0.003010,0.002188,0.000462,-0.007758,-0.000046,0.000150,-0.009397,0.019125,0.021807,0.201810,0.201797,0.167853,0.465665,0.000000,0.000000,0.000000,0.000000,0.000000,0.000000,0.000000,0.000000,0.000000,0.000000,0.000000,0.000000,0.020594,3,0
1180000,0.009092,30.379118,0.020105,0.032283,25.858637,0.004246,-0.000549,0.026689,1.570849,-0.060075,-0.003073,0.002289,0.000476,-0.007878,-0.000047,0.001020,-0.009409,0.078007,-0.012662,0.201992,0.201979,0.167535,0.461389,0.000000,0.000000,0.000000,0.000000,0.000000,0.000000,0.000000,0.000000,0.000000,0.000000,0.000000,0.000000,0.075927,3,0
1190000,0.009101,30.639606,0.020843,0.032145,25.865875,0.005111,-0.000581,0.026981,1.570856,-0.060440,-0.003135,0.002073,0.000491,-0.007963,-0.000048,0.000609,-0.009419,0.055302,0.025165,0.202171,0.202158,0.167211,0.457210,0.000000,0.000000,0.000000,0.000000,0.000000,0.000000,0.000000,0.000000,0.000000,0.000000,0.000000,0.000000,0.054210,3,0
1200000,0.009109,30.898762,0.019973,0.031926,25.870676,0.003752,-0.000621,0.027098,1.570853,-0.060529,-0.003197,0.002354,0.000505,-0.007985,-0.000048,0.000220,-0.009426,0.013409,-0.033040,0.202347,0.202333,0.166883,0.453128,0.000000,0.000000,0.000000,0.000000,0.000000,0.000000,0.000000,0.000000,0.000000,0.000000,0.000000,0.000000,0.015835,3,0
1210000,0.009116,31.157938,0.019200,0.031841,25.875376,0.002756,-0.000661,0.027212,1.570859,-0.060613,-0.003260,0.002603,0.000520,-0.008006,-0.000048,0.000178,-0.009433,0.012630,-0.029192,0.202521,0.202506,0.166551,0.449140,0.000000,0.000000,0.000000,0.000000,0.000000,0.000000,0.000000,0.000000,0.000000,0.000000,0.000000,0.000000,0.015230,3,0
1220000,0.009119,31.420492,0.018724,0.031643,25.886047,0.002072,-0.000702,0.027747,1.570866,-0.061347,-0.003322,0.002749,0.000535,-0.008187,-0.000049,0.002058,-0.009438,0.111229,-0.017785,0.202692,0.202676,0.166214,0.445245,0.000000,0.000000,0.000000,0.000000,0.000000,0.000000,0.000000,0.000000,0.000000,0.000000,0.000000,0.000000,0.107856,3,0
1230000,0.009122,31.680326,0.017977,0.031562,25.891729,0.001059,-0.000746,0.027933,1.570875,-0.061528,-0.003385,0.002987,0.000551,-0.008233,-0.000050,0.000260,-0.009441,0.027477,-0.027653,0.202861,0.202845,0.165875,0.441443,0.000000,0.000000,0.000000,0.000000,0.000000,0.000000,0.000000,0.000000,0.000000,0.000000,0.000000,0.000000,0.028068,3,0
1240000,0.009125,31.941513,0.016720,0.031491,25.899696,-0.000601,-0.000783,0.028288,1.570883,-0.061961,-0.003447,0.003382,0.000566,-0.008345,-0.000051,0.001049,-0.009443,0.065771,-0.045708,0.203028,0.203011,0.165532,0.437732,0.000000,0.000000,0.000000,0.000000,0.000000,0.000000,0.000000,0.000000,0.000000,0.000000,0.000000,0.000000,0.064193,3,0
1250000,0.009123,32.202003,0.017803,0.031409,25.906412,0.000769,-0.000820,0.028544,1.570877,-0.062243,-0.003509,0.003029,0.000582,-0.008416,-0.000051,0.000569,-0.009445,0.043053,0.039716,0.203194,0.203176,0.165186,0.434110,0.000000,0.000000,0.000000,0.000000,0.000000,0.000000,0.000000,0.000000,0.000000,0.000000,0.000000,0.000000,0.042588,3,0
1260000,0.009121,32.462494,0.018389,0.031293,25.912994,0.001372,-0.000866,0.028786,1.570882,-0.062511,-0.003570,0.002838,0.000599,-0.008485,-0.000052,0.000357,-0.009442,0.040920,0.021251,0.203359,0.203341,0.164838,0.430577,0.000000,0.000000,0.000000,0.000000,0.000000,0.000000,0.000000,0.000000,0.000000,0.000000,0.000000,0.000000,0.040574,3,0
1270000,0.009116,32.722305,0.018937,0.031023,25.918234,0.002012,-0.000905,0.028940,1.570886,-0.062634,-0.003632,0.002662,0.000615,-0.008517,-0.000052,0.000134,-0.009437,0.018909,0.019562,0.203523,0.203504,0.164487,0.427131,0.000000,0.000000,0.000000,0.000000,0.000000,0.000000,0.000000,0.000000,0.000000,0.000000,0.000000,0.000000,0.020417,3,0
1280000,0.009110,32.984146,0.019189,0.030843,25.927101,0.002104,-0.000950,0.029355,1.570890,-0.063137,-0.003693,0.002576,0.000632,-0.008651,-0.000053,0.000984,-0.009430,0.077106,0.008899,0.203687,0.203667,0.164134,0.423770,0.000000,0.000000,0.000000,0.000000,0.000000,0.000000,0.000000,0.000000,0.000000,0.000000,0.000000,0.000000,0.075045,3,0
1290000,0.009103,33.246635,0.019213,0.030734,25.936995,0.002047,-0.000981,0.029854,1.570885,-0.063745,-0.003755,0.002563,0.000648,-0.008817,-0.000054,0.001421,-0.009423,0.093483,0.000517,0.203850,0.203830,0.163780,0.420493,0.000000,0.000000,0.000000,0.000000,0.000000,0.000000,0.000000,0.000000,0.000000,0.000000,0.000000,0.000000,0.090767,3,0
1300000,0.009095,33.508411,0.018626,0.030591,25.945465,0.001132,-0.001015,0.030245,1.570894,-0.064197,-0.003816,0.002755,0.000665,-0.008942,-0.000055,0.000869,-0.009414,0.069443,-0.021930,0.204014,0.203992,0.163425,0.417300,0.000000,0.000000,0.000000,0.000000,0.000000,0.000000,0.000000,0.000000,0.000000,0.000000,0.000000,0.000000,0.067691,3,0
1310000,0.009085,33.769485,0.017518,0.030322,25.952684,-0.000109,-0.001052,0.030543,1.570903,-0.064496,-0.003877,0.003124,0.000682,-0.009028,-0.000056,0.000630,-0.009404,0.046127,-0.041074,0.204177,0.204155,0.163068,0.414187,0.000000,0.000000,0.000000,0.000000,0.000000,0.000000,0.000000,0.000000,0.000000,0.000000,0.000000,0.000000,0.045469,3,0
1320000,0.009071,34.029175,0.018515,0.030138,25.957323,0.001164,-0.001099,0.030626,1.570893,-0.064519,-0.003938,0.002787,0.000699,-0.009033,-0.000056,0.000236,-0.009392,0.003647,0.036834,0.204341,0.204318,0.162710,0.411155,0.000000,0.000000,0.000000,0.000000,0.000000,0.000000,0.000000,0.000000,0.000000,0.000000,0.000000,0.000000,0.009733,3,0
1330000,0.009057,34.291584,0.017992,0.029911,25.966591,0.000273,-0.001140,0.031082,1.570904,-0.065046,-0.003998,0.002956,0.000716,-0.009185,-0.000057,0.001153,-0.009376,0.081856,-0.019275,0.204506,0.204482,0.162352,0.408200,0.000000,0.000000,0.000000,0.000000,0.000000,0.000000,0.000000,0.000000,0.000000,0.000000,0.000000,0.000000,0.079580,3,0
1340000,0.009039,34.551907,0.019058,0.029689,25.971983,0.001587,-0.001190,0.031244,1.570894,-0.065162,-0.004058,0.002589,0.000734,-0.009218,-0.000057,0.000320,-0.009359,0.018143,0.039463,0.204672,0.204647,0.161994,0.405322,0.000000,0.000000,0.000000,0.000000,0.000000,0.000000,0.000000,0.000000,0.000000,0.000000,0.000000,0.000000,0.019722,3,0
1350000,0.009020,34.812222,0.019597,0.029567,25.977417,0.002427,-0.001225,0.031408,1.570895,-0.065265,-0.004117,0.002407,0.000752,-0.009247,-0.000058,0.000117,-0.009340,0.016190,0.019408,0.204838,0.204812,0.161636,0.402521,0.000000,0.000000,0.000000,0.000000,0.000000,0.000000,0.000000,0.000000,0.000000,0.000000,0.000000,0.000000,0.018055,3,0
1360000,0.009002,35.073208,0.019483,0.029423,25.983883,0.002210,-0.001278,0.031660,1.570903,-0.065482,-0.004177,0.002450,0.000770,-0.009313,-0.000058,0.000205,-0.009320,0.034126,-0.004944,0.205006,0.204979,0.161278,0.399792,0.000000,0.000000,0.000000,0.000000,0.000000,0.000000,0.000000,0.000000,0.000000,0.000000,0.000000,0.000000,0.034166,3,0
1370000,0.008980,35.333481,0.020729,0.029168,25.988939,0.003735,-0.001323,0.031786,1.570895,-0.065555,-0.004235,0.002020,0.000789,-0.009333,-0.000058,0.000374,-0.009299,0.011620,0.045680,0.205175,0.205147,0.160920,0.397136,0.000000,0.000000,0.000000,0.000000,0.000000,0.000000,0.000000,0.000000,0.000000,0.000000,0.000000,0.000000,0.014379,3,0
1380000,0.008958,35.592396,0.019523,0.028863,25.991667,0.002219,-0.001367,0.031731,1.570884,-0.065366,-0.004294,0.002464,0.000806,-0.009277,-0.000058,0.000512,-0.009274,-0.030033,-0.046642,0.205346,0.205317,0.160563,0.394552,0.000000,0.000000,0.000000,0.000000,0.000000,0.000000,0.000000,0.000000,0.000000,0.000000,0.000000,0.000000,0.030366,3,0
1390000,0.008933,35.854710,0.019992,0.028678,26.000360,0.002912,-0.001409,0.032154,1.570894,-0.065799,-0.004352,0.002294,0.000825,-0.009412,-0.000059,0.000824,-0.009251,0.068848,0.017054,0.205518,0.205488,0.160207,0.392037,0.000000,0.000000,0.000000,0.000000,0.000000,0.000000,0.000000,0.000000,0.000000,0.000000,0.000000,0.000000,0.067091,3,0
1400000,0.008905,36.117657,0.020748,0.028347,26.010155,0.003627,-0.001455,0.032639,1.570900,-0.066329,-0.004409,0.002017,0.000843,-0.009580,-0.000060,0.001296,-0.009222,0.084747,0.027880,0.205692,0.205660,0.159851,0.389590,0.000000,0.000000,0.000000,0.000000,0.000000,0.000000,0.000000,0.000000,0.000000,0.000000,0.000000,0.000000,0.082331,3,0
1410000,0.008875,36.381226,0.021958,0.028176,26.020809,0.004851,-0.001496,0.033211,1.570895,-0.066951,-0.004466,0.001574,0.000862,-0.009779,-0.000062,0.001950,-0.009192,0.100010,0.044854,0.205867,0.205835,0.159497,0.387210,0.000000,0.000000,0.000000,0.000000,0.000000,0.000000,0.000000,0.000000,0.000000,0.000000,0.000000,0.000000,0.096995,3,0
1420000,0.008843,36.641994,0.023146,0.027871,26.026323,0.006391,-0.001551,0.033366,1.570891,-0.067045,-0.004522,0.001159,0.000882,-0.009807,-0.000062,0.000350,-0.009160,0.015244,0.042962,0.206044,0.206010,0.159145,0.384896,0.000000,0.000000,0.000000,0.000000,0.000000,0.000000,0.000000,0.000000,0.000000,0.000000,0.000000,0.000000,0.017179,3,0
1430000,0.008811,36.904789,0.023782,0.027678,26.035337,0.006921,-0.001604,0.033813,1.570886,-0.067491,-0.004578,0.000935,0.000901,-0.009955,-0.000063,0.000939,-0.009126,0.072483,0.022146,0.206223,0.206188,0.158794,0.382644,0.000000,0.000000,0.000000,0.000000,0.000000,0.000000,0.000000,0.000000,0.000000,0.000000,0.000000,0.000000,0.070548,3,0
1440000,0.008778,37.163425,0.023742,0.027434,26.036892,0.006710,-0.001647,0.033646,1.570883,-0.067177,-0.004634,0.000985,0.000919,-0.009849,-0.000063,0.000439,-0.009091,-0.051254,-0.004455,0.206404,0.206368,0.158445,0.380457,0.000000,0.000000,0.000000,0.000000,0.000000,0.000000,0.000000,0.000000,0.000000,0.000000,0.000000,0.000000,0.050264,3,0
1450000,0.008744,37.422756,0.023147,0.027108,26.039576,0.005950,-0.001689,0.033583,1.570878,-0.066985,-0.004689,0.001238,0.000938,-0.009784,-0.000063,0.000279,-0.009055,-0.031597,-0.025390,0.206586,0.206549,0.158097,0.378329,0.000000,0.000000,0.000000,0.000000,0.000000,0.000000,0.000000,0.000000,0.000000,0.000000,0.000000,0.000000,0.031742,3,0
1460000,0.008708,37.681400,0.022713,0.026821,26.041031,0.005218,-0.001740,0.033409,1.570882,-0.066667,-0.004745,0.001434,0.000957,-0.009675,-0.000062,0.000514,-0.009018,-0.052410,-0.019108,0.206771,0.206732,0.157752,0.376261,0.000000,0.000000,0.000000,0.000000,0.000000,0.000000,0.000000,0.000000,0.000000,0.000000,0.000000,0.000000,0.051353,3,0
1470000,0.008669,37.940041,0.022912,0.026486,26.042410,0.005440,-0.001793,0.033224,1.570872,-0.066349,-0.004799,0.001391,0.000976,-0.009563,-0.000062,0.000463,-0.008979,-0.052643,0.005191,0.206957,0.206917,0.157409,0.374252,0.000000,0.000000,0.000000,0.000000,0.000000,0.000000,0.000000,0.000000,0.000000,0.000000,0.000000,0.000000,0.051561,3,0
1480000,0.008630,38.200756,0.021760,0.026207,26.047405,0.004171,-0.001846,0.033347,1.570878,-0.066391,-0.004853,0.001847,0.000995,-0.009580,-0.000062,0.000365,-0.008937,0.006763,-0.046114,0.207145,0.207104,0.157069,0.372298,0.000000,0.000000,0.000000,0.000000,0.000000,0.000000,0.000000,0.000000,0.000000,0.000000,0.000000,0.000000,0.010816,3,0
1490000,0.008586,38.459362,0.022723,0.025889,26.048502,0.005390,-0.001899,0.033135,1.570863,-0.066061,-0.004905,0.001509,0.001014,-0.009458,-0.000062,0.000699,-0.008895,-0.055210,0.034778,0.207336,0.207293,0.156731,0.370399,0.000000,0.000000,0.000000,0.000000,0.000000,0.000000,0.000000,0.000000,0.000000,0.000000,0.000000,0.000000,0.053982,3,0
1500000,0.008543,38.717983,0.022333,0.025705,26.049692,0.004904,-0.001946,0.032925,1.570848,-0.065734,-0.004958,0.001694,0.001034,-0.009338,-0.000061,0.000556,-0.008848,-0.055401,-0.017522,0.207528,0.207484,0.156395,0.368556,0.000000,0.000000,0.000000,0.000000,0.000000,0.000000,0.000000,0.000000,0.000000,0.000000,0.000000,0.000000,0.054168,3,0
1510000,0.008500,38.981422,0.021767,0.025488,26.059517,0.004276,-0.001989,0.033461,1.570850,-0.066225,-0.005010,0.001912,0.001053,-0.009524,-0.000063,0.001221,-0.008803,0.083546,-0.023003,0.207721,0.207676,0.156063,0.366764,0.000000,0.000000,0.000000,0.000000,0.000000,0.000000,0.000000,0.000000,0.000000,0.000000,0.000000,0.000000,0.081097,3,0
1520000,0.008456,39.244793,0.020806,0.025286,26.069187,0.002952,-0.002036,0.033973,1.570842,-0.066683,-0.005062,0.002282,0.001072,-0.009700,-0.000064,0.001236,-0.008758,0.078430,-0.037991,0.207917,0.207871,0.155733,0.365025,0.000000,0.000000,0.000000,0.000000,0.000000,0.000000,0.000000,0.000000,0.000000,0.000000,0.000000,0.000000,0.076173,3,0
1530000,0.008408,39.505310,0.021679,0.025022,26.073479,0.004105,-0.002086,0.034027,1.570846,-0.066647,-0.005112,0.001954,0.001092,-0.009684,-0.000064,0.000189,-0.008712,-0.006123,0.032420,0.208115,0.208067,0.155406,0.363335,0.000000,0.000000,0.000000,0.000000,0.000000,0.000000,0.000000,0.000000,0.000000,0.000000,0.000000,0.000000,0.010272,3,0
1540000,0.008360,39.763046,0.021366,0.024670,26.072624,0.003829,-0.002139,0.033635,1.570830,-0.066143,-0.005162,0.002118,0.001111,-0.009488,-0.000063,0.001286,-0.008660,-0.087772,-0.014518,0.208314,0.208264,0.155082,0.361694,0.000000,0.000000,0.000000,0.000000,0.000000,0.000000,0.000000,0.000000,0.000000,0.000000,0.000000,0.000000,0.085140,3,0
1550000,0.008313,40.020802,0.020471,0.024461,26.071856,0.002961,-0.002188,0.033255,1.570825,-0.065646,-0.005212,0.002513,0.001130,-0.009293,-0.000062,0.001455,-0.008610,-0.087078,-0.037068,0.208514,0.208464,0.154762,0.360102,0.000000,0.000000,0.000000,0.000000,0.000000,0.000000,0.000000,0.000000,0.000000,0.000000,0.000000,0.000000,0.084471,3,0
1560000,0.008262,40.281322,0.021118,0.024214,26.075970,0.003715,-0.002230,0.033288,1.570827,-0.065607,-0.005260,0.002269,0.001150,-0.009275,-0.000063,0.000112,-0.008561,-0.006882,0.023896,0.208716,0.208664,0.154444,0.358554,0.000000,0.000000,0.000000,0.000000,0.000000,0.000000,0.000000,0.000000,0.000000,0.000000,0.000000,0.000000,0.010598,3,0
1570000,0.008211,40.539051,0.020889,0.023898,26.074980,0.003489,-0.002287,0.032872,1.570820,-0.065110,-0.005308,0.002402,0.001169,-0.009073,-0.000062,0.001293,-0.008506,-0.088535,-0.011242,0.208920,0.208866,0.154131,0.357051,0.000000,0.000000,0.000000,0.000000,0.000000,0.000000,0.000000,0.000000,0.000000,0.000000,0.000000,0.000000,0.085850,3,0
1580000,0.008157,40.800941,0.020846,0.023524,26.081512,0.003245,-0.002329,0.033118,1.570828,-0.065285,-0.005355,0.002424,0.001189,-0.009146,-0.000062,0.000172,-0.008451,0.031448,-0.002697,0.209125,0.209070,0.153820,0.355591,0.000000,0.000000,0.000000,0.000000,0.000000,0.000000,0.000000,0.000000,0.000000,0.000000,0.000000,0.000000,0.031430,3,0
1590000,0.008101,41.062775,0.021100,0.023227,26.087942,0.003529,-0.002374,0.033363,1.570832,-0.065439,-0.005401,0.002326,0.001209,-0.009210,-0.000063,0.000150,-0.008394,0.027916,0.008903,0.209331,0.209274,0.153513,0.354175,0.000000,0.000000,0.000000,0.000000,0.000000,0.000000,0.000000,0.000000,0.000000,0.000000,0.000000,0.000000,0.028135,3,0
1600000,0.008047,41.323177,0.020024,0.022953,26.091539,0.002360,-0.002422,0.033357,1.570839,-0.065356,-0.005448,0.002787,0.001228,-0.009178,-0.000063,0.000360,-0.008336,-0.015312,-0.043737,0.209537,0.209480,0.153209,0.352799,0.000000,0.000000,0.000000,0.000000,0.000000,0.000000,0.000000,0.000000,0.000000,0.000000,0.000000,0.000000,0.016837,3,0
1610000,0.007991,41.583546,0.019102,0.022697,26.095163,0.001161,-0.002469,0.033355,1.570845,-0.065262,-0.005494,0.003182,0.001247,-0.009140,-0.000063,0.000285,-0.008279,-0.017326,-0.037290,0.209745,0.209686,0.152909,0.351465,0.000000,0.000000,0.000000,0.000000,0.000000,0.000000,0.000000,0.000000,0.000000,0.000000,0.000000,0.000000,0.018542,3,0
1620000,0.007933,41.841087,0.019120,0.022402,26.093401,0.001467,-0.002524,0.032868,1.570832,-0.064731,-0.005538,0.003212,0.001266,-0.008905,-0.000062,0.001582,-0.008221,-0.098820,-0.000898,0.209954,0.209893,0.152613,0.350169,0.000000,0.000000,0.000000,0.000000,0.000000,0.000000,0.000000,0.000000,0.000000,0.000000,0.000000,0.000000,0.095693,3,0
1630000,0.007873,42.101418,0.019675,0.022140,26.096758,0.002275,-0.002569,0.032841,1.570829,-0.064633,-0.005581,0.002994,0.001286,-0.008859,-0.000062,0.000137,-0.008160,-0.018398,0.020990,0.210163,0.210101,0.152321,0.348911,0.000000,0.000000,0.000000,0.000000,0.000000,0.000000,0.000000,0.000000,0.000000,0.000000,0.000000,0.000000,0.019418,3,0
1640000,0.007813,42.363811,0.019423,0.021837,26.103878,0.001991,-0.002627,0.033155,1.570831,-0.064840,-0.005624,0.003097,0.001305,-0.008954,-0.000063,0.000277,-0.008097,0.039299,-0.010457,0.210373,0.210310,0.152032,0.347689,0.000000,0.000000,0.000000,0.000000,0.000000,0.000000,0.000000,0.000000,0.000000,0.000000,0.000000,0.000000,0.038715,3,0
1650000,0.007750,42.624031,0.020350,0.021551,26.106888,0.003218,-0.002675,0.033090,1.570825,-0.064713,-0.005665,0.002724,0.001325,-0.008893,-0.000063,0.000311,-0.008034,-0.024380,0.035529,0.210584,0.210519,0.151747,0.346503,0.000000,0.000000,0.000000,0.000000,0.000000,0.000000,0.000000,0.000000,0.000000,0.000000,0.000000,0.000000,0.024758,3,0
1660000,0.007690,42.884930,0.019586,0.021288,26.111008,0.002190,-0.002719,0.033143,1.570825,-0.064680,-0.005707,0.003063,0.001344,-0.008880,-0.000063,0.000179,-0.007968,-0.006321,-0.031582,0.210794,0.210728,0.151466,0.345351,0.000000,0.000000,0.000000,0.000000,0.000000,0.000000,0.000000,0.000000,0.000000,0.000000,0.000000,0.000000,0.009820,3,0
1670000,0.007624,43.147160,0.020797,0.020921,26.117579,0.003397,-0.002773,0.033399,1.570828,-0.064838,-0.005746,0.002545,0.001364,-0.008951,-0.000064,0.000532,-0.007904,0.030918,0.047607,0.211005,0.210937,0.151189,0.344233,0.000000,0.000000,0.000000,0.000000,0.000000,0.000000,0.000000,0.000000,0.000000,0.000000,0.000000,0.000000,0.030805,3,0
1680000,0.007560,43.405144,0.020290,0.020576,26.116121,0.002788,-0.002826,0.032928,1.570822,-0.064372,-0.005786,0.002811,0.001383,-0.008727,-0.000063,0.001461,-0.007835,-0.092224,-0.022630,0.211216,0.211146,0.150915,0.343147,0.000000,0.000000,0.000000,0.000000,0.000000,0.000000,0.000000,0.000000,0.000000,0.000000,0.000000,0.000000,0.089306,3,0
1690000,0.007493,43.667313,0.020989,0.020221,26.122351,0.003380,-0.002883,0.033154,1.570822,-0.064510,-0.005824,0.002511,0.001403,-0.008792,-0.000064,0.000251,-0.007768,0.027504,0.027159,0.211426,0.211355,0.150646,0.342092,0.000000,0.000000,0.000000,0.000000,0.000000,0.000000,0.000000,0.000000,0.000000,0.000000,0.000000,0.000000,0.027580,3,0
1700000,0.007424,43.928013,0.021235,0.019822,26.125811,0.003592,-0.002931,0.033140,1.570810,-0.064431,-0.005862,0.002425,0.001422,-0.008752,-0.000064,0.000062,-0.007696,-0.016056,0.008268,0.211636,0.211563,0.150381,0.341067,0.000000,0.000000,0.000000,0.000000,0.000000,0.000000,0.000000,0.000000,0.000000,0.000000,0.000000,0.000000,0.017175,3,0
1710000,0.007356,44.187969,0.020952,0.019523,26.127958,0.003160,-0.002976,0.032997,1.570799,-0.064244,-0.005899,0.002579,0.001441,-0.008657,-0.000063,0.000273,-0.007624,-0.038242,-0.013216,0.211845,0.211771,0.150119,0.340073,0.000000,0.000000,0.000000,0.000000,0.000000,0.000000,0.000000,0.000000,0.000000,0.000000,0.000000,0.000000,0.037622,3,0
1720000,0.007287,44.445091,0.020193,0.019172,26.124815,0.002236,-0.003030,0.032353,1.570792,-0.063668,-0.005937,0.002972,0.001459,-0.008362,-0.000062,0.002477,-0.007552,-0.119312,-0.033179,0.212053,0.211977,0.149862,0.339107,0.000000,0.000000,0.000000,0.000000,0.000000,0.000000,0.000000,0.000000,0.000000,0.000000,0.000000,0.000000,0.115339,3,0
