time_us,pos_x,pos_y,pos_z,vel_x,vel_y,vel_z,roll,pitch,yaw,bias_ax,bias_ay,bias_az,bias_gx,bias_gy,bias_gz,nis,innov_x,innov_y,innov_z,cov_pos_x,cov_pos_y,cov_pos_z,cov_yaw,des_speed,des_heading,des_climb,pid_speed,pid_yaw,pid_alt,speed_meas,yaw_meas,climb_meas,fwd_accel,yaw_rate,vert_accel,drift_m,nav_mode,mission_state
0,0.000005,0.150004,-0.000002,0.000874,25.000639,-0.000424,0.000015,0.000012,1.570807,0.000000,0.000000,0.000000,0.000000,0.000000,0.000000,0.006250,-0.000009,-0.250009,0.000004,2.400038,2.400038,3.600017,1.000518,0.000000,0.000000,0.000000,0.000000,0.000000,0.000000,0.000000,0.000000,0.000000,0.000000,0.000000,0.000000,0.150004,1,0
10000,0.000017,0.365240,-0.019820,0.001810,25.001226,-0.000584,0.000014,0.000016,1.570807,0.000000,-0.000000,0.000000,0.000000,0.000000,0.000000,0.002054,-0.000023,-0.121713,-0.052833,1.714420,1.714420,2.250079,1.001073,0.000000,0.000000,0.000000,0.000000,0.000000,0.000000,0.000000,0.000000,0.000000,0.000000,0.000000,0.000000,0.086935,3,0
20000,0.000033,0.575714,-0.023094,0.002621,25.001600,-0.000796,0.000014,0.000027,1.570807,0.000002,-0.000000,0.000000,-0.000000,0.000000,0.000000,0.004121,-0.000043,-0.177925,-0.011978,1.333616,1.333616,1.636554,1.001655,0.000000,0.000000,0.000000,0.000000,0.000000,0.000000,0.000000,0.000000,0.000000,0.000000,0.000000,0.000000,0.138378,3,0
30000,0.000056,0.809329,-0.029316,0.003503,25.002234,-0.000979,0.000010,0.000030,1.570809,0.000003,-0.000000,0.000001,-0.000000,0.000000,0.000000,0.001220,-0.000068,-0.090220,-0.028986,1.091392,1.091392,1.286065,1.002257,0.000000,0.000000,0.000000,0.000000,0.000000,0.000000,0.000000,0.000000,0.000000,0.000000,0.000000,0.000000,0.073809,3,0
40000,0.000084,1.037045,-0.020889,0.004324,25.002468,-0.000944,0.000007,0.000033,1.570815,0.000008,-0.000000,-0.000001,0.000000,0.000000,0.000000,0.003275,-0.000099,-0.144930,0.047793,0.923811,0.923811,1.059385,1.002869,0.000000,0.000000,0.000000,0.000000,0.000000,0.000000,0.000000,0.000000,0.000000,0.000000,0.000000,0.000000,0.122615,3,0
50000,0.000118,1.274483,-0.014048,0.005169,25.002798,-0.000948,0.000009,0.000038,1.570817,0.000012,-0.000000,-0.000002,0.000000,0.000000,0.000000,0.001580,-0.000136,-0.094343,0.045644,0.801036,0.801036,0.900822,1.003484,0.000000,0.000000,0.000000,0.000000,0.000000,0.000000,0.000000,0.000000,0.000000,0.000000,0.000000,0.000000,0.081748,3,0
60000,0.000157,1.527589,-0.008172,0.006048,25.003864,-0.000916,0.000009,0.000044,1.570810,0.000010,-0.000000,-0.000005,0.000000,0.000000,0.000000,0.000394,-0.000178,0.026035,0.045077,0.707270,0.707270,0.783741,1.004094,0.000000,0.000000,0.000000,0.000000,0.000000,0.000000,0.000000,0.000000,0.000000,0.000000,0.000000,0.000000,0.022967,3,0
70000,0.000202,1.772551,-0.012119,0.006929,25.004353,-0.001378,0.000025,0.000046,1.570804,0.000014,-0.000000,-0.000002,0.000000,0.000000,0.000000,0.000517,-0.000226,-0.048170,-0.034040,0.633370,0.633370,0.693801,1.004688,0.000000,0.000000,0.000000,0.000000,0.000000,0.000000,0.000000,0.000000,0.000000,0.000000,0.000000,0.000000,0.043086,3,0
80000,0.000254,2.024987,-0.011898,0.007806,25.005491,-0.001629,0.000040,0.000056,1.570812,0.000011,-0.000000,-0.000003,0.000000,0.000000,0.000000,0.000094,-0.000281,0.024924,0.002288,0.573673,0.573673,0.622594,1.005260,0.000000,0.000000,0.000000,0.000000,0.000000,0.000000,0.000000,0.000000,0.000000,0.000000,0.000000,0.000000,0.022543,3,0
90000,0.000311,2.274277,-0.013211,0.008660,25.006359,-0.001972,0.000043,0.000062,1.570812,0.000013,-0.000000,-0.000001,0.000000,0.000000,0.000000,0.000040,-0.000340,-0.008855,-0.013744,0.524488,0.524488,0.564865,1.005801,0.000000,0.000000,0.000000,0.000000,0.000000,0.000000,0.000000,0.000000,0.000000,0.000000,0.000000,0.000000,0.008087,3,0
100000,0.000374,2.527574,-0.013624,0.009574,25.007618,-0.002415,0.000053,0.000072,1.570820,0.000006,-0.000000,-0.000000,0.000000,-0.000000,-0.000000,0.000249,-0.000406,0.040031,-0.004514,0.483303,0.483303,0.517162,1.006302,0.000000,0.000000,0.000000,0.000000,0.000000,0.000000,0.000000,0.000000,0.000000,0.000000,0.000000,0.000000,0.036808,3,0
110000,0.000442,2.781033,-0.009771,0.010442,25.009012,-0.002330,0.000059,0.000077,1.570827,-0.000002,-0.000000,-0.000009,0.000000,-0.000000,-0.000000,0.000680,-0.000478,0.045147,0.048800,0.448353,0.448353,0.477121,1.006755,0.000000,0.000000,0.000000,0.000000,0.000000,0.000000,0.000000,0.000000,0.000000,0.000000,0.000000,0.000000,0.041775,3,0
120000,0.000516,3.031853,-0.009960,0.011242,25.009956,-0.002661,0.000058,0.000097,1.570839,-0.000004,-0.000000,-0.000009,0.000000,-0.000000,-0.000000,0.000017,-0.000555,0.010343,-0.002207,0.418358,0.418358,0.443071,1.007151,0.000000,0.000000,0.000000,0.000000,0.000000,0.000000,0.000000,0.000000,0.000000,0.000000,0.000000,0.000000,0.009635,3,0
130000,0.000596,3.288334,-0.010437,0.012107,25.012012,-0.003154,0.000070,0.000106,1.570834,-0.000029,-0.000001,-0.000007,0.000000,-0.000001,-0.000000,0.001486,-0.000637,0.097455,-0.006465,0.392369,0.392369,0.413797,1.007483,0.000000,0.000000,0.000000,0.000000,0.000000,0.000000,0.000000,0.000000,0.000000,0.000000,0.000000,0.000000,0.091084,3,0
140000,0.000680,3.534787,-0.012857,0.012879,25.012033,-0.003758,0.000079,0.000108,1.570837,-0.000012,-0.000001,0.000004,0.000000,-0.000000,-0.000000,0.000768,-0.000725,-0.059652,-0.036866,0.369666,0.369666,0.388393,1.007741,0.000000,0.000000,0.000000,0.000000,0.000000,0.000000,0.000000,0.000000,0.000000,0.000000,0.000000,0.000000,0.055981,3,0
150000,0.000770,3.786772,-0.011230,0.013741,25.013409,-0.003682,0.000088,0.000112,1.570832,-0.000022,-0.000001,-0.000005,0.000000,-0.000001,-0.000000,0.000276,-0.000817,0.031836,0.027315,0.349695,0.349695,0.366172,1.007918,0.000000,0.000000,0.000000,0.000000,0.000000,0.000000,0.000000,0.000000,0.000000,0.000000,0.000000,0.000000,0.029990,3,0
160000,0.000865,4.043433,-0.012179,0.014575,25.016092,-0.004324,0.000099,0.000138,1.570840,-0.000067,-0.000001,0.000000,0.000000,-0.000001,-0.000000,0.002223,-0.000916,0.117778,-0.015719,0.332020,0.332020,0.346600,1.008005,0.000000,0.000000,0.000000,0.000000,0.000000,0.000000,0.000000,0.000000,0.000000,0.000000,0.000000,0.000000,0.111264,3,0
170000,0.000966,4.299903,-0.009874,0.015428,25.018908,-0.004041,0.000110,0.000161,1.570848,-0.000118,-0.000002,-0.000017,0.000000,-0.000003,-0.000000,0.002545,-0.001019,0.119516,0.042867,0.316297,0.316297,0.329260,1.007995,0.000000,0.000000,0.000000,0.000000,0.000000,0.000000,0.000000,0.000000,0.000000,0.000000,0.000000,0.000000,0.113220,3,0
180000,0.001072,4.554216,-0.009730,0.016312,25.021105,-0.004153,0.000113,0.000193,1.570849,-0.000157,-0.000002,-0.000019,0.000000,-0.000004,-0.000000,0.001058,-0.001129,0.081686,0.003540,0.302246,0.302246,0.313817,1.007879,0.000000,0.000000,0.000000,0.000000,0.000000,0.000000,0.000000,0.000000,0.000000,0.000000,0.000000,0.000000,0.077579,3,0
190000,0.001184,4.808576,-0.010114,0.017192,25.023434,-0.004478,0.000117,0.000218,1.570848,-0.000202,-0.000003,-0.000016,0.000000,-0.000005,-0.000000,0.001175,-0.001244,0.085778,-0.006801,0.289641,0.289641,0.300003,1.007650,0.000000,0.000000,0.000000,0.000000,0.000000,0.000000,0.000000,0.000000,0.000000,0.000000,0.000000,0.000000,0.081646,3,0
200000,0.001302,5.058375,-0.008250,0.018137,25.024153,-0.003821,0.000132,0.000225,1.570857,-0.000197,-0.000004,-0.000038,0.000000,-0.000005,-0.000000,0.000266,-0.001366,-0.009574,0.039822,0.278295,0.278295,0.287598,1.007300,0.000000,0.000000,0.000000,0.000000,0.000000,0.000000,0.000000,0.000000,0.000000,0.000000,0.000000,0.000000,0.009223,3,0
210000,0.001427,5.314800,-0.008285,0.019062,25.027740,-0.004204,0.000133,0.000267,1.570851,-0.000285,-0.000005,-0.000039,0.000000,-0.000007,-0.000000,0.003041,-0.001493,0.138197,0.000159,0.268053,0.268053,0.276421,1.006822,0.000000,0.000000,0.000000,0.000000,0.000000,0.000000,0.000000,0.000000,0.000000,0.000000,0.000000,0.000000,0.132031,3,0
220000,0.001556,5.565987,-0.008980,0.019957,25.029026,-0.004608,0.000146,0.000274,1.570853,-0.000300,-0.000006,-0.000028,0.000000,-0.000008,-0.000000,0.000104,-0.001627,0.020889,-0.014685,0.258786,0.258786,0.266321,1.006209,0.000000,0.000000,0.000000,0.000000,0.000000,0.000000,0.000000,0.000000,0.000000,0.000000,0.000000,0.000000,0.020049,3,0
230000,0.001691,5.817460,-0.007303,0.020823,25.030600,-0.004218,0.000149,0.000296,1.570854,-0.000321,-0.000007,-0.000059,0.000000,-0.000008,-0.000000,0.000386,-0.001765,0.028114,0.040291,0.250385,0.250385,0.257172,1.005453,0.000000,0.000000,0.000000,0.000000,0.000000,0.000000,0.000000,0.000000,0.000000,0.000000,0.000000,0.000000,0.026994,3,0
240000,0.001832,6.069997,-0.007160,0.021710,25.032648,-0.004240,0.000164,0.000315,1.570853,-0.000367,-0.000009,-0.000062,0.000000,-0.000010,-0.000000,0.000486,-0.001909,0.054931,0.004507,0.242755,0.242755,0.248866,1.004548,0.000000,0.000000,0.000000,0.000000,0.000000,0.000000,0.000000,0.000000,0.000000,0.000000,0.000000,0.000000,0.052740,3,0
250000,0.001976,6.320379,-0.009051,0.022462,25.033623,-0.005253,0.000164,0.000320,1.570847,-0.000368,-0.000011,-0.000022,0.000000,-0.000010,-0.000000,0.000339,-0.002057,0.001162,-0.045950,0.235818,0.235818,0.241314,1.003488,0.000000,0.000000,0.000000,0.000000,0.000000,0.000000,0.000000,0.000000,0.000000,0.000000,0.000000,0.000000,0.002269,3,0
260000,0.002124,6.571836,-0.007967,0.023214,25.035109,-0.004912,0.000177,0.000329,1.570853,-0.000396,-0.000013,-0.000050,0.000000,-0.000011,-0.000000,0.000272,-0.002209,0.029077,0.029156,0.229504,0.229504,0.234436,1.002267,0.000000,0.000000,0.000000,0.000000,0.000000,0.000000,0.000000,0.000000,0.000000,0.000000,0.000000,0.000000,0.028045,3,0
270000,0.002278,6.826504,-0.010031,0.024130,25.038761,-0.006294,0.000181,0.000378,1.570852,-0.000515,-0.000015,0.000004,0.000000,-0.000016,-0.000000,0.002592,-0.002366,0.115547,-0.052934,0.223753,0.223753,0.228165,1.000878,0.000000,0.000000,0.000000,0.000000,0.000000,0.000000,0.000000,0.000000,0.000000,0.000000,0.000000,0.000000,0.111261,3,0
280000,0.002436,7.078349,-0.008768,0.025023,25.040657,-0.005794,0.000178,0.000395,1.570858,-0.000559,-0.000018,-0.000035,0.000001,-0.000017,-0.000000,0.000461,-0.002529,0.039751,0.035856,0.218515,0.218515,0.222443,0.999317,0.000000,0.000000,0.000000,0.000000,0.000000,0.000000,0.000000,0.000000,0.000000,0.000000,0.000000,0.000000,0.038381,3,0
290000,0.002599,7.331122,-0.009316,0.025827,25.043276,-0.006279,0.000188,0.000421,1.570865,-0.000637,-0.000021,-0.000019,0.000001,-0.000021,-0.000000,0.000735,-0.002695,0.066193,-0.013498,0.213743,0.213743,0.217219,0.997578,0.000000,0.000000,0.000000,0.000000,0.000000,0.000000,0.000000,0.000000,0.000000,0.000000,0.000000,0.000000,0.063888,3,0
300000,0.002766,7.586846,-0.008007,0.026598,25.048252,-0.005495,0.000190,0.000499,1.570865,-0.000827,-0.000025,-0.000067,0.000001,-0.000029,-0.000000,0.003927,-0.002866,0.151334,0.038816,0.209398,0.209398,0.212447,0.995656,0.000000,0.000000,0.000000,0.000000,0.000000,0.000000,0.000000,0.000000,0.000000,0.000000,0.000000,0.000000,0.146079,3,0
310000,0.002938,7.843972,-0.009462,0.027491,25.054567,-0.006655,0.000202,0.000584,1.570868,-0.001085,-0.000029,-0.000014,0.000001,-0.000040,-0.000000,0.006305,-0.003042,0.193744,-0.040324,0.205442,0.205442,0.208087,0.993548,0.000000,0.000000,0.000000,0.000000,0.000000,0.000000,0.000000,0.000000,0.000000,0.000000,0.000000,0.000000,0.187133,3,0
320000,0.003113,8.098412,-0.008998,0.028259,25.058840,-0.006321,0.000215,0.000642,1.570864,-0.001249,-0.000033,-0.000036,0.000001,-0.000048,-0.000000,0.002188,-0.003221,0.115465,0.015608,0.201846,0.201846,0.204105,0.991249,0.000000,0.000000,0.000000,0.000000,0.000000,0.000000,0.000000,0.000000,0.000000,0.000000,0.000000,0.000000,0.111624,3,0
330000,0.003291,8.352962,-0.008160,0.028978,25.063370,-0.005637,0.000214,0.000713,1.570864,-0.001428,-0.000038,-0.000076,0.000002,-0.000056,-0.000001,0.002417,-0.003404,0.119409,0.027006,0.198581,0.198581,0.200469,0.988757,0.000000,0.000000,0.000000,0.000000,0.000000,0.000000,0.000000,0.000000,0.000000,0.000000,0.000000,0.000000,0.115503,3,0
340000,0.003473,8.605679,-0.008055,0.029781,25.066153,-0.005575,0.000211,0.000761,1.570869,-0.001528,-0.000044,-0.000084,0.000002,-0.000061,-0.000001,0.000658,-0.003590,0.063602,0.004924,0.195620,0.195620,0.197151,0.986067,0.000000,0.000000,0.000000,0.000000,0.000000,0.000000,0.000000,0.000000,0.000000,0.000000,0.000000,0.000000,0.061627,3,0
350000,0.003657,8.861135,-0.009223,0.030450,25.071758,-0.006679,0.000221,0.000849,1.570868,-0.001777,-0.000050,-0.000027,0.000002,-0.000073,-0.000001,0.003764,-0.003778,0.148799,-0.034341,0.192942,0.192942,0.194126,0.983178,0.000000,0.000000,0.000000,0.000000,0.000000,0.000000,0.000000,0.000000,0.000000,0.000000,0.000000,0.000000,0.144061,3,0
360000,0.003844,9.114155,-0.008928,0.031136,25.075037,-0.006616,0.000219,0.000907,1.570868,-0.001903,-0.000057,-0.000047,0.000002,-0.000080,-0.000001,0.000865,-0.003970,0.072197,0.011442,0.190526,0.190526,0.191370,0.980088,0.000000,0.000000,0.000000,0.000000,0.000000,0.000000,0.000000,0.000000,0.000000,0.000000,0.000000,0.000000,0.070010,3,0
370000,0.004034,9.369222,-0.007970,0.031948,25.080509,-0.005950,0.000222,0.000991,1.570875,-0.002156,-0.000065,-0.000107,0.000003,-0.000093,-0.000001,0.003214,-0.004164,0.137207,0.032639,0.188352,0.188352,0.188863,0.976795,0.000000,0.000000,0.000000,0.000000,0.000000,0.000000,0.000000,0.000000,0.000000,0.000000,0.000000,0.000000,0.132961,3,0
380000,0.004226,9.623784,-0.008457,0.032695,25.085489,-0.006762,0.000234,0.001072,1.570876,-0.002389,-0.000073,-0.000081,0.000003,-0.000106,-0.000001,0.002383,-0.004362,0.120633,-0.013616,0.186403,0.186403,0.186586,0.973299,0.000000,0.000000,0.000000,0.000000,0.000000,0.000000,0.000000,0.000000,0.000000,0.000000,0.000000,0.000000,0.116962,3,0
390000,0.004421,9.879703,-0.009576,0.033335,25.092146,-0.007942,0.000232,0.001190,1.570876,-0.002722,-0.000083,-0.000012,0.000004,-0.000125,-0.000001,0.004547,-0.004561,0.164204,-0.034130,0.184663,0.184663,0.184523,0.969598,0.000000,0.000000,0.000000,0.000000,0.000000,0.000000,0.000000,0.000000,0.000000,0.000000,0.000000,0.000000,0.159212,3,0
400000,0.004618,10.136932,-0.009462,0.034106,25.100319,-0.007801,0.000237,0.001353,1.570873,-0.003159,-0.000093,-0.000026,0.000004,-0.000151,-0.000001,0.006894,-0.004764,0.206403,0.006406,0.183119,0.183119,0.182656,0.965694,0.000000,0.000000,0.000000,0.000000,0.000000,0.000000,0.000000,0.000000,0.000000,0.000000,0.000000,0.000000,0.200157,3,0
410000,0.004818,10.393630,-0.010299,0.034875,25.108070,-0.008854,0.000234,0.001495,1.570876,-0.003573,-0.000104,0.000030,0.000005,-0.000175,-0.000002,0.005796,-0.004969,0.187637,-0.025078,0.181755,0.181755,0.180971,0.961586,0.000000,0.000000,0.000000,0.000000,0.000000,0.000000,0.000000,0.000000,0.000000,0.000000,0.000000,0.000000,0.182017,3,0
420000,0.005021,10.651015,-0.011679,0.035592,25.116682,-0.010391,0.000237,0.001674,1.570880,-0.004055,-0.000116,0.000129,0.000006,-0.000205,-0.000002,0.007377,-0.005176,0.209168,-0.043117,0.180561,0.180561,0.179456,0.957275,0.000000,0.000000,0.000000,0.000000,0.000000,0.000000,0.000000,0.000000,0.000000,0.000000,0.000000,0.000000,0.202935,3,0
430000,0.005224,10.907290,-0.010297,0.036253,25.124069,-0.008787,0.000243,0.001818,1.570890,-0.004464,-0.000129,0.000009,0.000007,-0.000230,-0.000002,0.005103,-0.005385,0.170364,0.050115,0.179524,0.179524,0.178097,0.952765,0.000000,0.000000,0.000000,0.000000,0.000000,0.000000,0.000000,0.000000,0.000000,0.000000,0.000000,0.000000,0.165350,3,0
440000,0.005429,11.161308,-0.010843,0.036936,25.128792,-0.009365,0.000245,0.001914,1.570887,-0.004696,-0.000142,0.000047,0.000007,-0.000245,-0.000002,0.001440,-0.005595,0.092925,-0.015537,0.178633,0.178633,0.176883,0.948055,0.000000,0.000000,0.000000,0.000000,0.000000,0.000000,0.000000,0.000000,0.000000,0.000000,0.000000,0.000000,0.090322,3,0
450000,0.005635,11.416670,-0.011417,0.037584,25.135191,-0.010232,0.000243,0.002038,1.570892,-0.005051,-0.000158,0.000089,0.000008,-0.000269,-0.000002,0.003086,-0.005807,0.137043,-0.016259,0.177879,0.177879,0.175803,0.943150,0.000000,0.000000,0.000000,0.000000,0.000000,0.000000,0.000000,0.000000,0.000000,0.000000,0.000000,0.000000,0.133100,3,0
460000,0.005841,11.673346,-0.012190,0.038142,25.143503,-0.011341,0.000249,0.002208,1.570904,-0.005534,-0.000174,0.000151,0.000010,-0.000301,-0.000003,0.005319,-0.006019,0.179800,-0.022880,0.177252,0.177252,0.174848,0.938052,0.000000,0.000000,0.000000,0.000000,0.000000,0.000000,0.000000,0.000000,0.000000,0.000000,0.000000,0.000000,0.174586,3,0
470000,0.006047,11.929551,-0.011226,0.038750,25.151058,-0.010202,0.000252,0.002374,1.570903,-0.005984,-0.000191,0.000047,0.000011,-0.000332,-0.000003,0.004454,-0.006231,0.161589,0.037252,0.176743,0.176743,0.174007,0.932765,0.000000,0.000000,0.000000,0.000000,0.000000,0.000000,0.000000,0.000000,0.000000,0.000000,0.000000,0.000000,0.156945,3,0
480000,0.006254,12.185301,-0.009970,0.039409,25.158051,-0.008621,0.000254,0.002523,1.570905,-0.006398,-0.000210,-0.000090,0.000012,-0.000362,-0.000003,0.003713,-0.006444,0.143855,0.047092,0.176344,0.176344,0.173272,0.927292,0.000000,0.000000,0.000000,0.000000,0.000000,0.000000,0.000000,0.000000,0.000000,0.000000,0.000000,0.000000,0.139767,3,0
490000,0.006462,12.441773,-0.009133,0.040102,25.166077,-0.007484,0.000249,0.002703,1.570916,-0.006893,-0.000229,-0.000186,0.000014,-0.000398,-0.000004,0.004651,-0.006658,0.166341,0.032145,0.176047,0.176047,0.172635,0.921640,0.000000,0.000000,0.000000,0.000000,0.000000,0.000000,0.000000,0.000000,0.000000,0.000000,0.000000,0.000000,0.161589,3,0
500000,0.006671,12.697211,-0.009685,0.040679,25.172680,-0.008494,0.000254,0.002844,1.570933,-0.007288,-0.000250,-0.000135,0.000015,-0.000427,-0.000004,0.002721,-0.006872,0.128454,-0.016488,0.175844,0.175844,0.172088,0.915812,0.000000,0.000000,0.000000,0.000000,0.000000,0.000000,0.000000,0.000000,0.000000,0.000000,0.000000,0.000000,0.124867,3,0
510000,0.006878,12.956291,-0.010443,0.041164,25.184605,-0.009613,0.000261,0.003126,1.570946,-0.008083,-0.000273,-0.000061,0.000017,-0.000487,-0.000005,0.010261,-0.007085,0.250650,-0.023398,0.175728,0.175728,0.171623,0.909813,0.000000,0.000000,0.000000,0.000000,0.000000,0.000000,0.000000,0.000000,0.000000,0.000000,0.000000,0.000000,0.243406,3,0
520000,0.007085,13.210811,-0.011391,0.041750,25.189796,-0.010936,0.000258,0.003248,1.570955,-0.008380,-0.000297,0.000037,0.000019,-0.000510,-0.000005,0.001487,-0.007299,0.090845,-0.029774,0.175693,0.175693,0.171234,0.903651,0.000000,0.000000,0.000000,0.000000,0.000000,0.000000,0.000000,0.000000,0.000000,0.000000,0.000000,0.000000,0.088469,3,0
530000,0.007291,13.467241,-0.011421,0.042287,25.197834,-0.010908,0.000251,0.003444,1.570968,-0.008900,-0.000322,0.000027,0.000021,-0.000551,-0.000005,0.003864,-0.007511,0.154337,0.002884,0.175733,0.175733,0.170915,0.897330,0.000000,0.000000,0.000000,0.000000,0.000000,0.000000,0.000000,0.000000,0.000000,0.000000,0.000000,0.000000,0.149994,3,0
540000,0.007497,13.722064,-0.012233,0.042875,25.203444,-0.012295,0.000247,0.003585,1.570973,-0.009234,-0.000349,0.000113,0.000023,-0.000578,-0.000005,0.001617,-0.007723,0.096614,-0.024555,0.175841,0.175841,0.170659,0.890857,0.000000,0.000000,0.000000,0.000000,0.000000,0.000000,0.000000,0.000000,0.000000,0.000000,0.000000,0.000000,0.094082,3,0
550000,0.007702,13.977050,-0.011330,0.043394,25.209297,-0.011217,0.000253,0.003731,1.570979,-0.009590,-0.000377,-0.000018,0.000025,-0.000607,-0.000006,0.001846,-0.007935,0.100161,0.036273,0.176011,0.176011,0.170461,0.884240,0.000000,0.000000,0.000000,0.000000,0.000000,0.000000,0.000000,0.000000,0.000000,0.000000,0.000000,0.000000,0.097527,3,0
560000,0.007906,14.233949,-0.012121,0.043928,25.218111,-0.012413,0.000251,0.003960,1.570991,-0.010187,-0.000407,0.000070,0.000028,-0.000658,-0.000006,0.004410,-0.008145,0.163179,-0.023785,0.176239,0.176239,0.170315,0.877484,0.000000,0.000000,0.000000,0.000000,0.000000,0.000000,0.000000,0.000000,0.000000,0.000000,0.000000,0.000000,0.158583,3,0
570000,0.008107,14.490402,-0.012730,0.044341,25.226234,-0.013180,0.000251,0.004166,1.571006,-0.010729,-0.000438,0.000134,0.000030,-0.000704,-0.000007,0.003447,-0.008353,0.144739,-0.017027,0.176519,0.176519,0.170215,0.870597,0.000000,0.000000,0.000000,0.000000,0.000000,0.000000,0.000000,0.000000,0.000000,0.000000,0.000000,0.000000,0.140715,3,0
580000,0.008308,14.747002,-0.012948,0.044861,25.234613,-0.013379,0.000251,0.004392,1.571019,-0.011292,-0.000471,0.000145,0.000033,-0.000754,-0.000007,0.003491,-0.008560,0.146629,-0.002941,0.176846,0.176846,0.170158,0.863587,0.000000,0.000000,0.000000,0.000000,0.000000,0.000000,0.000000,0.000000,0.000000,0.000000,0.000000,0.000000,0.142550,3,0
590000,0.008506,15.004331,-0.013469,0.045331,25.243969,-0.014281,0.000250,0.004640,1.571025,-0.011954,-0.000505,0.000198,0.000036,-0.000813,-0.000008,0.004621,-0.008765,0.168251,-0.013487,0.177216,0.177216,0.170139,0.856462,0.000000,0.000000,0.000000,0.000000,0.000000,0.000000,0.000000,0.000000,0.000000,0.000000,0.000000,0.000000,0.163503,3,0
600000,0.008703,15.260618,-0.014617,0.045775,25.251659,-0.016101,0.000247,0.004851,1.571027,-0.012476,-0.000541,0.000342,0.000039,-0.000860,-0.000008,0.002926,-0.008968,0.129497,-0.035253,0.177625,0.177625,0.170153,0.849228,0.000000,0.000000,0.000000,0.000000,0.000000,0.000000,0.000000,0.000000,0.000000,0.000000,0.000000,0.000000,0.125964,3,0
610000,0.008897,15.517643,-0.014402,0.046133,25.260504,-0.015745,0.000245,0.005094,1.571046,-0.013099,-0.000579,0.000286,0.000043,-0.000918,-0.000009,0.003751,-0.009169,0.151437,0.013402,0.178067,0.178067,0.170197,0.841894,0.000000,0.000000,0.000000,0.000000,0.000000,0.000000,0.000000,0.000000,0.000000,0.000000,0.000000,0.000000,0.147212,3,0
620000,0.009089,15.777175,-0.014905,0.046642,25.273510,-0.016515,0.000233,0.005470,1.571065,-0.014076,-0.000618,0.000336,0.000047,-0.001011,-0.000009,0.008761,-0.009368,0.232264,-0.012013,0.178540,0.178540,0.170266,0.834469,0.000000,0.000000,0.000000,0.000000,0.000000,0.000000,0.000000,0.000000,0.000000,0.000000,0.000000,0.000000,0.225535,3,0
630000,0.009279,16.036228,-0.015829,0.046993,25.285555,-0.017965,0.000227,0.005829,1.571084,-0.014983,-0.000659,0.000452,0.000050,-0.001098,-0.000010,0.007337,-0.009564,0.211149,-0.026481,0.179040,0.179039,0.170357,0.826960,0.000000,0.000000,0.000000,0.000000,0.000000,0.000000,0.000000,0.000000,0.000000,0.000000,0.000000,0.000000,0.205057,3,0
640000,0.009465,16.296585,-0.015915,0.047369,25.299572,-0.018071,0.000213,0.006248,1.571102,-0.016079,-0.000702,0.000435,0.000055,-0.001206,-0.000011,0.010135,-0.009757,0.250160,0.003478,0.179562,0.179562,0.170467,0.819375,0.000000,0.000000,0.000000,0.000000,0.000000,0.000000,0.000000,0.000000,0.000000,0.000000,0.000000,0.000000,0.242858,3,0
650000,0.009647,16.553463,-0.014744,0.047651,25.307627,-0.016245,0.000200,0.006483,1.571121,-0.016655,-0.000746,0.000216,0.000059,-0.001263,-0.000012,0.003066,-0.009947,0.128813,0.047663,0.180104,0.180104,0.170592,0.811722,0.000000,0.000000,0.000000,0.000000,0.000000,0.000000,0.000000,0.000000,0.000000,0.000000,0.000000,0.000000,0.125318,3,0
660000,0.009828,16.811075,-0.014552,0.048085,25.316841,-0.015944,0.000181,0.006756,1.571123,-0.017338,-0.000792,0.000156,0.000064,-0.001333,-0.000013,0.003687,-0.010133,0.150160,0.012621,0.180664,0.180663,0.170731,0.804010,0.000000,0.000000,0.000000,0.000000,0.000000,0.000000,0.000000,0.000000,0.000000,0.000000,0.000000,0.000000,0.145971,3,0
670000,0.010005,17.068819,-0.015132,0.048346,25.326284,-0.016839,0.000166,0.007038,1.571130,-0.018038,-0.000840,0.000225,0.000069,-0.001405,-0.000013,0.003731,-0.010317,0.150881,-0.014591,0.181236,0.181236,0.170879,0.796247,0.000000,0.000000,0.000000,0.000000,0.000000,0.000000,0.000000,0.000000,0.000000,0.000000,0.000000,0.000000,0.146664,3,0
680000,0.010179,17.326689,-0.014373,0.048742,25.335905,-0.015716,0.000144,0.007336,1.571150,-0.018752,-0.000890,0.000065,0.000074,-0.001481,-0.000014,0.003899,-0.010498,0.151468,0.032714,0.181820,0.181820,0.171035,0.788440,0.000000,0.000000,0.000000,0.000000,0.000000,0.000000,0.000000,0.000000,0.000000,0.000000,0.000000,0.000000,0.147232,3,0
690000,0.010350,17.585892,-0.013206,0.049111,25.347580,-0.013842,0.000134,0.007709,1.571171,-0.019672,-0.000941,-0.000168,0.000080,-0.001579,-0.000015,0.006308,-0.010676,0.191687,0.046577,0.182413,0.182412,0.171195,0.780598,0.000000,0.000000,0.000000,0.000000,0.000000,0.000000,0.000000,0.000000,0.000000,0.000000,0.000000,0.000000,0.186148,3,0
700000,0.010518,17.846418,-0.013541,0.049321,25.361519,-0.014352,0.000127,0.008169,1.571187,-0.020796,-0.000994,-0.000135,0.000086,-0.001702,-0.000016,0.008615,-0.010849,0.230549,-0.006647,0.183011,0.183011,0.171359,0.772728,0.000000,0.000000,0.000000,0.000000,0.000000,0.000000,0.000000,0.000000,0.000000,0.000000,0.000000,0.000000,0.223764,3,0
710000,0.010683,18.104605,-0.014042,0.049629,25.371244,-0.015156,0.000105,0.008488,1.571208,-0.021534,-0.001048,-0.000073,0.000092,-0.001784,-0.000017,0.003621,-0.011021,0.148792,-0.012338,0.183614,0.183613,0.171524,0.764839,0.000000,0.000000,0.000000,0.000000,0.000000,0.000000,0.000000,0.000000,0.000000,0.000000,0.000000,0.000000,0.144635,3,0
720000,0.010844,18.362299,-0.012987,0.049922,25.380024,-0.013552,0.000083,0.008762,1.571218,-0.022182,-0.001104,-0.000296,0.000098,-0.001858,-0.000018,0.003001,-0.011189,0.129055,0.042347,0.184218,0.184218,0.171688,0.756937,0.000000,0.000000,0.000000,0.000000,0.000000,0.000000,0.000000,0.000000,0.000000,0.000000,0.000000,0.000000,0.125563,3,0
730000,0.011003,18.619503,-0.014383,0.050134,25.387867,-0.015740,0.000057,0.009020,1.571227,-0.022743,-0.001162,-0.000063,0.000105,-0.001923,-0.000018,0.002280,-0.011352,0.109819,-0.043831,0.184823,0.184822,0.171849,0.749029,0.000000,0.000000,0.000000,0.000000,0.000000,0.000000,0.000000,0.000000,0.000000,0.000000,0.000000,0.000000,0.107003,3,0
740000,0.011157,18.879902,-0.014523,0.050378,25.401171,-0.016000,0.000037,0.009478,1.571244,-0.023832,-0.001222,-0.000070,0.000112,-0.002050,-0.000019,0.007169,-0.011513,0.210358,0.000862,0.185426,0.185425,0.172006,0.741124,0.000000,0.000000,0.000000,0.000000,0.000000,0.000000,0.000000,0.000000,0.000000,0.000000,0.000000,0.000000,0.204162,3,0
750000,0.011308,19.140390,-0.014577,0.050653,25.414543,-0.016277,0.000022,0.009951,1.571259,-0.024924,-0.001283,-0.000094,0.000119,-0.002180,-0.000021,0.007029,-0.011670,0.208250,0.004011,0.186025,0.186024,0.172157,0.733228,0.000000,0.000000,0.000000,0.000000,0.000000,0.000000,0.000000,0.000000,0.000000,0.000000,0.000000,0.000000,0.202110,3,0
760000,0.011453,19.402201,-0.013653,0.050818,25.429935,-0.015033,-0.000003,0.010507,1.571283,-0.026230,-0.001345,-0.000309,0.000127,-0.002339,-0.000022,0.010016,-0.011822,0.245813,0.038163,0.186620,0.186619,0.172302,0.725347,0.000000,0.000000,0.000000,0.000000,0.000000,0.000000,0.000000,0.000000,0.000000,0.000000,0.000000,0.000000,0.238444,3,0
770000,0.011597,19.660360,-0.014640,0.050962,25.438721,-0.016495,-0.000030,0.010803,1.571290,-0.026892,-0.001410,-0.000147,0.000135,-0.002420,-0.000023,0.002602,-0.011970,0.123001,-0.028935,0.187208,0.187207,0.172438,0.717489,0.000000,0.000000,0.000000,0.000000,0.000000,0.000000,0.000000,0.000000,0.000000,0.000000,0.000000,0.000000,0.119725,3,0
780000,0.011735,19.922359,-0.015617,0.051050,25.454248,-0.017859,-0.000045,0.011376,1.571308,-0.028212,-0.001476,0.000012,0.000143,-0.002586,-0.000024,0.009641,-0.012114,0.242451,-0.027966,0.187789,0.187788,0.172565,0.709659,0.000000,0.000000,0.000000,0.000000,0.000000,0.000000,0.000000,0.000000,0.000000,0.000000,0.000000,0.000000,0.235154,3,0
790000,0.011870,20.182547,-0.016943,0.051211,25.466351,-0.019971,-0.000066,0.011818,1.571333,-0.029199,-0.001543,0.000241,0.000151,-0.002712,-0.000026,0.005455,-0.012254,0.179087,-0.039559,0.188362,0.188361,0.172683,0.701864,0.000000,0.000000,0.000000,0.000000,0.000000,0.000000,0.000000,0.000000,0.000000,0.000000,0.000000,0.000000,0.173869,3,0
800000,0.012002,20.444065,-0.018383,0.051417,25.480585,-0.022159,-0.000090,0.012358,1.571352,-0.030407,-0.001612,0.000491,0.000160,-0.002869,-0.000027,0.007919,-0.012391,0.216961,-0.042730,0.188926,0.188925,0.172789,0.694108,0.000000,0.000000,0.000000,0.000000,0.000000,0.000000,0.000000,0.000000,0.000000,0.000000,0.000000,0.000000,0.210471,3,0
810000,0.012127,20.704388,-0.017511,0.051458,25.492559,-0.020776,-0.000123,0.012797,1.571361,-0.031386,-0.001682,0.000259,0.000169,-0.002998,-0.000028,0.005146,-0.012523,0.173967,0.038187,0.189480,0.189478,0.172885,0.686399,0.000000,0.000000,0.000000,0.000000,0.000000,0.000000,0.000000,0.000000,0.000000,0.000000,0.000000,0.000000,0.168910,3,0
820000,0.012249,20.964153,-0.018315,0.051592,25.503407,-0.021910,-0.000154,0.013199,1.571382,-0.032251,-0.001754,0.000381,0.000179,-0.003114,-0.000030,0.003826,-0.012650,0.152073,-0.020418,0.190022,0.190021,0.172968,0.678740,0.000000,0.000000,0.000000,0.000000,0.000000,0.000000,0.000000,0.000000,0.000000,0.000000,0.000000,0.000000,0.147765,3,0
830000,0.012368,21.226521,-0.018054,0.051774,25.518677,-0.021368,-0.000177,0.013802,1.571393,-0.033572,-0.001827,0.000273,0.000189,-0.003294,-0.000031,0.008620,-0.012774,0.230139,0.016950,0.190553,0.190552,0.173038,0.671138,0.000000,0.000000,0.000000,0.000000,0.000000,0.000000,0.000000,0.000000,0.000000,0.000000,0.000000,0.000000,0.223173,3,0
840000,0.012483,21.487665,-0.018873,0.051846,25.531601,-0.022369,-0.000197,0.014310,1.571418,-0.034652,-0.001902,0.000400,0.000199,-0.003443,-0.000033,0.005696,-0.012894,0.186287,-0.020755,0.191073,0.191071,0.173095,0.663596,0.000000,0.000000,0.000000,0.000000,0.000000,0.000000,0.000000,0.000000,0.000000,0.000000,0.000000,0.000000,0.180785,3,0
850000,0.012594,21.748228,-0.018108,0.051936,25.543470,-0.021126,-0.000228,0.014769,1.571435,-0.035608,-0.001978,0.000179,0.000210,-0.003577,-0.000034,0.004537,-0.013010,0.163557,0.034534,0.191579,0.191577,0.173139,0.656120,0.000000,0.000000,0.000000,0.000000,0.000000,0.000000,0.000000,0.000000,0.000000,0.000000,0.000000,0.000000,0.158837,3,0
860000,0.012701,22.007582,-0.018692,0.051983,25.553078,-0.021780,-0.000251,0.015133,1.571440,-0.036325,-0.002055,0.000258,0.000221,-0.003680,-0.000035,0.002437,-0.013121,0.121544,-0.012734,0.192073,0.192071,0.173169,0.648713,0.000000,0.000000,0.000000,0.000000,0.000000,0.000000,0.000000,0.000000,0.000000,0.000000,0.000000,0.000000,0.118336,3,0
870000,0.012803,22.270834,-0.017700,0.052082,25.569262,-0.020414,-0.000281,0.015812,1.571464,-0.037751,-0.002133,-0.000020,0.000233,-0.003886,-0.000037,0.009594,-0.013229,0.239794,0.042332,0.192554,0.192552,0.173185,0.641379,0.000000,0.000000,0.000000,0.000000,0.000000,0.000000,0.000000,0.000000,0.000000,0.000000,0.000000,0.000000,0.232452,3,0
880000,0.012903,22.532831,-0.017880,0.052178,25.583157,-0.020771,-0.000316,0.016386,1.571486,-0.038919,-0.002213,-0.000032,0.000244,-0.004058,-0.000039,0.006165,-0.013333,0.195045,0.001227,0.193022,0.193020,0.173187,0.634122,0.000000,0.000000,0.000000,0.000000,0.000000,0.000000,0.000000,0.000000,0.000000,0.000000,0.000000,0.000000,0.189211,3,0
890000,0.013001,22.794861,-0.019061,0.052263,25.596798,-0.022526,-0.000341,0.016959,1.571508,-0.040075,-0.002294,0.000185,0.000256,-0.004232,-0.000040,0.006114,-0.013434,0.191338,-0.033364,0.193476,0.193474,0.173175,0.626946,0.000000,0.000000,0.000000,0.000000,0.000000,0.000000,0.000000,0.000000,0.000000,0.000000,0.000000,0.000000,0.185623,3,0
900000,0.013094,23.056923,-0.019654,0.052216,25.610477,-0.023195,-0.000380,0.017520,1.571530,-0.041216,-0.002376,0.000264,0.000268,-0.004406,-0.000042,0.005730,-0.013531,0.187593,-0.012429,0.193917,0.193914,0.173148,0.619853,0.000000,0.000000,0.000000,0.000000,0.000000,0.000000,0.000000,0.000000,0.000000,0.000000,0.000000,0.000000,0.182002,3,0
910000,0.013182,23.316435,-0.018798,0.052229,25.619473,-0.021806,-0.000412,0.017858,1.571542,-0.041854,-0.002459,0.000005,0.000282,-0.004504,-0.000043,0.002017,-0.013624,0.104303,0.037929,0.194345,0.194341,0.173108,0.612847,0.000000,0.000000,0.000000,0.000000,0.000000,0.000000,0.000000,0.000000,0.000000,0.000000,0.000000,0.000000,0.101784,3,0
920000,0.013267,23.578588,-0.019423,0.052258,25.632853,-0.022845,-0.000438,0.018431,1.571570,-0.042979,-0.002544,0.000094,0.000295,-0.004680,-0.000045,0.005440,-0.013712,0.182646,-0.013682,0.194759,0.194755,0.173053,0.605930,0.000000,0.000000,0.000000,0.000000,0.000000,0.000000,0.000000,0.000000,0.000000,0.000000,0.000000,0.000000,0.177213,3,0
930000,0.013349,23.840763,-0.019427,0.052336,25.646132,-0.022881,-0.000480,0.018996,1.571594,-0.044087,-0.002629,0.000033,0.000308,-0.004857,-0.000046,0.005195,-0.013798,0.178783,0.008160,0.195159,0.195156,0.172984,0.599105,0.000000,0.000000,0.000000,0.000000,0.000000,0.000000,0.000000,0.000000,0.000000,0.000000,0.000000,0.000000,0.173482,3,0
940000,0.013428,24.102308,-0.019395,0.052330,25.658209,-0.022726,-0.000514,0.019516,1.571610,-0.045054,-0.002715,-0.000037,0.000323,-0.005013,-0.000048,0.003920,-0.013880,0.155024,0.009392,0.195547,0.195543,0.172901,0.592373,0.000000,0.000000,0.000000,0.000000,0.000000,0.000000,0.000000,0.000000,0.000000,0.000000,0.000000,0.000000,0.150571,3,0
950000,0.013502,24.365826,-0.018997,0.052300,25.673618,-0.022343,-0.000549,0.020208,1.571634,-0.046379,-0.002803,-0.000199,0.000337,-0.005231,-0.000050,0.007318,-0.013959,0.211418,0.022224,0.195921,0.195917,0.172805,0.585738,0.000000,0.000000,0.000000,0.000000,0.000000,0.000000,0.000000,0.000000,0.000000,0.000000,0.000000,0.000000,0.204961,3,0
960000,0.013573,24.624788,-0.019352,0.052263,25.680861,-0.022684,-0.000597,0.020467,1.571649,-0.046801,-0.002891,-0.000170,0.000352,-0.005301,-0.000051,0.000759,-0.014032,0.067019,-0.004434,0.196283,0.196279,0.172695,0.579201,0.000000,0.000000,0.000000,0.000000,0.000000,0.000000,0.000000,0.000000,0.000000,0.000000,0.000000,0.000000,0.066231,3,0
970000,0.013640,24.885757,-0.018403,0.052200,25.691462,-0.021368,-0.000633,0.020913,1.571654,-0.047599,-0.002980,-0.000469,0.000367,-0.005436,-0.000052,0.002869,-0.014104,0.126045,0.041248,0.196632,0.196628,0.172572,0.572762,0.000000,0.000000,0.000000,0.000000,0.000000,0.000000,0.000000,0.000000,0.000000,0.000000,0.000000,0.000000,0.122678,3,0
980000,0.013703,25.148714,-0.018002,0.052144,25.705469,-0.020627,-0.000667,0.021542,1.571671,-0.048763,-0.003069,-0.000633,0.000383,-0.005635,-0.000054,0.005509,-0.014170,0.183033,0.021766,0.196969,0.196964,0.172436,0.566425,0.000000,0.000000,0.000000,0.000000,0.000000,0.000000,0.000000,0.000000,0.000000,0.000000,0.000000,0.000000,0.177554,3,0
990000,0.013763,25.407091,-0.017187,0.052060,25.711143,-0.019622,-0.000702,0.021722,1.571682,-0.049013,-0.003160,-0.000895,0.000399,-0.005679,-0.000055,0.000488,-0.014232,0.039209,0.035778,0.197295,0.197290,0.172287,0.560189,0.000000,0.000000,0.000000,0.000000,0.000000,0.000000,0.000000,0.000000,0.000000,0.000000,0.000000,0.000000,0.040342,3,0
1000000,0.013819,25.670109,-0.016659,0.051966,25.724876,-0.018934,-0.000742,0.022362,1.571707,-0.050156,-0.003251,-0.001091,0.000416,-0.005881,-0.000057,0.005267,-0.014291,0.178354,0.025691,0.197609,0.197603,0.172126,0.554055,0.000000,0.000000,0.000000,0.000000,0.000000,0.000000,0.000000,0.000000,0.000000,0.000000,0.000000,0.000000,0.173034,3,0
1010000,0.013875,25.931810,-0.018058,0.051984,25.736275,-0.020919,-0.000779,0.022872,1.571724,-0.051019,-0.003344,-0.000785,0.000432,-0.006037,-0.000058,0.003205,-0.014347,0.133865,-0.041845,0.197912,0.197906,0.171953,0.548026,0.000000,0.000000,0.000000,0.000000,0.000000,0.000000,0.000000,0.000000,0.000000,0.000000,0.000000,0.000000,0.130189,3,0
1020000,0.013926,26.194174,-0.017337,0.051966,25.748526,-0.019816,-0.000819,0.023441,1.571731,-0.051990,-0.003436,-0.001037,0.000449,-0.006214,-0.000060,0.003852,-0.014403,0.150356,0.032871,0.198204,0.198197,0.171768,0.542101,0.000000,0.000000,0.000000,0.000000,0.000000,0.000000,0.000000,0.000000,0.000000,0.000000,0.000000,0.000000,0.146057,3,0
1030000,0.013976,26.455879,-0.018081,0.051935,25.759590,-0.020981,-0.000870,0.023927,1.571740,-0.052809,-0.003530,-0.000901,0.000466,-0.006366,-0.000061,0.002665,-0.014454,0.126413,-0.018687,0.198485,0.198479,0.171572,0.536281,0.000000,0.000000,0.000000,0.000000,0.000000,0.000000,0.000000,0.000000,0.000000,0.000000,0.000000,0.000000,0.123027,3,0
1040000,0.014021,26.718904,-0.017898,0.051783,25.772787,-0.020755,-0.000911,0.024544,1.571753,-0.053868,-0.003624,-0.001017,0.000484,-0.006565,-0.000063,0.004337,-0.014502,0.162785,0.014237,0.198757,0.198750,0.171364,0.530566,0.000000,0.000000,0.000000,0.000000,0.000000,0.000000,0.000000,0.000000,0.000000,0.000000,0.000000,0.000000,0.158016,3,0
1050000,0.014064,26.978617,-0.018460,0.051663,25.779945,-0.021602,-0.000956,0.024824,1.571771,-0.054250,-0.003719,-0.000926,0.000502,-0.006638,-0.000064,0.000613,-0.014546,0.058657,-0.012199,0.199020,0.199012,0.171147,0.524956,0.000000,0.000000,0.000000,0.000000,0.000000,0.000000,0.000000,0.000000,0.000000,0.000000,0.000000,0.000000,0.058427,3,0
1060000,0.014106,27.241001,-0.019653,0.051638,25.791739,-0.023089,-0.001001,0.025381,1.571792,-0.055145,-0.003814,-0.000670,0.000520,-0.006812,-0.000066,0.003236,-0.014589,0.136814,-0.033906,0.199273,0.199265,0.170919,0.519452,0.000000,0.000000,0.000000,0.000000,0.000000,0.000000,0.000000,0.000000,0.000000,0.000000,0.000000,0.000000,0.133017,3,0
1070000,0.014143,27.500727,-0.019522,0.051576,25.798826,-0.022795,-0.001053,0.025640,1.571799,-0.055493,-0.003910,-0.000773,0.000539,-0.006881,-0.000067,0.000518,-0.014630,0.053219,0.012905,0.199519,0.199510,0.170681,0.514054,0.000000,0.000000,0.000000,0.000000,0.000000,0.000000,0.000000,0.000000,0.000000,0.000000,0.000000,0.000000,0.053359,3,0
1080000,0.014178,27.759159,-0.020377,0.051408,25.803543,-0.023745,-0.001093,0.025765,1.571799,-0.055573,-0.004006,-0.000600,0.000558,-0.006897,-0.000067,0.000137,-0.014666,0.012091,-0.022018,0.199756,0.199746,0.170434,0.508761,0.000000,0.000000,0.000000,0.000000,0.000000,0.000000,0.000000,0.000000,0.000000,0.000000,0.000000,0.000000,0.018374,3,0
1090000,0.014206,28.022270,-0.019237,0.051157,25.816389,-0.022389,-0.001147,0.026371,1.571820,-0.056566,-0.004102,-0.000997,0.000578,-0.007097,-0.000069,0.004109,-0.014699,0.151190,0.049130,0.199985,0.199975,0.170178,0.503572,0.000000,0.000000,0.000000,0.000000,0.000000,0.000000,0.000000,0.000000,0.000000,0.000000,0.000000,0.000000,0.146843,3,0
1100000,0.014233,28.282703,-0.018872,0.051091,25.824295,-0.021850,-0.001203,0.026696,1.571821,-0.057006,-0.004199,-0.001168,0.000598,-0.007187,-0.000070,0.000827,-0.014726,0.066860,0.021066,0.200207,0.200197,0.169914,0.498489,0.000000,0.000000,0.000000,0.000000,0.000000,0.000000,0.000000,0.000000,0.000000,0.000000,0.000000,0.000000,0.066179,3,0
1110000,0.014259,28.541157,-0.018753,0.051001,25.828636,-0.021857,-0.001265,0.026802,1.571827,-0.057040,-0.004296,-0.001265,0.000619,-0.007194,-0.000071,0.000063,-0.014752,0.005138,0.012082,0.200423,0.200412,0.169641,0.493509,0.000000,0.000000,0.000000,0.000000,0.000000,0.000000,0.000000,0.000000,0.000000,0.000000,0.000000,0.000000,0.015100,3,0
1120000,0.014282,28.801647,-0.019230,0.050798,25.836411,-0.022669,-0.001318,0.027113,1.571838,-0.057467,-0.004393,-0.001198,0.000639,-0.007285,-0.000072,0.000722,-0.014775,0.064703,-0.008832,0.200632,0.200620,0.169361,0.488632,0.000000,0.000000,0.000000,0.000000,0.000000,0.000000,0.000000,0.000000,0.000000,0.000000,0.000000,0.000000,0.064148,3,0
1130000,0.014303,29.060820,-0.020621,0.050594,25.841963,-0.024399,-0.001368,0.027277,1.571843,-0.057619,-0.004492,-0.000864,0.000660,-0.007319,-0.000072,0.000394,-0.014796,0.022800,-0.041187,0.200835,0.200823,0.169074,0.483859,0.000000,0.000000,0.000000,0.000000,0.000000,0.000000,0.000000,0.000000,0.000000,0.000000,0.000000,0.000000,0.026269,3,0
1140000,0.014319,29.320684,-0.021130,0.050353,25.848516,-0.025187,-0.001424,0.027516,1.571854,-0.057896,-0.004590,-0.000791,0.000681,-0.007379,-0.000073,0.000331,-0.014815,0.041880,-0.009173,0.201033,0.201020,0.168779,0.479186,0.000000,0.000000,0.000000,0.000000,0.000000,0.000000,0.000000,0.000000,0.000000,0.000000,0.000000,0.000000,0.042934,3,0
1150000,0.014331,29.582565,-0.020985,0.050183,25.858652,-0.024953,-0.001472,0.027981,1.571873,-0.058558,-0.004687,-0.000918,0.000703,-0.007525,-0.000075,0.001681,-0.014830,0.100010,0.014564,0.201226,0.201212,0.168478,0.474616,0.000000,0.000000,0.000000,0.000000,0.000000,0.000000,0.000000,0.000000,0.000000,0.000000,0.000000,0.000000,0.097714,3,0
1160000,0.014339,29.845093,-0.019842,0.049921,25.869621,-0.023522,-0.001528,0.028514,1.571891,-0.059327,-0.004784,-0.001343,0.000726,-0.007696,-0.000076,0.002624,-0.014840,0.116335,0.050211,0.201414,0.201400,0.168171,0.470145,0.000000,0.000000,0.000000,0.000000,0.000000,0.000000,0.000000,0.000000,0.000000,0.000000,0.000000,0.000000,0.113345,3,0
1170000,0.014347,30.103592,-0.020528,0.049783,25.873407,-0.024533,-0.001586,0.028577,1.571896,-0.059280,-0.004883,-0.001208,0.000748,-0.007686,-0.000076,0.000085,-0.014845,-0.007151,-0.016035,0.201598,0.201583,0.167858,0.465774,0.000000,0.000000,0.000000,0.000000,0.000000,0.000000,0.000000,0.000000,0.000000,0.000000,0.000000,0.000000,0.015926,3,0
1180000,0.014353,30.362793,-0.020581,0.049633,25.878481,-0.024643,-0.001648,0.028709,1.571898,-0.059363,-0.004981,-0.001268,0.000771,-0.007705,-0.000077,0.000069,-0.014852,0.012615,0.007074,0.201778,0.201763,0.167540,0.461501,0.000000,0.000000,0.000000,0.000000,0.000000,0.000000,0.000000,0.000000,0.000000,0.000000,0.000000,0.000000,0.018832,3,0
1190000,0.014355,30.623354,-0.020634,0.049429,25.885838,-0.024842,-0.001711,0.029001,1.571909,-0.059704,-0.005079,-0.001334,0.000794,-0.007785,-0.000078,0.000472,-0.014856,0.051548,0.007272,0.201955,0.201939,0.167216,0.457325,0.000000,0.000000,0.000000,0.000000,0.000000,0.000000,0.000000,0.000000,0.000000,0.000000,0.000000,0.000000,0.051841,3,0
1200000,0.014353,30.886593,-0.020328,0.049083,25.897705,-0.024613,-0.001779,0.029609,1.571929,-0.060555,-0.005177,-0.001519,0.000817,-0.007987,-0.000080,0.002778,-0.014855,0.128855,0.020584,0.202129,0.202112,0.166888,0.453244,0.000000,0.000000,0.000000,0.000000,0.000000,0.000000,0.000000,0.000000,0.000000,0.000000,0.000000,0.000000,0.125342,3,0
1210000,0.014347,31.145765,-0.019399,0.048779,25.902311,-0.023506,-0.001853,0.029718,1.571932,-0.060585,-0.005274,-0.001884,0.000842,-0.007993,-0.000080,0.000331,-0.014850,0.004650,0.042470,0.202300,0.202282,0.166556,0.449259,0.000000,0.000000,0.000000,0.000000,0.000000,0.000000,0.000000,0.000000,0.000000,0.000000,0.000000,0.000000,0.015035,3,0
1220000,0.014337,31.409653,-0.018567,0.048410,25.915239,-0.022419,-0.001925,0.030395,1.571957,-0.061528,-0.005371,-0.002234,0.000866,-0.008222,-0.000083,0.003578,-0.014840,0.143007,0.039194,0.202469,0.202450,0.166220,0.445367,0.000000,0.000000,0.000000,0.000000,0.000000,0.000000,0.000000,0.000000,0.000000,0.000000,0.000000,0.000000,0.138929,3,0
1230000,0.014327,31.673492,-0.019456,0.048088,25.927830,-0.023744,-0.001984,0.031061,1.571964,-0.062435,-0.005469,-0.002044,0.000890,-0.008449,-0.000085,0.003164,-0.014827,0.137415,-0.023314,0.202637,0.202617,0.165880,0.441567,0.000000,0.000000,0.000000,0.000000,0.000000,0.000000,0.000000,0.000000,0.000000,0.000000,0.000000,0.000000,0.133543,3,0
1240000,0.014309,31.932562,-0.018165,0.047702,25.931871,-0.021923,-0.002052,0.031113,1.571963,-0.062386,-0.005565,-0.002527,0.000915,-0.008434,-0.000085,0.000541,-0.014813,-0.007277,0.055406,0.202802,0.202781,0.165538,0.437859,0.000000,0.000000,0.000000,0.000000,0.000000,0.000000,0.000000,0.000000,0.000000,0.000000,0.000000,0.000000,0.015940,3,0
1250000,0.014292,32.191654,-0.017857,0.047510,25.935833,-0.021658,-0.002122,0.031166,1.571964,-0.062333,-0.005662,-0.002695,0.000940,-0.008420,-0.000085,0.000105,-0.014793,-0.007957,0.019221,0.202966,0.202945,0.165192,0.434240,0.000000,0.000000,0.000000,0.000000,0.000000,0.000000,0.000000,0.000000,0.000000,0.000000,0.000000,0.000000,0.016228,3,0
1260000,0.014273,32.453457,-0.018060,0.047276,25.944525,-0.022150,-0.002186,0.031563,1.571966,-0.062798,-0.005759,-0.002710,0.000966,-0.008541,-0.000087,0.000844,-0.014773,0.070847,0.001010,0.203130,0.203107,0.164844,0.430709,0.000000,0.000000,0.000000,0.000000,0.000000,0.000000,0.000000,0.000000,0.000000,0.000000,0.000000,0.000000,0.069919,3,0
1270000,0.014255,32.711868,-0.019434,0.047027,25.947140,-0.023934,-0.002258,0.031515,1.571970,-0.062590,-0.005856,-0.002332,0.000990,-0.008487,-0.000087,0.000488,-0.014752,-0.032009,-0.042118,0.203292,0.203268,0.164493,0.427265,0.000000,0.000000,0.000000,0.000000,0.000000,0.000000,0.000000,0.000000,0.000000,0.000000,0.000000,0.000000,0.034056,3,0
1280000,0.014229,32.970970,-0.018533,0.046782,25.950947,-0.022789,-0.002329,0.031559,1.571979,-0.062509,-0.005952,-0.002704,0.001017,-0.008464,-0.000087,0.000341,-0.014731,-0.012142,0.041716,0.203454,0.203429,0.164141,0.423907,0.000000,0.000000,0.000000,0.000000,0.000000,0.000000,0.000000,0.000000,0.000000,0.000000,0.000000,0.000000,0.018439,3,0
1290000,0.014202,33.232105,-0.017602,0.046455,25.958332,-0.021608,-0.002404,0.031858,1.571996,-0.062813,-0.006047,-0.003093,0.001043,-0.008545,-0.000088,0.000684,-0.014703,0.046780,0.042780,0.203616,0.203590,0.163787,0.420633,0.000000,0.000000,0.000000,0.000000,0.000000,0.000000,0.000000,0.000000,0.000000,0.000000,0.000000,0.000000,0.047379,3,0
1300000,0.014173,33.495251,-0.017668,0.046123,25.969181,-0.021654,-0.002479,0.032413,1.572013,-0.063487,-0.006142,-0.003160,0.001070,-0.008730,-0.000090,0.001770,-0.014672,0.103634,0.006126,0.203778,0.203751,0.163431,0.417442,0.000000,0.000000,0.000000,0.000000,0.000000,0.000000,0.000000,0.000000,0.000000,0.000000,0.000000,0.000000,0.101115,3,0
1310000,0.014139,33.754963,-0.016841,0.045686,25.973812,-0.020495,-0.002561,0.032508,1.572010,-0.063483,-0.006236,-0.003509,0.001097,-0.008727,-0.000090,0.000274,-0.014639,-0.000587,0.038394,0.203941,0.203913,0.163075,0.414332,0.000000,0.000000,0.000000,0.000000,0.000000,0.000000,0.000000,0.000000,0.000000,0.000000,0.000000,0.000000,0.014150,3,0
1320000,0.014106,34.014008,-0.017348,0.045409,25.977110,-0.021315,-0.002631,0.032508,1.572013,-0.063342,-0.006331,-0.003404,0.001123,-0.008688,-0.000090,0.000131,-0.014602,-0.021801,-0.011124,0.204104,0.204075,0.162718,0.411302,0.000000,0.000000,0.000000,0.000000,0.000000,0.000000,0.000000,0.000000,0.000000,0.000000,0.000000,0.000000,0.025348,3,0
1330000,0.014068,34.272385,-0.017168,0.045025,25.979227,-0.020899,-0.002709,0.032400,1.572005,-0.063068,-0.006424,-0.003530,0.001150,-0.008609,-0.000090,0.000356,-0.014565,-0.042332,0.014288,0.204268,0.204237,0.162360,0.408350,0.000000,0.000000,0.000000,0.000000,0.000000,0.000000,0.000000,0.000000,0.000000,0.000000,0.000000,0.000000,0.043242,3,0
1340000,0.014031,34.534172,-0.018330,0.044674,25.987373,-0.022571,-0.002773,0.032757,1.572018,-0.063436,-0.006518,-0.003215,0.001177,-0.008717,-0.000091,0.000755,-0.014524,0.057091,-0.034821,0.204433,0.204401,0.162002,0.405474,0.000000,0.000000,0.000000,0.000000,0.000000,0.000000,0.000000,0.000000,0.000000,0.000000,0.000000,0.000000,0.056899,3,0
1350000,0.013989,34.794571,-0.019066,0.044221,25.993027,-0.023652,-0.002854,0.032927,1.572028,-0.063526,-0.006612,-0.003042,0.001204,-0.008744,-0.000092,0.000122,-0.014482,0.013889,-0.018708,0.204598,0.204565,0.161644,0.402675,0.000000,0.000000,0.000000,0.000000,0.000000,0.000000,0.000000,0.000000,0.000000,0.000000,0.000000,0.000000,0.019380,3,0
1360000,0.013945,35.053600,-0.019737,0.043867,25.996124,-0.024430,-0.002936,0.032901,1.572040,-0.063348,-0.006704,-0.002886,0.001231,-0.008692,-0.000092,0.000202,-0.014436,-0.027901,-0.016282,0.204765,0.204731,0.161286,0.399950,0.000000,0.000000,0.000000,0.000000,0.000000,0.000000,0.000000,0.000000,0.000000,0.000000,0.000000,0.000000,0.030345,3,0
1370000,0.013897,35.312630,-0.019539,0.043565,25.999010,-0.024273,-0.003019,0.032859,1.572040,-0.063166,-0.006796,-0.003037,0.001260,-0.008636,-0.000092,0.000208,-0.014389,-0.028530,0.016440,0.204934,0.204898,0.160928,0.397296,0.000000,0.000000,0.000000,0.000000,0.000000,0.000000,0.000000,0.000000,0.000000,0.000000,0.000000,0.000000,0.030860,3,0
1380000,0.013849,35.571674,-0.020712,0.043162,26.002008,-0.025720,-0.003086,0.032827,1.572046,-0.062983,-0.006887,-0.002703,0.001287,-0.008581,-0.000092,0.000368,-0.014337,-0.029163,-0.034890,0.205103,0.205067,0.160571,0.394714,0.000000,0.000000,0.000000,0.000000,0.000000,0.000000,0.000000,0.000000,0.000000,0.000000,0.000000,0.000000,0.031392,3,0
1390000,0.013796,35.830036,-0.020219,0.042830,26.003649,-0.024848,-0.003167,0.032670,1.572055,-0.062669,-0.006977,-0.002958,0.001316,-0.008481,-0.000091,0.000555,-0.014286,-0.049694,0.027726,0.205275,0.205237,0.160215,0.392200,0.000000,0.000000,0.000000,0.000000,0.000000,0.000000,0.000000,0.000000,0.000000,0.000000,0.000000,0.000000,0.049933,3,0
1400000,0.013741,36.093861,-0.020050,0.042517,26.015093,-0.024800,-0.003234,0.033292,1.572063,-0.063355,-0.007065,-0.003132,0.001344,-0.008698,-0.000093,0.002003,-0.014230,0.109386,0.016605,0.205448,0.205408,0.159860,0.389755,0.000000,0.000000,0.000000,0.000000,0.000000,0.000000,0.000000,0.000000,0.000000,0.000000,0.000000,0.000000,0.106534,3,0
1410000,0.013685,36.353535,-0.020260,0.042102,26.018972,-0.025045,-0.003312,0.033318,1.572057,-0.063259,-0.007154,-0.003143,0.001373,-0.008667,-0.000094,0.000071,-0.014171,-0.015404,0.001380,0.205623,0.205582,0.159506,0.387378,0.000000,0.000000,0.000000,0.000000,0.000000,0.000000,0.000000,0.000000,0.000000,0.000000,0.000000,0.000000,0.020214,3,0
1420000,0.013626,36.613197,-0.020126,0.041628,26.022654,-0.024656,-0.003383,0.033340,1.572053,-0.063155,-0.007241,-0.003278,0.001402,-0.008633,-0.000094,0.000110,-0.014110,-0.016689,0.014369,0.205799,0.205757,0.159154,0.385064,0.000000,0.000000,0.000000,0.000000,0.000000,0.000000,0.000000,0.000000,0.000000,0.000000,0.000000,0.000000,0.021102,3,0
1430000,0.013563,36.872173,-0.019987,0.041212,26.025173,-0.024364,-0.003467,0.033251,1.572050,-0.062920,-0.007328,-0.003411,0.001431,-0.008554,-0.000093,0.000295,-0.014046,-0.037842,0.014316,0.205978,0.205934,0.158803,0.382815,0.000000,0.000000,0.000000,0.000000,0.000000,0.000000,0.000000,0.000000,0.000000,0.000000,0.000000,0.000000,0.038977,3,0
1440000,0.013500,37.134571,-0.020488,0.040840,26.033697,-0.025186,-0.003535,0.033653,1.572051,-0.063296,-0.007414,-0.003331,0.001459,-0.008681,-0.000095,0.000643,-0.013980,0.060982,-0.009119,0.206159,0.206114,0.158454,0.380628,0.000000,0.000000,0.000000,0.000000,0.000000,0.000000,0.000000,0.000000,0.000000,0.000000,0.000000,0.000000,0.060411,3,0
1450000,0.013434,37.396912,-0.020496,0.040411,26.041943,-0.025233,-0.003621,0.034038,1.572064,-0.063644,-0.007499,-0.003436,0.001489,-0.008799,-0.000096,0.000568,-0.013913,0.056923,0.009830,0.206341,0.206295,0.158107,0.378501,0.000000,0.000000,0.000000,0.000000,0.000000,0.000000,0.000000,0.000000,0.000000,0.000000,0.000000,0.000000,0.056584,3,0
1460000,0.013367,37.655098,-0.020837,0.040042,26.042660,-0.025646,-0.003702,0.033792,1.572072,-0.063240,-0.007583,-0.003387,0.001518,-0.008660,-0.000096,0.000742,-0.013843,-0.066349,-0.003844,0.206526,0.206478,0.157762,0.376434,0.000000,0.000000,0.000000,0.000000,0.000000,0.000000,0.000000,0.000000,0.000000,0.000000,0.000000,0.000000,0.065447,3,0
1470000,0.013298,37.917408,-0.021437,0.039679,26.050699,-0.026508,-0.003772,0.034172,1.572089,-0.063562,-0.007667,-0.003273,0.001547,-0.008773,-0.000097,0.000511,-0.013772,0.053158,-0.012494,0.206712,0.206663,0.157419,0.374425,0.000000,0.000000,0.000000,0.000000,0.000000,0.000000,0.000000,0.000000,0.000000,0.000000,0.000000,0.000000,0.053018,3,0
1480000,0.013227,38.181034,-0.022032,0.039166,26.061081,-0.027106,-0.003852,0.034740,1.572101,-0.064098,-0.007749,-0.003171,0.001576,-0.008965,-0.000099,0.001326,-0.013699,0.088951,-0.011805,0.206900,0.206849,0.157079,0.372473,0.000000,0.000000,0.000000,0.000000,0.000000,0.000000,0.000000,0.000000,0.000000,0.000000,0.000000,0.000000,0.086893,3,0
1490000,0.013153,38.444584,-0.023046,0.038663,26.071228,-0.028324,-0.003925,0.035274,1.572115,-0.064598,-0.007831,-0.002910,0.001605,-0.009148,-0.000101,0.001280,-0.013622,0.083649,-0.027635,0.207091,0.207038,0.156741,0.370576,0.000000,0.000000,0.000000,0.000000,0.000000,0.000000,0.000000,0.000000,0.000000,0.000000,0.000000,0.000000,0.081821,3,0
1500000,0.013074,38.703926,-0.022351,0.038246,26.073534,-0.027460,-0.004017,0.035154,1.572119,-0.064355,-0.007910,-0.003275,0.001635,-0.009056,-0.000101,0.000523,-0.013544,-0.040852,0.037257,0.207283,0.207229,0.156406,0.368734,0.000000,0.000000,0.000000,0.000000,0.000000,0.000000,0.000000,0.000000,0.000000,0.000000,0.000000,0.000000,0.041543,3,0
1510000,0.012996,38.964642,-0.022641,0.037876,26.078348,-0.027947,-0.004091,0.035235,1.572132,-0.064343,-0.007990,-0.003270,0.001665,-0.009052,-0.000101,0.000030,-0.013461,-0.002033,-0.000451,0.207477,0.207421,0.156074,0.366945,0.000000,0.000000,0.000000,0.000000,0.000000,0.000000,0.000000,0.000000,0.000000,0.000000,0.000000,0.000000,0.013143,3,0
1520000,0.012913,39.223938,-0.021977,0.037438,26.080589,-0.027034,-0.004176,0.035100,1.572135,-0.064084,-0.008067,-0.003624,0.001695,-0.008951,-0.000101,0.000552,-0.013379,-0.044132,0.035967,0.207673,0.207616,0.155744,0.365208,0.000000,0.000000,0.000000,0.000000,0.000000,0.000000,0.000000,0.000000,0.000000,0.000000,0.000000,0.000000,0.044509,3,0
1530000,0.012827,39.483910,-0.020776,0.036956,26.083942,-0.025368,-0.004258,0.035047,1.572138,-0.063937,-0.008142,-0.004193,0.001726,-0.008891,-0.000101,0.000650,-0.013291,-0.025146,0.056598,0.207870,0.207812,0.155417,0.363521,0.000000,0.000000,0.000000,0.000000,0.000000,0.000000,0.000000,0.000000,0.000000,0.000000,0.000000,0.000000,0.027444,3,0
1540000,0.012740,39.745934,-0.020290,0.036413,26.090986,-0.024743,-0.004340,0.035310,1.572141,-0.064126,-0.008217,-0.004494,0.001756,-0.008962,-0.000102,0.000339,-0.013200,0.032909,0.029005,0.208070,0.208009,0.155094,0.361882,0.000000,0.000000,0.000000,0.000000,0.000000,0.000000,0.000000,0.000000,0.000000,0.000000,0.000000,0.000000,0.034235,3,0
1550000,0.012650,40.004448,-0.019394,0.035987,26.091490,-0.023643,-0.004431,0.035010,1.572138,-0.063724,-0.008291,-0.004926,0.001786,-0.008800,-0.000101,0.001129,-0.013108,-0.070152,0.043686,0.208271,0.208209,0.154773,0.360291,0.000000,0.000000,0.000000,0.000000,0.000000,0.000000,0.000000,0.000000,0.000000,0.000000,0.000000,0.000000,0.068879,3,0
1560000,0.012563,40.266434,-0.020535,0.035424,26.098274,-0.025236,-0.004516,0.035275,1.572149,-0.063890,-0.008366,-0.004576,0.001815,-0.008869,-0.000102,0.000359,-0.013013,0.029152,-0.034679,0.208473,0.208410,0.154456,0.358744,0.000000,0.000000,0.000000,0.000000,0.000000,0.000000,0.000000,0.000000,0.000000,0.000000,0.000000,0.000000,0.030807,3,0
1570000,0.012470,40.529037,-0.020285,0.034952,26.106203,-0.024928,-0.004599,0.035625,1.572162,-0.064146,-0.008438,-0.004793,0.001845,-0.008972,-0.000104,0.000424,-0.012921,0.045403,0.020125,0.208677,0.208612,0.154143,0.357245,0.000000,0.000000,0.000000,0.000000,0.000000,0.000000,0.000000,0.000000,0.000000,0.000000,0.000000,0.000000,0.045570,3,0
1580000,0.012376,40.788124,-0.020531,0.034391,26.107410,-0.025181,-0.004685,0.035404,1.572157,-0.063820,-0.008510,-0.004775,0.001875,-0.008837,-0.000103,0.000572,-0.012822,-0.058250,-0.000453,0.208882,0.208815,0.153832,0.355788,0.000000,0.000000,0.000000,0.000000,0.000000,0.000000,0.000000,0.000000,0.000000,0.000000,0.000000,0.000000,0.057571,3,0
1590000,0.012279,41.050659,-0.020786,0.033874,26.114920,-0.025502,-0.004777,0.035736,1.572155,-0.064044,-0.008580,-0.004788,0.001905,-0.008932,-0.000104,0.000290,-0.012722,0.040470,0.000443,0.209088,0.209020,0.153525,0.354373,0.000000,0.000000,0.000000,0.000000,0.000000,0.000000,0.000000,0.000000,0.000000,0.000000,0.000000,0.000000,0.040943,3,0
1600000,0.012183,41.313133,-0.021741,0.033434,26.122234,-0.026472,-0.004859,0.036049,1.572163,-0.064244,-0.008650,-0.004513,0.001934,-0.009019,-0.000105,0.000356,-0.012621,0.036285,-0.027020,0.209295,0.209225,0.153222,0.353000,0.000000,0.000000,0.000000,0.000000,0.000000,0.000000,0.000000,0.000000,0.000000,0.000000,0.000000,0.000000,0.037070,3,0
1610000,0.012080,41.575516,-0.020948,0.032903,26.129332,-0.025471,-0.004944,0.036332,1.572173,-0.064419,-0.008716,-0.004960,0.001964,-0.009091,-0.000107,0.000477,-0.012520,0.032166,0.041936,0.209504,0.209432,0.152922,0.351668,0.000000,0.000000,0.000000,0.000000,0.000000,0.000000,0.000000,0.000000,0.000000,0.000000,0.000000,0.000000,0.033322,3,0
1620000,0.011979,41.836460,-0.021578,0.032381,26.133678,-0.026368,-0.005034,0.036377,1.572182,-0.064356,-0.008784,-0.004802,0.001993,-0.009065,-0.000107,0.000082,-0.012412,-0.011623,-0.014735,0.209713,0.209640,0.152626,0.350375,0.000000,0.000000,0.000000,0.000000,0.000000,0.000000,0.000000,0.000000,0.000000,0.000000,0.000000,0.000000,0.016415,3,0
1630000,0.011876,42.093880,-0.022141,0.031836,26.131384,-0.026977,-0.005124,0.035821,1.572183,-0.063749,-0.008851,-0.004636,0.002022,-0.008795,-0.000105,0.002127,-0.012305,-0.113575,-0.013059,0.209923,0.209848,0.152334,0.349120,0.000000,0.000000,0.000000,0.000000,0.000000,0.000000,0.000000,0.000000,0.000000,0.000000,0.000000,0.000000,0.110249,3,0
1640000,0.011766,42.355461,-0.020896,0.031397,26.136684,-0.025323,-0.005209,0.035953,1.572186,-0.063785,-0.008912,-0.005273,0.002053,-0.008806,-0.000106,0.000614,-0.012198,0.006725,0.059885,0.210134,0.210057,0.152045,0.347900,0.000000,0.000000,0.000000,0.000000,0.000000,0.000000,0.000000,0.000000,0.000000,0.000000,0.000000,0.000000,0.013446,3,0
1650000,0.011659,42.614212,-0.020924,0.030889,26.136883,-0.025406,-0.005301,0.035604,1.572177,-0.063387,-0.008976,-0.005340,0.002082,-0.008621,-0.000105,0.000963,-0.012083,-0.076000,0.008086,0.210345,0.210266,0.151761,0.346718,0.000000,0.000000,0.000000,0.000000,0.000000,0.000000,0.000000,0.000000,0.000000,0.000000,0.000000,0.000000,0.074255,3,0
1660000,0.011553,42.873665,-0.022064,0.030362,26.138338,-0.026508,-0.005390,0.035376,1.572176,-0.063094,-0.009040,-0.004942,0.002111,-0.008488,-0.000104,0.000744,-0.011970,-0.056446,-0.035833,0.210556,0.210476,0.151480,0.345569,0.000000,0.000000,0.000000,0.000000,0.000000,0.000000,0.000000,0.000000,0.000000,0.000000,0.000000,0.000000,0.055689,3,0
1670000,0.011440,43.131676,-0.021709,0.029740,26.136944,-0.025775,-0.005477,0.034891,1.572180,-0.062595,-0.009100,-0.005167,0.002140,-0.008248,-0.000102,0.001631,-0.011858,-0.097244,0.023323,0.210767,0.210685,0.151203,0.344453,0.000000,0.000000,0.000000,0.000000,0.000000,0.000000,0.000000,0.000000,0.000000,0.000000,0.000000,0.000000,0.094517,3,0
1680000,0.011328,43.393188,-0.022415,0.029181,26.141998,-0.026672,-0.005569,0.035007,1.572190,-0.062609,-0.009160,-0.004976,0.002169,-0.008256,-0.000103,0.000074,-0.011740,0.002579,-0.017671,0.210979,0.210895,0.150930,0.343369,0.000000,0.000000,0.000000,0.000000,0.000000,0.000000,0.000000,0.000000,0.000000,0.000000,0.000000,0.000000,0.011597,3,0
1690000,0.011215,43.651844,-0.023128,0.028683,26.141697,-0.027288,-0.005653,0.034623,1.572183,-0.062207,-0.009220,-0.004751,0.002197,-0.008060,-0.000102,0.001110,-0.011622,-0.080070,-0.018815,0.211190,0.211105,0.150661,0.342316,0.000000,0.000000,0.000000,0.000000,0.000000,0.000000,0.000000,0.000000,0.000000,0.000000,0.000000,0.000000,0.078069,3,0
1700000,0.011096,43.911175,-0.022843,0.028062,26.142570,-0.026826,-0.005747,0.034342,1.572175,-0.061907,-0.009276,-0.004967,0.002226,-0.007909,-0.000101,0.000683,-0.011503,-0.060421,0.021483,0.211402,0.211314,0.150395,0.341292,0.000000,0.000000,0.000000,0.000000,0.000000,0.000000,0.000000,0.000000,0.000000,0.000000,0.000000,0.000000,0.059332,3,0
1710000,0.010977,44.172581,-0.022582,0.027553,26.147205,-0.026402,-0.005839,0.034408,1.572175,-0.061899,-0.009331,-0.005197,0.002255,-0.007902,-0.000101,0.000094,-0.011379,-0.001698,0.021155,0.211612,0.211523,0.150134,0.340298,0.000000,0.000000,0.000000,0.000000,0.000000,0.000000,0.000000,0.000000,0.000000,0.000000,0.000000,0.000000,0.011097,3,0
