time_us,pos_x,pos_y,pos_z,vel_x,vel_y,vel_z,roll,pitch,yaw,bias_ax,bias_ay,bias_az,bias_gx,bias_gy,bias_gz,nis,innov_x,innov_y,innov_z,cov_pos_x,cov_pos_y,cov_pos_z,cov_yaw,des_speed,des_heading,des_climb,pid_speed,pid_yaw,pid_alt,speed_meas,yaw_meas,climb_meas,fwd_accel,yaw_rate,vert_accel,drift_m,nav_mode,mission_state
0,-0.000005,0.150000,-0.000002,-0.000861,25.000038,-0.000379,-0.000007,-0.000005,1.570801,0.000000,0.000000,0.000000,0.000000,0.000000,0.000000,0.006250,0.000009,-0.250003,0.000004,2.400038,2.400038,3.600017,1.000518,0.000000,0.000000,0.000000,0.000000,0.000000,0.000000,0.000000,0.000000,0.000000,0.000000,0.000000,0.000000,0.150000,1,0
10000,-0.000015,0.342508,-0.016043,-0.001645,24.999813,-0.000804,-0.000004,-0.000012,1.570808,0.000001,0.000000,0.000000,0.000000,0.000000,0.000000,0.005010,0.000022,-0.201213,-0.042755,1.714420,1.714420,2.250079,1.001073,0.000000,0.000000,0.000000,0.000000,0.000000,0.000000,0.000000,0.000000,0.000000,0.000000,0.000000,0.000000,0.143719,3,0
20000,-0.000032,0.575693,-0.021627,-0.002543,24.999868,-0.001154,0.000004,-0.000017,1.570818,0.000001,0.000000,0.000000,0.000000,0.000000,-0.000000,0.000793,0.000041,-0.075657,-0.020434,1.333616,1.333616,1.636554,1.001655,0.000000,0.000000,0.000000,0.000000,0.000000,0.000000,0.000000,0.000000,0.000000,0.000000,0.000000,0.000000,0.058841,3,0
30000,-0.000053,0.805675,-0.026597,-0.003338,24.999704,-0.001582,0.000010,-0.000017,1.570833,0.000003,0.000000,0.000001,0.000000,0.000000,-0.000000,0.001721,0.000065,-0.110053,-0.023114,1.091392,1.091392,1.286065,1.002257,0.000000,0.000000,0.000000,0.000000,0.000000,0.000000,0.000000,0.000000,0.000000,0.000000,0.000000,0.000000,0.090034,3,0
40000,-0.000080,1.058413,-0.023303,-0.004168,24.999981,-0.001826,0.000005,-0.000005,1.570838,0.000003,0.000000,0.000000,-0.000000,0.000000,-0.000000,0.000093,0.000095,0.017787,0.018761,0.923811,0.923811,1.059385,1.002869,0.000000,0.000000,0.000000,0.000000,0.000000,0.000000,0.000000,0.000000,0.000000,0.000000,0.000000,0.000000,0.015049,3,0
50000,-0.000112,1.292971,-0.025882,-0.004944,24.999632,-0.002391,0.000007,-0.000007,1.570841,0.000008,0.000000,0.000001,-0.000000,0.000000,-0.000000,0.001974,0.000130,-0.115681,-0.017025,0.801036,0.801036,0.900822,1.003484,0.000000,0.000000,0.000000,0.000000,0.000000,0.000000,0.000000,0.000000,0.000000,0.000000,0.000000,0.000000,0.100237,3,0
60000,-0.000150,1.546207,-0.020209,-0.005790,24.999941,-0.002700,0.000007,-0.000007,1.570860,0.000006,0.000000,-0.000002,-0.000000,0.000000,-0.000000,0.000387,0.000170,0.027465,0.043659,0.707270,0.707270,0.783741,1.004094,0.000000,0.000000,0.000000,0.000000,0.000000,0.000000,0.000000,0.000000,0.000000,0.000000,0.000000,0.000000,0.024228,3,0
70000,-0.000193,1.799655,-0.016539,-0.006564,25.000370,-0.002832,0.000014,-0.000005,1.570878,0.000003,0.000000,-0.000004,-0.000000,-0.000000,0.000000,0.000310,0.000216,0.032652,0.032001,0.633370,0.633370,0.693801,1.004688,0.000000,0.000000,0.000000,0.000000,0.000000,0.000000,0.000000,0.000000,0.000000,0.000000,0.000000,0.000000,0.029206,3,0
80000,-0.000242,2.055159,-0.015229,-0.007481,25.001074,-0.002943,0.000010,-0.000007,1.570898,-0.000002,0.000000,-0.000005,-0.000000,-0.000000,0.000000,0.000523,0.000268,0.057504,0.012916,0.573673,0.573673,0.622594,1.005260,0.000000,0.000000,0.000000,0.000000,0.000000,0.000000,0.000000,0.000000,0.000000,0.000000,0.000000,0.000000,0.052006,3,0
90000,-0.000298,2.298290,-0.014792,-0.008362,25.000631,-0.003471,0.000010,-0.000014,1.570903,0.000008,0.000000,-0.000006,-0.000000,0.000000,-0.000000,0.000947,0.000326,-0.078734,0.005016,0.524488,0.524488,0.564865,1.005801,0.000000,0.000000,0.000000,0.000000,0.000000,0.000000,0.000000,0.000000,0.000000,0.000000,0.000000,0.000000,0.071852,3,0
100000,-0.000359,2.552796,-0.015272,-0.009235,25.001335,-0.003973,0.000003,-0.000007,1.570920,-0.000001,0.000000,-0.000005,-0.000000,-0.000000,0.000000,0.000482,0.000390,0.055840,-0.005115,0.483303,0.483303,0.517162,1.006302,0.000000,0.000000,0.000000,0.000000,0.000000,0.000000,0.000000,0.000000,0.000000,0.000000,0.000000,0.000000,0.051343,3,0
110000,-0.000424,2.799850,-0.013206,-0.010005,25.001190,-0.004010,-0.000003,-0.000013,1.570933,0.000006,0.000000,-0.000010,-0.000000,0.000000,-0.000000,0.000350,0.000459,-0.039643,0.026510,0.448353,0.448353,0.477121,1.006754,0.000000,0.000000,0.000000,0.000000,0.000000,0.000000,0.000000,0.000000,0.000000,0.000000,0.000000,0.000000,0.036683,3,0
120000,-0.000496,3.049279,-0.013759,-0.010895,25.001331,-0.004593,0.000004,-0.000003,1.570950,0.000008,0.000000,-0.000009,-0.000000,0.000000,-0.000000,0.000018,0.000533,-0.008390,-0.006870,0.418358,0.418358,0.443071,1.007150,0.000000,0.000000,0.000000,0.000000,0.000000,0.000000,0.000000,0.000000,0.000000,0.000000,0.000000,0.000000,0.007821,3,0
130000,-0.000574,3.301933,-0.017321,-0.011787,25.001965,-0.005458,-0.000006,-0.000003,1.570968,-0.000002,0.000001,0.000004,-0.000000,-0.000000,0.000000,0.000657,0.000614,0.040364,-0.050941,0.392369,0.392369,0.413797,1.007482,0.000000,0.000000,0.000000,0.000000,0.000000,0.000000,0.000000,0.000000,0.000000,0.000000,0.000000,0.000000,0.037729,3,0
140000,-0.000657,3.552347,-0.014828,-0.012637,25.002249,-0.005392,-0.000006,0.000001,1.570973,-0.000004,0.000001,-0.000007,-0.000000,-0.000000,0.000000,0.000249,0.000700,0.006371,0.039424,0.369666,0.369666,0.388393,1.007740,0.000000,0.000000,0.000000,0.000000,0.000000,0.000000,0.000000,0.000000,0.000000,0.000000,0.000000,0.000000,0.006015,3,0
150000,-0.000746,3.807845,-0.012998,-0.013465,25.003845,-0.005289,-0.000007,0.000017,1.570993,-0.000036,0.000001,-0.000017,-0.000000,-0.000001,0.000000,0.001533,0.000792,0.093894,0.030914,0.349695,0.349695,0.366172,1.007916,0.000000,0.000000,0.000000,0.000000,0.000000,0.000000,0.000000,0.000000,0.000000,0.000000,0.000000,0.000000,0.088425,3,0
160000,-0.000840,4.055542,-0.012256,-0.014316,25.003418,-0.005572,-0.000014,0.000011,1.571004,-0.000020,0.000001,-0.000022,-0.000000,-0.000000,0.000000,0.000313,0.000889,-0.042345,0.013841,0.332020,0.332020,0.346600,1.008003,0.000000,0.000000,0.000000,0.000000,0.000000,0.000000,0.000000,0.000000,0.000000,0.000000,0.000000,0.000000,0.040010,3,0
170000,-0.000940,4.308105,-0.015201,-0.015214,25.004414,-0.006597,-0.000009,0.000028,1.571017,-0.000040,0.000002,-0.000000,-0.000000,-0.000001,0.000000,0.000798,0.000992,0.047904,-0.052611,0.316297,0.316297,0.329260,1.007993,0.000000,0.000000,0.000000,0.000000,0.000000,0.000000,0.000000,0.000000,0.000000,0.000000,0.000000,0.000000,0.045388,3,0
180000,-0.001045,4.562861,-0.017915,-0.016070,25.006186,-0.007619,-0.000017,0.000043,1.571033,-0.000085,0.000002,0.000023,-0.000000,-0.000002,0.000000,0.001788,0.001101,0.093516,-0.050581,0.302246,0.302246,0.313817,1.007877,0.000000,0.000000,0.000000,0.000000,0.000000,0.000000,0.000000,0.000000,0.000000,0.000000,0.000000,0.000000,0.088811,3,0
190000,-0.001155,4.815698,-0.017414,-0.016849,25.007488,-0.007777,-0.000013,0.000055,1.571053,-0.000115,0.000003,0.000017,-0.000000,-0.000003,0.000000,0.000544,0.001214,0.057408,0.011623,0.289640,0.289640,0.300003,1.007647,0.000000,0.000000,0.000000,0.000000,0.000000,0.000000,0.000000,0.000000,0.000000,0.000000,0.000000,0.000000,0.054649,3,0
200000,-0.001271,5.066852,-0.019949,-0.017750,25.008080,-0.008894,-0.000023,0.000067,1.571059,-0.000128,0.000004,0.000046,-0.000000,-0.000003,0.000000,0.000502,0.001333,0.023228,-0.051220,0.278294,0.278295,0.287598,1.007297,0.000000,0.000000,0.000000,0.000000,0.000000,0.000000,0.000000,0.000000,0.000000,0.000000,0.000000,0.000000,0.022187,3,0
210000,-0.001393,5.323626,-0.021277,-0.018683,25.011189,-0.009635,-0.000030,0.000097,1.571069,-0.000224,0.000005,0.000063,-0.000000,-0.000006,0.000000,0.003686,0.001458,0.149767,-0.026838,0.268053,0.268053,0.276421,1.006819,0.000000,0.000000,0.000000,0.000000,0.000000,0.000000,0.000000,0.000000,0.000000,0.000000,0.000000,0.000000,0.143083,3,0
220000,-0.001521,5.576841,-0.019271,-0.019580,25.012913,-0.009216,-0.000037,0.000119,1.571078,-0.000275,0.000006,0.000031,-0.000000,-0.000008,0.000000,0.001183,0.001589,0.071871,0.047473,0.258786,0.258786,0.266321,1.006205,0.000000,0.000000,0.000000,0.000000,0.000000,0.000000,0.000000,0.000000,0.000000,0.000000,0.000000,0.000000,0.068788,3,0
230000,-0.001654,5.827700,-0.021058,-0.020479,25.013514,-0.010309,-0.000042,0.000126,1.571091,-0.000288,0.000007,0.000060,-0.000000,-0.000008,0.000000,0.000298,0.001726,0.017429,-0.039475,0.250384,0.250384,0.257172,1.005449,0.000000,0.000000,0.000000,0.000000,0.000000,0.000000,0.000000,0.000000,0.000000,0.000000,0.000000,0.000000,0.016783,3,0
240000,-0.001791,6.081262,-0.019089,-0.021244,25.015663,-0.009810,-0.000036,0.000142,1.571109,-0.000358,0.000009,0.000020,-0.000000,-0.000010,0.000000,0.001547,0.001867,0.084626,0.050095,0.242754,0.242754,0.248866,1.004544,0.000000,0.000000,0.000000,0.000000,0.000000,0.000000,0.000000,0.000000,0.000000,0.000000,0.000000,0.000000,0.081222,3,0
250000,-0.001933,6.335718,-0.020188,-0.021997,25.018284,-0.010767,-0.000038,0.000176,1.571125,-0.000455,0.000010,0.000041,-0.000000,-0.000014,0.000000,0.002013,0.002012,0.109349,-0.024789,0.235817,0.235817,0.241314,1.003484,0.000000,0.000000,0.000000,0.000000,0.000000,0.000000,0.000000,0.000000,0.000000,0.000000,0.000000,0.000000,0.105069,3,0
260000,-0.002078,6.589475,-0.021109,-0.022796,25.020613,-0.011444,-0.000046,0.000209,1.571140,-0.000545,0.000013,0.000061,-0.000000,-0.000017,0.000000,0.001468,0.002161,0.093414,-0.020746,0.229502,0.229503,0.234436,1.002262,0.000000,0.000000,0.000000,0.000000,0.000000,0.000000,0.000000,0.000000,0.000000,0.000000,0.000000,0.000000,0.089865,3,0
270000,-0.002228,6.844824,-0.021173,-0.023522,25.024263,-0.011661,-0.000038,0.000254,1.571156,-0.000687,0.000015,0.000060,-0.000000,-0.000022,0.000000,0.003049,0.002314,0.137815,0.001396,0.223752,0.223752,0.228165,1.000873,0.000000,0.000000,0.000000,0.000000,0.000000,0.000000,0.000000,0.000000,0.000000,0.000000,0.000000,0.000000,0.132695,3,0
280000,-0.002382,7.100922,-0.022970,-0.024324,25.028505,-0.012949,-0.000039,0.000321,1.571171,-0.000864,0.000018,0.000109,-0.000001,-0.000030,0.000000,0.004479,0.002472,0.160736,-0.045279,0.218514,0.218514,0.222443,0.999311,0.000000,0.000000,0.000000,0.000000,0.000000,0.000000,0.000000,0.000000,0.000000,0.000000,0.000000,0.000000,0.154901,3,0
290000,-0.002541,7.354184,-0.024670,-0.025224,25.030861,-0.014553,-0.000045,0.000364,1.571176,-0.000963,0.000021,0.000159,-0.000001,-0.000034,0.000000,0.001422,0.002635,0.083506,-0.043217,0.213742,0.213742,0.217219,0.997572,0.000000,0.000000,0.000000,0.000000,0.000000,0.000000,0.000000,0.000000,0.000000,0.000000,0.000000,0.000000,0.080571,3,0
300000,-0.002704,7.607590,-0.024645,-0.025959,25.033571,-0.014775,-0.000045,0.000399,1.571177,-0.001074,0.000024,0.000153,-0.000001,-0.000038,0.000000,0.001269,0.002801,0.088645,0.004916,0.209396,0.209396,0.212446,0.995650,0.000000,0.000000,0.000000,0.000000,0.000000,0.000000,0.000000,0.000000,0.000000,0.000000,0.000000,0.000000,0.085593,3,0
310000,-0.002871,7.861134,-0.026243,-0.026832,25.036388,-0.016306,-0.000048,0.000450,1.571188,-0.001199,0.000028,0.000208,-0.000001,-0.000044,0.000000,0.001692,0.002973,0.093638,-0.041696,0.205440,0.205441,0.208087,0.993541,0.000000,0.000000,0.000000,0.000000,0.000000,0.000000,0.000000,0.000000,0.000000,0.000000,0.000000,0.000000,0.090478,3,0
320000,-0.003042,8.114814,-0.025045,-0.027659,25.039473,-0.015648,-0.000056,0.000487,1.571189,-0.001339,0.000033,0.000152,-0.000001,-0.000050,0.000000,0.001823,0.003148,0.098492,0.040130,0.201844,0.201844,0.204105,0.991242,0.000000,0.000000,0.000000,0.000000,0.000000,0.000000,0.000000,0.000000,0.000000,0.000000,0.000000,0.000000,0.095227,3,0
330000,-0.003217,8.369942,-0.025737,-0.028336,25.043865,-0.016526,-0.000050,0.000553,1.571191,-0.001553,0.000038,0.000176,-0.000001,-0.000060,0.000001,0.003336,0.003327,0.142965,-0.015881,0.198578,0.198578,0.200469,0.988749,0.000000,0.000000,0.000000,0.000000,0.000000,0.000000,0.000000,0.000000,0.000000,0.000000,0.000000,0.000000,0.138272,3,0
340000,-0.003394,8.623205,-0.026646,-0.029106,25.046707,-0.017360,-0.000055,0.000607,1.571201,-0.001690,0.000043,0.000211,-0.000002,-0.000067,0.000001,0.001293,0.003509,0.086583,-0.022581,0.195617,0.195618,0.197151,0.986059,0.000000,0.000000,0.000000,0.000000,0.000000,0.000000,0.000000,0.000000,0.000000,0.000000,0.000000,0.000000,0.083829,3,0
350000,-0.003576,8.879821,-0.027717,-0.029899,25.052942,-0.018581,-0.000048,0.000706,1.571210,-0.002008,0.000050,0.000257,-0.000002,-0.000083,0.000001,0.006017,0.003695,0.191111,-0.027600,0.192939,0.192939,0.194125,0.983170,0.000000,0.000000,0.000000,0.000000,0.000000,0.000000,0.000000,0.000000,0.000000,0.000000,0.000000,0.000000,0.185000,3,0
360000,-0.003760,9.134584,-0.029127,-0.030655,25.057505,-0.020013,-0.000055,0.000775,1.571222,-0.002242,0.000056,0.000324,-0.000002,-0.000095,0.000001,0.003103,0.003884,0.133221,-0.038288,0.190522,0.190522,0.191370,0.980079,0.000000,0.000000,0.000000,0.000000,0.000000,0.000000,0.000000,0.000000,0.000000,0.000000,0.000000,0.000000,0.129045,3,0
370000,-0.003947,9.386962,-0.027471,-0.031305,25.059685,-0.018653,-0.000051,0.000821,1.571237,-0.002348,0.000064,0.000215,-0.000003,-0.000101,0.000001,0.001097,0.004075,0.057323,0.059087,0.188347,0.188348,0.188863,0.976786,0.000000,0.000000,0.000000,0.000000,0.000000,0.000000,0.000000,0.000000,0.000000,0.000000,0.000000,0.000000,0.055663,3,0
380000,-0.004136,9.641381,-0.026310,-0.032014,25.064007,-0.017536,-0.000040,0.000892,1.571250,-0.002586,0.000072,0.000132,-0.000003,-0.000114,0.000001,0.002750,0.004268,0.122987,0.043420,0.186398,0.186398,0.186586,0.973289,0.000000,0.000000,0.000000,0.000000,0.000000,0.000000,0.000000,0.000000,0.000000,0.000000,0.000000,0.000000,0.119238,3,0
390000,-0.004327,9.897766,-0.025008,-0.032784,25.070679,-0.016326,-0.000045,0.001012,1.571248,-0.002964,0.000081,0.000035,-0.000004,-0.000135,0.000001,0.006002,0.004465,0.186586,0.048147,0.184658,0.184658,0.184523,0.969588,0.000000,0.000000,0.000000,0.000000,0.000000,0.000000,0.000000,0.000000,0.000000,0.000000,0.000000,0.000000,0.180896,3,0
400000,-0.004522,10.153017,-0.025589,-0.033536,25.076126,-0.017210,-0.000049,0.001119,1.571255,-0.003278,0.000091,0.000063,-0.000004,-0.000153,0.000001,0.003611,0.004664,0.148803,-0.013571,0.183113,0.183113,0.182656,0.965683,0.000000,0.000000,0.000000,0.000000,0.000000,0.000000,0.000000,0.000000,0.000000,0.000000,0.000000,0.000000,0.144332,3,0
410000,-0.004720,10.410792,-0.027005,-0.034331,25.084812,-0.019056,-0.000047,0.001291,1.571269,-0.003790,0.000102,0.000154,-0.000005,-0.000184,0.000002,0.008933,0.004867,0.231438,-0.041075,0.181749,0.181749,0.180971,0.961574,0.000000,0.000000,0.000000,0.000000,0.000000,0.000000,0.000000,0.000000,0.000000,0.000000,0.000000,0.000000,0.224477,3,0
420000,-0.004919,10.666830,-0.026661,-0.035050,25.091385,-0.018896,-0.000043,0.001420,1.571280,-0.004187,0.000114,0.000112,-0.000006,-0.000208,0.000002,0.004859,0.005072,0.172366,0.018019,0.180554,0.180555,0.179456,0.957263,0.000000,0.000000,0.000000,0.000000,0.000000,0.000000,0.000000,0.000000,0.000000,0.000000,0.000000,0.000000,0.167251,3,0
430000,-0.005121,10.924759,-0.027685,-0.035788,25.100613,-0.020352,-0.000045,0.001616,1.571291,-0.004749,0.000127,0.000179,-0.000006,-0.000243,0.000002,0.009008,0.005279,0.234324,-0.027935,0.179516,0.179517,0.178097,0.952752,0.000000,0.000000,0.000000,0.000000,0.000000,0.000000,0.000000,0.000000,0.000000,0.000000,0.000000,0.000000,0.227371,3,0
440000,-0.005325,11.182164,-0.027322,-0.036541,25.109098,-0.020014,-0.000040,0.001795,1.571302,-0.005285,0.000141,0.000131,-0.000007,-0.000278,0.000002,0.007530,0.005489,0.214851,0.019323,0.178625,0.178626,0.176883,0.948042,0.000000,0.000000,0.000000,0.000000,0.000000,0.000000,0.000000,0.000000,0.000000,0.000000,0.000000,0.000000,0.208523,3,0
450000,-0.005531,11.437889,-0.027345,-0.037237,25.115620,-0.020096,-0.000045,0.001940,1.571312,-0.005689,0.000155,0.000115,-0.000008,-0.000304,0.000003,0.003955,0.005700,0.156148,0.006154,0.177870,0.177871,0.175803,0.943136,0.000000,0.000000,0.000000,0.000000,0.000000,0.000000,0.000000,0.000000,0.000000,0.000000,0.000000,0.000000,0.151620,3,0
460000,-0.005737,11.692567,-0.026636,-0.037797,25.120846,-0.019239,-0.000046,0.002044,1.571322,-0.006009,0.000171,0.000031,-0.000009,-0.000326,0.000003,0.002456,0.005911,0.119026,0.031308,0.177242,0.177243,0.174847,0.938037,0.000000,0.000000,0.000000,0.000000,0.000000,0.000000,0.000000,0.000000,0.000000,0.000000,0.000000,0.000000,0.115652,3,0
470000,-0.005944,11.948565,-0.025898,-0.038517,25.127869,-0.018363,-0.000052,0.002202,1.571324,-0.006461,0.000188,-0.000059,-0.000011,-0.000357,0.000003,0.004444,0.006124,0.162480,0.032179,0.176733,0.176733,0.174007,0.932750,0.000000,0.000000,0.000000,0.000000,0.000000,0.000000,0.000000,0.000000,0.000000,0.000000,0.000000,0.000000,0.157807,3,0
480000,-0.006151,12.202941,-0.026380,-0.039086,25.132683,-0.018959,-0.000038,0.002314,1.571329,-0.006764,0.000207,-0.000030,-0.000012,-0.000379,0.000003,0.001814,0.006337,0.105200,-0.010241,0.176332,0.176333,0.173272,0.927277,0.000000,0.000000,0.000000,0.000000,0.000000,0.000000,0.000000,0.000000,0.000000,0.000000,0.000000,0.000000,0.102293,3,0
490000,-0.006359,12.456894,-0.027243,-0.039744,25.136955,-0.020057,-0.000025,0.002417,1.571338,-0.007030,0.000226,0.000040,-0.000013,-0.000398,0.000004,0.001386,0.006551,0.089323,-0.023333,0.176034,0.176035,0.172634,0.921624,0.000000,0.000000,0.000000,0.000000,0.000000,0.000000,0.000000,0.000000,0.000000,0.000000,0.000000,0.000000,0.086935,3,0
500000,-0.006567,12.713928,-0.027470,-0.040332,25.145586,-0.020410,-0.000018,0.002631,1.571350,-0.007624,0.000247,0.000042,-0.000015,-0.000442,0.000004,0.006043,0.006765,0.193149,-0.000773,0.175830,0.175831,0.172087,0.915795,0.000000,0.000000,0.000000,0.000000,0.000000,0.000000,0.000000,0.000000,0.000000,0.000000,0.000000,0.000000,0.187604,3,0
510000,-0.006774,12.969338,-0.028564,-0.040813,25.151947,-0.021942,-0.000004,0.002792,1.571361,-0.008052,0.000270,0.000141,-0.000017,-0.000474,0.000004,0.003104,0.006978,0.134815,-0.030988,0.175714,0.175715,0.171623,0.909796,0.000000,0.000000,0.000000,0.000000,0.000000,0.000000,0.000000,0.000000,0.000000,0.000000,0.000000,0.000000,0.131042,3,0
520000,-0.006980,13.227226,-0.027898,-0.041336,25.162062,-0.020988,0.000010,0.003037,1.571369,-0.008762,0.000293,0.000038,-0.000018,-0.000529,0.000005,0.007804,0.007190,0.217284,0.031124,0.175678,0.175679,0.171234,0.903633,0.000000,0.000000,0.000000,0.000000,0.000000,0.000000,0.000000,0.000000,0.000000,0.000000,0.000000,0.000000,0.211038,3,0
530000,-0.007185,13.484065,-0.028864,-0.041917,25.170519,-0.022524,0.000014,0.003247,1.571364,-0.009361,0.000318,0.000128,-0.000020,-0.000576,0.000005,0.005245,0.007402,0.177961,-0.026366,0.175716,0.175718,0.170915,0.897311,0.000000,0.000000,0.000000,0.000000,0.000000,0.000000,0.000000,0.000000,0.000000,0.000000,0.000000,0.000000,0.172899,3,0
540000,-0.007391,13.738706,-0.028335,-0.042514,25.175661,-0.021738,0.000018,0.003385,1.571375,-0.009707,0.000345,0.000034,-0.000023,-0.000604,0.000005,0.001740,0.007614,0.099949,0.026621,0.175823,0.175825,0.170659,0.890838,0.000000,0.000000,0.000000,0.000000,0.000000,0.000000,0.000000,0.000000,0.000000,0.000000,0.000000,0.000000,0.097301,3,0
550000,-0.007595,13.996425,-0.029542,-0.043050,25.185455,-0.023399,0.000033,0.003649,1.571387,-0.010430,0.000373,0.000159,-0.000025,-0.000664,0.000006,0.006877,0.007825,0.203078,-0.034728,0.175993,0.175994,0.170460,0.884220,0.000000,0.000000,0.000000,0.000000,0.000000,0.000000,0.000000,0.000000,0.000000,0.000000,0.000000,0.000000,0.197268,3,0
560000,-0.007799,14.255436,-0.029481,-0.043611,25.197302,-0.023230,0.000039,0.003979,1.571386,-0.011319,0.000402,0.000120,-0.000027,-0.000738,0.000007,0.009616,0.008035,0.243443,0.010494,0.176219,0.176221,0.170314,0.877463,0.000000,0.000000,0.000000,0.000000,0.000000,0.000000,0.000000,0.000000,0.000000,0.000000,0.000000,0.000000,0.236422,3,0
570000,-0.008001,14.513387,-0.030399,-0.043996,25.207411,-0.024560,0.000053,0.004249,1.571389,-0.012080,0.000433,0.000211,-0.000030,-0.000803,0.000007,0.006769,0.008243,0.202982,-0.023995,0.176498,0.176500,0.170215,0.870576,0.000000,0.000000,0.000000,0.000000,0.000000,0.000000,0.000000,0.000000,0.000000,0.000000,0.000000,0.000000,0.197173,3,0
580000,-0.008200,14.769703,-0.030275,-0.044434,25.214832,-0.024306,0.000055,0.004466,1.571389,-0.012632,0.000466,0.000159,-0.000033,-0.000852,0.000008,0.003380,0.008449,0.143719,0.013122,0.176825,0.176827,0.170158,0.863565,0.000000,0.000000,0.000000,0.000000,0.000000,0.000000,0.000000,0.000000,0.000000,0.000000,0.000000,0.000000,0.139724,3,0
590000,-0.008397,15.028512,-0.030910,-0.044820,25.226345,-0.025326,0.000069,0.004802,1.571394,-0.013518,0.000500,0.000213,-0.000036,-0.000931,0.000008,0.008250,0.008652,0.225269,-0.013631,0.177194,0.177196,0.170138,0.856438,0.000000,0.000000,0.000000,0.000000,0.000000,0.000000,0.000000,0.000000,0.000000,0.000000,0.000000,0.000000,0.218778,3,0
600000,-0.008591,15.284494,-0.029507,-0.045313,25.233221,-0.023472,0.000079,0.004992,1.571408,-0.014023,0.000536,-0.000027,-0.000039,-0.000976,0.000009,0.003111,0.008854,0.125377,0.058619,0.177601,0.177603,0.170152,0.849204,0.000000,0.000000,0.000000,0.000000,0.000000,0.000000,0.000000,0.000000,0.000000,0.000000,0.000000,0.000000,0.121969,3,0
610000,-0.008784,15.542397,-0.030787,-0.045671,25.243227,-0.025364,0.000093,0.005278,1.571410,-0.014794,0.000574,0.000127,-0.000043,-0.001048,0.000009,0.005910,0.009053,0.187387,-0.036711,0.178042,0.178044,0.170196,0.841869,0.000000,0.000000,0.000000,0.000000,0.000000,0.000000,0.000000,0.000000,0.000000,0.000000,0.000000,0.000000,0.182039,3,0
620000,-0.008974,15.799242,-0.031416,-0.045990,25.251337,-0.026270,0.000100,0.005519,1.571422,-0.015417,0.000613,0.000182,-0.000046,-0.001107,0.000010,0.003586,0.009249,0.148054,-0.013076,0.178514,0.178516,0.170265,0.834443,0.000000,0.000000,0.000000,0.000000,0.000000,0.000000,0.000000,0.000000,0.000000,0.000000,0.000000,0.000000,0.143929,3,0
630000,-0.009160,16.059191,-0.031101,-0.046366,25.264576,-0.025797,0.000111,0.005928,1.571418,-0.016486,0.000654,0.000091,-0.000050,-0.001210,0.000011,0.010104,0.009442,0.248949,0.020523,0.179012,0.179014,0.170356,0.826932,0.000000,0.000000,0.000000,0.000000,0.000000,0.000000,0.000000,0.000000,0.000000,0.000000,0.000000,0.000000,0.241695,3,0
640000,-0.009343,16.316866,-0.029631,-0.046691,25.273932,-0.023640,0.000133,0.006221,1.571417,-0.017222,0.000696,-0.000183,-0.000055,-0.001282,0.000012,0.005168,0.009632,0.167776,0.060959,0.179533,0.179536,0.170466,0.819346,0.000000,0.000000,0.000000,0.000000,0.000000,0.000000,0.000000,0.000000,0.000000,0.000000,0.000000,0.000000,0.163024,3,0
650000,-0.009523,16.575863,-0.028472,-0.047072,25.285429,-0.022046,0.000143,0.006586,1.571423,-0.018152,0.000740,-0.000409,-0.000059,-0.001375,0.000012,0.007416,0.009819,0.208191,0.049267,0.180075,0.180077,0.170592,0.811693,0.000000,0.000000,0.000000,0.000000,0.000000,0.000000,0.000000,0.000000,0.000000,0.000000,0.000000,0.000000,0.202167,3,0
660000,-0.009702,16.835573,-0.028864,-0.047475,25.298019,-0.022532,0.000166,0.006996,1.571414,-0.019187,0.000786,-0.000383,-0.000064,-0.001480,0.000013,0.008380,0.010003,0.227383,-0.005900,0.180632,0.180635,0.170730,0.803980,0.000000,0.000000,0.000000,0.000000,0.000000,0.000000,0.000000,0.000000,0.000000,0.000000,0.000000,0.000000,0.220750,3,0
670000,-0.009878,17.094189,-0.029944,-0.047774,25.308550,-0.024178,0.000174,0.007342,1.571412,-0.020051,0.000833,-0.000241,-0.000069,-0.001569,0.000014,0.005766,0.010185,0.186214,-0.029852,0.181204,0.181207,0.170878,0.796215,0.000000,0.000000,0.000000,0.000000,0.000000,0.000000,0.000000,0.000000,0.000000,0.000000,0.000000,0.000000,0.180860,3,0
680000,-0.010049,17.355326,-0.029013,-0.048047,25.323313,-0.022645,0.000192,0.007844,1.571401,-0.021303,0.000883,-0.000443,-0.000074,-0.001701,0.000015,0.011680,0.010364,0.265436,0.041288,0.181787,0.181789,0.171033,0.788408,0.000000,0.000000,0.000000,0.000000,0.000000,0.000000,0.000000,0.000000,0.000000,0.000000,0.000000,0.000000,0.257591,3,0
690000,-0.010217,17.612928,-0.028199,-0.048378,25.332052,-0.021468,0.000216,0.008122,1.571408,-0.021990,0.000933,-0.000625,-0.000080,-0.001775,0.000016,0.003554,0.010538,0.143301,0.036628,0.182378,0.182381,0.171194,0.780564,0.000000,0.000000,0.000000,0.000000,0.000000,0.000000,0.000000,0.000000,0.000000,0.000000,0.000000,0.000000,0.139320,3,0
700000,-0.010383,17.870653,-0.028080,-0.048727,25.340834,-0.021196,0.000242,0.008411,1.571415,-0.022693,0.000986,-0.000686,-0.000085,-0.001852,0.000017,0.003393,0.010710,0.144037,0.011784,0.182975,0.182978,0.171358,0.772694,0.000000,0.000000,0.000000,0.000000,0.000000,0.000000,0.000000,0.000000,0.000000,0.000000,0.000000,0.000000,0.140030,3,0
710000,-0.010545,18.129107,-0.027906,-0.048950,25.350737,-0.020881,0.000259,0.008756,1.571420,-0.023508,0.001040,-0.000757,-0.000091,-0.001942,0.000018,0.004423,0.010878,0.164530,0.013613,0.183577,0.183580,0.171523,0.764802,0.000000,0.000000,0.000000,0.000000,0.000000,0.000000,0.000000,0.000000,0.000000,0.000000,0.000000,0.000000,0.159845,3,0
720000,-0.010703,18.388895,-0.027525,-0.049114,25.362919,-0.020563,0.000279,0.009174,1.571414,-0.024535,0.001096,-0.000867,-0.000098,-0.002059,0.000019,0.006824,0.011042,0.204159,0.020845,0.184180,0.184183,0.171686,0.756899,0.000000,0.000000,0.000000,0.000000,0.000000,0.000000,0.000000,0.000000,0.000000,0.000000,0.000000,0.000000,0.198180,3,0
730000,-0.010857,18.646942,-0.026366,-0.049429,25.371922,-0.019026,0.000308,0.009481,1.571418,-0.025264,0.001153,-0.001123,-0.000105,-0.002142,0.000019,0.003696,0.011203,0.143038,0.047871,0.184783,0.184786,0.171847,0.748990,0.000000,0.000000,0.000000,0.000000,0.000000,0.000000,0.000000,0.000000,0.000000,0.000000,0.000000,0.000000,0.139058,3,0
740000,-0.011009,18.908176,-0.025369,-0.049697,25.386398,-0.017690,0.000322,0.010010,1.571415,-0.026520,0.001212,-0.001350,-0.000112,-0.002289,0.000021,0.009817,0.011360,0.242720,0.041635,0.185384,0.185388,0.172004,0.741084,0.000000,0.000000,0.000000,0.000000,0.000000,0.000000,0.000000,0.000000,0.000000,0.000000,0.000000,0.000000,0.235477,3,0
750000,-0.011159,19.169489,-0.026755,-0.049994,25.400812,-0.020083,0.000345,0.010531,1.571416,-0.027778,0.001273,-0.001121,-0.000119,-0.002439,0.000022,0.009589,0.011515,0.239765,-0.041862,0.185983,0.185986,0.172156,0.733186,0.000000,0.000000,0.000000,0.000000,0.000000,0.000000,0.000000,0.000000,0.000000,0.000000,0.000000,0.000000,0.232600,3,0
760000,-0.011303,19.427782,-0.026007,-0.050196,25.409742,-0.019200,0.000371,0.010843,1.571416,-0.028508,0.001335,-0.001308,-0.000127,-0.002528,0.000023,0.003247,0.011667,0.137342,0.033251,0.186576,0.186579,0.172300,0.725304,0.000000,0.000000,0.000000,0.000000,0.000000,0.000000,0.000000,0.000000,0.000000,0.000000,0.000000,0.000000,0.133551,3,0
770000,-0.011445,19.688660,-0.025875,-0.050435,25.423044,-0.019271,0.000394,0.011337,1.571421,-0.029675,0.001399,-0.001375,-0.000134,-0.002671,0.000024,0.007641,0.011814,0.216902,0.011527,0.187163,0.187167,0.172436,0.717444,0.000000,0.000000,0.000000,0.000000,0.000000,0.000000,0.000000,0.000000,0.000000,0.000000,0.000000,0.000000,0.210448,3,0
780000,-0.011585,19.950235,-0.027198,-0.050661,25.437521,-0.021505,0.000430,0.011884,1.571408,-0.030951,0.001465,-0.001153,-0.000142,-0.002831,0.000026,0.009125,0.011958,0.234192,-0.039048,0.187743,0.187747,0.172564,0.709613,0.000000,0.000000,0.000000,0.000000,0.000000,0.000000,0.000000,0.000000,0.000000,0.000000,0.000000,0.000000,0.227159,3,0
790000,-0.011720,20.212500,-0.027684,-0.050739,25.453037,-0.022357,0.000451,0.012486,1.571410,-0.032332,0.001532,-0.001101,-0.000151,-0.003007,0.000027,0.010190,0.012099,0.250776,-0.009171,0.188315,0.188318,0.172681,0.701816,0.000000,0.000000,0.000000,0.000000,0.000000,0.000000,0.000000,0.000000,0.000000,0.000000,0.000000,0.000000,0.243187,3,0
800000,-0.011850,20.470436,-0.028064,-0.050878,25.460766,-0.022957,0.000470,0.012759,1.571412,-0.032932,0.001601,-0.001071,-0.000160,-0.003085,0.000028,0.001899,0.012235,0.107630,-0.005254,0.188877,0.188880,0.172788,0.694059,0.000000,0.000000,0.000000,0.000000,0.000000,0.000000,0.000000,0.000000,0.000000,0.000000,0.000000,0.000000,0.104914,3,0
810000,-0.011977,20.732866,-0.029211,-0.050990,25.476210,-0.024887,0.000506,0.013375,1.571410,-0.034323,0.001671,-0.000884,-0.000169,-0.003268,0.000030,0.010048,0.012367,0.247194,-0.031558,0.189429,0.189432,0.172883,0.686348,0.000000,0.000000,0.000000,0.000000,0.000000,0.000000,0.000000,0.000000,0.000000,0.000000,0.000000,0.000000,0.239689,3,0
820000,-0.012100,20.994713,-0.029411,-0.051146,25.490522,-0.025277,0.000539,0.013938,1.571408,-0.035593,0.001742,-0.000899,-0.000178,-0.003438,0.000031,0.008063,0.012495,0.223156,0.001936,0.189970,0.189974,0.172966,0.678688,0.000000,0.000000,0.000000,0.000000,0.000000,0.000000,0.000000,0.000000,0.000000,0.000000,0.000000,0.000000,0.216430,3,0
830000,-0.012218,21.253454,-0.028251,-0.051291,25.499098,-0.023402,0.000571,0.014269,1.571419,-0.036282,0.001815,-0.001203,-0.000188,-0.003531,0.000032,0.002748,0.012620,0.120197,0.049117,0.190500,0.190503,0.173036,0.671084,0.000000,0.000000,0.000000,0.000000,0.000000,0.000000,0.000000,0.000000,0.000000,0.000000,0.000000,0.000000,0.117020,3,0
840000,-0.012333,21.516077,-0.028931,-0.051335,25.514351,-0.024369,0.000596,0.014897,1.571420,-0.037668,0.001889,-0.001111,-0.000199,-0.003723,0.000034,0.009286,0.012738,0.239069,-0.015242,0.191018,0.191021,0.173093,0.663540,0.000000,0.000000,0.000000,0.000000,0.000000,0.000000,0.000000,0.000000,0.000000,0.000000,0.000000,0.000000,0.231785,3,0
850000,-0.012444,21.775562,-0.029377,-0.051362,25.524029,-0.024964,0.000621,0.015277,1.571427,-0.038460,0.001965,-0.001069,-0.000209,-0.003834,0.000035,0.002989,0.012854,0.135323,-0.006847,0.191523,0.191527,0.173137,0.656062,0.000000,0.000000,0.000000,0.000000,0.000000,0.000000,0.000000,0.000000,0.000000,0.000000,0.000000,0.000000,0.131592,3,0
860000,-0.012551,22.033846,-0.030274,-0.051421,25.531500,-0.026372,0.000661,0.015552,1.571432,-0.039017,0.002042,-0.000928,-0.000220,-0.003913,0.000036,0.001545,0.012965,0.094410,-0.022259,0.192016,0.192019,0.173167,0.648653,0.000000,0.000000,0.000000,0.000000,0.000000,0.000000,0.000000,0.000000,0.000000,0.000000,0.000000,0.000000,0.092246,3,0
870000,-0.012653,22.294127,-0.030817,-0.051383,25.542410,-0.027110,0.000690,0.015991,1.571424,-0.039934,0.002120,-0.000869,-0.000231,-0.004046,0.000037,0.003874,0.013072,0.154114,-0.009483,0.192495,0.192499,0.173183,0.641317,0.000000,0.000000,0.000000,0.000000,0.000000,0.000000,0.000000,0.000000,0.000000,0.000000,0.000000,0.000000,0.149706,3,0
880000,-0.012751,22.555107,-0.032008,-0.051344,25.554398,-0.028840,0.000721,0.016484,1.571423,-0.040965,0.002199,-0.000665,-0.000242,-0.004198,0.000038,0.004963,0.013174,0.172028,-0.031625,0.192961,0.192965,0.173185,0.634058,0.000000,0.000000,0.000000,0.000000,0.000000,0.000000,0.000000,0.000000,0.000000,0.000000,0.000000,0.000000,0.166982,3,0
890000,-0.012845,22.813570,-0.032711,-0.051407,25.561646,-0.029817,0.000766,0.016776,1.571428,-0.041508,0.002280,-0.000573,-0.000254,-0.004279,0.000039,0.001363,0.013272,0.089838,-0.014200,0.193414,0.193418,0.173172,0.626879,0.000000,0.000000,0.000000,0.000000,0.000000,0.000000,0.000000,0.000000,0.000000,0.000000,0.000000,0.000000,0.087885,3,0
900000,-0.012933,23.072105,-0.031316,-0.051451,25.568981,-0.027587,0.000815,0.017070,1.571439,-0.042053,0.002361,-0.000968,-0.000267,-0.004362,0.000040,0.001887,0.013367,0.089729,0.058805,0.193854,0.193857,0.173146,0.619784,0.000000,0.000000,0.000000,0.000000,0.000000,0.000000,0.000000,0.000000,0.000000,0.000000,0.000000,0.000000,0.087790,3,0
910000,-0.013018,23.333292,-0.030165,-0.051405,25.580872,-0.026075,0.000848,0.017595,1.571437,-0.043087,0.002444,-0.001307,-0.000280,-0.004521,0.000041,0.005039,0.013455,0.169062,0.049752,0.194280,0.194283,0.173105,0.612776,0.000000,0.000000,0.000000,0.000000,0.000000,0.000000,0.000000,0.000000,0.000000,0.000000,0.000000,0.000000,0.164105,3,0
920000,-0.013101,23.591936,-0.029997,-0.051476,25.588247,-0.025916,0.000895,0.017878,1.571445,-0.043621,0.002527,-0.001412,-0.000294,-0.004605,0.000042,0.001278,0.013540,0.086664,0.015079,0.194693,0.194696,0.173050,0.605856,0.000000,0.000000,0.000000,0.000000,0.000000,0.000000,0.000000,0.000000,0.000000,0.000000,0.000000,0.000000,0.084870,3,0
930000,-0.013181,23.851942,-0.030474,-0.051534,25.597769,-0.026730,0.000940,0.018291,1.571453,-0.044403,0.002612,-0.001364,-0.000307,-0.004729,0.000043,0.002604,0.013624,0.126133,-0.007318,0.195092,0.195095,0.172981,0.599029,0.000000,0.000000,0.000000,0.000000,0.000000,0.000000,0.000000,0.000000,0.000000,0.000000,0.000000,0.000000,0.122742,3,0
940000,-0.013258,24.114590,-0.031412,-0.051545,25.611837,-0.028050,0.000978,0.018929,1.571440,-0.045675,0.002698,-0.001208,-0.000321,-0.004935,0.000045,0.006824,0.013704,0.203970,-0.022984,0.195478,0.195481,0.172898,0.592294,0.000000,0.000000,0.000000,0.000000,0.000000,0.000000,0.000000,0.000000,0.000000,0.000000,0.000000,0.000000,0.197770,3,0
950000,-0.013332,24.375303,-0.032256,-0.051483,25.622356,-0.029426,0.001016,0.019403,1.571434,-0.046553,0.002785,-0.001076,-0.000335,-0.005079,0.000047,0.003249,0.013781,0.139971,-0.019261,0.195851,0.195855,0.172802,0.585656,0.000000,0.000000,0.000000,0.000000,0.000000,0.000000,0.000000,0.000000,0.000000,0.000000,0.000000,0.000000,0.136056,3,0
960000,-0.013399,24.636700,-0.031305,-0.051373,25.633909,-0.028165,0.001062,0.019934,1.571437,-0.047545,0.002872,-0.001389,-0.000350,-0.005244,0.000048,0.004335,0.013854,0.157457,0.043552,0.196212,0.196215,0.172692,0.579115,0.000000,0.000000,0.000000,0.000000,0.000000,0.000000,0.000000,0.000000,0.000000,0.000000,0.000000,0.000000,0.152898,3,0
970000,-0.013465,24.899424,-0.031917,-0.051410,25.647709,-0.029128,0.001109,0.020580,1.571439,-0.048775,0.002961,-0.001314,-0.000365,-0.005452,0.000050,0.006126,0.013921,0.194128,-0.011130,0.196560,0.196563,0.172568,0.572674,0.000000,0.000000,0.000000,0.000000,0.000000,0.000000,0.000000,0.000000,0.000000,0.000000,0.000000,0.000000,0.188251,3,0
980000,-0.013527,25.157585,-0.031067,-0.051425,25.653286,-0.027958,0.001162,0.020787,1.571455,-0.049096,0.003050,-0.001605,-0.000380,-0.005507,0.000051,0.000701,0.013988,0.050539,0.039895,0.196896,0.196899,0.172432,0.566333,0.000000,0.000000,0.000000,0.000000,0.000000,0.000000,0.000000,0.000000,0.000000,0.000000,0.000000,0.000000,0.050719,3,0
990000,-0.013587,25.417122,-0.032114,-0.051262,25.661333,-0.029640,0.001203,0.021125,1.571468,-0.049674,0.003140,-0.001414,-0.000396,-0.005608,0.000052,0.001465,0.014048,0.090504,-0.026456,0.197220,0.197223,0.172283,0.560094,0.000000,0.000000,0.000000,0.000000,0.000000,0.000000,0.000000,0.000000,0.000000,0.000000,0.000000,0.000000,0.088577,3,0
1000000,-0.013640,25.679319,-0.030666,-0.051098,25.673895,-0.027763,0.001251,0.021718,1.571468,-0.050756,0.003231,-0.001869,-0.000412,-0.005799,0.000053,0.005232,0.014106,0.168827,0.061172,0.197532,0.197535,0.172122,0.553958,0.000000,0.000000,0.000000,0.000000,0.000000,0.000000,0.000000,0.000000,0.000000,0.000000,0.000000,0.000000,0.163840,3,0
1010000,-0.013691,25.937593,-0.031212,-0.050940,25.679476,-0.028404,0.001304,0.021921,1.571482,-0.051051,0.003322,-0.001802,-0.000429,-0.005852,0.000054,0.000382,0.014157,0.045654,-0.009213,0.197833,0.197836,0.171949,0.547925,0.000000,0.000000,0.000000,0.000000,0.000000,0.000000,0.000000,0.000000,0.000000,0.000000,0.000000,0.000000,0.046223,3,0
1020000,-0.013738,26.200523,-0.032103,-0.050767,25.692995,-0.029654,0.001345,0.022582,1.571479,-0.052246,0.003415,-0.001652,-0.000445,-0.006070,0.000056,0.005613,0.014207,0.184904,-0.020860,0.198124,0.198127,0.171764,0.541996,0.000000,0.000000,0.000000,0.000000,0.000000,0.000000,0.000000,0.000000,0.000000,0.000000,0.000000,0.000000,0.179324,3,0
1030000,-0.013782,26.460157,-0.032424,-0.050644,25.700722,-0.030051,0.001397,0.022910,1.571475,-0.052771,0.003507,-0.001650,-0.000462,-0.006167,0.000057,0.001087,0.014253,0.080870,-0.000669,0.198405,0.198407,0.171567,0.536173,0.000000,0.000000,0.000000,0.000000,0.000000,0.000000,0.000000,0.000000,0.000000,0.000000,0.000000,0.000000,0.079401,3,0
1040000,-0.013819,26.720488,-0.031319,-0.050412,25.709558,-0.028453,0.001447,0.023307,1.571479,-0.053416,0.003600,-0.002030,-0.000480,-0.006288,0.000058,0.002023,0.014294,0.099463,0.049474,0.198675,0.198678,0.171360,0.530454,0.000000,0.000000,0.000000,0.000000,0.000000,0.000000,0.000000,0.000000,0.000000,0.000000,0.000000,0.000000,0.097158,3,0
1050000,-0.013855,26.980186,-0.032206,-0.050203,25.717167,-0.029903,0.001503,0.023628,1.571493,-0.053923,0.003694,-0.001873,-0.000498,-0.006385,0.000059,0.001074,0.014329,0.077593,-0.020839,0.198937,0.198939,0.171142,0.524841,0.000000,0.000000,0.000000,0.000000,0.000000,0.000000,0.000000,0.000000,0.000000,0.000000,0.000000,0.000000,0.076288,3,0
1060000,-0.013887,27.241901,-0.032684,-0.050061,25.728239,-0.030623,0.001555,0.024151,1.571490,-0.054812,0.003788,-0.001832,-0.000516,-0.006557,0.000061,0.003014,0.014364,0.135878,-0.005921,0.199189,0.199191,0.170914,0.519333,0.000000,0.000000,0.000000,0.000000,0.000000,0.000000,0.000000,0.000000,0.000000,0.000000,0.000000,0.000000,0.132099,3,0
1070000,-0.013913,27.501635,-0.031570,-0.049839,25.735651,-0.029114,0.001604,0.024462,1.571503,-0.055288,0.003882,-0.002226,-0.000535,-0.006650,0.000061,0.001296,0.014394,0.072842,0.050155,0.199433,0.199434,0.170676,0.513931,0.000000,0.000000,0.000000,0.000000,0.000000,0.000000,0.000000,0.000000,0.000000,0.000000,0.000000,0.000000,0.071784,3,0
1080000,-0.013938,27.762724,-0.032109,-0.049623,25.745245,-0.029891,0.001663,0.024925,1.571502,-0.056018,0.003978,-0.002165,-0.000554,-0.006796,0.000063,0.002038,0.014418,0.111219,-0.008422,0.199668,0.199669,0.170429,0.508633,0.000000,0.000000,0.000000,0.000000,0.000000,0.000000,0.000000,0.000000,0.000000,0.000000,0.000000,0.000000,0.108417,3,0
1090000,-0.013962,28.023161,-0.033451,-0.049473,25.753723,-0.031900,0.001713,0.025302,1.571496,-0.056602,0.004073,-0.001880,-0.000573,-0.006914,0.000064,0.001513,0.014442,0.088579,-0.036444,0.199896,0.199897,0.170173,0.503441,0.000000,0.000000,0.000000,0.000000,0.000000,0.000000,0.000000,0.000000,0.000000,0.000000,0.000000,0.000000,0.086757,3,0
1100000,-0.013978,28.286266,-0.032518,-0.049226,25.766703,-0.030663,0.001777,0.025969,1.571498,-0.057694,0.004169,-0.002243,-0.000593,-0.007138,0.000066,0.004795,0.014463,0.165997,0.044616,0.200117,0.200118,0.169908,0.498352,0.000000,0.000000,0.000000,0.000000,0.000000,0.000000,0.000000,0.000000,0.000000,0.000000,0.000000,0.000000,0.161069,3,0
1110000,-0.013993,28.548019,-0.032183,-0.049058,25.777176,-0.030273,0.001845,0.026491,1.571500,-0.058495,0.004264,-0.002434,-0.000613,-0.007305,0.000068,0.002496,0.014477,0.121429,0.023085,0.200331,0.200332,0.169636,0.493368,0.000000,0.000000,0.000000,0.000000,0.000000,0.000000,0.000000,0.000000,0.000000,0.000000,0.000000,0.000000,0.118207,3,0
1120000,-0.014005,28.810432,-0.032047,-0.048920,25.788588,-0.030077,0.001893,0.027066,1.571492,-0.059405,0.004360,-0.002570,-0.000634,-0.007497,0.000069,0.003137,0.014491,0.137878,0.015920,0.200539,0.200539,0.169355,0.488488,0.000000,0.000000,0.000000,0.000000,0.000000,0.000000,0.000000,0.000000,0.000000,0.000000,0.000000,0.000000,0.134004,3,0
1130000,-0.014016,29.071497,-0.032195,-0.048790,25.797503,-0.030378,0.001951,0.027491,1.571498,-0.060027,0.004456,-0.002621,-0.000654,-0.007630,0.000071,0.001463,0.014502,0.094019,0.005734,0.200741,0.200741,0.169067,0.483709,0.000000,0.000000,0.000000,0.000000,0.000000,0.000000,0.000000,0.000000,0.000000,0.000000,0.000000,0.000000,0.091948,3,0
1140000,-0.014023,29.330564,-0.031047,-0.048623,25.802908,-0.028835,0.002002,0.027684,1.571506,-0.060235,0.004552,-0.003048,-0.000676,-0.007675,0.000071,0.000630,0.014511,0.031652,0.051823,0.200938,0.200937,0.168773,0.479034,0.000000,0.000000,0.000000,0.000000,0.000000,0.000000,0.000000,0.000000,0.000000,0.000000,0.000000,0.000000,0.033656,3,0
1150000,-0.014029,29.591667,-0.031957,-0.048366,25.811680,-0.030124,0.002072,0.028111,1.571508,-0.060835,0.004648,-0.002872,-0.000697,-0.007808,0.000072,0.001433,0.014515,0.090593,-0.021820,0.201129,0.201128,0.168471,0.474458,0.000000,0.000000,0.000000,0.000000,0.000000,0.000000,0.000000,0.000000,0.000000,0.000000,0.000000,0.000000,0.088672,3,0
1160000,-0.014035,29.852102,-0.033271,-0.048219,25.819191,-0.031976,0.002131,0.028451,1.571506,-0.061286,0.004745,-0.002579,-0.000718,-0.007909,0.000074,0.000985,0.014520,0.067949,-0.035816,0.201317,0.201315,0.168164,0.469983,0.000000,0.000000,0.000000,0.000000,0.000000,0.000000,0.000000,0.000000,0.000000,0.000000,0.000000,0.000000,0.067149,3,0
1170000,-0.014033,30.115879,-0.033140,-0.047877,25.832563,-0.032022,0.002204,0.029169,1.571510,-0.062380,0.004842,-0.002728,-0.000740,-0.008158,0.000076,0.004478,0.014522,0.165258,0.016682,0.201500,0.201497,0.167851,0.465608,0.000000,0.000000,0.000000,0.000000,0.000000,0.000000,0.000000,0.000000,0.000000,0.000000,0.000000,0.000000,0.160325,3,0
1180000,-0.014030,30.378942,-0.032874,-0.047721,25.844509,-0.031893,0.002261,0.029810,1.571514,-0.063306,0.004938,-0.002918,-0.000763,-0.008371,0.000078,0.003261,0.014519,0.139896,0.021528,0.201679,0.201676,0.167532,0.461330,0.000000,0.000000,0.000000,0.000000,0.000000,0.000000,0.000000,0.000000,0.000000,0.000000,0.000000,0.000000,0.135921,3,0
1190000,-0.014026,30.639299,-0.034012,-0.047392,25.851629,-0.033558,0.002334,0.030110,1.571522,-0.063675,0.005035,-0.002675,-0.000785,-0.008458,0.000079,0.000669,0.014512,0.055620,-0.029082,0.201855,0.201851,0.167209,0.457151,0.000000,0.000000,0.000000,0.000000,0.000000,0.000000,0.000000,0.000000,0.000000,0.000000,0.000000,0.000000,0.055547,3,0
1200000,-0.014015,30.898989,-0.033568,-0.047047,25.857445,-0.033155,0.002398,0.030332,1.571537,-0.063897,0.005130,-0.002918,-0.000808,-0.008510,0.000079,0.000347,0.014505,0.033741,0.028340,0.202027,0.202024,0.166881,0.453066,0.000000,0.000000,0.000000,0.000000,0.000000,0.000000,0.000000,0.000000,0.000000,0.000000,0.000000,0.000000,0.035490,3,0
1210000,-0.014000,31.161367,-0.032357,-0.046800,25.867840,-0.031718,0.002467,0.030868,1.571531,-0.064635,0.005225,-0.003407,-0.000832,-0.008687,0.000081,0.002561,0.014492,0.111933,0.056052,0.202197,0.202193,0.166548,0.449077,0.000000,0.000000,0.000000,0.000000,0.000000,0.000000,0.000000,0.000000,0.000000,0.000000,0.000000,0.000000,0.109068,3,0
1220000,-0.013985,31.423723,-0.032466,-0.046525,25.878206,-0.031927,0.002527,0.031394,1.571534,-0.065348,0.005321,-0.003483,-0.000855,-0.008861,0.000083,0.001918,0.014474,0.107876,0.007966,0.202365,0.202361,0.166212,0.445181,0.000000,0.000000,0.000000,0.000000,0.000000,0.000000,0.000000,0.000000,0.000000,0.000000,0.000000,0.000000,0.105173,3,0
1230000,-0.013965,31.684704,-0.031153,-0.046188,25.885851,-0.030378,0.002593,0.031745,1.571540,-0.065768,0.005416,-0.004004,-0.000880,-0.008964,0.000084,0.001267,0.014456,0.064085,0.059379,0.202531,0.202526,0.165872,0.441378,0.000000,0.000000,0.000000,0.000000,0.000000,0.000000,0.000000,0.000000,0.000000,0.000000,0.000000,0.000000,0.063481,3,0
1240000,-0.013946,31.943666,-0.032445,-0.045861,25.889982,-0.032079,0.002660,0.031853,1.571544,-0.065782,0.005512,-0.003692,-0.000903,-0.008968,0.000084,0.000240,0.014432,0.001818,-0.035657,0.202696,0.202690,0.165529,0.437665,0.000000,0.000000,0.000000,0.000000,0.000000,0.000000,0.000000,0.000000,0.000000,0.000000,0.000000,0.000000,0.014056,3,0
1250000,-0.013921,32.203316,-0.031324,-0.045574,25.895294,-0.030475,0.002736,0.032041,1.571544,-0.065919,0.005605,-0.004155,-0.000928,-0.009002,0.000084,0.000552,0.014411,0.021114,0.052505,0.202859,0.202852,0.165183,0.434043,0.000000,0.000000,0.000000,0.000000,0.000000,0.000000,0.000000,0.000000,0.000000,0.000000,0.000000,0.000000,0.024701,3,0
1260000,-0.013893,32.461632,-0.030574,-0.045222,25.898123,-0.029730,0.002802,0.032040,1.571554,-0.065786,0.005699,-0.004493,-0.000953,-0.008967,0.000084,0.000338,0.014382,-0.019920,0.038512,0.203021,0.203014,0.164834,0.430509,0.000000,0.000000,0.000000,0.000000,0.000000,0.000000,0.000000,0.000000,0.000000,0.000000,0.000000,0.000000,0.023733,3,0
1270000,-0.013862,32.721325,-0.029745,-0.044811,25.903374,-0.028599,0.002872,0.032212,1.571554,-0.065915,0.005792,-0.004862,-0.000979,-0.009000,0.000085,0.000373,0.014350,0.019920,0.041242,0.203183,0.203175,0.164484,0.427061,0.000000,0.000000,0.000000,0.000000,0.000000,0.000000,0.000000,0.000000,0.000000,0.000000,0.000000,0.000000,0.023721,3,0
1280000,-0.013830,32.981030,-0.029928,-0.044526,25.908575,-0.028726,0.002941,0.032385,1.571568,-0.066036,0.005886,-0.004898,-0.001004,-0.009032,0.000085,0.000091,0.014316,0.018600,0.003901,0.203344,0.203336,0.164131,0.423699,0.000000,0.000000,0.000000,0.000000,0.000000,0.000000,0.000000,0.000000,0.000000,0.000000,0.000000,0.000000,0.022677,3,0
1290000,-0.013799,33.243439,-0.031022,-0.044281,25.918476,-0.030224,0.003015,0.032907,1.571581,-0.066670,0.005980,-0.004645,-0.001028,-0.009204,0.000087,0.001678,0.014281,0.096790,-0.029089,0.203506,0.203496,0.163777,0.420422,0.000000,0.000000,0.000000,0.000000,0.000000,0.000000,0.000000,0.000000,0.000000,0.000000,0.000000,0.000000,0.094518,3,0
1300000,-0.013760,33.502430,-0.030262,-0.043891,25.922142,-0.029390,0.003089,0.032959,1.571584,-0.066624,0.006072,-0.004998,-0.001054,-0.009191,0.000087,0.000288,0.014246,-0.006691,0.039146,0.203667,0.203657,0.163421,0.417226,0.000000,0.000000,0.000000,0.000000,0.000000,0.000000,0.000000,0.000000,0.000000,0.000000,0.000000,0.000000,0.015201,3,0
1310000,-0.013721,33.765495,-0.030043,-0.043588,25.932901,-0.029122,0.003170,0.033553,1.571589,-0.067351,0.006164,-0.005185,-0.001080,-0.009392,0.000089,0.002113,0.014205,0.111984,0.019437,0.203829,0.203818,0.163064,0.414112,0.000000,0.000000,0.000000,0.000000,0.000000,0.000000,0.000000,0.000000,0.000000,0.000000,0.000000,0.000000,0.109048,3,0
1320000,-0.013678,34.026482,-0.029019,-0.043237,25.939964,-0.027962,0.003251,0.033866,1.571599,-0.067657,0.006255,-0.005636,-0.001107,-0.009477,0.000090,0.000784,0.014162,0.047596,0.048832,0.203991,0.203979,0.162707,0.411078,0.000000,0.000000,0.000000,0.000000,0.000000,0.000000,0.000000,0.000000,0.000000,0.000000,0.000000,0.000000,0.047974,3,0
1330000,-0.013636,34.287457,-0.030301,-0.042834,25.946894,-0.029616,0.003325,0.034168,1.571604,-0.067949,0.006347,-0.005303,-0.001133,-0.009562,0.000091,0.000576,0.014115,0.044964,-0.036726,0.204154,0.204142,0.162349,0.408122,0.000000,0.000000,0.000000,0.000000,0.000000,0.000000,0.000000,0.000000,0.000000,0.000000,0.000000,0.000000,0.045521,3,0
1340000,-0.013587,34.547047,-0.029052,-0.042434,25.951244,-0.027995,0.003411,0.034270,1.571605,-0.067963,0.006436,-0.005833,-0.001160,-0.009564,0.000091,0.000566,0.014069,0.002590,0.057308,0.204319,0.204305,0.161990,0.405243,0.000000,0.000000,0.000000,0.000000,0.000000,0.000000,0.000000,0.000000,0.000000,0.000000,0.000000,0.000000,0.013817,3,0
1350000,-0.013536,34.805965,-0.027736,-0.042134,25.954403,-0.026261,0.003498,0.034275,1.571625,-0.067841,0.006524,-0.006381,-0.001187,-0.009527,0.000091,0.000656,0.014017,-0.018497,0.059233,0.204484,0.204469,0.161632,0.402440,0.000000,0.000000,0.000000,0.000000,0.000000,0.000000,0.000000,0.000000,0.000000,0.000000,0.000000,0.000000,0.022410,3,0
1360000,-0.013486,35.068974,-0.028711,-0.041678,25.964718,-0.027738,0.003567,0.034838,1.571629,-0.068483,0.006615,-0.006150,-0.001213,-0.009719,0.000093,0.001758,0.013961,0.100250,-0.025848,0.204650,0.204635,0.161273,0.399710,0.000000,0.000000,0.000000,0.000000,0.000000,0.000000,0.000000,0.000000,0.000000,0.000000,0.000000,0.000000,0.097763,3,0
1370000,-0.013433,35.330566,-0.028917,-0.041364,25.972330,-0.027966,0.003648,0.035202,1.571631,-0.068838,0.006703,-0.006185,-0.001240,-0.009827,0.000094,0.000534,0.013908,0.055809,0.003009,0.204818,0.204802,0.160916,0.397053,0.000000,0.000000,0.000000,0.000000,0.000000,0.000000,0.000000,0.000000,0.000000,0.000000,0.000000,0.000000,0.055554,3,0
1380000,-0.013378,35.594166,-0.029255,-0.040948,25.983547,-0.028585,0.003728,0.035835,1.571632,-0.069550,0.006791,-0.006184,-0.001267,-0.010046,0.000096,0.002058,0.013851,0.112202,-0.001444,0.204988,0.204970,0.160558,0.394468,0.000000,0.000000,0.000000,0.000000,0.000000,0.000000,0.000000,0.000000,0.000000,0.000000,0.000000,0.000000,0.109191,3,0
1390000,-0.013320,35.854984,-0.029944,-0.040459,25.989595,-0.029619,0.003805,0.036074,1.571634,-0.069723,0.006879,-0.006046,-0.001294,-0.010101,0.000096,0.000187,0.013791,0.027397,-0.014796,0.205159,0.205140,0.160202,0.391951,0.000000,0.000000,0.000000,0.000000,0.000000,0.000000,0.000000,0.000000,0.000000,0.000000,0.000000,0.000000,0.029623,3,0
1400000,-0.013256,36.116451,-0.028995,-0.040036,25.996658,-0.028639,0.003877,0.036396,1.571645,-0.070003,0.006964,-0.006501,-0.001322,-0.010188,0.000097,0.000714,0.013729,0.044823,0.047147,0.205332,0.205312,0.159847,0.389503,0.000000,0.000000,0.000000,0.000000,0.000000,0.000000,0.000000,0.000000,0.000000,0.000000,0.000000,0.000000,0.045281,3,0
1410000,-0.013192,36.379932,-0.029022,-0.039538,26.007341,-0.028658,0.003950,0.037004,1.571638,-0.070636,0.007050,-0.006614,-0.001350,-0.010391,0.000099,0.001701,0.013660,0.101353,0.010416,0.205506,0.205485,0.159493,0.387122,0.000000,0.000000,0.000000,0.000000,0.000000,0.000000,0.000000,0.000000,0.000000,0.000000,0.000000,0.000000,0.098766,3,0
1420000,-0.013122,36.642658,-0.028431,-0.039059,26.016487,-0.027990,0.004039,0.037475,1.571642,-0.071110,0.007133,-0.006947,-0.001378,-0.010544,0.000101,0.001151,0.013591,0.076309,0.033626,0.205683,0.205661,0.159140,0.384806,0.000000,0.000000,0.000000,0.000000,0.000000,0.000000,0.000000,0.000000,0.000000,0.000000,0.000000,0.000000,0.074859,3,0
1430000,-0.013051,36.903282,-0.027350,-0.038687,26.021797,-0.026935,0.004121,0.037636,1.571655,-0.071183,0.007215,-0.007449,-0.001407,-0.010566,0.000101,0.000487,0.013518,0.012276,0.051703,0.205861,0.205838,0.158789,0.382555,0.000000,0.000000,0.000000,0.000000,0.000000,0.000000,0.000000,0.000000,0.000000,0.000000,0.000000,0.000000,0.017637,3,0
1440000,-0.012980,37.161163,-0.028096,-0.038173,26.022196,-0.027806,0.004200,0.037386,1.571664,-0.070756,0.007299,-0.007260,-0.001434,-0.010424,0.000100,0.000861,0.013441,-0.069489,-0.018398,0.206041,0.206017,0.158440,0.380367,0.000000,0.000000,0.000000,0.000000,0.000000,0.000000,0.000000,0.000000,0.000000,0.000000,0.000000,0.000000,0.068348,3,0
1450000,-0.012909,37.420437,-0.029467,-0.037670,26.025026,-0.029736,0.004282,0.037359,1.571672,-0.070579,0.007382,-0.006851,-0.001462,-0.010365,0.000100,0.000445,0.013365,-0.029190,-0.041439,0.206223,0.206198,0.158092,0.378239,0.000000,0.000000,0.000000,0.000000,0.000000,0.000000,0.000000,0.000000,0.000000,0.000000,0.000000,0.000000,0.031009,3,0
1460000,-0.012828,37.678322,-0.028354,-0.037149,26.025339,-0.028326,0.004374,0.037108,1.571681,-0.070151,0.007461,-0.007364,-0.001490,-0.010215,0.000099,0.001274,0.013288,-0.069820,0.053311,0.206407,0.206381,0.157747,0.376171,0.000000,0.000000,0.000000,0.000000,0.000000,0.000000,0.000000,0.000000,0.000000,0.000000,0.000000,0.000000,0.068619,3,0
1470000,-0.012749,37.940342,-0.028533,-0.036793,26.032997,-0.028630,0.004458,0.037466,1.571685,-0.070453,0.007541,-0.007415,-0.001518,-0.010321,0.000100,0.000433,0.013204,0.049988,0.004427,0.206594,0.206566,0.157404,0.374161,0.000000,0.000000,0.000000,0.000000,0.000000,0.000000,0.000000,0.000000,0.000000,0.000000,0.000000,0.000000,0.049923,3,0
1480000,-0.012668,38.202999,-0.028917,-0.036274,26.041647,-0.029191,0.004550,0.037914,1.571698,-0.070852,0.007620,-0.007393,-0.001547,-0.010463,0.000102,0.000735,0.013120,0.066196,-0.003191,0.206782,0.206753,0.157063,0.372207,0.000000,0.000000,0.000000,0.000000,0.000000,0.000000,0.000000,0.000000,0.000000,0.000000,0.000000,0.000000,0.065159,3,0
1490000,-0.012583,38.465591,-0.028222,-0.035854,26.050056,-0.028451,0.004641,0.038344,1.571712,-0.071221,0.007697,-0.007784,-0.001575,-0.010594,0.000103,0.000883,0.013035,0.061878,0.038367,0.206972,0.206942,0.156725,0.370309,0.000000,0.000000,0.000000,0.000000,0.000000,0.000000,0.000000,0.000000,0.000000,0.000000,0.000000,0.000000,0.061060,3,0
1500000,-0.012494,38.724686,-0.027148,-0.035320,26.052002,-0.027059,0.004718,0.038231,1.571731,-0.070970,0.007772,-0.008297,-0.001604,-0.010500,0.000102,0.000745,0.012944,-0.041771,0.051909,0.207164,0.207133,0.156389,0.368464,0.000000,0.000000,0.000000,0.000000,0.000000,0.000000,0.000000,0.000000,0.000000,0.000000,0.000000,0.000000,0.042209,3,0
1510000,-0.012407,38.987221,-0.027522,-0.034934,26.060163,-0.027828,0.004802,0.038651,1.571743,-0.071306,0.007848,-0.008272,-0.001632,-0.010626,0.000104,0.000550,0.012851,0.056938,-0.003365,0.207358,0.207325,0.156057,0.366673,0.000000,0.000000,0.000000,0.000000,0.000000,0.000000,0.000000,0.000000,0.000000,0.000000,0.000000,0.000000,0.056353,3,0
1520000,-0.012320,39.248325,-0.028252,-0.034468,26.065794,-0.028676,0.004879,0.038841,1.571742,-0.071383,0.007923,-0.008100,-0.001660,-0.010655,0.000104,0.000101,0.012760,0.012989,-0.017218,0.207554,0.207520,0.155727,0.364935,0.000000,0.000000,0.000000,0.000000,0.000000,0.000000,0.000000,0.000000,0.000000,0.000000,0.000000,0.000000,0.017576,3,0
1530000,-0.012225,39.508686,-0.027194,-0.033943,26.069908,-0.027458,0.004967,0.038897,1.571744,-0.071325,0.007995,-0.008625,-0.001690,-0.010631,0.000104,0.000479,0.012667,-0.009621,0.051967,0.207751,0.207716,0.155400,0.363246,0.000000,0.000000,0.000000,0.000000,0.000000,0.000000,0.000000,0.000000,0.000000,0.000000,0.000000,0.000000,0.015347,3,0
1540000,-0.012130,39.769020,-0.026368,-0.033494,26.073883,-0.026393,0.005059,0.038935,1.571764,-0.071256,0.008066,-0.009056,-0.001718,-0.010602,0.000104,0.000341,0.012568,-0.011600,0.042559,0.207951,0.207914,0.155076,0.361606,0.000000,0.000000,0.000000,0.000000,0.000000,0.000000,0.000000,0.000000,0.000000,0.000000,0.000000,0.000000,0.016502,3,0
1550000,-0.012033,40.028641,-0.026207,-0.032921,26.076437,-0.026417,0.005135,0.038850,1.571780,-0.071063,0.008136,-0.009217,-0.001747,-0.010525,0.000104,0.000248,0.012467,-0.033424,0.016394,0.208152,0.208114,0.154755,0.360013,0.000000,0.000000,0.000000,0.000000,0.000000,0.000000,0.000000,0.000000,0.000000,0.000000,0.000000,0.000000,0.034432,3,0
1560000,-0.011934,40.288933,-0.025831,-0.032349,26.080259,-0.026167,0.005212,0.038869,1.571798,-0.070978,0.008206,-0.009470,-0.001775,-0.010490,0.000104,0.000160,0.012365,-0.014767,0.024915,0.208355,0.208315,0.154438,0.358467,0.000000,0.000000,0.000000,0.000000,0.000000,0.000000,0.000000,0.000000,0.000000,0.000000,0.000000,0.000000,0.018585,3,0
1570000,-0.011832,40.549191,-0.024932,-0.031898,26.083960,-0.025113,0.005299,0.038876,1.571818,-0.070882,0.008273,-0.009933,-0.001804,-0.010448,0.000104,0.000400,0.012261,-0.016670,0.045144,0.208558,0.208517,0.154124,0.356966,0.000000,0.000000,0.000000,0.000000,0.000000,0.000000,0.000000,0.000000,0.000000,0.000000,0.000000,0.000000,0.019963,3,0
1580000,-0.011733,40.806675,-0.026073,-0.031408,26.082401,-0.026626,0.005373,0.038451,1.571831,-0.070334,0.008342,-0.009547,-0.001832,-0.010224,0.000102,0.001774,0.012153,-0.098057,-0.035383,0.208764,0.208721,0.153813,0.355508,0.000000,0.000000,0.000000,0.000000,0.000000,0.000000,0.000000,0.000000,0.000000,0.000000,0.000000,0.000000,0.095378,3,0
1590000,-0.011630,41.065548,-0.026213,-0.030875,26.083344,-0.026976,0.005459,0.038242,1.571848,-0.070016,0.008409,-0.009583,-0.001860,-0.010090,0.000101,0.000556,0.012049,-0.057343,0.004577,0.208970,0.208926,0.153506,0.354092,0.000000,0.000000,0.000000,0.000000,0.000000,0.000000,0.000000,0.000000,0.000000,0.000000,0.000000,0.000000,0.056552,3,0
1600000,-0.011524,41.323715,-0.025912,-0.030392,26.083117,-0.026461,0.005554,0.037894,1.571869,-0.069587,0.008473,-0.009794,-0.001888,-0.009907,0.000100,0.001070,0.011941,-0.077675,0.021690,0.209178,0.209132,0.153202,0.352718,0.000000,0.000000,0.000000,0.000000,0.000000,0.000000,0.000000,0.000000,0.000000,0.000000,0.000000,0.000000,0.075843,3,0
1610000,-0.011420,41.586754,-0.027302,-0.029940,26.091640,-0.028078,0.005635,0.038362,1.571880,-0.069926,0.008540,-0.009350,-0.001915,-0.010056,0.000102,0.000943,0.011830,0.061737,-0.043514,0.209386,0.209339,0.152902,0.351383,0.000000,0.000000,0.000000,0.000000,0.000000,0.000000,0.000000,0.000000,0.000000,0.000000,0.000000,0.000000,0.060659,3,0
1620000,-0.011312,41.849010,-0.027119,-0.029486,26.098627,-0.027952,0.005716,0.038678,1.571880,-0.070126,0.008602,-0.009555,-0.001944,-0.010142,0.000103,0.000301,0.011723,0.037159,0.018753,0.209596,0.209547,0.152606,0.350088,0.000000,0.000000,0.000000,0.000000,0.000000,0.000000,0.000000,0.000000,0.000000,0.000000,0.000000,0.000000,0.037607,3,0
1630000,-0.011203,42.107727,-0.027024,-0.029024,26.099064,-0.028016,0.005793,0.038404,1.571884,-0.069771,0.008664,-0.009691,-0.001971,-0.009983,0.000102,0.000758,0.011610,-0.066135,0.014252,0.209806,0.209756,0.152314,0.348831,0.000000,0.000000,0.000000,0.000000,0.000000,0.000000,0.000000,0.000000,0.000000,0.000000,0.000000,0.000000,0.064796,3,0
1640000,-0.011089,42.368511,-0.025896,-0.028472,26.103266,-0.026581,0.005880,0.038465,1.571892,-0.069733,0.008722,-0.010279,-0.002000,-0.009963,0.000102,0.000530,0.011495,-0.006794,0.055576,0.210017,0.209965,0.152025,0.347611,0.000000,0.000000,0.000000,0.000000,0.000000,0.000000,0.000000,0.000000,0.000000,0.000000,0.000000,0.000000,0.012875,3,0
1650000,-0.010975,42.628563,-0.025410,-0.027913,26.106009,-0.025928,0.005974,0.038393,1.571910,-0.069579,0.008780,-0.010587,-0.002028,-0.009890,0.000101,0.000298,0.011376,-0.029072,0.029522,0.210228,0.210175,0.151740,0.346427,0.000000,0.000000,0.000000,0.000000,0.000000,0.000000,0.000000,0.000000,0.000000,0.000000,0.000000,0.000000,0.030117,3,0
1660000,-0.010858,42.887184,-0.024288,-0.027423,26.106131,-0.024433,0.006054,0.038079,1.571931,-0.069211,0.008835,-0.011149,-0.002056,-0.009715,0.000100,0.001293,0.011257,-0.070484,0.054013,0.210440,0.210385,0.151459,0.345277,0.000000,0.000000,0.000000,0.000000,0.000000,0.000000,0.000000,0.000000,0.000000,0.000000,0.000000,0.000000,0.068859,3,0
1670000,-0.010741,43.145802,-0.023768,-0.026792,26.106161,-0.023976,0.006143,0.037751,1.571937,-0.068847,0.008891,-0.011452,-0.002084,-0.009540,0.000099,0.000967,0.011134,-0.070683,0.029736,0.210652,0.210596,0.151181,0.344160,0.000000,0.000000,0.000000,0.000000,0.000000,0.000000,0.000000,0.000000,0.000000,0.000000,0.000000,0.000000,0.069032,3,0
1680000,-0.010624,43.404419,-0.023922,-0.026258,26.106182,-0.024273,0.006237,0.037427,1.571941,-0.068486,0.008946,-0.011465,-0.002111,-0.009366,0.000098,0.000828,0.011011,-0.070873,0.002765,0.210864,0.210806,0.150908,0.343076,0.000000,0.000000,0.000000,0.000000,0.000000,0.000000,0.000000,0.000000,0.000000,0.000000,0.000000,0.000000,0.069203,3,0
1690000,-0.010503,43.667217,-0.023701,-0.025656,26.113926,-0.024100,0.006318,0.037804,1.571951,-0.068728,0.009000,-0.011682,-0.002138,-0.009483,0.000099,0.000452,0.010887,0.048210,0.019129,0.211076,0.211016,0.150639,0.342022,0.000000,0.000000,0.000000,0.000000,0.000000,0.000000,0.000000,0.000000,0.000000,0.000000,0.000000,0.000000,0.047691,3,0
1700000,-0.010381,43.927841,-0.023638,-0.025033,26.117420,-0.024196,0.006412,0.037809,1.571969,-0.068649,0.009053,-0.011810,-0.002165,-0.009443,0.000099,0.000083,0.010760,-0.015877,0.012100,0.211288,0.211226,0.150373,0.340999,0.000000,0.000000,0.000000,0.000000,0.000000,0.000000,0.000000,0.000000,0.000000,0.000000,0.000000,0.000000,0.018502,3,0
1710000,-0.010256,44.186310,-0.023025,-0.024561,26.116901,-0.023502,0.006500,0.037438,1.571981,-0.068266,0.009103,-0.012154,-0.002192,-0.009246,0.000098,0.001171,0.010633,-0.077747,0.033407,0.211499,0.211436,0.150112,0.340005,0.000000,0.000000,0.000000,0.000000,0.000000,0.000000,0.000000,0.000000,0.000000,0.000000,0.000000,0.000000,0.075695,3,0
