time_us,pos_x,pos_y,pos_z,vel_x,vel_y,vel_z,roll,pitch,yaw,bias_ax,bias_ay,bias_az,bias_gx,bias_gy,bias_gz,nis,innov_x,innov_y,innov_z,cov_pos_x,cov_pos_y,cov_pos_z,cov_yaw,des_speed,des_heading,des_climb,pid_speed,pid_yaw,pid_alt,speed_meas,yaw_meas,climb_meas,fwd_accel,yaw_rate,vert_accel,drift_m,nav_mode,mission_state
0,-0.000001,0.149996,-0.000002,-0.000143,24.999428,-0.000551,-0.000010,-0.000001,1.570791,0.000000,0.000000,0.000000,0.000000,0.000000,0.000000,0.006250,0.000001,-0.249997,0.000006,2.400038,2.400038,3.600017,1.000518,0.000000,0.000000,0.000000,0.000000,0.000000,0.000000,0.000000,0.000000,0.000000,0.000000,0.000000,0.000000,0.149996,1,0
10000,-0.000002,0.359538,-0.011242,-0.000137,24.998875,-0.001088,-0.000021,0.000003,1.570789,0.000000,0.000000,0.000000,0.000000,0.000000,0.000000,0.002479,0.000002,-0.141562,-0.029945,1.714420,1.714420,2.250079,1.001073,0.000000,0.000000,0.000000,0.000000,0.000000,0.000000,0.000000,0.000000,0.000000,0.000000,0.000000,0.000000,0.101113,3,0
20000,-0.000003,0.606600,-0.021639,-0.000237,24.998531,-0.001629,-0.000031,-0.000008,1.570789,0.000001,0.000000,0.000000,-0.000000,0.000000,0.000000,0.000198,0.000004,-0.013157,-0.038059,1.333616,1.333616,1.636554,1.001655,0.000000,0.000000,0.000000,0.000000,0.000000,0.000000,0.000000,0.000000,0.000000,0.000000,0.000000,0.000000,0.010232,3,0
30000,-0.000006,0.838178,-0.013734,-0.000387,24.997917,-0.002056,-0.000045,-0.000013,1.570781,0.000002,0.000000,-0.000000,-0.000000,0.000000,-0.000000,0.001575,0.000007,-0.101184,0.036980,1.091392,1.091392,1.286065,1.002257,0.000000,0.000000,0.000000,0.000000,0.000000,0.000000,0.000000,0.000000,0.000000,0.000000,0.000000,0.000000,0.082779,3,0
40000,-0.000009,1.085891,-0.007953,-0.000478,24.997545,-0.002476,-0.000046,-0.000017,1.570777,0.000003,0.000000,-0.000001,-0.000000,0.000000,-0.000000,0.000179,0.000010,-0.014692,0.032887,0.923811,0.923811,1.059385,1.002869,0.000000,0.000000,0.000000,0.000000,0.000000,0.000000,0.000000,0.000000,0.000000,0.000000,0.000000,0.000000,0.012430,3,0
50000,-0.000013,1.335333,-0.006089,-0.000563,24.997192,-0.002731,-0.000051,-0.000022,1.570766,0.000003,0.000000,-0.000002,-0.000000,0.000000,-0.000000,0.000025,0.000014,-0.003976,0.012603,0.801036,0.801036,0.900822,1.003484,0.000000,0.000000,0.000000,0.000000,0.000000,0.000000,0.000000,0.000000,0.000000,0.000000,0.000000,0.000000,0.003445,3,0
60000,-0.000016,1.576520,-0.010565,-0.000531,24.996527,-0.003188,-0.000066,-0.000039,1.570752,0.000007,0.000000,0.000000,-0.000000,0.000000,-0.000000,0.000984,0.000018,-0.074505,-0.034039,0.707270,0.707270,0.783741,1.004094,0.000000,0.000000,0.000000,0.000000,0.000000,0.000000,0.000000,0.000000,0.000000,0.000000,0.000000,0.000000,0.065723,3,0
70000,-0.000019,1.830931,-0.006174,-0.000556,24.996595,-0.003402,-0.000067,-0.000048,1.570739,0.000004,0.000000,-0.000003,-0.000000,0.000000,-0.000000,0.000481,0.000021,0.042135,0.038288,0.633370,0.633370,0.693801,1.004688,0.000000,0.000000,0.000000,0.000000,0.000000,0.000000,0.000000,0.000000,0.000000,0.000000,0.000000,0.000000,0.037687,3,0
80000,-0.000023,2.075803,-0.003287,-0.000639,24.995892,-0.003645,-0.000087,-0.000060,1.570740,0.000009,0.000000,-0.000005,-0.000000,0.000000,-0.000000,0.000546,0.000025,-0.053245,0.028200,0.573673,0.573673,0.622594,1.005260,0.000000,0.000000,0.000000,0.000000,0.000000,0.000000,0.000000,0.000000,0.000000,0.000000,0.000000,0.000000,0.048154,3,0
90000,-0.000027,2.330979,-0.008775,-0.000708,24.996077,-0.004710,-0.000098,-0.000059,1.570735,0.000002,0.000000,0.000002,-0.000000,-0.000000,0.000000,0.001048,0.000030,0.059711,-0.057848,0.524488,0.524488,0.564865,1.005801,0.000000,0.000000,0.000000,0.000000,0.000000,0.000000,0.000000,0.000000,0.000000,0.000000,0.000000,0.000000,0.054491,3,0
100000,-0.000033,2.578001,-0.008345,-0.000794,24.995375,-0.005172,-0.000100,-0.000068,1.570733,0.000008,0.000000,0.000001,-0.000000,0.000000,-0.000000,0.000208,0.000035,-0.036435,0.005603,0.483303,0.483303,0.517162,1.006301,0.000000,0.000000,0.000000,0.000000,0.000000,0.000000,0.000000,0.000000,0.000000,0.000000,0.000000,0.000000,0.033500,3,0
110000,-0.000037,2.826082,-0.011862,-0.000775,24.994774,-0.006076,-0.000103,-0.000080,1.570719,0.000012,0.000000,0.000009,-0.000000,0.000000,-0.000000,0.000387,0.000040,-0.025024,-0.043517,0.448353,0.448353,0.477121,1.006754,0.000000,0.000000,0.000000,0.000000,0.000000,0.000000,0.000000,0.000000,0.000000,0.000000,0.000000,0.000000,0.023155,3,0
120000,-0.000042,3.083319,-0.011247,-0.000790,24.995560,-0.006440,-0.000113,-0.000072,1.570706,-0.000011,0.000000,0.000007,-0.000000,-0.000000,0.000000,0.001709,0.000045,0.104601,0.009201,0.418358,0.418358,0.443071,1.007150,0.000000,0.000000,0.000000,0.000000,0.000000,0.000000,0.000000,0.000000,0.000000,0.000000,0.000000,0.000000,0.097308,3,0
130000,-0.000047,3.336289,-0.013369,-0.000801,24.995852,-0.007221,-0.000123,-0.000069,1.570705,-0.000023,0.000000,0.000014,-0.000000,-0.000000,0.000000,0.000469,0.000050,0.046144,-0.029769,0.392369,0.392369,0.413797,1.007481,0.000000,0.000000,0.000000,0.000000,0.000000,0.000000,0.000000,0.000000,0.000000,0.000000,0.000000,0.000000,0.043127,3,0
140000,-0.000053,3.589423,-0.012554,-0.000941,24.996183,-0.007414,-0.000134,-0.000063,1.570708,-0.000038,0.000000,0.000010,-0.000000,-0.000001,0.000000,0.000446,0.000056,0.051597,0.013767,0.369666,0.369666,0.388393,1.007739,0.000000,0.000000,0.000000,0.000000,0.000000,0.000000,0.000000,0.000000,0.000000,0.000000,0.000000,0.000000,0.048418,3,0
150000,-0.000059,3.843857,-0.010426,-0.001020,24.996979,-0.007419,-0.000150,-0.000053,1.570703,-0.000064,0.000000,-0.000002,-0.000000,-0.000001,0.000000,0.001130,0.000063,0.076764,0.036164,0.349695,0.349695,0.366172,1.007915,0.000000,0.000000,0.000000,0.000000,0.000000,0.000000,0.000000,0.000000,0.000000,0.000000,0.000000,0.000000,0.072290,3,0
160000,-0.000066,4.096091,-0.009535,-0.001072,24.997213,-0.007680,-0.000169,-0.000050,1.570688,-0.000079,0.000000,-0.000008,-0.000000,-0.000002,0.000000,0.000309,0.000070,0.040992,0.016784,0.332020,0.332020,0.346600,1.008002,0.000000,0.000000,0.000000,0.000000,0.000000,0.000000,0.000000,0.000000,0.000000,0.000000,0.000000,0.000000,0.038724,3,0
170000,-0.000073,4.348547,-0.007471,-0.001073,24.997614,-0.007629,-0.000183,-0.000045,1.570688,-0.000099,0.000000,-0.000024,-0.000000,-0.000002,0.000000,0.000593,0.000077,0.047181,0.039123,0.316297,0.316297,0.329260,1.007991,0.000000,0.000000,0.000000,0.000000,0.000000,0.000000,0.000000,0.000000,0.000000,0.000000,0.000000,0.000000,0.044694,3,0
180000,-0.000079,4.598193,-0.007634,-0.001047,24.997160,-0.008079,-0.000198,-0.000061,1.570673,-0.000096,0.000000,-0.000023,-0.000000,-0.000002,0.000000,0.000007,0.000083,-0.006490,-0.001591,0.302245,0.302245,0.313817,1.007875,0.000000,0.000000,0.000000,0.000000,0.000000,0.000000,0.000000,0.000000,0.000000,0.000000,0.000000,0.000000,0.006164,3,0
190000,-0.000085,4.852111,-0.009457,-0.001027,24.998360,-0.008923,-0.000217,-0.000058,1.570659,-0.000140,0.000000,-0.000005,-0.000000,-0.000003,0.000000,0.001253,0.000089,0.081809,-0.034781,0.289640,0.289640,0.300003,1.007645,0.000000,0.000000,0.000000,0.000000,0.000000,0.000000,0.000000,0.000000,0.000000,0.000000,0.000000,0.000000,0.077860,3,0
200000,-0.000091,5.105173,-0.012409,-0.001051,24.999268,-0.010569,-0.000231,-0.000062,1.570659,-0.000178,0.000000,0.000029,-0.000000,-0.000004,0.000000,0.001265,0.000096,0.066426,-0.059592,0.278294,0.278294,0.287598,1.007295,0.000000,0.000000,0.000000,0.000000,0.000000,0.000000,0.000000,0.000000,0.000000,0.000000,0.000000,0.000000,0.063345,3,0
210000,-0.000098,5.361034,-0.013694,-0.001086,25.001568,-0.011559,-0.000233,-0.000041,1.570653,-0.000262,0.000000,0.000045,-0.000000,-0.000007,0.000000,0.002853,0.000102,0.131418,-0.025486,0.268052,0.268052,0.276421,1.006816,0.000000,0.000000,0.000000,0.000000,0.000000,0.000000,0.000000,0.000000,0.000000,0.000000,0.000000,0.000000,0.125546,3,0
220000,-0.000104,5.613395,-0.013621,-0.001069,25.002323,-0.011826,-0.000252,-0.000035,1.570642,-0.000300,0.000000,0.000042,-0.000000,-0.000008,0.000000,0.000476,0.000108,0.054444,0.004324,0.258785,0.258785,0.266321,1.006202,0.000000,0.000000,0.000000,0.000000,0.000000,0.000000,0.000000,0.000000,0.000000,0.000000,0.000000,0.000000,0.052096,3,0
230000,-0.000111,5.869259,-0.015046,-0.001191,25.004957,-0.012688,-0.000257,-0.000002,1.570637,-0.000407,0.000000,0.000065,-0.000000,-0.000011,0.000000,0.003279,0.000115,0.140017,-0.030419,0.250384,0.250384,0.257172,1.005446,0.000000,0.000000,0.000000,0.000000,0.000000,0.000000,0.000000,0.000000,0.000000,0.000000,0.000000,0.000000,0.134174,3,0
240000,-0.000118,6.123465,-0.015033,-0.001228,25.006958,-0.012901,-0.000273,0.000019,1.570636,-0.000492,0.000001,0.000062,-0.000000,-0.000014,0.000000,0.001692,0.000123,0.102795,0.003439,0.242754,0.242754,0.248866,1.004541,0.000000,0.000000,0.000000,0.000000,0.000000,0.000000,0.000000,0.000000,0.000000,0.000000,0.000000,0.000000,0.098636,3,0
250000,-0.000125,6.376955,-0.015209,-0.001214,25.008568,-0.013450,-0.000293,0.000035,1.570638,-0.000569,0.000001,0.000063,-0.000000,-0.000017,0.000000,0.001215,0.000130,0.087116,-0.001039,0.235816,0.235816,0.241314,1.003481,0.000000,0.000000,0.000000,0.000000,0.000000,0.000000,0.000000,0.000000,0.000000,0.000000,0.000000,0.000000,0.083693,3,0
260000,-0.000134,6.628277,-0.013957,-0.001379,25.009069,-0.013100,-0.000298,0.000032,1.570622,-0.000601,0.000001,0.000029,-0.000000,-0.000018,0.000000,0.000371,0.000139,0.032399,0.035601,0.229502,0.229502,0.234436,1.002258,0.000000,0.000000,0.000000,0.000000,0.000000,0.000000,0.000000,0.000000,0.000000,0.000000,0.000000,0.000000,0.031160,3,0
270000,-0.000143,6.885027,-0.012472,-0.001488,25.013115,-0.012518,-0.000303,0.000085,1.570607,-0.000785,0.000001,-0.000014,-0.000000,-0.000025,0.000000,0.005412,0.000148,0.178650,0.042588,0.223751,0.223751,0.228165,1.000869,0.000000,0.000000,0.000000,0.000000,0.000000,0.000000,0.000000,0.000000,0.000000,0.000000,0.000000,0.000000,0.171988,3,0
280000,-0.000153,7.140998,-0.011755,-0.001594,25.016943,-0.012557,-0.000311,0.000132,1.570611,-0.000962,0.000001,-0.000039,-0.000000,-0.000032,0.000000,0.004216,0.000159,0.160405,0.022877,0.218513,0.218513,0.222443,0.999307,0.000000,0.000000,0.000000,0.000000,0.000000,0.000000,0.000000,0.000000,0.000000,0.000000,0.000000,0.000000,0.154564,3,0
290000,-0.000163,7.393425,-0.012443,-0.001587,25.018396,-0.013216,-0.000323,0.000156,1.570606,-0.001037,0.000001,-0.000021,-0.000000,-0.000035,0.000000,0.000685,0.000169,0.063427,-0.015464,0.213741,0.213741,0.217219,0.997567,0.000000,0.000000,0.000000,0.000000,0.000000,0.000000,0.000000,0.000000,0.000000,0.000000,0.000000,0.000000,0.061168,3,0
300000,-0.000173,7.648805,-0.011355,-0.001612,25.022203,-0.012952,-0.000337,0.000219,1.570603,-0.001224,0.000002,-0.000064,-0.000000,-0.000043,0.000000,0.003760,0.000179,0.148927,0.034618,0.209395,0.209395,0.212446,0.995645,0.000000,0.000000,0.000000,0.000000,0.000000,0.000000,0.000000,0.000000,0.000000,0.000000,0.000000,0.000000,0.143730,3,0
310000,-0.000184,7.901505,-0.010271,-0.001779,25.024029,-0.012356,-0.000340,0.000250,1.570589,-0.001320,0.000002,-0.000111,-0.000000,-0.000047,0.000000,0.001042,0.000191,0.072420,0.035081,0.205439,0.205439,0.208087,0.993536,0.000000,0.000000,0.000000,0.000000,0.000000,0.000000,0.000000,0.000000,0.000000,0.000000,0.000000,0.000000,0.069941,3,0
320000,-0.000196,8.157046,-0.009914,-0.001880,25.028263,-0.012632,-0.000359,0.000310,1.570574,-0.001544,0.000002,-0.000131,-0.000000,-0.000058,0.000000,0.004036,0.000203,0.157644,0.014317,0.201842,0.201842,0.204105,0.991236,0.000000,0.000000,0.000000,0.000000,0.000000,0.000000,0.000000,0.000000,0.000000,0.000000,0.000000,0.000000,0.152341,3,0
330000,-0.000209,8.414613,-0.010335,-0.002034,25.034555,-0.013436,-0.000372,0.000414,1.570559,-0.001873,0.000002,-0.000118,-0.000000,-0.000073,0.000000,0.007820,0.000217,0.220121,-0.008644,0.198576,0.198576,0.200469,0.988743,0.000000,0.000000,0.000000,0.000000,0.000000,0.000000,0.000000,0.000000,0.000000,0.000000,0.000000,0.000000,0.212836,3,0
340000,-0.000223,8.666974,-0.010953,-0.002081,25.036236,-0.014343,-0.000374,0.000440,1.570552,-0.001971,0.000003,-0.000095,-0.000000,-0.000078,0.000000,0.000652,0.000230,0.061889,-0.014563,0.195616,0.195615,0.197151,0.986053,0.000000,0.000000,0.000000,0.000000,0.000000,0.000000,0.000000,0.000000,0.000000,0.000000,0.000000,0.000000,0.059871,3,0
350000,-0.000236,8.923994,-0.011010,-0.002113,25.042500,-0.014584,-0.000394,0.000552,1.570555,-0.002317,0.000003,-0.000100,-0.000000,-0.000095,0.000000,0.006919,0.000244,0.207088,0.002763,0.192937,0.192937,0.194125,0.983163,0.000000,0.000000,0.000000,0.000000,0.000000,0.000000,0.000000,0.000000,0.000000,0.000000,0.000000,0.000000,0.200428,3,0
360000,-0.000250,9.180403,-0.011108,-0.002194,25.048183,-0.015149,-0.000396,0.000651,1.570558,-0.002648,0.000004,-0.000103,-0.000000,-0.000112,0.000000,0.005738,0.000258,0.188554,0.001682,0.190519,0.190519,0.191370,0.980072,0.000000,0.000000,0.000000,0.000000,0.000000,0.000000,0.000000,0.000000,0.000000,0.000000,0.000000,0.000000,0.182567,3,0
370000,-0.000264,9.436239,-0.012065,-0.002212,25.053518,-0.016385,-0.000403,0.000743,1.570556,-0.002962,0.000004,-0.000056,-0.000000,-0.000129,0.000000,0.004805,0.000272,0.170634,-0.025446,0.188345,0.188345,0.188863,0.976778,0.000000,0.000000,0.000000,0.000000,0.000000,0.000000,0.000000,0.000000,0.000000,0.000000,0.000000,0.000000,0.165278,3,0
380000,-0.000277,9.691535,-0.013596,-0.002192,25.058504,-0.018303,-0.000421,0.000835,1.570557,-0.003258,0.000005,0.000028,-0.000000,-0.000145,0.000000,0.004104,0.000286,0.153291,-0.043768,0.186395,0.186395,0.186586,0.973281,0.000000,0.000000,0.000000,0.000000,0.000000,0.000000,0.000000,0.000000,0.000000,0.000000,0.000000,0.000000,0.148529,3,0
390000,-0.000290,9.946931,-0.013462,-0.002189,25.063717,-0.018298,-0.000431,0.000942,1.570554,-0.003575,0.000005,0.000007,-0.000000,-0.000163,0.000000,0.003967,0.000299,0.156371,0.010405,0.184655,0.184655,0.184522,0.969579,0.000000,0.000000,0.000000,0.000000,0.000000,0.000000,0.000000,0.000000,0.000000,0.000000,0.000000,0.000000,0.151559,3,0
400000,-0.000303,10.204250,-0.012826,-0.002270,25.071297,-0.017732,-0.000440,0.001080,1.570541,-0.004039,0.000006,-0.000050,-0.000000,-0.000190,0.000000,0.007866,0.000312,0.218986,0.026981,0.183109,0.183109,0.182656,0.965674,0.000000,0.000000,0.000000,0.000000,0.000000,0.000000,0.000000,0.000000,0.000000,0.000000,0.000000,0.000000,0.212302,3,0
410000,-0.000317,10.458014,-0.012839,-0.002396,25.074823,-0.018103,-0.000448,0.001142,1.570537,-0.004261,0.000006,-0.000062,-0.000000,-0.000203,0.000000,0.001645,0.000327,0.100742,0.005654,0.181745,0.181745,0.180971,0.961565,0.000000,0.000000,0.000000,0.000000,0.000000,0.000000,0.000000,0.000000,0.000000,0.000000,0.000000,0.000000,0.097691,3,0
420000,-0.000331,10.714325,-0.014578,-0.002451,25.081451,-0.020379,-0.000458,0.001282,1.570533,-0.004687,0.000007,0.000057,-0.000000,-0.000229,0.000000,0.005962,0.000342,0.184885,-0.051924,0.180550,0.180550,0.179456,0.957254,0.000000,0.000000,0.000000,0.000000,0.000000,0.000000,0.000000,0.000000,0.000000,0.000000,0.000000,0.000000,0.179322,3,0
430000,-0.000347,10.968947,-0.015273,-0.002568,25.086092,-0.021559,-0.000475,0.001381,1.570519,-0.004993,0.000008,0.000096,-0.000000,-0.000248,0.000000,0.002663,0.000357,0.127296,-0.016344,0.179512,0.179512,0.178097,0.952742,0.000000,0.000000,0.000000,0.000000,0.000000,0.000000,0.000000,0.000000,0.000000,0.000000,0.000000,0.000000,0.123488,3,0
440000,-0.000362,11.224300,-0.016431,-0.002592,25.091675,-0.022978,-0.000485,0.001508,1.570507,-0.005369,0.000009,0.000176,-0.000000,-0.000273,0.000000,0.003848,0.000373,0.150933,-0.031846,0.178620,0.178620,0.176883,0.948031,0.000000,0.000000,0.000000,0.000000,0.000000,0.000000,0.000000,0.000000,0.000000,0.000000,0.000000,0.000000,0.146440,3,0
450000,-0.000378,11.482727,-0.015391,-0.002760,25.101435,-0.021830,-0.000496,0.001728,1.570504,-0.006025,0.000010,0.000063,-0.000001,-0.000316,0.000000,0.010685,0.000389,0.253344,0.043420,0.177865,0.177865,0.175803,0.943125,0.000000,0.000000,0.000000,0.000000,0.000000,0.000000,0.000000,0.000000,0.000000,0.000000,0.000000,0.000000,0.245834,3,0
460000,-0.000394,11.740633,-0.015117,-0.002773,25.110537,-0.021839,-0.000505,0.001935,1.570497,-0.006652,0.000011,0.000017,-0.000001,-0.000358,0.000000,0.008856,0.000406,0.233367,0.017113,0.177237,0.177236,0.174847,0.938025,0.000000,0.000000,0.000000,0.000000,0.000000,0.000000,0.000000,0.000000,0.000000,0.000000,0.000000,0.000000,0.226474,3,0
470000,-0.000410,11.996283,-0.016441,-0.002822,25.116703,-0.023564,-0.000508,0.002071,1.570488,-0.007082,0.000012,0.000123,-0.000001,-0.000388,0.000000,0.004084,0.000422,0.154279,-0.038020,0.176726,0.176726,0.174006,0.932737,0.000000,0.000000,0.000000,0.000000,0.000000,0.000000,0.000000,0.000000,0.000000,0.000000,0.000000,0.000000,0.149735,3,0
480000,-0.000426,12.251478,-0.016511,-0.002894,25.122259,-0.023615,-0.000511,0.002203,1.570488,-0.007477,0.000013,0.000106,-0.000001,-0.000416,0.000000,0.003047,0.000439,0.137116,0.005836,0.176326,0.176326,0.173271,0.927264,0.000000,0.000000,0.000000,0.000000,0.000000,0.000000,0.000000,0.000000,0.000000,0.000000,0.000000,0.000000,0.133088,3,0
490000,-0.000442,12.508565,-0.017676,-0.002980,25.130497,-0.025236,-0.000525,0.002403,1.570477,-0.008072,0.000014,0.000202,-0.000001,-0.000459,0.000000,0.006634,0.000456,0.199928,-0.032143,0.176027,0.176027,0.172634,0.921610,0.000000,0.000000,0.000000,0.000000,0.000000,0.000000,0.000000,0.000000,0.000000,0.000000,0.000000,0.000000,0.194064,3,0
500000,-0.000459,12.763437,-0.016734,-0.003054,25.135748,-0.023988,-0.000540,0.002529,1.570470,-0.008446,0.000016,0.000073,-0.000001,-0.000486,0.000000,0.002677,0.000473,0.121666,0.041738,0.175823,0.175822,0.172087,0.915781,0.000000,0.000000,0.000000,0.000000,0.000000,0.000000,0.000000,0.000000,0.000000,0.000000,0.000000,0.000000,0.118101,3,0
510000,-0.000476,13.021372,-0.016477,-0.003057,25.145411,-0.023770,-0.000544,0.002770,1.570471,-0.009158,0.000017,0.000017,-0.000001,-0.000540,0.000000,0.008208,0.000490,0.224563,0.017497,0.175705,0.175705,0.171622,0.909781,0.000000,0.000000,0.000000,0.000000,0.000000,0.000000,0.000000,0.000000,0.000000,0.000000,0.000000,0.000000,0.217987,3,0
520000,-0.000493,13.279412,-0.015460,-0.003215,25.155214,-0.022726,-0.000559,0.003027,1.570457,-0.009894,0.000019,-0.000128,-0.000001,-0.000597,0.000000,0.008503,0.000508,0.224957,0.044176,0.175669,0.175669,0.171234,0.903617,0.000000,0.000000,0.000000,0.000000,0.000000,0.000000,0.000000,0.000000,0.000000,0.000000,0.000000,0.000000,0.218372,3,0
530000,-0.000512,13.535233,-0.015288,-0.003392,25.161734,-0.022684,-0.000570,0.003193,1.570441,-0.010384,0.000021,-0.000176,-0.000001,-0.000635,0.000000,0.003468,0.000527,0.145730,0.014182,0.175707,0.175707,0.170914,0.897295,0.000000,0.000000,0.000000,0.000000,0.000000,0.000000,0.000000,0.000000,0.000000,0.000000,0.000000,0.000000,0.141463,3,0
540000,-0.000530,13.794109,-0.015709,-0.003397,25.173018,-0.023279,-0.000579,0.003498,1.570441,-0.011242,0.000022,-0.000153,-0.000001,-0.000704,0.000000,0.009931,0.000546,0.247663,-0.006720,0.175813,0.175813,0.170658,0.890821,0.000000,0.000000,0.000000,0.000000,0.000000,0.000000,0.000000,0.000000,0.000000,0.000000,0.000000,0.000000,0.240406,3,0
550000,-0.000548,14.050757,-0.015058,-0.003424,25.180872,-0.022562,-0.000587,0.003712,1.570433,-0.011838,0.000024,-0.000266,-0.000002,-0.000753,0.000000,0.004702,0.000565,0.167583,0.031279,0.175982,0.175982,0.170460,0.884202,0.000000,0.000000,0.000000,0.000000,0.000000,0.000000,0.000000,0.000000,0.000000,0.000000,0.000000,0.000000,0.162669,3,0
560000,-0.000567,14.308123,-0.015154,-0.003538,25.189663,-0.022738,-0.000592,0.003947,1.570422,-0.012529,0.000026,-0.000283,-0.000002,-0.000811,0.000000,0.005792,0.000584,0.189162,0.004670,0.176208,0.176208,0.170314,0.877445,0.000000,0.000000,0.000000,0.000000,0.000000,0.000000,0.000000,0.000000,0.000000,0.000000,0.000000,0.000000,0.183608,3,0
570000,-0.000585,14.564445,-0.014197,-0.003572,25.196926,-0.021382,-0.000610,0.004152,1.570413,-0.013093,0.000029,-0.000442,-0.000002,-0.000860,0.000000,0.003942,0.000603,0.150375,0.041849,0.176486,0.176486,0.170214,0.870557,0.000000,0.000000,0.000000,0.000000,0.000000,0.000000,0.000000,0.000000,0.000000,0.000000,0.000000,0.000000,0.145953,3,0
580000,-0.000602,14.823838,-0.013169,-0.003568,25.209078,-0.020086,-0.000614,0.004496,1.570415,-0.014060,0.000031,-0.000614,-0.000002,-0.000944,0.000000,0.010569,0.000621,0.251801,0.043940,0.176812,0.176812,0.170157,0.863545,0.000000,0.000000,0.000000,0.000000,0.000000,0.000000,0.000000,0.000000,0.000000,0.000000,0.000000,0.000000,0.244381,3,0
590000,-0.000619,15.079813,-0.014983,-0.003550,25.215548,-0.022993,-0.000620,0.004688,1.570415,-0.014577,0.000033,-0.000387,-0.000002,-0.000990,0.000000,0.003315,0.000638,0.131440,-0.056702,0.177180,0.177180,0.170138,0.856418,0.000000,0.000000,0.000000,0.000000,0.000000,0.000000,0.000000,0.000000,0.000000,0.000000,0.000000,0.000000,0.127560,3,0
600000,-0.000637,15.339461,-0.015157,-0.003682,25.227930,-0.023396,-0.000625,0.005051,1.570404,-0.015596,0.000036,-0.000396,-0.000003,-0.001083,0.000001,0.010361,0.000657,0.253099,0.002121,0.177586,0.177586,0.170152,0.849183,0.000000,0.000000,0.000000,0.000000,0.000000,0.000000,0.000000,0.000000,0.000000,0.000000,0.000000,0.000000,0.245609,3,0
610000,-0.000655,15.598625,-0.016152,-0.003795,25.239628,-0.025113,-0.000638,0.005395,1.570406,-0.016551,0.000038,-0.000285,-0.000003,-0.001171,0.000001,0.008810,0.000675,0.231873,-0.026632,0.178027,0.178027,0.170195,0.841847,0.000000,0.000000,0.000000,0.000000,0.000000,0.000000,0.000000,0.000000,0.000000,0.000000,0.000000,0.000000,0.224994,3,0
620000,-0.000673,15.855534,-0.016853,-0.003829,25.247551,-0.026092,-0.000643,0.005631,1.570405,-0.017188,0.000041,-0.000217,-0.000003,-0.001231,0.000001,0.003752,0.000694,0.151501,-0.015733,0.178498,0.178498,0.170264,0.834420,0.000000,0.000000,0.000000,0.000000,0.000000,0.000000,0.000000,0.000000,0.000000,0.000000,0.000000,0.000000,0.146995,3,0
630000,-0.000691,16.114355,-0.016670,-0.003805,25.258547,-0.025702,-0.000662,0.005981,1.570391,-0.018101,0.000044,-0.000287,-0.000003,-0.001319,0.000001,0.007347,0.000712,0.212576,0.015693,0.178995,0.178995,0.170355,0.826909,0.000000,0.000000,0.000000,0.000000,0.000000,0.000000,0.000000,0.000000,0.000000,0.000000,0.000000,0.000000,0.206235,3,0
640000,-0.000707,16.370911,-0.016145,-0.003809,25.265652,-0.024868,-0.000671,0.006198,1.570389,-0.018682,0.000047,-0.000411,-0.000004,-0.001376,0.000001,0.002965,0.000729,0.132555,0.027632,0.179516,0.179516,0.170465,0.819322,0.000000,0.000000,0.000000,0.000000,0.000000,0.000000,0.000000,0.000000,0.000000,0.000000,0.000000,0.000000,0.128592,3,0
650000,-0.000725,16.629992,-0.017583,-0.003982,25.276958,-0.027037,-0.000675,0.006566,1.570387,-0.019638,0.000050,-0.000220,-0.000004,-0.001471,0.000001,0.007676,0.000747,0.213869,-0.041712,0.180056,0.180056,0.170591,0.811668,0.000000,0.000000,0.000000,0.000000,0.000000,0.000000,0.000000,0.000000,0.000000,0.000000,0.000000,0.000000,0.207452,3,0
660000,-0.000742,16.886190,-0.018231,-0.004008,25.283220,-0.028178,-0.000687,0.006773,1.570387,-0.020156,0.000054,-0.000159,-0.000004,-0.001524,0.000001,0.002118,0.000765,0.113707,-0.013094,0.180613,0.180613,0.170729,0.803954,0.000000,0.000000,0.000000,0.000000,0.000000,0.000000,0.000000,0.000000,0.000000,0.000000,0.000000,0.000000,0.110285,3,0
670000,-0.000759,17.144928,-0.018542,-0.004021,25.293755,-0.028677,-0.000692,0.007132,1.570387,-0.021062,0.000057,-0.000156,-0.000005,-0.001618,0.000001,0.006171,0.000783,0.195387,-0.000871,0.181184,0.181184,0.170877,0.796189,0.000000,0.000000,0.000000,0.000000,0.000000,0.000000,0.000000,0.000000,0.000000,0.000000,0.000000,0.000000,0.189489,3,0
680000,-0.000777,17.405586,-0.019118,-0.004173,25.307592,-0.029673,-0.000701,0.007609,1.570383,-0.022263,0.000061,-0.000108,-0.000005,-0.001744,0.000001,0.010493,0.000802,0.254604,-0.009972,0.181766,0.181766,0.171032,0.788380,0.000000,0.000000,0.000000,0.000000,0.000000,0.000000,0.000000,0.000000,0.000000,0.000000,0.000000,0.000000,0.246892,3,0
690000,-0.000795,17.663313,-0.019017,-0.004221,25.316233,-0.029541,-0.000717,0.007892,1.570381,-0.022997,0.000065,-0.000178,-0.000006,-0.001823,0.000001,0.003807,0.000820,0.152842,0.014090,0.182357,0.182356,0.171193,0.780536,0.000000,0.000000,0.000000,0.000000,0.000000,0.000000,0.000000,0.000000,0.000000,0.000000,0.000000,0.000000,0.148199,3,0
700000,-0.000814,17.921162,-0.020375,-0.004363,25.325027,-0.031744,-0.000720,0.008201,1.570376,-0.023745,0.000068,0.000008,-0.000006,-0.001904,0.000001,0.004027,0.000839,0.153452,-0.037008,0.182953,0.182953,0.171357,0.772664,0.000000,0.000000,0.000000,0.000000,0.000000,0.000000,0.000000,0.000000,0.000000,0.000000,0.000000,0.000000,0.148775,3,0
710000,-0.000832,18.182169,-0.021196,-0.004443,25.339214,-0.032849,-0.000726,0.008701,1.570362,-0.025001,0.000072,0.000098,-0.000006,-0.002044,0.000001,0.010419,0.000858,0.253336,-0.017531,0.183553,0.183553,0.171521,0.764771,0.000000,0.000000,0.000000,0.000000,0.000000,0.000000,0.000000,0.000000,0.000000,0.000000,0.000000,0.000000,0.245588,3,0
720000,-0.000852,18.440819,-0.021686,-0.004591,25.348999,-0.033702,-0.000731,0.009061,1.570355,-0.025861,0.000077,0.000125,-0.000007,-0.002141,0.000001,0.004734,0.000879,0.171099,-0.005423,0.184156,0.184156,0.171685,0.756867,0.000000,0.000000,0.000000,0.000000,0.000000,0.000000,0.000000,0.000000,0.000000,0.000000,0.000000,0.000000,0.165850,3,0
730000,-0.000871,18.702026,-0.023209,-0.004650,25.363256,-0.035998,-0.000743,0.009573,1.570353,-0.027139,0.000081,0.000344,-0.000007,-0.002288,0.000001,0.010395,0.000899,0.250288,-0.041277,0.184758,0.184758,0.171846,0.748957,0.000000,0.000000,0.000000,0.000000,0.000000,0.000000,0.000000,0.000000,0.000000,0.000000,0.000000,0.000000,0.242582,3,0
740000,-0.000891,18.962084,-0.023709,-0.004743,25.375395,-0.036864,-0.000745,0.010011,1.570341,-0.028214,0.000086,0.000368,-0.000008,-0.002414,0.000001,0.006965,0.000919,0.207605,-0.004657,0.185359,0.185358,0.172003,0.741050,0.000000,0.000000,0.000000,0.000000,0.000000,0.000000,0.000000,0.000000,0.000000,0.000000,0.000000,0.000000,0.201193,3,0
750000,-0.000909,19.223459,-0.022721,-0.004716,25.389631,-0.035234,-0.000754,0.010546,1.570326,-0.029502,0.000090,0.000106,-0.000009,-0.002567,0.000001,0.010106,0.000938,0.245611,0.047404,0.185956,0.185956,0.172154,0.733151,0.000000,0.000000,0.000000,0.000000,0.000000,0.000000,0.000000,0.000000,0.000000,0.000000,0.000000,0.000000,0.238001,3,0
760000,-0.000927,19.481817,-0.024140,-0.004703,25.398508,-0.037260,-0.000770,0.010878,1.570324,-0.030263,0.000095,0.000312,-0.000009,-0.002659,0.000001,0.003530,0.000957,0.143124,-0.037007,0.186548,0.186548,0.172299,0.725267,0.000000,0.000000,0.000000,0.000000,0.000000,0.000000,0.000000,0.000000,0.000000,0.000000,0.000000,0.000000,0.138677,3,0
770000,-0.000944,19.741516,-0.025237,-0.004734,25.409554,-0.038932,-0.000773,0.011293,1.570308,-0.031247,0.000100,0.000453,-0.000010,-0.002780,0.000001,0.005501,0.000975,0.182861,-0.025019,0.187135,0.187135,0.172435,0.717406,0.000000,0.000000,0.000000,0.000000,0.000000,0.000000,0.000000,0.000000,0.000000,0.000000,0.000000,0.000000,0.177161,3,0
780000,-0.000962,20.003788,-0.025829,-0.004815,25.424845,-0.039816,-0.000775,0.011886,1.570306,-0.032669,0.000105,0.000491,-0.000010,-0.002958,0.000002,0.011006,0.000993,0.260994,-0.006881,0.187714,0.187714,0.172562,0.709573,0.000000,0.000000,0.000000,0.000000,0.000000,0.000000,0.000000,0.000000,0.000000,0.000000,0.000000,0.000000,0.252830,3,0
790000,-0.000981,20.264240,-0.027158,-0.004961,25.436775,-0.041513,-0.000777,0.012349,1.570299,-0.033756,0.000111,0.000678,-0.000011,-0.003096,0.000002,0.006456,0.001012,0.197357,-0.032253,0.188285,0.188284,0.172680,0.701775,0.000000,0.000000,0.000000,0.000000,0.000000,0.000000,0.000000,0.000000,0.000000,0.000000,0.000000,0.000000,0.191167,3,0
800000,-0.000998,20.524763,-0.027216,-0.004927,25.448700,-0.041376,-0.000777,0.012820,1.570293,-0.034844,0.000116,0.000602,-0.000012,-0.003237,0.000002,0.006177,0.001030,0.195211,0.012515,0.188846,0.188846,0.172786,0.694017,0.000000,0.000000,0.000000,0.000000,0.000000,0.000000,0.000000,0.000000,0.000000,0.000000,0.000000,0.000000,0.189070,3,0
810000,-0.001016,20.786610,-0.028193,-0.005046,25.462885,-0.042778,-0.000786,0.013404,1.570295,-0.036154,0.000122,0.000716,-0.000013,-0.003409,0.000002,0.008805,0.001049,0.232752,-0.019338,0.189397,0.189397,0.172881,0.686304,0.000000,0.000000,0.000000,0.000000,0.000000,0.000000,0.000000,0.000000,0.000000,0.000000,0.000000,0.000000,0.225407,3,0
820000,-0.001034,21.044102,-0.027702,-0.005178,25.469252,-0.041964,-0.000803,0.013643,1.570279,-0.036666,0.000128,0.000520,-0.000013,-0.003477,0.000002,0.001475,0.001068,0.090036,0.032047,0.189938,0.189938,0.172964,0.678642,0.000000,0.000000,0.000000,0.000000,0.000000,0.000000,0.000000,0.000000,0.000000,0.000000,0.000000,0.000000,0.087193,3,0
830000,-0.001053,21.304848,-0.027617,-0.005227,25.481224,-0.041533,-0.000812,0.014145,1.570277,-0.037759,0.000134,0.000410,-0.000014,-0.003626,0.000002,0.005894,0.001087,0.190302,0.017587,0.190467,0.190467,0.173034,0.671036,0.000000,0.000000,0.000000,0.000000,0.000000,0.000000,0.000000,0.000000,0.000000,0.000000,0.000000,0.000000,0.184264,3,0
840000,-0.001070,21.565022,-0.026497,-0.005223,25.492102,-0.039881,-0.000829,0.014591,1.570261,-0.038732,0.000140,0.000075,-0.000015,-0.003760,0.000002,0.005015,0.001106,0.167980,0.053428,0.190984,0.190984,0.173091,0.663491,0.000000,0.000000,0.000000,0.000000,0.000000,0.000000,0.000000,0.000000,0.000000,0.000000,0.000000,0.000000,0.162637,3,0
850000,-0.001089,21.824625,-0.025549,-0.005362,25.501740,-0.038512,-0.000828,0.015001,1.570245,-0.039587,0.000146,-0.000223,-0.000016,-0.003880,0.000002,0.003807,0.001125,0.146244,0.046886,0.191489,0.191488,0.173135,0.656011,0.000000,0.000000,0.000000,0.000000,0.000000,0.000000,0.000000,0.000000,0.000000,0.000000,0.000000,0.000000,0.141581,3,0
860000,-0.001108,22.086842,-0.026900,-0.005519,25.515970,-0.040389,-0.000831,0.015608,1.570233,-0.040912,0.000153,-0.000013,-0.000017,-0.004069,0.000002,0.008310,0.001144,0.224485,-0.033306,0.191981,0.191980,0.173165,0.648600,0.000000,0.000000,0.000000,0.000000,0.000000,0.000000,0.000000,0.000000,0.000000,0.000000,0.000000,0.000000,0.217305,3,0
870000,-0.001127,22.348454,-0.027935,-0.005568,25.528872,-0.041828,-0.000834,0.016171,1.570231,-0.042106,0.000159,0.000125,-0.000018,-0.004242,0.000002,0.006573,0.001164,0.200674,-0.021661,0.192459,0.192459,0.173181,0.641263,0.000000,0.000000,0.000000,0.000000,0.000000,0.000000,0.000000,0.000000,0.000000,0.000000,0.000000,0.000000,0.194240,3,0
880000,-0.001146,22.609465,-0.027895,-0.005614,25.540556,-0.041732,-0.000844,0.016669,1.570221,-0.043170,0.000166,0.000018,-0.000019,-0.004398,0.000002,0.005123,0.001184,0.177481,0.016077,0.192925,0.192924,0.173183,0.634002,0.000000,0.000000,0.000000,0.000000,0.000000,0.000000,0.000000,0.000000,0.000000,0.000000,0.000000,0.000000,0.171778,3,0
890000,-0.001164,22.871161,-0.028878,-0.005688,25.553358,-0.042975,-0.000846,0.017236,1.570211,-0.044346,0.000173,0.000144,-0.000020,-0.004574,0.000003,0.006173,0.001203,0.194654,-0.019445,0.193377,0.193376,0.173170,0.626822,0.000000,0.000000,0.000000,0.000000,0.000000,0.000000,0.000000,0.000000,0.000000,0.000000,0.000000,0.000000,0.188385,3,0
900000,-0.001183,23.130964,-0.028444,-0.005731,25.562687,-0.042328,-0.000853,0.017635,1.570208,-0.045146,0.000181,-0.000060,-0.000021,-0.004695,0.000003,0.002941,0.001222,0.131618,0.030138,0.193816,0.193815,0.173144,0.619725,0.000000,0.000000,0.000000,0.000000,0.000000,0.000000,0.000000,0.000000,0.000000,0.000000,0.000000,0.000000,0.127373,3,0
910000,-0.001202,23.392111,-0.027864,-0.005832,25.574244,-0.041205,-0.000856,0.018152,1.570207,-0.046186,0.000188,-0.000299,-0.000022,-0.004855,0.000003,0.004853,0.001242,0.169907,0.034919,0.194241,0.194240,0.173103,0.612714,0.000000,0.000000,0.000000,0.000000,0.000000,0.000000,0.000000,0.000000,0.000000,0.000000,0.000000,0.000000,0.164410,3,0
920000,-0.001219,23.651358,-0.028586,-0.005796,25.582355,-0.042314,-0.000859,0.018500,1.570198,-0.046848,0.000196,-0.000229,-0.000023,-0.004959,0.000003,0.001879,0.001260,0.107431,-0.010510,0.194653,0.194652,0.173048,0.605793,0.000000,0.000000,0.000000,0.000000,0.000000,0.000000,0.000000,0.000000,0.000000,0.000000,0.000000,0.000000,0.103954,3,0
930000,-0.001237,23.911957,-0.029854,-0.005823,25.592735,-0.044149,-0.000861,0.018969,1.570182,-0.047756,0.000203,-0.000031,-0.000025,-0.005103,0.000003,0.003588,0.001278,0.146288,-0.029072,0.195051,0.195050,0.172979,0.598963,0.000000,0.000000,0.000000,0.000000,0.000000,0.000000,0.000000,0.000000,0.000000,0.000000,0.000000,0.000000,0.141538,3,0
940000,-0.001255,24.171947,-0.029651,-0.005940,25.601814,-0.043794,-0.000864,0.019378,1.570170,-0.048530,0.000211,-0.000190,-0.000026,-0.005228,0.000003,0.002567,0.001297,0.124130,0.022593,0.195436,0.195436,0.172896,0.592227,0.000000,0.000000,0.000000,0.000000,0.000000,0.000000,0.000000,0.000000,0.000000,0.000000,0.000000,0.000000,0.120093,3,0
950000,-0.001272,24.431984,-0.030555,-0.005930,25.610918,-0.044952,-0.000871,0.019789,1.570164,-0.049298,0.000219,-0.000080,-0.000027,-0.005354,0.000003,0.002460,0.001315,0.122477,-0.016008,0.195809,0.195808,0.172799,0.585587,0.000000,0.000000,0.000000,0.000000,0.000000,0.000000,0.000000,0.000000,0.000000,0.000000,0.000000,0.000000,0.118486,3,0
960000,-0.001289,24.694012,-0.029814,-0.005959,25.623375,-0.043646,-0.000885,0.020369,1.570149,-0.050435,0.000227,-0.000379,-0.000029,-0.005543,0.000003,0.005527,0.001332,0.180410,0.041554,0.196169,0.196167,0.172689,0.579044,0.000000,0.000000,0.000000,0.000000,0.000000,0.000000,0.000000,0.000000,0.000000,0.000000,0.000000,0.000000,0.174518,3,0
970000,-0.001305,24.954752,-0.028571,-0.005953,25.633469,-0.041673,-0.000884,0.020840,1.570133,-0.051301,0.000236,-0.000802,-0.000030,-0.005689,0.000003,0.003578,0.001349,0.136925,0.058568,0.196516,0.196515,0.172566,0.572600,0.000000,0.000000,0.000000,0.000000,0.000000,0.000000,0.000000,0.000000,0.000000,0.000000,0.000000,0.000000,0.132447,3,0
980000,-0.001320,25.214220,-0.029624,-0.005975,25.641283,-0.042929,-0.000885,0.021189,1.570126,-0.051905,0.000244,-0.000645,-0.000032,-0.005793,0.000003,0.001526,0.001365,0.094751,-0.021991,0.196851,0.196850,0.172429,0.566258,0.000000,0.000000,0.000000,0.000000,0.000000,0.000000,0.000000,0.000000,0.000000,0.000000,0.000000,0.000000,0.091652,3,0
990000,-0.001336,25.474384,-0.028713,-0.006003,25.650074,-0.041603,-0.000883,0.021598,1.570122,-0.052629,0.000253,-0.000990,-0.000033,-0.005919,0.000003,0.002434,0.001381,0.113510,0.046924,0.197175,0.197173,0.172280,0.560016,0.000000,0.000000,0.000000,0.000000,0.000000,0.000000,0.000000,0.000000,0.000000,0.000000,0.000000,0.000000,0.109789,3,0
1000000,-0.001350,25.735891,-0.029469,-0.005997,25.661146,-0.042424,-0.000899,0.022132,1.570115,-0.053602,0.000262,-0.000908,-0.000035,-0.006091,0.000004,0.003719,0.001396,0.151442,-0.011684,0.197487,0.197485,0.172119,0.553878,0.000000,0.000000,0.000000,0.000000,0.000000,0.000000,0.000000,0.000000,0.000000,0.000000,0.000000,0.000000,0.146464,3,0
1010000,-0.001365,25.994791,-0.028201,-0.006006,25.667524,-0.040642,-0.000900,0.022400,1.570117,-0.054043,0.000271,-0.001350,-0.000036,-0.006170,0.000004,0.001331,0.001411,0.068731,0.059287,0.197788,0.197786,0.171945,0.547843,0.000000,0.000000,0.000000,0.000000,0.000000,0.000000,0.000000,0.000000,0.000000,0.000000,0.000000,0.000000,0.066481,3,0
1020000,-0.001379,26.253740,-0.029128,-0.006069,25.673899,-0.041671,-0.000904,0.022680,1.570103,-0.054484,0.000280,-0.001217,-0.000038,-0.006251,0.000004,0.000803,0.001426,0.068195,-0.018063,0.198078,0.198076,0.171760,0.541912,0.000000,0.000000,0.000000,0.000000,0.000000,0.000000,0.000000,0.000000,0.000000,0.000000,0.000000,0.000000,0.065959,3,0
1030000,-0.001394,26.514711,-0.030638,-0.006205,25.683664,-0.043583,-0.000910,0.023152,1.570096,-0.055311,0.000289,-0.000933,-0.000040,-0.006403,0.000004,0.002844,0.001442,0.127245,-0.038036,0.198358,0.198356,0.171564,0.536085,0.000000,0.000000,0.000000,0.000000,0.000000,0.000000,0.000000,0.000000,0.000000,0.000000,0.000000,0.000000,0.123045,3,0
1040000,-0.001409,26.777674,-0.031857,-0.006191,25.696976,-0.045152,-0.000914,0.023834,1.570097,-0.056510,0.000298,-0.000732,-0.000041,-0.006629,0.000004,0.005590,0.001457,0.184237,-0.027175,0.198628,0.198626,0.171356,0.530365,0.000000,0.000000,0.000000,0.000000,0.000000,0.000000,0.000000,0.000000,0.000000,0.000000,0.000000,0.000000,0.178142,3,0
1050000,-0.001423,27.036665,-0.030807,-0.006154,25.703009,-0.043427,-0.000913,0.024095,1.570088,-0.056902,0.000307,-0.001139,-0.000043,-0.006703,0.000004,0.001038,0.001472,0.060293,0.052806,0.198889,0.198887,0.171138,0.524749,0.000000,0.000000,0.000000,0.000000,0.000000,0.000000,0.000000,0.000000,0.000000,0.000000,0.000000,0.000000,0.058314,3,0
1060000,-0.001436,27.297682,-0.030901,-0.006164,25.712606,-0.043619,-0.000928,0.024558,1.570076,-0.057682,0.000317,-0.001238,-0.000045,-0.006854,0.000004,0.002318,0.001485,0.119303,0.012270,0.199141,0.199139,0.170910,0.519238,0.000000,0.000000,0.000000,0.000000,0.000000,0.000000,0.000000,0.000000,0.000000,0.000000,0.000000,0.000000,0.115352,3,0
1070000,-0.001448,27.558708,-0.030566,-0.006172,25.722128,-0.043066,-0.000938,0.025024,1.570076,-0.058446,0.000327,-0.001455,-0.000047,-0.007004,0.000004,0.002313,0.001498,0.116617,0.027351,0.199385,0.199382,0.170672,0.513833,0.000000,0.000000,0.000000,0.000000,0.000000,0.000000,0.000000,0.000000,0.000000,0.000000,0.000000,0.000000,0.112753,3,0
1080000,-0.001461,27.819746,-0.031226,-0.006183,25.731426,-0.043886,-0.000942,0.025482,1.570069,-0.059195,0.000336,-0.001398,-0.000049,-0.007153,0.000004,0.002101,0.001511,0.113920,-0.007798,0.199620,0.199617,0.170425,0.508533,0.000000,0.000000,0.000000,0.000000,0.000000,0.000000,0.000000,0.000000,0.000000,0.000000,0.000000,0.000000,0.110140,3,0
1090000,-0.001474,28.080130,-0.032504,-0.006304,25.739565,-0.045539,-0.000941,0.025882,1.570059,-0.059797,0.000346,-0.001169,-0.000051,-0.007275,0.000004,0.001484,0.001525,0.091337,-0.029345,0.199848,0.199845,0.170169,0.503338,0.000000,0.000000,0.000000,0.000000,0.000000,0.000000,0.000000,0.000000,0.000000,0.000000,0.000000,0.000000,0.088307,3,0
1100000,-0.001487,28.338543,-0.031968,-0.006361,25.744173,-0.044670,-0.000951,0.026049,1.570047,-0.059991,0.000356,-0.001451,-0.000053,-0.007315,0.000004,0.000343,0.001539,0.029657,0.035200,0.200068,0.200065,0.169904,0.498248,0.000000,0.000000,0.000000,0.000000,0.000000,0.000000,0.000000,0.000000,0.000000,0.000000,0.000000,0.000000,0.028708,3,0
1110000,-0.001501,28.602310,-0.032726,-0.006467,25.758060,-0.045569,-0.000963,0.026813,1.570042,-0.061237,0.000366,-0.001373,-0.000055,-0.007574,0.000005,0.005753,0.001553,0.188658,-0.010686,0.200282,0.200279,0.169631,0.493261,0.000000,0.000000,0.000000,0.000000,0.000000,0.000000,0.000000,0.000000,0.000000,0.000000,0.000000,0.000000,0.182366,3,0
1120000,-0.001515,28.864048,-0.033404,-0.006584,25.768211,-0.046507,-0.000978,0.027347,1.570026,-0.062054,0.000376,-0.001317,-0.000057,-0.007746,0.000005,0.002468,0.001568,0.123539,-0.007542,0.200490,0.200486,0.169351,0.488377,0.000000,0.000000,0.000000,0.000000,0.000000,0.000000,0.000000,0.000000,0.000000,0.000000,0.000000,0.000000,0.119421,3,0
1130000,-0.001529,29.124447,-0.032905,-0.006619,25.775928,-0.045695,-0.000979,0.027726,1.570021,-0.062584,0.000387,-0.001601,-0.000060,-0.007860,0.000005,0.001233,0.001582,0.080368,0.034475,0.200691,0.200688,0.169063,0.483597,0.000000,0.000000,0.000000,0.000000,0.000000,0.000000,0.000000,0.000000,0.000000,0.000000,0.000000,0.000000,0.077696,3,0
1140000,-0.001543,29.387520,-0.032188,-0.006620,25.788206,-0.044804,-0.000975,0.028390,1.570014,-0.063627,0.000397,-0.001954,-0.000062,-0.008087,0.000005,0.004301,0.001597,0.157833,0.042146,0.200888,0.200884,0.168768,0.478918,0.000000,0.000000,0.000000,0.000000,0.000000,0.000000,0.000000,0.000000,0.000000,0.000000,0.000000,0.000000,0.152558,3,0
1150000,-0.001556,29.649231,-0.032888,-0.006650,25.797955,-0.045777,-0.000974,0.028900,1.570003,-0.064378,0.000407,-0.001889,-0.000064,-0.008252,0.000005,0.002080,0.001610,0.113304,-0.008620,0.201079,0.201075,0.168466,0.474340,0.000000,0.000000,0.000000,0.000000,0.000000,0.000000,0.000000,0.000000,0.000000,0.000000,0.000000,0.000000,0.109518,3,0
1160000,-0.001571,29.912931,-0.034251,-0.006783,25.811140,-0.047330,-0.000976,0.029623,1.569999,-0.065503,0.000417,-0.001631,-0.000066,-0.008504,0.000005,0.004797,0.001625,0.169559,-0.031957,0.201266,0.201261,0.168159,0.469863,0.000000,0.000000,0.000000,0.000000,0.000000,0.000000,0.000000,0.000000,0.000000,0.000000,0.000000,0.000000,0.163877,3,0
1170000,-0.001586,30.176586,-0.034412,-0.006917,25.824087,-0.047290,-0.000989,0.030340,1.569992,-0.066590,0.000428,-0.001736,-0.000069,-0.008751,0.000005,0.004362,0.001641,0.164148,0.011507,0.201449,0.201444,0.167845,0.465485,0.000000,0.000000,0.000000,0.000000,0.000000,0.000000,0.000000,0.000000,0.000000,0.000000,0.000000,0.000000,0.158646,3,0
1180000,-0.001601,30.435520,-0.034506,-0.006991,25.828556,-0.047359,-0.000999,0.030489,1.569994,-0.066720,0.000439,-0.001853,-0.000071,-0.008781,0.000005,0.000093,0.001657,0.019638,0.013782,0.201628,0.201623,0.167527,0.461205,0.000000,0.000000,0.000000,0.000000,0.000000,0.000000,0.000000,0.000000,0.000000,0.000000,0.000000,0.000000,0.019046,3,0
1190000,-0.001616,30.693815,-0.035600,-0.007038,25.831873,-0.048794,-0.000997,0.030562,1.569997,-0.066715,0.000450,-0.001666,-0.000074,-0.008780,0.000005,0.000079,0.001672,-0.000793,-0.022040,0.201804,0.201798,0.167203,0.457022,0.000000,0.000000,0.000000,0.000000,0.000000,0.000000,0.000000,0.000000,0.000000,0.000000,0.000000,0.000000,0.001790,3,0
1200000,-0.001632,30.956829,-0.036654,-0.007132,25.843531,-0.050144,-0.000995,0.031192,1.569994,-0.067633,0.000461,-0.001505,-0.000077,-0.008998,0.000006,0.003152,0.001689,0.138456,-0.019911,0.201977,0.201971,0.166874,0.452935,0.000000,0.000000,0.000000,0.000000,0.000000,0.000000,0.000000,0.000000,0.000000,0.000000,0.000000,0.000000,0.133805,3,0
1210000,-0.001646,31.220472,-0.036875,-0.007102,25.855984,-0.050329,-0.001004,0.031904,1.569996,-0.068649,0.000472,-0.001604,-0.000079,-0.009243,0.000006,0.003820,0.001704,0.153633,0.010560,0.202147,0.202140,0.166542,0.448943,0.000000,0.000000,0.000000,0.000000,0.000000,0.000000,0.000000,0.000000,0.000000,0.000000,0.000000,0.000000,0.148468,3,0
1220000,-0.001661,31.482056,-0.037082,-0.007141,25.864805,-0.050612,-0.001003,0.032349,1.569998,-0.069234,0.000483,-0.001705,-0.000082,-0.009385,0.000006,0.001286,0.001719,0.088654,0.011073,0.202315,0.202308,0.166205,0.445045,0.000000,0.000000,0.000000,0.000000,0.000000,0.000000,0.000000,0.000000,0.000000,0.000000,0.000000,0.000000,0.085681,3,0
1230000,-0.001674,31.742281,-0.037545,-0.007113,25.871174,-0.050934,-0.001008,0.032632,1.569995,-0.069536,0.000494,-0.001724,-0.000085,-0.009460,0.000006,0.000337,0.001733,0.045649,0.001773,0.202481,0.202474,0.165865,0.441239,0.000000,0.000000,0.000000,0.000000,0.000000,0.000000,0.000000,0.000000,0.000000,0.000000,0.000000,0.000000,0.044139,3,0
1240000,-0.001688,32.000492,-0.036310,-0.007173,25.873789,-0.049280,-0.001001,0.032657,1.569994,-0.069428,0.000506,-0.002277,-0.000088,-0.009432,0.000006,0.000693,0.001747,-0.015852,0.063434,0.202645,0.202638,0.165522,0.437524,0.000000,0.000000,0.000000,0.000000,0.000000,0.000000,0.000000,0.000000,0.000000,0.000000,0.000000,0.000000,0.015407,3,0
1250000,-0.001701,32.260750,-0.035134,-0.007215,25.879974,-0.047766,-0.001009,0.032934,1.569980,-0.069714,0.000518,-0.002816,-0.000091,-0.009505,0.000006,0.000914,0.001761,0.043976,0.060930,0.202809,0.202801,0.165176,0.433898,0.000000,0.000000,0.000000,0.000000,0.000000,0.000000,0.000000,0.000000,0.000000,0.000000,0.000000,0.000000,0.042526,3,0
1260000,-0.001714,32.523026,-0.035734,-0.007165,25.889717,-0.048615,-0.001018,0.033463,1.569965,-0.070383,0.000529,-0.002788,-0.000094,-0.009678,0.000006,0.001669,0.001774,0.101719,-0.003998,0.202971,0.202963,0.164827,0.430361,0.000000,0.000000,0.000000,0.000000,0.000000,0.000000,0.000000,0.000000,0.000000,0.000000,0.000000,0.000000,0.098293,3,0
1270000,-0.001726,32.783924,-0.036645,-0.007151,25.896942,-0.049722,-0.001023,0.033813,1.569966,-0.070765,0.000540,-0.002657,-0.000097,-0.009778,0.000006,0.000580,0.001786,0.058010,-0.015164,0.203133,0.203124,0.164476,0.426911,0.000000,0.000000,0.000000,0.000000,0.000000,0.000000,0.000000,0.000000,0.000000,0.000000,0.000000,0.000000,0.056072,3,0
1280000,-0.001739,33.044811,-0.037029,-0.007255,25.903973,-0.050294,-0.001025,0.034152,1.569963,-0.071128,0.000552,-0.002702,-0.000100,-0.009875,0.000006,0.000499,0.001800,0.055466,0.004529,0.203294,0.203284,0.164123,0.423547,0.000000,0.000000,0.000000,0.000000,0.000000,0.000000,0.000000,0.000000,0.000000,0.000000,0.000000,0.000000,0.053613,3,0
1290000,-0.001752,33.305676,-0.035954,-0.007377,25.910831,-0.048797,-0.001035,0.034483,1.569947,-0.071470,0.000564,-0.003229,-0.000103,-0.009967,0.000006,0.001000,0.001813,0.052933,0.058153,0.203455,0.203445,0.163769,0.420266,0.000000,0.000000,0.000000,0.000000,0.000000,0.000000,0.000000,0.000000,0.000000,0.000000,0.000000,0.000000,0.051174,3,0
1300000,-0.001765,33.563831,-0.035053,-0.007473,25.912905,-0.047573,-0.001042,0.034453,1.569940,-0.071278,0.000576,-0.003689,-0.000107,-0.009913,0.000006,0.000560,0.001827,-0.029091,0.051105,0.203616,0.203605,0.163413,0.417068,0.000000,0.000000,0.000000,0.000000,0.000000,0.000000,0.000000,0.000000,0.000000,0.000000,0.000000,0.000000,0.028154,3,0
1310000,-0.001778,33.822689,-0.034045,-0.007468,25.916136,-0.046348,-0.001039,0.034508,1.569940,-0.071216,0.000588,-0.004187,-0.000110,-0.009895,0.000006,0.000501,0.001841,-0.008961,0.054848,0.203777,0.203766,0.163056,0.413952,0.000000,0.000000,0.000000,0.000000,0.000000,0.000000,0.000000,0.000000,0.000000,0.000000,0.000000,0.000000,0.008833,3,0
1320000,-0.001790,34.081566,-0.033145,-0.007411,25.919413,-0.045158,-0.001038,0.034561,1.569925,-0.071152,0.000600,-0.004648,-0.000114,-0.009877,0.000006,0.000427,0.001853,-0.009426,0.050435,0.203939,0.203928,0.162698,0.410915,0.000000,0.000000,0.000000,0.000000,0.000000,0.000000,0.000000,0.000000,0.000000,0.000000,0.000000,0.000000,0.009276,3,0
1330000,-0.001801,34.344517,-0.032972,-0.007397,25.929783,-0.044997,-0.001047,0.035153,1.569922,-0.071858,0.000612,-0.004875,-0.000117,-0.010078,0.000007,0.002017,0.001865,0.109364,0.023640,0.204102,0.204090,0.162340,0.407957,0.000000,0.000000,0.000000,0.000000,0.000000,0.000000,0.000000,0.000000,0.000000,0.000000,0.000000,0.000000,0.105660,3,0
1340000,-0.001813,34.606064,-0.031985,-0.007502,25.937614,-0.043703,-0.001044,0.035547,1.569918,-0.072273,0.000624,-0.005376,-0.000121,-0.010198,0.000007,0.001146,0.001877,0.064976,0.053588,0.204266,0.204253,0.161981,0.405076,0.000000,0.000000,0.000000,0.000000,0.000000,0.000000,0.000000,0.000000,0.000000,0.000000,0.000000,0.000000,0.062793,3,0
1350000,-0.001825,34.868938,-0.032428,-0.007491,25.947659,-0.044102,-0.001053,0.036109,1.569920,-0.072925,0.000636,-0.005388,-0.000124,-0.010390,0.000007,0.001660,0.001889,0.101536,0.000265,0.204430,0.204417,0.161623,0.402270,0.000000,0.000000,0.000000,0.000000,0.000000,0.000000,0.000000,0.000000,0.000000,0.000000,0.000000,0.000000,0.098093,3,0
1360000,-0.001836,35.128376,-0.033377,-0.007517,25.951529,-0.045356,-0.001051,0.036189,1.569913,-0.072910,0.000648,-0.005213,-0.000128,-0.010386,0.000007,0.000058,0.001901,-0.002411,-0.018697,0.204597,0.204582,0.161264,0.399538,0.000000,0.000000,0.000000,0.000000,0.000000,0.000000,0.000000,0.000000,0.000000,0.000000,0.000000,0.000000,0.002967,3,0
1370000,-0.001847,35.389168,-0.032824,-0.007539,25.957640,-0.044785,-0.001047,0.036455,1.569901,-0.073139,0.000660,-0.005573,-0.000132,-0.010454,0.000007,0.000446,0.001913,0.036297,0.037918,0.204764,0.204749,0.160906,0.396879,0.000000,0.000000,0.000000,0.000000,0.000000,0.000000,0.000000,0.000000,0.000000,0.000000,0.000000,0.000000,0.035110,3,0
1380000,-0.001859,35.651295,-0.032224,-0.007625,25.966087,-0.044012,-0.001055,0.036902,1.569893,-0.073604,0.000672,-0.005955,-0.000135,-0.010596,0.000007,0.001128,0.001925,0.073627,0.039623,0.204933,0.204917,0.160549,0.394291,0.000000,0.000000,0.000000,0.000000,0.000000,0.000000,0.000000,0.000000,0.000000,0.000000,0.000000,0.000000,0.071142,3,0
1390000,-0.001869,35.914055,-0.031049,-0.007586,25.975643,-0.042493,-0.001058,0.037428,1.569882,-0.074167,0.000685,-0.006543,-0.000139,-0.010771,0.000007,0.001901,0.001936,0.089722,0.061023,0.205103,0.205087,0.160192,0.391773,0.000000,0.000000,0.000000,0.000000,0.000000,0.000000,0.000000,0.000000,0.000000,0.000000,0.000000,0.000000,0.086682,3,0
1400000,-0.001880,36.172684,-0.030502,-0.007620,25.977608,-0.041851,-0.001054,0.037371,1.569870,-0.073951,0.000697,-0.006888,-0.000143,-0.010702,0.000007,0.000403,0.001947,-0.033981,0.036572,0.205276,0.205258,0.159837,0.389322,0.000000,0.000000,0.000000,0.000000,0.000000,0.000000,0.000000,0.000000,0.000000,0.000000,0.000000,0.000000,0.032868,3,0
1410000,-0.001889,36.434734,-0.031175,-0.007544,25.985743,-0.042780,-0.001052,0.037797,1.569854,-0.074360,0.000709,-0.006809,-0.000147,-0.010833,0.000007,0.000698,0.001956,0.065186,-0.009096,0.205450,0.205431,0.159482,0.386939,0.000000,0.000000,0.000000,0.000000,0.000000,0.000000,0.000000,0.000000,0.000000,0.000000,0.000000,0.000000,0.062982,3,0
1420000,-0.001899,36.698097,-0.030656,-0.007610,25.995996,-0.042263,-0.001056,0.038399,1.569853,-0.074988,0.000721,-0.007171,-0.000151,-0.011037,0.000007,0.001865,0.001967,0.101242,0.036383,0.205626,0.205606,0.159129,0.384621,0.000000,0.000000,0.000000,0.000000,0.000000,0.000000,0.000000,0.000000,0.000000,0.000000,0.000000,0.000000,0.097797,3,0
1430000,-0.001909,36.956627,-0.030858,-0.007699,25.997583,-0.042556,-0.001056,0.038279,1.569844,-0.074721,0.000734,-0.007247,-0.000155,-0.010949,0.000007,0.000309,0.001977,-0.042953,0.008368,0.205803,0.205783,0.158778,0.382367,0.000000,0.000000,0.000000,0.000000,0.000000,0.000000,0.000000,0.000000,0.000000,0.000000,0.000000,0.000000,0.041525,3,0
1440000,-0.001919,37.215168,-0.031395,-0.007705,25.999212,-0.043000,-0.001061,0.038156,1.569840,-0.074456,0.000746,-0.007199,-0.000159,-0.010860,0.000007,0.000302,0.001988,-0.043072,-0.004307,0.205983,0.205962,0.158428,0.380176,0.000000,0.000000,0.000000,0.000000,0.000000,0.000000,0.000000,0.000000,0.000000,0.000000,0.000000,0.000000,0.041640,3,0
1450000,-0.001929,37.473038,-0.032679,-0.007637,25.999565,-0.044623,-0.001051,0.037943,1.569828,-0.074071,0.000758,-0.006874,-0.000163,-0.010730,0.000007,0.000812,0.001997,-0.063080,-0.032487,0.206165,0.206143,0.158081,0.378046,0.000000,0.000000,0.000000,0.000000,0.000000,0.000000,0.000000,0.000000,0.000000,0.000000,0.000000,0.000000,0.060947,3,0
1460000,-0.001938,37.731609,-0.033842,-0.007678,26.001076,-0.045788,-0.001046,0.037837,1.569830,-0.073813,0.000771,-0.006600,-0.000168,-0.010641,0.000007,0.000415,0.002007,-0.042648,-0.027351,0.206348,0.206326,0.157735,0.375975,0.000000,0.000000,0.000000,0.000000,0.000000,0.000000,0.000000,0.000000,0.000000,0.000000,0.000000,0.000000,0.041229,3,0
1470000,-0.001946,37.991554,-0.033919,-0.007662,26.005043,-0.045960,-0.001049,0.037921,1.569815,-0.073793,0.000783,-0.006745,-0.000172,-0.010634,0.000007,0.000037,0.002016,-0.003052,0.014742,0.206534,0.206511,0.157392,0.373962,0.000000,0.000000,0.000000,0.000000,0.000000,0.000000,0.000000,0.000000,0.000000,0.000000,0.000000,0.000000,0.003530,3,0
1480000,-0.001955,38.250805,-0.034689,-0.007725,26.007772,-0.046673,-0.001051,0.037886,1.569816,-0.073646,0.000795,-0.006624,-0.000176,-0.010582,0.000007,0.000120,0.002025,-0.024490,-0.011837,0.206722,0.206697,0.157051,0.372006,0.000000,0.000000,0.000000,0.000000,0.000000,0.000000,0.000000,0.000000,0.000000,0.000000,0.000000,0.000000,0.023728,3,0
1490000,-0.001964,38.513481,-0.035763,-0.007768,26.016590,-0.047954,-0.001050,0.038374,1.569804,-0.074092,0.000807,-0.006409,-0.000181,-0.010743,0.000007,0.000966,0.002034,0.074051,-0.022647,0.206911,0.206886,0.156713,0.370106,0.000000,0.000000,0.000000,0.000000,0.000000,0.000000,0.000000,0.000000,0.000000,0.000000,0.000000,0.000000,0.071522,3,0
1500000,-0.001973,38.774040,-0.037079,-0.007769,26.021454,-0.049340,-0.001047,0.038539,1.569804,-0.074154,0.000819,-0.006091,-0.000185,-0.010767,0.000007,0.000182,0.002043,0.010075,-0.031907,0.207103,0.207077,0.156377,0.368259,0.000000,0.000000,0.000000,0.000000,0.000000,0.000000,0.000000,0.000000,0.000000,0.000000,0.000000,0.000000,0.009922,3,0
1510000,-0.001980,39.033199,-0.038046,-0.007681,26.023687,-0.050563,-0.001047,0.038474,1.569804,-0.073967,0.000831,-0.005904,-0.000189,-0.010698,0.000007,0.000217,0.002051,-0.031864,-0.018137,0.207297,0.207269,0.156044,0.366466,0.000000,0.000000,0.000000,0.000000,0.000000,0.000000,0.000000,0.000000,0.000000,0.000000,0.000000,0.000000,0.030829,3,0
1520000,-0.001986,39.293724,-0.038020,-0.007607,26.028416,-0.050314,-0.001052,0.038602,1.569792,-0.074007,0.000843,-0.006114,-0.000194,-0.010713,0.000007,0.000078,0.002058,0.007137,0.020685,0.207492,0.207464,0.155714,0.364724,0.000000,0.000000,0.000000,0.000000,0.000000,0.000000,0.000000,0.000000,0.000000,0.000000,0.000000,0.000000,0.007174,3,0
1530000,-0.001992,39.552155,-0.037780,-0.007621,26.029142,-0.049722,-0.001059,0.038411,1.569780,-0.073687,0.000856,-0.006395,-0.000199,-0.010589,0.000007,0.000613,0.002064,-0.054642,0.028492,0.207690,0.207660,0.155387,0.363032,0.000000,0.000000,0.000000,0.000000,0.000000,0.000000,0.000000,0.000000,0.000000,0.000000,0.000000,0.000000,0.052783,3,0
1540000,-0.001997,39.811283,-0.037897,-0.007567,26.031181,-0.049543,-0.001060,0.038322,1.569766,-0.073485,0.000868,-0.006538,-0.000203,-0.010510,0.000007,0.000230,0.002069,-0.034779,0.014570,0.207889,0.207858,0.155063,0.361388,0.000000,0.000000,0.000000,0.000000,0.000000,0.000000,0.000000,0.000000,0.000000,0.000000,0.000000,0.000000,0.033633,3,0
1550000,-0.002002,40.071785,-0.038676,-0.007516,26.035719,-0.050340,-0.001068,0.038452,1.569757,-0.073510,0.000880,-0.006428,-0.000208,-0.010521,0.000007,0.000022,0.002074,0.004257,-0.010786,0.208090,0.208058,0.154742,0.359793,0.000000,0.000000,0.000000,0.000000,0.000000,0.000000,0.000000,0.000000,0.000000,0.000000,0.000000,0.000000,0.004570,3,0
1560000,-0.002006,40.330181,-0.038104,-0.007537,26.036306,-0.049402,-0.001066,0.038224,1.569747,-0.073179,0.000892,-0.006846,-0.000213,-0.010387,0.000007,0.000813,0.002079,-0.057499,0.041538,0.208292,0.208259,0.154424,0.358244,0.000000,0.000000,0.000000,0.000000,0.000000,0.000000,0.000000,0.000000,0.000000,0.000000,0.000000,0.000000,0.055532,3,0
1570000,-0.002011,40.592045,-0.039299,-0.007553,26.043104,-0.050566,-0.001057,0.038562,1.569736,-0.073418,0.000903,-0.006575,-0.000218,-0.010485,0.000007,0.000401,0.002083,0.041924,-0.026881,0.208496,0.208462,0.154110,0.356739,0.000000,0.000000,0.000000,0.000000,0.000000,0.000000,0.000000,0.000000,0.000000,0.000000,0.000000,0.000000,0.040512,3,0
1580000,-0.002015,40.850384,-0.038405,-0.007654,26.043352,-0.049358,-0.001054,0.038323,1.569730,-0.073073,0.000915,-0.007128,-0.000223,-0.010341,0.000007,0.001079,0.002089,-0.060982,0.054378,0.208701,0.208666,0.153799,0.355278,0.000000,0.000000,0.000000,0.000000,0.000000,0.000000,0.000000,0.000000,0.000000,0.000000,0.000000,0.000000,0.058884,3,0
1590000,-0.002020,41.111496,-0.037566,-0.007679,26.048750,-0.048258,-0.001051,0.038516,1.569716,-0.073173,0.000927,-0.007677,-0.000228,-0.010381,0.000007,0.000503,0.002094,0.018620,0.052439,0.208908,0.208872,0.153491,0.353860,0.000000,0.000000,0.000000,0.000000,0.000000,0.000000,0.000000,0.000000,0.000000,0.000000,0.000000,0.000000,0.018096,3,0
1600000,-0.002024,41.370487,-0.036397,-0.007687,26.050205,-0.046855,-0.001048,0.038362,1.569710,-0.072927,0.000939,-0.008344,-0.000233,-0.010274,0.000007,0.000985,0.002098,-0.043758,0.064557,0.209116,0.209079,0.153188,0.352484,0.000000,0.000000,0.000000,0.000000,0.000000,0.000000,0.000000,0.000000,0.000000,0.000000,0.000000,0.000000,0.042270,3,0
1610000,-0.002030,41.631569,-0.037177,-0.007699,26.055374,-0.047692,-0.001047,0.038543,1.569704,-0.073012,0.000950,-0.008222,-0.000238,-0.010311,0.000007,0.000061,0.002103,0.015297,-0.011904,0.209325,0.209286,0.152887,0.351148,0.000000,0.000000,0.000000,0.000000,0.000000,0.000000,0.000000,0.000000,0.000000,0.000000,0.000000,0.000000,0.014898,3,0
1620000,-0.002035,41.891216,-0.037285,-0.007766,26.057871,-0.047604,-0.001038,0.038479,1.569707,-0.072864,0.000962,-0.008369,-0.000243,-0.010246,0.000007,0.000153,0.002109,-0.027168,0.014426,0.209534,0.209495,0.152591,0.349851,0.000000,0.000000,0.000000,0.000000,0.000000,0.000000,0.000000,0.000000,0.000000,0.000000,0.000000,0.000000,0.026297,3,0
1630000,-0.002039,42.154312,-0.037085,-0.007748,26.066647,-0.047280,-0.001033,0.038979,1.569694,-0.073242,0.000973,-0.008672,-0.000248,-0.010413,0.000007,0.000933,0.002114,0.070984,0.027407,0.209745,0.209704,0.152298,0.348591,0.000000,0.000000,0.000000,0.000000,0.000000,0.000000,0.000000,0.000000,0.000000,0.000000,0.000000,0.000000,0.068538,3,0
1640000,-0.002044,42.415245,-0.036312,-0.007817,26.071377,-0.046420,-0.001034,0.039105,1.569692,-0.073274,0.000984,-0.009198,-0.000253,-0.010426,0.000007,0.000405,0.002119,0.006584,0.049467,0.209956,0.209914,0.152009,0.347370,0.000000,0.000000,0.000000,0.000000,0.000000,0.000000,0.000000,0.000000,0.000000,0.000000,0.000000,0.000000,0.006683,3,0
1650000,-0.002050,42.673367,-0.037473,-0.007838,26.070805,-0.047617,-0.001023,0.038766,1.569695,-0.072879,0.000996,-0.008885,-0.000258,-0.010246,0.000007,0.001045,0.002124,-0.075485,-0.028033,0.210167,0.210124,0.151724,0.346184,0.000000,0.000000,0.000000,0.000000,0.000000,0.000000,0.000000,0.000000,0.000000,0.000000,0.000000,0.000000,0.072878,3,0
1660000,-0.002056,42.934273,-0.038616,-0.007898,26.075249,-0.048688,-0.001020,0.038884,1.569697,-0.072903,0.001007,-0.008604,-0.000263,-0.010258,0.000007,0.000116,0.002130,0.004345,-0.026282,0.210379,0.210334,0.151442,0.345031,0.000000,0.000000,0.000000,0.000000,0.000000,0.000000,0.000000,0.000000,0.000000,0.000000,0.000000,0.000000,0.004666,3,0
1670000,-0.002061,43.193047,-0.039752,-0.007795,26.075827,-0.050054,-0.001012,0.038650,1.569698,-0.072608,0.001018,-0.008313,-0.000269,-0.010119,0.000007,0.000649,0.002135,-0.057819,-0.026025,0.210591,0.210545,0.151165,0.343913,0.000000,0.000000,0.000000,0.000000,0.000000,0.000000,0.000000,0.000000,0.000000,0.000000,0.000000,0.000000,0.055836,3,0
1680000,-0.002064,43.450397,-0.039198,-0.007750,26.073738,-0.049277,-0.001005,0.038167,1.569697,-0.072107,0.001029,-0.008737,-0.000274,-0.009876,0.000007,0.001819,0.002139,-0.097927,0.041212,0.210803,0.210756,0.150891,0.342827,0.000000,0.000000,0.000000,0.000000,0.000000,0.000000,0.000000,0.000000,0.000000,0.000000,0.000000,0.000000,0.094501,3,0
1690000,-0.002067,43.711956,-0.038524,-0.007723,26.079264,-0.048361,-0.001007,0.038384,1.569682,-0.072217,0.001040,-0.009249,-0.000279,-0.009927,0.000007,0.000439,0.002142,0.022438,0.046869,0.211015,0.210966,0.150622,0.341771,0.000000,0.000000,0.000000,0.000000,0.000000,0.000000,0.000000,0.000000,0.000000,0.000000,0.000000,0.000000,0.021758,3,0
1700000,-0.002070,43.972771,-0.039176,-0.007793,26.083456,-0.049093,-0.000993,0.038465,1.569683,-0.072214,0.001050,-0.009178,-0.000285,-0.009926,0.000007,0.000008,0.002146,-0.000626,-0.006487,0.211226,0.211177,0.150356,0.340747,0.000000,0.000000,0.000000,0.000000,0.000000,0.000000,0.000000,0.000000,0.000000,0.000000,0.000000,0.000000,0.002157,3,0
1710000,-0.002074,44.230042,-0.040246,-0.007809,26.080902,-0.050131,-0.000983,0.037946,1.569669,-0.071712,0.001061,-0.008894,-0.000290,-0.009673,0.000007,0.001782,0.002150,-0.102451,-0.024015,0.211437,0.211386,0.150094,0.339751,0.000000,0.000000,0.000000,0.000000,0.000000,0.000000,0.000000,0.000000,0.000000,0.000000,0.000000,0.000000,0.098868,3,0
