time_us,pos_x,pos_y,pos_z,vel_x,vel_y,vel_z,roll,pitch,yaw,bias_ax,bias_ay,bias_az,bias_gx,bias_gy,bias_gz,nis,innov_x,innov_y,innov_z,cov_pos_x,cov_pos_y,cov_pos_z,cov_yaw,des_speed,des_heading,des_climb,pid_speed,pid_yaw,pid_alt,speed_meas,yaw_meas,climb_meas,fwd_accel,yaw_rate,vert_accel,drift_m,nav_mode,mission_state
0,0.000001,0.149992,0.000005,0.000164,24.998604,0.001206,0.000005,0.000026,1.570788,0.000000,0.000000,0.000000,0.000000,0.000000,0.000000,0.006249,-0.000002,-0.249989,-0.000012,2.400038,2.400038,3.600017,1.000518,0.000000,0.000000,0.000000,0.000000,0.000000,0.000000,0.000000,0.000000,0.000000,0.000000,0.000000,0.000000,0.070476,1,0
10000,0.000002,0.297043,0.019033,0.000130,24.997026,0.002753,0.000013,0.000046,1.570784,0.000001,0.000000,-0.000000,0.000000,0.000000,0.000000,0.015714,-0.000002,-0.360211,0.050668,1.714420,1.714420,2.250079,1.001073,0.000000,0.000000,0.000000,0.000000,0.000000,0.000000,0.000000,0.000000,0.000000,0.000000,0.000000,0.000000,0.040898,3,0
20000,0.000001,0.460769,0.024297,0.000003,24.994890,0.003771,0.000009,0.000070,1.570777,0.000004,0.000000,-0.000000,-0.000000,0.000000,-0.000000,0.019555,-0.000002,-0.387972,0.019162,1.333616,1.333616,1.636554,1.001655,0.000000,0.000000,0.000000,0.000000,0.000000,0.000000,0.000000,0.000000,0.000000,0.000000,0.000000,0.000000,0.135599,3,0
30000,0.000003,0.599512,0.029287,0.000191,24.991781,0.004960,-0.000000,0.000097,1.570774,0.000015,0.000000,-0.000001,-0.000000,0.000000,-0.000000,0.051024,-0.000003,-0.611314,0.023054,1.091392,1.091392,1.286065,1.002257,0.000000,0.000000,0.000000,0.000000,0.000000,0.000000,0.000000,0.000000,0.000000,0.000000,0.000000,0.000000,0.255282,3,0
40000,0.000003,0.727819,0.030386,0.000043,24.987373,0.006037,0.000011,0.000102,1.570773,0.000038,0.000000,-0.000001,-0.000000,0.000000,-0.000000,0.087958,-0.000003,-0.789784,0.005885,0.923811,0.923811,1.059385,1.002869,0.000000,0.000000,0.000000,0.000000,0.000000,0.000000,0.000000,0.000000,0.000000,0.000000,0.000000,0.000000,0.385400,3,0
50000,0.000002,0.852466,0.024084,0.000008,24.981512,0.007165,0.000018,0.000118,1.570776,0.000078,0.000000,0.000001,-0.000000,0.000000,-0.000000,0.127299,-0.000003,-0.937926,-0.042468,0.801036,0.801036,0.900822,1.003484,0.000000,0.000000,0.000000,0.000000,0.000000,0.000000,0.000000,0.000000,0.000000,0.000000,0.000000,0.000000,0.519180,3,0
60000,0.000000,0.988742,0.031330,-0.000229,24.974768,0.008723,0.000028,0.000114,1.570764,0.000136,0.000000,-0.000002,-0.000000,0.000001,-0.000000,0.136812,-0.000000,-0.963121,0.054831,0.707270,0.707270,0.783741,1.004094,0.000000,0.000000,0.000000,0.000000,0.000000,0.000000,0.000000,0.000000,0.000000,0.000000,0.000000,0.000000,0.641329,3,0
70000,-0.000001,1.120333,0.028389,-0.000170,24.965746,0.009929,0.000030,0.000103,1.570758,0.000225,0.000000,-0.000000,-0.000000,0.000002,-0.000000,0.186834,0.000002,-1.119205,-0.026305,0.633370,0.633370,0.693801,1.004688,0.000000,0.000000,0.000000,0.000000,0.000000,0.000000,0.000000,0.000000,0.000000,0.000000,0.000000,0.000000,0.768164,3,0
80000,-0.000004,1.242797,0.032936,-0.000315,24.954430,0.011490,0.000035,0.000085,1.570762,0.000361,0.000000,-0.000004,-0.000000,0.000003,-0.000000,0.266992,0.000005,-1.330225,0.042741,0.573673,0.573673,0.622594,1.005260,0.000000,0.000000,0.000000,0.000000,0.000000,0.000000,0.000000,0.000000,0.000000,0.000000,0.000000,0.000000,0.904126,3,0
90000,-0.000008,1.396634,0.037104,-0.000401,24.943922,0.013102,0.000045,0.000067,1.570757,0.000501,0.000000,-0.000010,-0.000000,0.000005,-0.000000,0.182565,0.000008,-1.094754,0.042919,0.524488,0.524488,0.564865,1.005801,0.000000,0.000000,0.000000,0.000000,0.000000,0.000000,0.000000,0.000000,0.000000,0.000000,0.000000,0.000000,1.008714,3,0
100000,-0.000011,1.558308,0.037973,-0.000431,24.932539,0.014489,0.000050,0.000034,1.570760,0.000670,0.000000,-0.000011,-0.000000,0.000007,-0.000000,0.181895,0.000012,-1.089455,0.008401,0.483304,0.483304,0.517162,1.006302,0.000000,0.000000,0.000000,0.000000,0.000000,0.000000,0.000000,0.000000,0.000000,0.000000,0.000000,0.000000,1.105466,3,0
110000,-0.000015,1.733453,0.035040,-0.000524,24.921280,0.015297,0.000048,0.000001,1.570752,0.000855,0.000000,-0.000004,-0.000000,0.000010,-0.000000,0.152167,0.000016,-0.992589,-0.038846,0.448354,0.448354,0.477121,1.006755,0.000000,0.000000,0.000000,0.000000,0.000000,0.000000,0.000000,0.000000,0.000000,0.000000,0.000000,0.000000,1.188748,3,0
120000,-0.000018,1.922031,0.034753,-0.000436,24.910240,0.016348,0.000072,-0.000038,1.570743,0.001046,0.000000,-0.000003,-0.000000,0.000013,-0.000000,0.117207,0.000019,-0.869434,-0.006115,0.418359,0.418359,0.443071,1.007151,0.000000,0.000000,0.000000,0.000000,0.000000,0.000000,0.000000,0.000000,0.000000,0.000000,0.000000,0.000000,1.258595,3,0
130000,-0.000024,2.120143,0.033477,-0.000795,24.899872,0.017357,0.000080,-0.000073,1.570740,0.001246,0.000000,0.000003,-0.000000,0.000016,-0.000000,0.094741,0.000026,-0.779601,-0.021042,0.392370,0.392370,0.413797,1.007482,0.000000,0.000000,0.000000,0.000000,0.000000,0.000000,0.000000,0.000000,0.000000,0.000000,0.000000,0.000000,1.318909,3,0
140000,-0.000031,2.318697,0.035279,-0.000893,24.888119,0.019068,0.000084,-0.000121,1.570748,0.001487,0.000000,-0.000004,-0.000000,0.000021,-0.000000,0.104894,0.000033,-0.818575,0.024939,0.369667,0.369667,0.388393,1.007740,0.000000,0.000000,0.000000,0.000000,0.000000,0.000000,0.000000,0.000000,0.000000,0.000000,0.000000,0.000000,1.378781,3,0
150000,-0.000039,2.525673,0.033586,-0.000989,24.877119,0.019875,0.000092,-0.000175,1.570737,0.001729,0.000000,0.000006,-0.000000,0.000026,-0.000000,0.081251,0.000041,-0.718829,-0.031065,0.349696,0.349696,0.366172,1.007917,0.000000,0.000000,0.000000,0.000000,0.000000,0.000000,0.000000,0.000000,0.000000,0.000000,0.000000,0.000000,1.430231,3,0
160000,-0.000046,2.743011,0.036042,-0.001008,24.867815,0.021598,0.000084,-0.000228,1.570735,0.001945,0.000000,-0.000009,-0.000000,0.000031,-0.000000,0.051010,0.000049,-0.567875,0.038860,0.332022,0.332022,0.346600,1.008004,0.000000,0.000000,0.000000,0.000000,0.000000,0.000000,0.000000,0.000000,0.000000,0.000000,0.000000,0.000000,1.471320,3,0
170000,-0.000052,2.957625,0.033801,-0.000857,24.856686,0.022238,0.000096,-0.000300,1.570734,0.002221,0.000000,0.000010,-0.000000,0.000037,-0.000000,0.066198,0.000055,-0.645966,-0.044999,0.316299,0.316299,0.329260,1.007993,0.000000,0.000000,0.000000,0.000000,0.000000,0.000000,0.000000,0.000000,0.000000,0.000000,0.000000,0.000000,1.515131,3,0
180000,-0.000056,3.179863,0.031788,-0.000743,24.847424,0.022871,0.000103,-0.000369,1.570730,0.002470,0.000000,0.000030,-0.000000,0.000044,-0.000000,0.043506,0.000059,-0.522532,-0.042986,0.302249,0.302249,0.313817,1.007877,0.000000,0.000000,0.000000,0.000000,0.000000,0.000000,0.000000,0.000000,0.000000,0.000000,0.000000,0.000000,1.551319,3,0
190000,-0.000061,3.401016,0.029800,-0.000789,24.836670,0.023250,0.000121,-0.000441,1.570722,0.002769,0.000000,0.000053,-0.000000,0.000052,-0.000000,0.051087,0.000064,-0.565764,-0.044554,0.289644,0.289644,0.300003,1.007648,0.000000,0.000000,0.000000,0.000000,0.000000,0.000000,0.000000,0.000000,0.000000,0.000000,0.000000,0.000000,1.588592,3,0
200000,-0.000065,3.627633,0.031800,-0.000763,24.827349,0.025338,0.000128,-0.000507,1.570713,0.003042,0.000000,0.000032,-0.000000,0.000059,-0.000000,0.035134,0.000069,-0.468749,0.036571,0.278299,0.278299,0.287598,1.007298,0.000000,0.000000,0.000000,0.000000,0.000000,0.000000,0.000000,0.000000,0.000000,0.000000,0.000000,0.000000,1.620401,3,0
210000,-0.000069,3.858156,0.030715,-0.000646,24.818756,0.026074,0.000139,-0.000570,1.570708,0.003296,0.000000,0.000051,-0.000000,0.000067,-0.000000,0.025242,0.000072,-0.397086,-0.029331,0.268059,0.268059,0.276421,1.006819,0.000000,0.000000,0.000000,0.000000,0.000000,0.000000,0.000000,0.000000,0.000000,0.000000,0.000000,0.000000,1.648304,3,0
220000,-0.000071,4.089557,0.033374,-0.000550,24.810049,0.028212,0.000147,-0.000624,1.570703,0.003568,0.000000,0.000014,-0.000000,0.000075,-0.000000,0.024590,0.000074,-0.388977,0.053793,0.258793,0.258793,0.266321,1.006206,0.000000,0.000000,0.000000,0.000000,0.000000,0.000000,0.000000,0.000000,0.000000,0.000000,0.000000,0.000000,1.675329,3,0
230000,-0.000071,4.322546,0.034380,-0.000292,24.801592,0.029832,0.000155,-0.000687,1.570701,0.003843,0.000000,0.000002,-0.000000,0.000084,-0.000000,0.020957,0.000074,-0.361865,0.016587,0.250392,0.250392,0.257172,1.005450,0.000000,0.000000,0.000000,0.000000,0.000000,0.000000,0.000000,0.000000,0.000000,0.000000,0.000000,0.000000,1.700765,3,0
240000,-0.000072,4.557748,0.034726,-0.000419,24.793743,0.031085,0.000176,-0.000749,1.570706,0.004105,0.000001,0.000001,-0.000000,0.000093,-0.000000,0.016016,0.000075,-0.316464,0.000835,0.242764,0.242764,0.248866,1.004545,0.000000,0.000000,0.000000,0.000000,0.000000,0.000000,0.000000,0.000000,0.000000,0.000000,0.000000,0.000000,1.723989,3,0
250000,-0.000074,4.793371,0.033420,-0.000543,24.785681,0.031611,0.000183,-0.000828,1.570699,0.004384,0.000001,0.000037,-0.000000,0.000103,-0.000000,0.015953,0.000077,-0.313040,-0.040542,0.235828,0.235828,0.241314,1.003485,0.000000,0.000000,0.000000,0.000000,0.000000,0.000000,0.000000,0.000000,0.000000,0.000000,0.000000,0.000000,1.746792,3,0
260000,-0.000076,5.026316,0.034820,-0.000425,24.775497,0.033521,0.000182,-0.000935,1.570691,0.004758,0.000001,0.000011,-0.000000,0.000117,-0.000000,0.024445,0.000079,-0.389551,0.027414,0.229516,0.229516,0.234436,1.002263,0.000000,0.000000,0.000000,0.000000,0.000000,0.000000,0.000000,0.000000,0.000000,0.000000,0.000000,0.000000,1.772273,3,0
270000,-0.000077,5.265676,0.034603,-0.000466,24.768984,0.034336,0.000197,-0.000992,1.570689,0.004989,0.000001,0.000026,-0.000000,0.000126,-0.000000,0.008145,0.000080,-0.224816,-0.014799,0.223768,0.223767,0.228165,1.000874,0.000000,0.000000,0.000000,0.000000,0.000000,0.000000,0.000000,0.000000,0.000000,0.000000,0.000000,0.000000,1.791339,3,0
280000,-0.000080,5.501519,0.033468,-0.000553,24.759586,0.034440,0.000209,-0.001093,1.570686,0.005348,0.000001,0.000069,-0.000000,0.000141,-0.000000,0.017217,0.000083,-0.324957,-0.040160,0.218531,0.218531,0.222443,0.999313,0.000000,0.000000,0.000000,0.000000,0.000000,0.000000,0.000000,0.000000,0.000000,0.000000,0.000000,0.000000,1.813923,3,0
290000,-0.000082,5.737625,0.033668,-0.000467,24.750008,0.035457,0.000213,-0.001194,1.570687,0.005728,0.000001,0.000074,-0.000000,0.000157,-0.000000,0.016684,0.000085,-0.322158,-0.004292,0.213762,0.213762,0.217219,0.997573,0.000000,0.000000,0.000000,0.000000,0.000000,0.000000,0.000000,0.000000,0.000000,0.000000,0.000000,0.000000,1.836242,3,0
300000,-0.000080,5.978120,0.032434,-0.000115,24.743441,0.035178,0.000219,-0.001256,1.570688,0.005980,0.000001,0.000130,-0.000000,0.000168,-0.000000,0.006783,0.000083,-0.200348,-0.045105,0.209419,0.209418,0.212447,0.995652,0.000000,0.000000,0.000000,0.000000,0.000000,0.000000,0.000000,0.000000,0.000000,0.000000,0.000000,0.000000,1.854173,3,0
310000,-0.000077,6.217937,0.034066,0.000019,24.736143,0.037360,0.000221,-0.001331,1.570674,0.006276,0.000001,0.000082,-0.000000,0.000181,-0.000000,0.008156,0.000080,-0.222111,0.036550,0.205466,0.205466,0.208087,0.993543,0.000000,0.000000,0.000000,0.000000,0.000000,0.000000,0.000000,0.000000,0.000000,0.000000,0.000000,0.000000,1.872782,3,0
320000,-0.000072,6.458443,0.034382,0.000204,24.729185,0.038507,0.000235,-0.001412,1.570669,0.006564,0.000001,0.000085,-0.000000,0.000194,-0.000000,0.006666,0.000075,-0.203429,-0.002023,0.201873,0.201873,0.204105,0.991244,0.000000,0.000000,0.000000,0.000000,0.000000,0.000000,0.000000,0.000000,0.000000,0.000000,0.000000,0.000000,1.890702,3,0
330000,-0.000067,6.701559,0.035875,0.000272,24.724312,0.040825,0.000241,-0.001452,1.570677,0.006753,0.000001,0.000036,-0.000000,0.000203,-0.000000,0.002723,0.000070,-0.125802,0.032745,0.198611,0.198610,0.200469,0.988751,0.000000,0.000000,0.000000,0.000000,0.000000,0.000000,0.000000,0.000000,0.000000,0.000000,0.000000,0.000000,1.906012,3,0
340000,-0.000062,6.941947,0.037869,0.000304,24.716696,0.043488,0.000253,-0.001539,1.570681,0.007084,0.000002,-0.000039,-0.000000,0.000220,-0.000000,0.007469,0.000064,-0.209836,0.047865,0.195654,0.195653,0.197151,0.986062,0.000000,0.000000,0.000000,0.000000,0.000000,0.000000,0.000000,0.000000,0.000000,0.000000,0.000000,0.000000,1.924050,3,0
350000,-0.000059,7.182935,0.038888,0.000145,24.709562,0.045327,0.000262,-0.001621,1.570677,0.007404,0.000002,-0.000068,-0.000000,0.000236,-0.000000,0.005980,0.000061,-0.191723,0.017658,0.192979,0.192979,0.194125,0.983173,0.000000,0.000000,0.000000,0.000000,0.000000,0.000000,0.000000,0.000000,0.000000,0.000000,0.000000,0.000000,1.941487,3,0
360000,-0.000054,7.426381,0.040074,0.000324,24.704859,0.047145,0.000279,-0.001672,1.570662,0.007605,0.000002,-0.000108,-0.000000,0.000247,-0.000000,0.002201,0.000056,-0.114579,0.022596,0.190566,0.190566,0.191370,0.980082,0.000000,0.000000,0.000000,0.000000,0.000000,0.000000,0.000000,0.000000,0.000000,0.000000,0.000000,0.000000,1.956467,3,0
370000,-0.000049,7.672788,0.041156,0.000361,24.702936,0.049130,0.000294,-0.001671,1.570647,0.007642,0.000002,-0.000143,-0.000000,0.000249,-0.000000,0.000123,0.000050,-0.020034,0.018980,0.188397,0.188396,0.188863,0.976789,0.000000,0.000000,0.000000,0.000000,0.000000,0.000000,0.000000,0.000000,0.000000,0.000000,0.000000,0.000000,1.968486,3,0
380000,-0.000042,7.915850,0.040534,0.000499,24.697445,0.049438,0.000297,-0.001738,1.570646,0.007888,0.000002,-0.000073,-0.000000,0.000262,-0.000000,0.002828,0.000044,-0.127270,-0.036255,0.186452,0.186452,0.186586,0.973293,0.000000,0.000000,0.000000,0.000000,0.000000,0.000000,0.000000,0.000000,0.000000,0.000000,0.000000,0.000000,1.983850,3,0
390000,-0.000037,8.161203,0.041297,0.000389,24.694304,0.051000,0.000307,-0.001743,1.570634,0.007994,0.000002,-0.000090,-0.000000,0.000269,-0.000000,0.000452,0.000039,-0.052214,0.008304,0.184718,0.184717,0.184523,0.969592,0.000000,0.000000,0.000000,0.000000,0.000000,0.000000,0.000000,0.000000,0.000000,0.000000,0.000000,0.000000,1.996923,3,0
400000,-0.000032,8.405725,0.040725,0.000433,24.690247,0.051114,0.000316,-0.001782,1.570629,0.008161,0.000002,-0.000014,-0.000000,0.000278,-0.000000,0.001214,0.000033,-0.078868,-0.035936,0.183178,0.183177,0.182656,0.965687,0.000000,0.000000,0.000000,0.000000,0.000000,0.000000,0.000000,0.000000,0.000000,0.000000,0.000000,0.000000,2.010827,3,0
410000,-0.000027,8.653661,0.042042,0.000449,24.690369,0.053192,0.000326,-0.001743,1.570629,0.008085,0.000002,-0.000072,-0.000000,0.000274,-0.000000,0.000304,0.000028,0.034470,0.026312,0.181820,0.181819,0.180971,0.961579,0.000000,0.000000,0.000000,0.000000,0.000000,0.000000,0.000000,0.000000,0.000000,0.000000,0.000000,0.000000,2.021317,3,0
420000,-0.000022,8.900708,0.041448,0.000442,24.689264,0.052964,0.000330,-0.001722,1.570626,0.008073,0.000002,0.000015,-0.000000,0.000273,-0.000000,0.000238,0.000022,0.005203,-0.037993,0.180632,0.180631,0.179456,0.957268,0.000000,0.000000,0.000000,0.000000,0.000000,0.000000,0.000000,0.000000,0.000000,0.000000,0.000000,0.000000,2.032696,3,0
430000,-0.000018,9.145111,0.041297,0.000356,24.685049,0.053351,0.000329,-0.001777,1.570621,0.008271,0.000002,0.000071,-0.000000,0.000286,-0.000000,0.001197,0.000018,-0.082804,-0.023340,0.179601,0.179600,0.178097,0.952757,0.000000,0.000000,0.000000,0.000000,0.000000,0.000000,0.000000,0.000000,0.000000,0.000000,0.000000,0.000000,2.046719,3,0
440000,-0.000014,9.391087,0.043074,0.000339,24.682755,0.056289,0.000340,-0.001786,1.570612,0.008344,0.000002,-0.000033,-0.000000,0.000290,-0.000000,0.000417,0.000014,-0.028980,0.041677,0.178716,0.178715,0.176883,0.948047,0.000000,0.000000,0.000000,0.000000,0.000000,0.000000,0.000000,0.000000,0.000000,0.000000,0.000000,0.000000,2.059169,3,0
450000,-0.000009,9.638002,0.044292,0.000462,24.681686,0.058392,0.000346,-0.001767,1.570602,0.008335,0.000002,-0.000089,-0.000000,0.000290,-0.000000,0.000080,0.000009,0.003372,0.021926,0.177969,0.177968,0.175803,0.943141,0.000000,0.000000,0.000000,0.000000,0.000000,0.000000,0.000000,0.000000,0.000000,0.000000,0.000000,0.000000,2.070679,3,0
460000,-0.000003,9.883487,0.045970,0.000534,24.678951,0.061053,0.000347,-0.001788,1.570605,0.008455,0.000002,-0.000189,-0.000000,0.000298,-0.000000,0.000546,0.000003,-0.044745,0.037069,0.177349,0.177348,0.174847,0.938043,0.000000,0.000000,0.000000,0.000000,0.000000,0.000000,0.000000,0.000000,0.000000,0.000000,0.000000,0.000000,2.083620,3,0
470000,0.000002,10.129326,0.045315,0.000521,24.676262,0.060669,0.000351,-0.001806,1.570602,0.008544,0.000002,-0.000066,-0.000000,0.000304,-0.000000,0.000477,-0.000002,-0.031773,-0.044025,0.176847,0.176846,0.174007,0.932756,0.000000,0.000000,0.000000,0.000000,0.000000,0.000000,0.000000,0.000000,0.000000,0.000000,0.000000,0.000000,2.096208,3,0
480000,0.000007,10.377851,0.046417,0.000588,24.677454,0.062451,0.000358,-0.001717,1.570605,0.008370,0.000002,-0.000115,-0.000000,0.000292,-0.000000,0.000634,-0.000008,0.060355,0.016710,0.176456,0.176454,0.173272,0.927283,0.000000,0.000000,0.000000,0.000000,0.000000,0.000000,0.000000,0.000000,0.000000,0.000000,0.000000,0.000000,2.106110,3,0
490000,0.000014,10.627259,0.047696,0.000750,24.680000,0.064383,0.000364,-0.001605,1.570598,0.008101,0.000002,-0.000181,-0.000000,0.000272,-0.000000,0.001395,-0.000015,0.090123,0.022349,0.176166,0.176165,0.172634,0.921630,0.000000,0.000000,0.000000,0.000000,0.000000,0.000000,0.000000,0.000000,0.000000,0.000000,0.000000,0.000000,2.115127,3,0
500000,0.000022,10.874623,0.047631,0.000806,24.679796,0.064756,0.000369,-0.001565,1.570597,0.008041,0.000002,-0.000103,-0.000000,0.000268,-0.000000,0.000165,-0.000023,0.019597,-0.025167,0.175971,0.175970,0.172087,0.915802,0.000000,0.000000,0.000000,0.000000,0.000000,0.000000,0.000000,0.000000,0.000000,0.000000,0.000000,0.000000,2.126188,3,0
510000,0.000030,11.123473,0.048752,0.000888,24.681646,0.066469,0.000390,-0.001474,1.570583,0.007818,0.000002,-0.000155,-0.000000,0.000250,-0.000000,0.000844,-0.000031,0.070420,0.016125,0.175864,0.175862,0.171623,0.909803,0.000000,0.000000,0.000000,0.000000,0.000000,0.000000,0.000000,0.000000,0.000000,0.000000,0.000000,0.000000,2.135764,3,0
520000,0.000039,11.374371,0.047821,0.001059,24.686684,0.065262,0.000397,-0.001287,1.570581,0.007362,0.000002,0.000031,-0.000000,0.000215,-0.000000,0.003666,-0.000041,0.139613,-0.056283,0.175838,0.175836,0.171234,0.903640,0.000000,0.000000,0.000000,0.000000,0.000000,0.000000,0.000000,0.000000,0.000000,0.000000,0.000000,0.000000,2.143292,3,0
530000,0.000046,11.626122,0.049345,0.000816,24.692959,0.067743,0.000399,-0.001063,1.570570,0.006800,0.000002,-0.000071,-0.000000,0.000170,-0.000000,0.004657,-0.000048,0.166971,0.030076,0.175886,0.175884,0.170915,0.897318,0.000000,0.000000,0.000000,0.000000,0.000000,0.000000,0.000000,0.000000,0.000000,0.000000,0.000000,0.000000,2.149967,3,0
540000,0.000055,11.877549,0.048691,0.001073,24.698826,0.067242,0.000415,-0.000855,1.570563,0.006268,0.000002,0.000095,-0.000000,0.000126,-0.000000,0.004185,-0.000057,0.153704,-0.047317,0.176003,0.176001,0.170659,0.890845,0.000000,0.000000,0.000000,0.000000,0.000000,0.000000,0.000000,0.000000,0.000000,0.000000,0.000000,0.000000,2.156965,3,0
550000,0.000067,12.126907,0.049446,0.001414,24.701254,0.068627,0.000424,-0.000732,1.570565,0.005979,0.000001,0.000086,-0.000000,0.000102,-0.000000,0.001066,-0.000069,0.081129,0.002424,0.176183,0.176181,0.170460,0.884227,0.000000,0.000000,0.000000,0.000000,0.000000,0.000000,0.000000,0.000000,0.000000,0.000000,0.000000,0.000000,2.166033,3,0
560000,0.000078,12.377144,0.050106,0.001330,24.705183,0.069807,0.000436,-0.000578,1.570560,0.005578,0.000001,0.000092,0.000000,0.000068,-0.000000,0.001960,-0.000081,0.110052,-0.001413,0.176421,0.176419,0.170314,0.877471,0.000000,0.000000,0.000000,0.000000,0.000000,0.000000,0.000000,0.000000,0.000000,0.000000,0.000000,0.000000,2.174223,3,0
570000,0.000089,12.627666,0.050789,0.001350,24.709641,0.071069,0.000435,-0.000393,1.570563,0.005135,0.000001,0.000096,0.000000,0.000029,-0.000000,0.002260,-0.000092,0.118201,-0.001021,0.176711,0.176709,0.170215,0.870583,0.000000,0.000000,0.000000,0.000000,0.000000,0.000000,0.000000,0.000000,0.000000,0.000000,0.000000,0.000000,2.182127,3,0
580000,0.000100,12.876124,0.051469,0.001386,24.710787,0.072385,0.000449,-0.000313,1.570569,0.004956,0.000000,0.000102,0.000000,0.000013,-0.000000,0.000351,-0.000103,0.046544,-0.001592,0.177048,0.177046,0.170158,0.863572,0.000000,0.000000,0.000000,0.000000,0.000000,0.000000,0.000000,0.000000,0.000000,0.000000,0.000000,0.000000,2.192094,3,0
590000,0.000110,13.124895,0.052282,0.001317,24.712723,0.073673,0.000447,-0.000213,1.570560,0.004734,-0.000000,0.000092,0.000000,-0.000007,-0.000000,0.000517,-0.000113,0.056497,0.002698,0.177429,0.177426,0.170139,0.856445,0.000000,0.000000,0.000000,0.000000,0.000000,0.000000,0.000000,0.000000,0.000000,0.000000,0.000000,0.000000,2.201749,3,0
600000,0.000120,13.374562,0.053681,0.001328,24.715836,0.075703,0.000452,-0.000061,1.570559,0.004388,-0.000001,-0.000002,0.000000,-0.000039,-0.000000,0.001282,-0.000123,0.086014,0.022933,0.177848,0.177845,0.170153,0.849211,0.000000,0.000000,0.000000,0.000000,0.000000,0.000000,0.000000,0.000000,0.000000,0.000000,0.000000,0.000000,2.210507,3,0
610000,0.000131,13.626299,0.053399,0.001495,24.722492,0.075433,0.000465,0.000204,1.570558,0.003753,-0.000001,0.000155,0.000000,-0.000099,-0.000000,0.004077,-0.000135,0.154377,-0.037137,0.178301,0.178298,0.170196,0.841876,0.000000,0.000000,0.000000,0.000000,0.000000,0.000000,0.000000,0.000000,0.000000,0.000000,0.000000,0.000000,2.217196,3,0
620000,0.000144,13.879496,0.053643,0.001730,24.731468,0.075980,0.000479,0.000531,1.570564,0.002909,-0.000002,0.000235,0.000000,-0.000180,-0.000000,0.006573,-0.000148,0.200758,-0.018567,0.178785,0.178782,0.170265,0.834450,0.000000,0.000000,0.000000,0.000000,0.000000,0.000000,0.000000,0.000000,0.000000,0.000000,0.000000,0.000000,2.222427,3,0
630000,0.000156,14.131763,0.052591,0.001762,24.738644,0.074753,0.000500,0.000821,1.570557,0.002196,-0.000003,0.000519,0.000000,-0.000249,-0.000000,0.005135,-0.000161,0.166141,-0.064418,0.179296,0.179293,0.170356,0.826939,0.000000,0.000000,0.000000,0.000000,0.000000,0.000000,0.000000,0.000000,0.000000,0.000000,0.000000,0.000000,2.228586,3,0
640000,0.000170,14.384301,0.054252,0.001889,24.746248,0.077208,0.000509,0.001128,1.570554,0.001442,-0.000004,0.000377,0.000000,-0.000324,-0.000000,0.004958,-0.000175,0.172228,0.031685,0.179829,0.179826,0.170466,0.819353,0.000000,0.000000,0.000000,0.000000,0.000000,0.000000,0.000000,0.000000,0.000000,0.000000,0.000000,0.000000,2.234473,3,0
650000,0.000183,14.637706,0.055800,0.001889,24.755392,0.079698,0.000509,0.001498,1.570547,0.000558,-0.000005,0.000256,0.000001,-0.000414,-0.000000,0.006448,-0.000189,0.197917,0.026694,0.180383,0.180380,0.170592,0.811699,0.000000,0.000000,0.000000,0.000000,0.000000,0.000000,0.000000,0.000000,0.000000,0.000000,0.000000,0.000000,2.239495,3,0
660000,0.000196,14.889570,0.054675,0.001897,24.762001,0.077943,0.000509,0.001768,1.570544,-0.000093,-0.000006,0.000575,0.000001,-0.000481,-0.000000,0.004065,-0.000203,0.143208,-0.068049,0.180954,0.180950,0.170730,0.803986,0.000000,0.000000,0.000000,0.000000,0.000000,0.000000,0.000000,0.000000,0.000000,0.000000,0.000000,0.000000,2.246056,3,0
670000,0.000207,15.144720,0.054583,0.001645,24.774220,0.077770,0.000512,0.002234,1.570542,-0.001247,-0.000007,0.000725,0.000001,-0.000602,-0.000000,0.010186,-0.000213,0.249097,-0.031142,0.181538,0.181535,0.170878,0.796221,0.000000,0.000000,0.000000,0.000000,0.000000,0.000000,0.000000,0.000000,0.000000,0.000000,0.000000,0.000000,2.249332,3,0
680000,0.000218,15.399510,0.055739,0.001854,24.785633,0.079641,0.000523,0.002679,1.570539,-0.002342,-0.000008,0.000664,0.000001,-0.000720,-0.000000,0.008752,-0.000225,0.232372,0.012652,0.182134,0.182130,0.171034,0.788412,0.000000,0.000000,0.000000,0.000000,0.000000,0.000000,0.000000,0.000000,0.000000,0.000000,0.000000,0.000000,2.252967,3,0
690000,0.000229,15.653333,0.055741,0.001793,24.795248,0.079792,0.000532,0.003068,1.570532,-0.003283,-0.000009,0.000807,0.000001,-0.000822,-0.000000,0.006348,-0.000236,0.196136,-0.028470,0.182738,0.182734,0.171195,0.780568,0.000000,0.000000,0.000000,0.000000,0.000000,0.000000,0.000000,0.000000,0.000000,0.000000,0.000000,0.000000,2.257571,3,0
700000,0.000237,15.883351,0.056400,0.001675,24.806618,0.080892,0.000537,0.003515,1.570524,-0.004376,-0.000010,0.000821,0.000001,-0.000944,-0.000000,0.008213,-0.000244,0.225437,-0.002601,0.182739,0.182735,0.170860,0.772421,0.000000,0.000000,0.000000,0.000000,0.000000,0.000000,0.000000,0.000000,0.000000,0.000000,0.000000,0.000000,2.285977,3,0
710000,0.000246,16.137800,0.056439,0.001676,24.817225,0.080860,0.000544,0.003960,1.570529,-0.005406,-0.000012,0.000963,0.000001,-0.001060,-0.000000,0.007185,-0.000254,0.209057,-0.027554,0.183368,0.183364,0.171038,0.764589,0.000000,0.000000,0.000000,0.000000,0.000000,0.000000,0.000000,0.000000,0.000000,0.000000,0.000000,0.000000,2.289955,3,0
720000,0.000256,16.394323,0.055396,0.001746,24.831121,0.079374,0.000548,0.004525,1.570525,-0.006769,-0.000013,0.001307,0.000001,-0.001216,-0.000000,0.012698,-0.000264,0.272564,-0.065551,0.184000,0.183996,0.171216,0.756742,0.000000,0.000000,0.000000,0.000000,0.000000,0.000000,0.000000,0.000000,0.000000,0.000000,0.000000,0.000000,2.291859,3,0
730000,0.000267,16.649239,0.056399,0.001932,24.842323,0.080793,0.000546,0.004995,1.570529,-0.007859,-0.000015,0.001272,0.000002,-0.001343,-0.000001,0.007453,-0.000275,0.214689,0.006765,0.184632,0.184627,0.171390,0.748886,0.000000,0.000000,0.000000,0.000000,0.000000,0.000000,0.000000,0.000000,0.000000,0.000000,0.000000,0.000000,2.295368,3,0
740000,0.000276,16.906849,0.057137,0.001829,24.858070,0.081965,0.000550,0.005650,1.570531,-0.009392,-0.000016,0.001291,0.000002,-0.001525,-0.000001,0.014307,-0.000285,0.297604,-0.003173,0.185262,0.185257,0.171561,0.741029,0.000000,0.000000,0.000000,0.000000,0.000000,0.000000,0.000000,0.000000,0.000000,0.000000,0.000000,0.000000,2.296185,3,0
750000,0.000285,17.160355,0.056633,0.001767,24.866346,0.081433,0.000556,0.006025,1.570514,-0.010222,-0.000018,0.001549,0.000002,-0.001625,-0.000001,0.004445,-0.000294,0.159109,-0.046886,0.185888,0.185884,0.171725,0.733178,0.000000,0.000000,0.000000,0.000000,0.000000,0.000000,0.000000,0.000000,0.000000,0.000000,0.000000,0.000000,2.301104,3,0
760000,0.000294,17.419056,0.056422,0.001861,24.883812,0.081017,0.000557,0.006760,1.570507,-0.011930,-0.000020,0.001754,0.000002,-0.001835,-0.000001,0.017061,-0.000304,0.322975,-0.036470,0.186510,0.186506,0.171883,0.725339,0.000000,0.000000,0.000000,0.000000,0.000000,0.000000,0.000000,0.000000,0.000000,0.000000,0.000000,0.000000,2.300829,3,0
770000,0.000303,17.677332,0.057739,0.001833,24.900200,0.082855,0.000561,0.007468,1.570507,-0.013551,-0.000022,0.001660,0.000002,-0.002038,-0.000001,0.014837,-0.000313,0.302649,0.017026,0.187126,0.187121,0.172033,0.717520,0.000000,0.000000,0.000000,0.000000,0.000000,0.000000,0.000000,0.000000,0.000000,0.000000,0.000000,0.000000,2.300978,3,0
780000,0.000313,17.932070,0.057191,0.001995,24.910297,0.081862,0.000576,0.007916,1.570497,-0.014545,-0.000023,0.001939,0.000003,-0.002164,-0.000001,0.005809,-0.000323,0.183359,-0.048498,0.187735,0.187730,0.172173,0.709727,0.000000,0.000000,0.000000,0.000000,0.000000,0.000000,0.000000,0.000000,0.000000,0.000000,0.000000,0.000000,2.304667,3,0
790000,0.000323,18.190159,0.056037,0.002037,24.926205,0.079890,0.000580,0.008610,1.570498,-0.016115,-0.000025,0.002345,0.000003,-0.002367,-0.000001,0.014014,-0.000334,0.286339,-0.069306,0.188334,0.188330,0.172304,0.701964,0.000000,0.000000,0.000000,0.000000,0.000000,0.000000,0.000000,0.000000,0.000000,0.000000,0.000000,0.000000,2.305004,3,0
800000,0.000331,18.449066,0.055709,0.001862,24.943100,0.079356,0.000591,0.009358,1.570486,-0.017814,-0.000027,0.002582,0.000003,-0.002590,-0.000001,0.015412,-0.000342,0.306398,-0.039929,0.188925,0.188920,0.172423,0.694240,0.000000,0.000000,0.000000,0.000000,0.000000,0.000000,0.000000,0.000000,0.000000,0.000000,0.000000,0.000000,2.304522,3,0
810000,0.000342,18.707525,0.055688,0.002130,24.959108,0.079597,0.000595,0.010072,1.570474,-0.019416,-0.000030,0.002759,0.000003,-0.002803,-0.000001,0.013327,-0.000353,0.285868,-0.029117,0.189505,0.189500,0.172531,0.686559,0.000000,0.000000,0.000000,0.000000,0.000000,0.000000,0.000000,0.000000,0.000000,0.000000,0.000000,0.000000,2.304489,3,0
820000,0.000353,18.964281,0.056308,0.002201,24.972147,0.080609,0.000600,0.010673,1.570467,-0.020696,-0.000032,0.002801,0.000004,-0.002977,-0.000001,0.008253,-0.000364,0.226032,-0.006795,0.190074,0.190069,0.172626,0.678925,0.000000,0.000000,0.000000,0.000000,0.000000,0.000000,0.000000,0.000000,0.000000,0.000000,0.000000,0.000000,2.306158,3,0
830000,0.000361,19.219973,0.056137,0.002029,24.982998,0.080347,0.000595,0.011185,1.570455,-0.021770,-0.000034,0.003015,0.000004,-0.003125,-0.000001,0.005886,-0.000373,0.187815,-0.034546,0.190631,0.190626,0.172709,0.671346,0.000000,0.000000,0.000000,0.000000,0.000000,0.000000,0.000000,0.000000,0.000000,0.000000,0.000000,0.000000,2.308895,3,0
840000,0.000372,19.477144,0.057190,0.002291,24.996616,0.082004,0.000603,0.011814,1.570449,-0.023099,-0.000036,0.002967,0.000004,-0.003312,-0.000001,0.008561,-0.000384,0.230198,0.007972,0.191176,0.191171,0.172778,0.663824,0.000000,0.000000,0.000000,0.000000,0.000000,0.000000,0.000000,0.000000,0.000000,0.000000,0.000000,0.000000,2.310148,3,0
850000,0.000382,19.734503,0.057058,0.002261,25.009920,0.081906,0.000617,0.012455,1.570447,-0.024446,-0.000039,0.003181,0.000005,-0.003503,-0.000001,0.008818,-0.000395,0.231319,-0.033781,0.191709,0.191703,0.172834,0.656366,0.000000,0.000000,0.000000,0.000000,0.000000,0.000000,0.000000,0.000000,0.000000,0.000000,0.000000,0.000000,2.311216,3,0
860000,0.000392,19.990776,0.058563,0.002264,25.021332,0.084199,0.000627,0.013010,1.570447,-0.025577,-0.000041,0.003034,0.000005,-0.003667,-0.000001,0.006065,-0.000405,0.192492,0.023174,0.192228,0.192223,0.172876,0.648974,0.000000,0.000000,0.000000,0.000000,0.000000,0.000000,0.000000,0.000000,0.000000,0.000000,0.000000,0.000000,2.313368,3,0
870000,0.000402,20.249159,0.058712,0.002281,25.036304,0.084176,0.000630,0.013731,1.570449,-0.027082,-0.000044,0.003195,0.000005,-0.003889,-0.000001,0.010520,-0.000415,0.254168,-0.024693,0.192734,0.192728,0.172903,0.641654,0.000000,0.000000,0.000000,0.000000,0.000000,0.000000,0.000000,0.000000,0.000000,0.000000,0.000000,0.000000,2.313412,3,0
880000,0.000412,20.508350,0.059607,0.002386,25.052521,0.085592,0.000630,0.014523,1.570445,-0.028717,-0.000047,0.003190,0.000006,-0.004133,-0.000001,0.012105,-0.000426,0.273939,0.001082,0.193226,0.193221,0.172916,0.634409,0.000000,0.000000,0.000000,0.000000,0.000000,0.000000,0.000000,0.000000,0.000000,0.000000,0.000000,0.000000,2.312645,3,0
890000,0.000422,20.764488,0.059076,0.002385,25.063238,0.084726,0.000633,0.015055,1.570445,-0.029761,-0.000050,0.003513,0.000006,-0.004291,-0.000001,0.005246,-0.000436,0.173615,-0.048746,0.193705,0.193699,0.172915,0.627242,0.000000,0.000000,0.000000,0.000000,0.000000,0.000000,0.000000,0.000000,0.000000,0.000000,0.000000,0.000000,2.314934,3,0
900000,0.000432,21.024679,0.060480,0.002353,25.081045,0.086535,0.000630,0.015933,1.570443,-0.031548,-0.000053,0.003390,0.000007,-0.004567,-0.000001,0.014098,-0.000446,0.295069,0.018633,0.194169,0.194164,0.172899,0.620156,0.000000,0.000000,0.000000,0.000000,0.000000,0.000000,0.000000,0.000000,0.000000,0.000000,0.000000,0.000000,2.313169,3,0
910000,0.000441,21.285652,0.061815,0.002376,25.099939,0.088434,0.000629,0.016885,1.570451,-0.033456,-0.000056,0.003286,0.000007,-0.004866,-0.000001,0.015838,-0.000456,0.313004,0.015517,0.194620,0.194614,0.172869,0.613156,0.000000,0.000000,0.000000,0.000000,0.000000,0.000000,0.000000,0.000000,0.000000,0.000000,0.000000,0.000000,2.310621,3,0
920000,0.000452,21.544163,0.062858,0.002618,25.114246,0.089830,0.000638,0.017616,1.570443,-0.034872,-0.000059,0.003255,0.000008,-0.005092,-0.000001,0.008590,-0.000467,0.230753,0.004827,0.195057,0.195051,0.172824,0.606242,0.000000,0.000000,0.000000,0.000000,0.000000,0.000000,0.000000,0.000000,0.000000,0.000000,0.000000,0.000000,2.310537,3,0
930000,0.000464,21.805414,0.061787,0.002708,25.133179,0.088120,0.000646,0.018582,1.570434,-0.036787,-0.000062,0.003732,0.000008,-0.005400,-0.000002,0.016273,-0.000480,0.310038,-0.069159,0.195480,0.195474,0.172765,0.599419,0.000000,0.000000,0.000000,0.000000,0.000000,0.000000,0.000000,0.000000,0.000000,0.000000,0.000000,0.000000,2.307711,3,0
940000,0.000479,22.066132,0.061694,0.003050,25.150993,0.087729,0.000653,0.019501,1.570431,-0.038570,-0.000065,0.003974,0.000009,-0.005693,-0.000002,0.013487,-0.000495,0.287144,-0.034543,0.195889,0.195883,0.172692,0.592688,0.000000,0.000000,0.000000,0.000000,0.000000,0.000000,0.000000,0.000000,0.000000,0.000000,0.000000,0.000000,2.305422,3,0
950000,0.000493,22.327616,0.060840,0.003059,25.169992,0.086340,0.000649,0.020486,1.570425,-0.040472,-0.000069,0.004403,0.000009,-0.006009,-0.000002,0.015554,-0.000510,0.304552,-0.060924,0.196285,0.196279,0.172605,0.586051,0.000000,0.000000,0.000000,0.000000,0.000000,0.000000,0.000000,0.000000,0.000000,0.000000,0.000000,0.000000,2.302361,3,0
960000,0.000510,22.585295,0.059675,0.003407,25.181921,0.084404,0.000658,0.021113,1.570417,-0.041615,-0.000072,0.004908,0.000010,-0.006202,-0.000002,0.006161,-0.000527,0.182030,-0.071140,0.196668,0.196662,0.172504,0.579511,0.000000,0.000000,0.000000,0.000000,0.000000,0.000000,0.000000,0.000000,0.000000,0.000000,0.000000,0.000000,2.303110,3,0
970000,0.000527,22.845741,0.060296,0.003484,25.198893,0.085362,0.000665,0.022001,1.570423,-0.043268,-0.000076,0.004970,0.000010,-0.006486,-0.000002,0.011091,-0.000545,0.262169,-0.008528,0.197038,0.197032,0.172390,0.573068,0.000000,0.000000,0.000000,0.000000,0.000000,0.000000,0.000000,0.000000,0.000000,0.000000,0.000000,0.000000,2.301089,3,0
980000,0.000543,23.106951,0.059544,0.003393,25.216734,0.084284,0.000663,0.022960,1.570421,-0.045041,-0.000080,0.005380,0.000011,-0.006795,-0.000002,0.013144,-0.000562,0.279860,-0.056659,0.197395,0.197389,0.172262,0.566724,0.000000,0.000000,0.000000,0.000000,0.000000,0.000000,0.000000,0.000000,0.000000,0.000000,0.000000,0.000000,2.298306,3,0
990000,0.000559,23.367607,0.060675,0.003459,25.233467,0.085650,0.000672,0.023857,1.570422,-0.046676,-0.000083,0.005312,0.000012,-0.007085,-0.000002,0.010661,-0.000578,0.257017,0.009380,0.197740,0.197734,0.172121,0.560481,0.000000,0.000000,0.000000,0.000000,0.000000,0.000000,0.000000,0.000000,0.000000,0.000000,0.000000,0.000000,2.296074,3,0
1000000,0.000576,23.625740,0.061973,0.003658,25.245461,0.087467,0.000685,0.024510,1.570426,-0.047794,-0.000088,0.005203,0.000012,-0.007286,-0.000002,0.004977,-0.000596,0.175104,0.014781,0.198073,0.198067,0.171968,0.554340,0.000000,0.000000,0.000000,0.000000,0.000000,0.000000,0.000000,0.000000,0.000000,0.000000,0.000000,0.000000,2.296368,3,0
1010000,0.000593,23.886637,0.060894,0.003636,25.262180,0.086031,0.000688,0.025428,1.570426,-0.049428,-0.000092,0.005715,0.000013,-0.007584,-0.000002,0.011233,-0.000613,0.254791,-0.068994,0.198395,0.198388,0.171803,0.548302,0.000000,0.000000,0.000000,0.000000,0.000000,0.000000,0.000000,0.000000,0.000000,0.000000,0.000000,0.000000,2.293896,3,0
1020000,0.000611,24.148285,0.060633,0.003854,25.280071,0.085585,0.000701,0.026420,1.570418,-0.051179,-0.000096,0.006014,0.000014,-0.007908,-0.000002,0.012183,-0.000632,0.272030,-0.039920,0.198705,0.198699,0.171625,0.542366,0.000000,0.000000,0.000000,0.000000,0.000000,0.000000,0.000000,0.000000,0.000000,0.000000,0.000000,0.000000,2.290674,3,0
1030000,0.000630,24.407379,0.060131,0.004056,25.293434,0.084867,0.000701,0.027154,1.570417,-0.052400,-0.000100,0.006377,0.000015,-0.008137,-0.000002,0.006138,-0.000652,0.189110,-0.048147,0.199005,0.198998,0.171436,0.536535,0.000000,0.000000,0.000000,0.000000,0.000000,0.000000,0.000000,0.000000,0.000000,0.000000,0.000000,0.000000,2.290005,3,0
1040000,0.000652,24.667252,0.060190,0.004314,25.308123,0.084926,0.000700,0.027960,1.570410,-0.053748,-0.000105,0.006592,0.000015,-0.008394,-0.000002,0.007114,-0.000674,0.208187,-0.028342,0.199294,0.199288,0.171236,0.530808,0.000000,0.000000,0.000000,0.000000,0.000000,0.000000,0.000000,0.000000,0.000000,0.000000,0.000000,0.000000,2.288559,3,0
1050000,0.000673,24.927227,0.060157,0.004384,25.322664,0.084802,0.000706,0.028771,1.570404,-0.055089,-0.000110,0.006833,0.000016,-0.008654,-0.000002,0.007038,-0.000696,0.206593,-0.031576,0.199573,0.199567,0.171025,0.525185,0.000000,0.000000,0.000000,0.000000,0.000000,0.000000,0.000000,0.000000,0.000000,0.000000,0.000000,0.000000,2.287008,3,0
1060000,0.000693,25.189951,0.060458,0.004305,25.341856,0.085027,0.000707,0.029863,1.570405,-0.056939,-0.000114,0.006985,0.000017,-0.009018,-0.000003,0.013097,-0.000716,0.284412,-0.019876,0.199843,0.199837,0.170804,0.519668,0.000000,0.000000,0.000000,0.000000,0.000000,0.000000,0.000000,0.000000,0.000000,0.000000,0.000000,0.000000,2.282711,3,0
1070000,0.000709,25.450081,0.061701,0.004019,25.356382,0.086496,0.000712,0.030683,1.570403,-0.058245,-0.000120,0.006881,0.000018,-0.009279,-0.000003,0.006499,-0.000733,0.200403,0.013272,0.200104,0.200098,0.170572,0.514255,0.000000,0.000000,0.000000,0.000000,0.000000,0.000000,0.000000,0.000000,0.000000,0.000000,0.000000,0.000000,2.281006,3,0
1080000,0.000726,25.712294,0.061784,0.004181,25.374371,0.086541,0.000716,0.031715,1.570406,-0.059932,-0.000125,0.007100,0.000019,-0.009621,-0.000003,0.010869,-0.000751,0.258192,-0.028223,0.200356,0.200350,0.170331,0.508946,0.000000,0.000000,0.000000,0.000000,0.000000,0.000000,0.000000,0.000000,0.000000,0.000000,0.000000,0.000000,2.277222,3,0
1090000,0.000744,25.975895,0.062332,0.004307,25.394571,0.087008,0.000722,0.032880,1.570400,-0.061856,-0.000130,0.007191,0.000020,-0.010016,-0.000003,0.013945,-0.000769,0.293982,-0.011832,0.200601,0.200594,0.170081,0.503743,0.000000,0.000000,0.000000,0.000000,0.000000,0.000000,0.000000,0.000000,0.000000,0.000000,0.000000,0.000000,2.272043,3,0
1100000,0.000760,26.239529,0.062491,0.004187,25.414515,0.087083,0.000727,0.034047,1.570392,-0.063748,-0.000136,0.007394,0.000021,-0.010411,-0.000003,0.013526,-0.000786,0.288605,-0.025810,0.200837,0.200830,0.169822,0.498643,0.000000,0.000000,0.000000,0.000000,0.000000,0.000000,0.000000,0.000000,0.000000,0.000000,0.000000,0.000000,2.266838,3,0
1110000,0.000778,26.499197,0.062840,0.004411,25.427231,0.087632,0.000719,0.034773,1.570389,-0.064823,-0.000141,0.007545,0.000023,-0.010639,-0.000003,0.004387,-0.000804,0.163923,-0.019068,0.201066,0.201059,0.169554,0.493646,0.000000,0.000000,0.000000,0.000000,0.000000,0.000000,0.000000,0.000000,0.000000,0.000000,0.000000,0.000000,2.265594,3,0
1120000,0.000796,26.758286,0.062277,0.004549,25.438814,0.086711,0.000728,0.035430,1.570393,-0.065762,-0.000147,0.007960,0.000024,-0.010840,-0.000003,0.003709,-0.000823,0.142673,-0.051511,0.201289,0.201282,0.169279,0.488753,0.000000,0.000000,0.000000,0.000000,0.000000,0.000000,0.000000,0.000000,0.000000,0.000000,0.000000,0.000000,2.264933,3,0
1130000,0.000814,27.020811,0.063526,0.004537,25.456352,0.088213,0.000736,0.036470,1.570382,-0.067347,-0.000152,0.007851,0.000025,-0.011186,-0.000003,0.009405,-0.000842,0.241287,0.013001,0.201505,0.201498,0.168996,0.483962,0.000000,0.000000,0.000000,0.000000,0.000000,0.000000,0.000000,0.000000,0.000000,0.000000,0.000000,0.000000,2.260832,3,0
1140000,0.000831,27.283377,0.064449,0.004584,25.474020,0.089434,0.000736,0.037505,1.570386,-0.068906,-0.000158,0.007840,0.000026,-0.011531,-0.000004,0.009048,-0.000860,0.237009,0.000803,0.201716,0.201708,0.168706,0.479274,0.000000,0.000000,0.000000,0.000000,0.000000,0.000000,0.000000,0.000000,0.000000,0.000000,0.000000,0.000000,2.256693,3,0
1150000,0.000850,27.543974,0.063555,0.004789,25.487644,0.087967,0.000731,0.038305,1.570394,-0.070047,-0.000164,0.008367,0.000028,-0.011787,-0.000004,0.005491,-0.000879,0.173059,-0.064184,0.201921,0.201913,0.168409,0.474686,0.000000,0.000000,0.000000,0.000000,0.000000,0.000000,0.000000,0.000000,0.000000,0.000000,0.000000,0.000000,2.254523,3,0
1160000,0.000869,27.806648,0.064191,0.004851,25.505053,0.088715,0.000738,0.039333,1.570386,-0.071563,-0.000171,0.008439,0.000029,-0.012133,-0.000004,0.008562,-0.000899,0.230383,-0.009237,0.202121,0.202113,0.168106,0.470198,0.000000,0.000000,0.000000,0.000000,0.000000,0.000000,0.000000,0.000000,0.000000,0.000000,0.000000,0.000000,2.250273,3,0
1170000,0.000887,28.067343,0.063570,0.004869,25.518618,0.087973,0.000748,0.040124,1.570386,-0.072659,-0.000177,0.008892,0.000030,-0.012386,-0.000004,0.004937,-0.000918,0.166327,-0.054494,0.202317,0.202309,0.167797,0.465810,0.000000,0.000000,0.000000,0.000000,0.000000,0.000000,0.000000,0.000000,0.000000,0.000000,0.000000,0.000000,2.248005,3,0
1180000,0.000905,28.330111,0.063581,0.004825,25.535595,0.087743,0.000754,0.041152,1.570394,-0.074131,-0.000183,0.009152,0.000032,-0.012731,-0.000004,0.008211,-0.000936,0.223560,-0.031596,0.202508,0.202500,0.167482,0.461519,0.000000,0.000000,0.000000,0.000000,0.000000,0.000000,0.000000,0.000000,0.000000,0.000000,0.000000,0.000000,2.243662,3,0
1190000,0.000921,28.590219,0.064826,0.004834,25.547993,0.089339,0.000744,0.041864,1.570392,-0.075048,-0.000190,0.009042,0.000033,-0.012949,-0.000004,0.003161,-0.000954,0.139528,0.012690,0.202696,0.202688,0.167162,0.457326,0.000000,0.000000,0.000000,0.000000,0.000000,0.000000,0.000000,0.000000,0.000000,0.000000,0.000000,0.000000,2.241982,3,0
1200000,0.000937,28.850393,0.065486,0.004788,25.560101,0.090144,0.000753,0.042560,1.570398,-0.075953,-0.000196,0.009113,0.000035,-0.013168,-0.000004,0.003067,-0.000970,0.137722,-0.008846,0.202880,0.202872,0.166838,0.453229,0.000000,0.000000,0.000000,0.000000,0.000000,0.000000,0.000000,0.000000,0.000000,0.000000,0.000000,0.000000,2.240231,3,0
1210000,0.000954,29.109959,0.066669,0.004938,25.570875,0.091602,0.000758,0.043196,1.570397,-0.076714,-0.000203,0.009027,0.000037,-0.013354,-0.000004,0.002181,-0.000987,0.115973,0.009682,0.203062,0.203053,0.166508,0.449226,0.000000,0.000000,0.000000,0.000000,0.000000,0.000000,0.000000,0.000000,0.000000,0.000000,0.000000,0.000000,2.239094,3,0
1220000,0.000969,29.371614,0.066255,0.004837,25.585585,0.090900,0.000759,0.044061,1.570393,-0.077860,-0.000210,0.009440,0.000038,-0.013639,-0.000005,0.005276,-0.001002,0.174360,-0.048441,0.203241,0.203232,0.166175,0.445318,0.000000,0.000000,0.000000,0.000000,0.000000,0.000000,0.000000,0.000000,0.000000,0.000000,0.000000,0.000000,2.235863,3,0
1230000,0.000983,29.633984,0.065798,0.004790,25.601431,0.090036,0.000761,0.045022,1.570396,-0.079112,-0.000217,0.009866,0.000040,-0.013955,-0.000005,0.006268,-0.001017,0.190859,-0.049818,0.203417,0.203408,0.165838,0.441503,0.000000,0.000000,0.000000,0.000000,0.000000,0.000000,0.000000,0.000000,0.000000,0.000000,0.000000,0.000000,2.231920,3,0
1240000,0.000997,29.895029,0.065720,0.004822,25.614529,0.089438,0.000769,0.045797,1.570385,-0.080075,-0.000223,0.010173,0.000042,-0.014201,-0.000005,0.003686,-0.001032,0.147001,-0.035723,0.203592,0.203582,0.165498,0.437779,0.000000,0.000000,0.000000,0.000000,0.000000,0.000000,0.000000,0.000000,0.000000,0.000000,0.000000,0.000000,2.229300,3,0
1250000,0.001011,30.156792,0.065903,0.004874,25.628868,0.089840,0.000769,0.046654,1.570385,-0.081148,-0.000231,0.010398,0.000043,-0.014480,-0.000005,0.004450,-0.001046,0.164129,-0.026348,0.203765,0.203755,0.165155,0.434144,0.000000,0.000000,0.000000,0.000000,0.000000,0.000000,0.000000,0.000000,0.000000,0.000000,0.000000,0.000000,2.225964,3,0
1260000,0.001025,30.420612,0.065369,0.004910,25.646799,0.088695,0.000781,0.047773,1.570385,-0.082587,-0.000238,0.010853,0.000045,-0.014858,-0.000005,0.008258,-0.001061,0.220285,-0.052416,0.203937,0.203926,0.164808,0.430599,0.000000,0.000000,0.000000,0.000000,0.000000,0.000000,0.000000,0.000000,0.000000,0.000000,0.000000,0.000000,2.220566,3,0
1270000,0.001037,30.683079,0.066435,0.004809,25.662109,0.089853,0.000793,0.048705,1.570378,-0.083724,-0.000245,0.010790,0.000047,-0.015163,-0.000005,0.004934,-0.001073,0.174950,0.006226,0.204107,0.204096,0.164460,0.427141,0.000000,0.000000,0.000000,0.000000,0.000000,0.000000,0.000000,0.000000,0.000000,0.000000,0.000000,0.000000,2.216530,3,0
1280000,0.001050,30.945560,0.066227,0.004904,25.677189,0.089337,0.000787,0.049625,1.570373,-0.084834,-0.000252,0.011147,0.000049,-0.015463,-0.000005,0.004964,-0.001087,0.170757,-0.040770,0.204277,0.204266,0.164109,0.423769,0.000000,0.000000,0.000000,0.000000,0.000000,0.000000,0.000000,0.000000,0.000000,0.000000,0.000000,0.000000,2.212471,3,0
1290000,0.001060,31.206699,0.066413,0.004678,25.689621,0.089609,0.000788,0.050354,1.570369,-0.085656,-0.000259,0.011377,0.000051,-0.015690,-0.000006,0.002700,-0.001097,0.126793,-0.026290,0.204447,0.204435,0.163757,0.420482,0.000000,0.000000,0.000000,0.000000,0.000000,0.000000,0.000000,0.000000,0.000000,0.000000,0.000000,0.000000,2.209759,3,0
1300000,0.001070,31.466520,0.066209,0.004718,25.699898,0.089190,0.000782,0.050906,1.570374,-0.086203,-0.000267,0.011741,0.000053,-0.015842,-0.000006,0.001410,-0.001108,0.084192,-0.040706,0.204616,0.204603,0.163403,0.417278,0.000000,0.000000,0.000000,0.000000,0.000000,0.000000,0.000000,0.000000,0.000000,0.000000,0.000000,0.000000,2.208365,3,0
1310000,0.001081,31.727072,0.066092,0.004839,25.711164,0.089062,0.000779,0.051556,1.570363,-0.086865,-0.000274,0.012077,0.000055,-0.016030,-0.000006,0.001922,-0.001119,0.102575,-0.037526,0.204785,0.204772,0.163048,0.414157,0.000000,0.000000,0.000000,0.000000,0.000000,0.000000,0.000000,0.000000,0.000000,0.000000,0.000000,0.000000,2.206240,3,0
1320000,0.001094,31.989019,0.067341,0.005074,25.724796,0.090506,0.000785,0.052385,1.570358,-0.087763,-0.000281,0.011951,0.000057,-0.016288,-0.000006,0.003187,-0.001133,0.140095,0.012954,0.204955,0.204941,0.162692,0.411115,0.000000,0.000000,0.000000,0.000000,0.000000,0.000000,0.000000,0.000000,0.000000,0.000000,0.000000,0.000000,2.202715,3,0
1330000,0.001106,32.250305,0.066480,0.005038,25.736904,0.089272,0.000790,0.053117,1.570361,-0.088513,-0.000289,0.012546,0.000059,-0.016506,-0.000006,0.002884,-0.001145,0.116558,-0.065545,0.205125,0.205110,0.162336,0.408152,0.000000,0.000000,0.000000,0.000000,0.000000,0.000000,0.000000,0.000000,0.000000,0.000000,0.000000,0.000000,2.199856,3,0
1340000,0.001118,32.510933,0.067466,0.005097,25.748045,0.090503,0.000786,0.053740,1.570351,-0.089110,-0.000296,0.012512,0.000061,-0.016683,-0.000006,0.001415,-0.001158,0.093697,0.003125,0.205296,0.205280,0.161979,0.405267,0.000000,0.000000,0.000000,0.000000,0.000000,0.000000,0.000000,0.000000,0.000000,0.000000,0.000000,0.000000,2.197655,3,0
1350000,0.001130,32.770237,0.067787,0.005093,25.756588,0.090755,0.000795,0.054171,1.570339,-0.089440,-0.000304,0.012712,0.000064,-0.016782,-0.000006,0.000507,-0.001170,0.051624,-0.021966,0.205467,0.205451,0.161622,0.402459,0.000000,0.000000,0.000000,0.000000,0.000000,0.000000,0.000000,0.000000,0.000000,0.000000,0.000000,0.000000,2.196778,3,0
1360000,0.001139,33.032322,0.068256,0.004910,25.770065,0.090993,0.000807,0.054977,1.570336,-0.090265,-0.000312,0.012857,0.000066,-0.017033,-0.000006,0.002772,-0.001180,0.130173,-0.016463,0.205640,0.205623,0.161265,0.399725,0.000000,0.000000,0.000000,0.000000,0.000000,0.000000,0.000000,0.000000,0.000000,0.000000,0.000000,0.000000,2.193119,3,0
1370000,0.001151,33.295094,0.068639,0.005150,25.784407,0.091467,0.000794,0.055870,1.570336,-0.091188,-0.000319,0.013033,0.000068,-0.017318,-0.000006,0.003507,-0.001192,0.146259,-0.019867,0.205813,0.205795,0.160908,0.397064,0.000000,0.000000,0.000000,0.000000,0.000000,0.000000,0.000000,0.000000,0.000000,0.000000,0.000000,0.000000,2.188771,3,0
1380000,0.001162,33.557178,0.068353,0.005111,25.797701,0.090812,0.000791,0.056665,1.570331,-0.091956,-0.000327,0.013448,0.000071,-0.017559,-0.000006,0.002719,-0.001203,0.121891,-0.044964,0.205988,0.205969,0.160552,0.394477,0.000000,0.000000,0.000000,0.000000,0.000000,0.000000,0.000000,0.000000,0.000000,0.000000,0.000000,0.000000,2.185116,3,0
1390000,0.001173,33.817219,0.069541,0.005277,25.807032,0.091995,0.000795,0.057147,1.570334,-0.092320,-0.000335,0.013346,0.000073,-0.017674,-0.000007,0.000567,-0.001215,0.058464,0.010259,0.206164,0.206144,0.160196,0.391959,0.000000,0.000000,0.000000,0.000000,0.000000,0.000000,0.000000,0.000000,0.000000,0.000000,0.000000,0.000000,2.183499,3,0
1400000,0.001184,34.080715,0.068956,0.005132,25.822323,0.090845,0.000794,0.058099,1.570325,-0.093296,-0.000342,0.013872,0.000075,-0.017989,-0.000007,0.004441,-0.001225,0.156151,-0.056455,0.206342,0.206320,0.159842,0.389509,0.000000,0.000000,0.000000,0.000000,0.000000,0.000000,0.000000,0.000000,0.000000,0.000000,0.000000,0.000000,2.178429,3,0
1410000,0.001192,34.342827,0.068685,0.005024,25.834936,0.090284,0.000782,0.058849,1.570325,-0.093987,-0.000350,0.014288,0.000078,-0.018216,-0.000007,0.002310,-0.001235,0.111164,-0.044471,0.206521,0.206498,0.159489,0.387127,0.000000,0.000000,0.000000,0.000000,0.000000,0.000000,0.000000,0.000000,0.000000,0.000000,0.000000,0.000000,2.174744,3,0
1420000,0.001198,34.606991,0.068698,0.004705,25.851282,0.090010,0.000779,0.059890,1.570318,-0.095018,-0.000358,0.014596,0.000080,-0.018558,-0.000007,0.004670,-0.001240,0.166992,-0.033472,0.206701,0.206677,0.159137,0.384812,0.000000,0.000000,0.000000,0.000000,0.000000,0.000000,0.000000,0.000000,0.000000,0.000000,0.000000,0.000000,2.169007,3,0
1430000,0.001202,34.867008,0.067950,0.004613,25.859930,0.088988,0.000782,0.060316,1.570312,-0.095280,-0.000366,0.015197,0.000083,-0.018647,-0.000007,0.000917,-0.001244,0.041817,-0.062568,0.206883,0.206858,0.158786,0.382562,0.000000,0.000000,0.000000,0.000000,0.000000,0.000000,0.000000,0.000000,0.000000,0.000000,0.000000,0.000000,2.167412,3,0
1440000,0.001206,35.128429,0.066716,0.004572,25.871103,0.087440,0.000773,0.060934,1.570315,-0.095773,-0.000373,0.015973,0.000085,-0.018816,-0.000007,0.002081,-0.001248,0.079895,-0.080594,0.207067,0.207041,0.158438,0.380375,0.000000,0.000000,0.000000,0.000000,0.000000,0.000000,0.000000,0.000000,0.000000,0.000000,0.000000,0.000000,2.164418,3,0
1450000,0.001209,35.391922,0.065655,0.004562,25.885862,0.086109,0.000765,0.061839,1.570312,-0.096606,-0.000381,0.016677,0.000088,-0.019105,-0.000007,0.003870,-0.001252,0.136421,-0.073463,0.207252,0.207225,0.158091,0.378251,0.000000,0.000000,0.000000,0.000000,0.000000,0.000000,0.000000,0.000000,0.000000,0.000000,0.000000,0.000000,2.159352,3,0
1460000,0.001211,35.654690,0.066740,0.004485,25.898838,0.087183,0.000762,0.062632,1.570317,-0.097275,-0.000389,0.016581,0.000091,-0.019341,-0.000007,0.002006,-0.001255,0.111328,0.008571,0.207440,0.207411,0.157746,0.376185,0.000000,0.000000,0.000000,0.000000,0.000000,0.000000,0.000000,0.000000,0.000000,0.000000,0.000000,0.000000,2.155011,3,0
1470000,0.001211,35.919502,0.066988,0.004188,25.915371,0.087007,0.000763,0.063702,1.570314,-0.098274,-0.000396,0.016794,0.000093,-0.019698,-0.000008,0.004550,-0.001254,0.166492,-0.023461,0.207629,0.207598,0.157404,0.374178,0.000000,0.000000,0.000000,0.000000,0.000000,0.000000,0.000000,0.000000,0.000000,0.000000,0.000000,0.000000,2.148621,3,0
1480000,0.001209,36.182888,0.066396,0.004087,25.929283,0.085951,0.000758,0.064544,1.570312,-0.098993,-0.000404,0.017333,0.000096,-0.019960,-0.000008,0.002828,-0.001253,0.120182,-0.055712,0.207819,0.207787,0.157063,0.372231,0.000000,0.000000,0.000000,0.000000,0.000000,0.000000,0.000000,0.000000,0.000000,0.000000,0.000000,0.000000,2.143662,3,0
1490000,0.001209,36.446239,0.066654,0.004204,25.943203,0.086034,0.000756,0.065374,1.570300,-0.099675,-0.000412,0.017547,0.000099,-0.020211,-0.000008,0.002216,-0.001252,0.115078,-0.022898,0.208012,0.207978,0.156726,0.370342,0.000000,0.000000,0.000000,0.000000,0.000000,0.000000,0.000000,0.000000,0.000000,0.000000,0.000000,0.000000,2.138737,3,0
1500000,0.001208,36.710941,0.065898,0.004161,25.959248,0.084689,0.000763,0.066392,1.570307,-0.100560,-0.000419,0.018145,0.000101,-0.020542,-0.000008,0.004226,-0.001251,0.149773,-0.061643,0.208205,0.208170,0.156390,0.368506,0.000000,0.000000,0.000000,0.000000,0.000000,0.000000,0.000000,0.000000,0.000000,0.000000,0.000000,0.000000,2.132462,3,0
1510000,0.001205,36.970745,0.066708,0.003899,25.966221,0.085566,0.000762,0.066634,1.570310,-0.100584,-0.000426,0.018162,0.000104,-0.020552,-0.000008,0.000004,-0.001248,0.004185,-0.001723,0.208401,0.208364,0.156058,0.366726,0.000000,0.000000,0.000000,0.000000,0.000000,0.000000,0.000000,0.000000,0.000000,0.000000,0.000000,0.000000,2.131081,3,0
1520000,0.001201,37.229885,0.067024,0.003811,25.972126,0.085735,0.000765,0.066766,1.570309,-0.100488,-0.000434,0.018378,0.000107,-0.020514,-0.000008,0.000121,-0.001244,-0.017143,-0.021208,0.208598,0.208559,0.155728,0.364999,0.000000,0.000000,0.000000,0.000000,0.000000,0.000000,0.000000,0.000000,0.000000,0.000000,0.000000,0.000000,2.130371,3,0
1530000,0.001197,37.489052,0.067841,0.003911,25.977591,0.086613,0.000771,0.066894,1.570302,-0.100385,-0.000441,0.018401,0.000110,-0.020474,-0.000008,0.000053,-0.001240,-0.017918,-0.002024,0.208797,0.208756,0.155402,0.363320,0.000000,0.000000,0.000000,0.000000,0.000000,0.000000,0.000000,0.000000,0.000000,0.000000,0.000000,0.000000,2.129627,3,0
1540000,0.001196,37.749626,0.068770,0.004087,25.985432,0.087524,0.000777,0.067235,1.570296,-0.100505,-0.000448,0.018375,0.000113,-0.020522,-0.000008,0.000072,-0.001239,0.021046,0.002245,0.208997,0.208954,0.155078,0.361690,0.000000,0.000000,0.000000,0.000000,0.000000,0.000000,0.000000,0.000000,0.000000,0.000000,0.000000,0.000000,2.127480,3,0
1550000,0.001194,38.012974,0.069936,0.004054,25.998508,0.088732,0.000784,0.067992,1.570291,-0.101059,-0.000455,0.018244,0.000115,-0.020745,-0.000008,0.001577,-0.001237,0.098335,0.011456,0.209198,0.209153,0.154758,0.360110,0.000000,0.000000,0.000000,0.000000,0.000000,0.000000,0.000000,0.000000,0.000000,0.000000,0.000000,0.000000,2.122559,3,0
1560000,0.001194,38.274208,0.069264,0.004176,26.007486,0.087801,0.000790,0.068400,1.570292,-0.101254,-0.000462,0.018863,0.000118,-0.020826,-0.000008,0.000782,-0.001236,0.033646,-0.060787,0.209401,0.209354,0.154441,0.358577,0.000000,0.000000,0.000000,0.000000,0.000000,0.000000,0.000000,0.000000,0.000000,0.000000,0.000000,0.000000,2.119751,3,0
1570000,0.001193,38.536823,0.068890,0.004171,26.018881,0.086998,0.000786,0.069031,1.570287,-0.101651,-0.000469,0.019353,0.000121,-0.020991,-0.000008,0.001183,-0.001236,0.070503,-0.048582,0.209605,0.209556,0.154127,0.357091,0.000000,0.000000,0.000000,0.000000,0.000000,0.000000,0.000000,0.000000,0.000000,0.000000,0.000000,0.000000,2.115563,3,0
1580000,0.001193,38.798702,0.069232,0.004158,26.028833,0.087326,0.000782,0.069510,1.570284,-0.101909,-0.000476,0.019559,0.000124,-0.021100,-0.000008,0.000415,-0.001236,0.046322,-0.020675,0.209810,0.209758,0.153817,0.355649,0.000000,0.000000,0.000000,0.000000,0.000000,0.000000,0.000000,0.000000,0.000000,0.000000,0.000000,0.000000,2.112107,3,0
1590000,0.001191,39.060570,0.068035,0.004035,26.038542,0.085736,0.000776,0.069989,1.570285,-0.102151,-0.000482,0.020395,0.000127,-0.021206,-0.000008,0.001360,-0.001234,0.042767,-0.080997,0.210016,0.209962,0.153510,0.354250,0.000000,0.000000,0.000000,0.000000,0.000000,0.000000,0.000000,0.000000,0.000000,0.000000,0.000000,0.000000,2.108666,3,0
1600000,0.001191,39.323803,0.067452,0.004181,26.050602,0.084584,0.000778,0.070677,1.570287,-0.102585,-0.000489,0.020967,0.000129,-0.021395,-0.000008,0.001515,-0.001234,0.078987,-0.056101,0.210223,0.210167,0.153206,0.352894,0.000000,0.000000,0.000000,0.000000,0.000000,0.000000,0.000000,0.000000,0.000000,0.000000,0.000000,0.000000,2.103859,3,0
1610000,0.001192,39.584202,0.066454,0.004331,26.057425,0.083098,0.000785,0.070903,1.570282,-0.102564,-0.000495,0.021730,0.000132,-0.021387,-0.000008,0.000863,-0.001235,-0.005459,-0.072669,0.210431,0.210372,0.152907,0.351579,0.000000,0.000000,0.000000,0.000000,0.000000,0.000000,0.000000,0.000000,0.000000,0.000000,0.000000,0.000000,2.101887,3,0
1620000,0.001193,39.848770,0.067555,0.004325,26.071909,0.084008,0.000772,0.071783,1.570280,-0.103156,-0.000502,0.021592,0.000135,-0.021653,-0.000009,0.002030,-0.001236,0.111771,0.011185,0.210639,0.210578,0.152611,0.350306,0.000000,0.000000,0.000000,0.000000,0.000000,0.000000,0.000000,0.000000,0.000000,0.000000,0.000000,0.000000,2.095742,3,0
1630000,0.001194,40.109074,0.068828,0.004381,26.078121,0.085116,0.000780,0.071937,1.570279,-0.103082,-0.000509,0.021418,0.000138,-0.021619,-0.000008,0.000076,-0.001237,-0.013786,0.016709,0.210847,0.210784,0.152318,0.349069,0.000000,0.000000,0.000000,0.000000,0.000000,0.000000,0.000000,0.000000,0.000000,0.000000,0.000000,0.000000,2.093869,3,0
1640000,0.001193,40.369373,0.069809,0.004241,26.084129,0.085821,0.000778,0.072082,1.570273,-0.102999,-0.000515,0.021370,0.000141,-0.021580,-0.000008,0.000044,-0.001237,-0.015728,0.004784,0.211056,0.210990,0.152030,0.347869,0.000000,0.000000,0.000000,0.000000,0.000000,0.000000,0.000000,0.000000,0.000000,0.000000,0.000000,0.000000,2.091992,3,0
1650000,0.001193,40.629662,0.070657,0.004262,26.090034,0.086634,0.000765,0.072211,1.570259,-0.102908,-0.000521,0.021383,0.000144,-0.021538,-0.000008,0.000051,-0.001237,-0.017658,-0.000870,0.211265,0.211197,0.151745,0.346705,0.000000,0.000000,0.000000,0.000000,0.000000,0.000000,0.000000,0.000000,0.000000,0.000000,0.000000,0.000000,2.090130,3,0
1660000,0.001193,40.893452,0.070966,0.004237,26.102442,0.086769,0.000768,0.072919,1.570258,-0.103318,-0.000528,0.021598,0.000147,-0.021734,-0.000009,0.001101,-0.001236,0.079815,-0.021703,0.211474,0.211403,0.151465,0.345578,0.000000,0.000000,0.000000,0.000000,0.000000,0.000000,0.000000,0.000000,0.000000,0.000000,0.000000,0.000000,2.084767,3,0
1670000,0.001194,41.153683,0.070006,0.004299,26.108110,0.085296,0.000773,0.073023,1.570254,-0.103200,-0.000534,0.022388,0.000150,-0.021678,-0.000009,0.000969,-0.001237,-0.025070,-0.073059,0.211684,0.211609,0.151188,0.344485,0.000000,0.000000,0.000000,0.000000,0.000000,0.000000,0.000000,0.000000,0.000000,0.000000,0.000000,0.000000,2.082962,3,0
1680000,0.001196,41.412491,0.069844,0.004452,26.111158,0.084994,0.000764,0.072879,1.570254,-0.102871,-0.000540,0.022847,0.000153,-0.021517,-0.000008,0.000993,-0.001239,-0.066692,-0.041331,0.211892,0.211815,0.150915,0.343426,0.000000,0.000000,0.000000,0.000000,0.000000,0.000000,0.000000,0.000000,0.000000,0.000000,0.000000,0.000000,2.082577,3,0
1690000,0.001197,41.674831,0.069150,0.004451,26.120689,0.083872,0.000766,0.073311,1.570253,-0.103037,-0.000546,0.023505,0.000156,-0.021602,-0.000009,0.000781,-0.001241,0.032288,-0.061440,0.212101,0.212021,0.150646,0.342399,0.000000,0.000000,0.000000,0.000000,0.000000,0.000000,0.000000,0.000000,0.000000,0.000000,0.000000,0.000000,2.078663,3,0
1700000,0.001196,41.936424,0.068631,0.004164,26.128603,0.082819,0.000767,0.073610,1.570258,-0.103084,-0.000552,0.024092,0.000159,-0.021628,-0.000009,0.000491,-0.001240,0.008400,-0.054317,0.212309,0.212226,0.150381,0.341402,0.000000,0.000000,0.000000,0.000000,0.000000,0.000000,0.000000,0.000000,0.000000,0.000000,0.000000,0.000000,2.075497,3,0
1710000,0.001194,42.196583,0.067424,0.004038,26.133974,0.081291,0.000766,0.073655,1.570264,-0.102927,-0.000558,0.024994,0.000162,-0.021548,-0.000009,0.001287,-0.001238,-0.034603,-0.082063,0.212516,0.212430,0.150120,0.340437,0.000000,0.000000,0.000000,0.000000,0.000000,0.000000,0.000000,0.000000,0.000000,0.000000,0.000000,0.000000,2.073765,3,0
1720000,0.001193,42.456013,0.067356,0.004158,26.137680,0.080900,0.000769,0.073554,1.570271,-0.102663,-0.000563,0.025402,0.000165,-0.021410,-0.000008,0.000721,-0.001237,-0.056267,-0.036116,0.212723,0.212633,0.149863,0.339500,0.000000,0.000000,0.000000,0.000000,0.000000,0.000000,0.000000,0.000000,0.000000,0.000000,0.000000,0.000000,2.072758,3,0
1730000,0.001191,42.718960,0.067488,0.004069,26.147671,0.080823,0.000764,0.074053,1.570264,-0.102864,-0.000569,0.025688,0.000168,-0.021519,-0.000009,0.000403,-0.001235,0.042088,-0.027011,0.212928,0.212836,0.149610,0.338587,0.000000,0.000000,0.000000,0.000000,0.000000,0.000000,0.000000,0.000000,0.000000,0.000000,0.000000,0.000000,2.068238,3,0
