time_us,pos_x,pos_y,pos_z,vel_x,vel_y,vel_z,roll,pitch,yaw,bias_ax,bias_ay,bias_az,bias_gx,bias_gy,bias_gz,nis,innov_x,innov_y,innov_z,cov_pos_x,cov_pos_y,cov_pos_z,cov_yaw,des_speed,des_heading,des_climb,pid_speed,pid_yaw,pid_alt,speed_meas,yaw_meas,climb_meas,fwd_accel,yaw_rate,vert_accel,drift_m,nav_mode,mission_state
0,0.000000,0.149997,0.000002,0.000056,24.999458,0.000380,0.000011,-0.000009,1.570788,0.000000,0.000000,0.000000,0.000000,0.000000,0.000000,0.006250,-0.000001,-0.249997,-0.000004,2.400038,2.400038,3.600017,1.000518,0.000000,0.000000,0.000000,0.000000,0.000000,0.000000,0.000000,0.000000,0.000000,0.000000,0.000000,0.000000,0.149997,1,0
10000,0.000002,0.342498,-0.010016,0.000247,24.998678,0.000813,0.000023,-0.000007,1.570790,0.000001,-0.000000,0.000000,0.000000,0.000000,0.000000,0.004893,-0.000003,-0.201198,-0.026735,1.714420,1.714420,2.250079,1.001073,0.000000,0.000000,0.000000,0.000000,0.000000,0.000000,0.000000,0.000000,0.000000,0.000000,0.000000,0.000000,0.143708,3,0
20000,0.000004,0.557997,-0.016976,0.000291,24.997837,0.001094,0.000040,-0.000013,1.570778,0.000002,-0.000000,0.000000,-0.000000,0.000000,0.000000,0.003199,-0.000005,-0.155144,-0.025561,1.333616,1.333616,1.636554,1.001655,0.000000,0.000000,0.000000,0.000000,0.000000,0.000000,0.000000,0.000000,0.000000,0.000000,0.000000,0.000000,0.120660,3,0
30000,0.000007,0.802024,-0.003208,0.000426,24.997330,0.001442,0.000052,-0.000022,1.570780,0.000003,-0.000000,-0.000001,0.000000,0.000000,0.000000,0.000685,-0.000008,-0.032693,0.064175,1.091392,1.091392,1.286065,1.002257,0.000000,0.000000,0.000000,0.000000,0.000000,0.000000,0.000000,0.000000,0.000000,0.000000,0.000000,0.000000,0.026746,3,0
40000,0.000011,1.036935,-0.009568,0.000612,24.996510,0.001481,0.000057,-0.000026,1.570768,0.000005,-0.000000,0.000000,-0.000000,0.000000,0.000000,0.001528,-0.000013,-0.097806,-0.036110,0.923811,0.923811,1.059385,1.002869,0.000000,0.000000,0.000000,0.000000,0.000000,0.000000,0.000000,0.000000,0.000000,0.000000,0.000000,0.000000,0.082747,3,0
50000,0.000016,1.284941,-0.005580,0.000790,24.996058,0.001837,0.000077,-0.000037,1.570770,0.000006,-0.000000,-0.000001,0.000000,0.000000,0.000000,0.000130,-0.000019,-0.014645,0.026451,0.801036,0.801036,0.900822,1.003484,0.000000,0.000000,0.000000,0.000000,0.000000,0.000000,0.000000,0.000000,0.000000,0.000000,0.000000,0.000000,0.012690,3,0
60000,0.000022,1.527371,-0.006648,0.000931,24.995411,0.002262,0.000088,-0.000038,1.570759,0.000010,-0.000000,-0.000000,0.000000,0.000000,0.000000,0.000610,-0.000025,-0.063859,-0.008359,0.707270,0.707270,0.783741,1.004094,0.000000,0.000000,0.000000,0.000000,0.000000,0.000000,0.000000,0.000000,0.000000,0.000000,0.000000,0.000000,0.056331,3,0
70000,0.000030,1.776467,-0.003600,0.001126,24.994987,0.002865,0.000096,-0.000050,1.570757,0.000010,-0.000000,-0.000002,0.000000,0.000000,0.000000,0.000110,-0.000034,-0.008098,0.026132,0.633370,0.633370,0.693801,1.004688,0.000000,0.000000,0.000000,0.000000,0.000000,0.000000,0.000000,0.000000,0.000000,0.000000,0.000000,0.000000,0.007243,3,0
80000,0.000039,2.034134,-0.005674,0.001270,24.995283,0.003056,0.000113,-0.000058,1.570762,0.000002,-0.000000,-0.000000,0.000000,-0.000000,-0.000000,0.001044,-0.000043,0.080752,-0.020299,0.573673,0.573673,0.622594,1.005260,0.000000,0.000000,0.000000,0.000000,0.000000,0.000000,0.000000,0.000000,0.000000,0.000000,0.000000,0.000000,0.073031,3,0
90000,0.000048,2.285995,-0.004141,0.001345,24.995092,0.003657,0.000125,-0.000070,1.570748,-0.000001,-0.000000,-0.000002,0.000000,-0.000000,-0.000000,0.000111,-0.000052,0.021871,0.015904,0.524488,0.524488,0.564865,1.005801,0.000000,0.000000,0.000000,0.000000,0.000000,0.000000,0.000000,0.000000,0.000000,0.000000,0.000000,0.000000,0.019960,3,0
100000,0.000058,2.533429,-0.004497,0.001525,24.994410,0.003860,0.000129,-0.000083,1.570744,0.000004,-0.000000,-0.000002,0.000000,-0.000000,-0.000000,0.000152,-0.000063,-0.031199,-0.004580,0.483303,0.483303,0.517162,1.006301,0.000000,0.000000,0.000000,0.000000,0.000000,0.000000,0.000000,0.000000,0.000000,0.000000,0.000000,0.000000,0.028686,3,0
110000,0.000068,2.780375,0.000134,0.001582,24.993671,0.004603,0.000138,-0.000087,1.570744,0.000012,-0.000000,-0.000012,0.000000,0.000000,0.000000,0.000759,-0.000074,-0.040079,0.057725,0.448354,0.448354,0.477121,1.006754,0.000000,0.000000,0.000000,0.000000,0.000000,0.000000,0.000000,0.000000,0.000000,0.000000,0.000000,0.000000,0.037084,3,0
120000,0.000079,3.029700,0.000050,0.001631,24.993206,0.004692,0.000145,-0.000095,1.570730,0.000014,-0.000000,-0.000012,0.000000,0.000000,0.000000,0.000012,-0.000085,-0.008713,-0.001774,0.418359,0.418359,0.443071,1.007150,0.000000,0.000000,0.000000,0.000000,0.000000,0.000000,0.000000,0.000000,0.000000,0.000000,0.000000,0.000000,0.008106,3,0
130000,0.000089,3.287455,0.003870,0.001704,24.994415,0.005632,0.000151,-0.000085,1.570717,-0.000017,-0.000000,-0.000025,0.000000,-0.000000,-0.000000,0.002694,-0.000096,0.119665,0.054670,0.392369,0.392369,0.413797,1.007481,0.000000,0.000000,0.000000,0.000000,0.000000,0.000000,0.000000,0.000000,0.000000,0.000000,0.000000,0.000000,0.111839,3,0
140000,0.000101,3.544809,0.007258,0.001873,24.995617,0.006371,0.000168,-0.000070,1.570704,-0.000052,-0.000000,-0.000040,0.000000,-0.000001,-0.000000,0.002677,-0.000108,0.120325,0.051443,0.369667,0.369667,0.388393,1.007739,0.000000,0.000000,0.000000,0.000000,0.000000,0.000000,0.000000,0.000000,0.000000,0.000000,0.000000,0.000000,0.112912,3,0
150000,0.000114,3.797202,0.008647,0.002004,24.995817,0.007074,0.000170,-0.000072,1.570691,-0.000067,-0.000000,-0.000047,0.000000,-0.000001,-0.000000,0.000349,-0.000122,0.041869,0.021656,0.349695,0.349695,0.366172,1.007915,0.000000,0.000000,0.000000,0.000000,0.000000,0.000000,0.000000,0.000000,0.000000,0.000000,0.000000,0.000000,0.039429,3,0
160000,0.000129,4.046508,0.007082,0.002242,24.995369,0.006804,0.000181,-0.000080,1.570693,-0.000062,-0.000000,-0.000037,0.000000,-0.000001,-0.000000,0.000148,-0.000137,-0.011737,-0.028335,0.332021,0.332021,0.346600,1.008002,0.000000,0.000000,0.000000,0.000000,0.000000,0.000000,0.000000,0.000000,0.000000,0.000000,0.000000,0.000000,0.011089,3,0
170000,0.000145,4.302608,0.009137,0.002373,24.996902,0.007696,0.000196,-0.000065,1.570693,-0.000112,-0.000000,-0.000052,0.000000,-0.000002,-0.000000,0.002354,-0.000153,0.116661,0.036137,0.316298,0.316298,0.329260,1.007991,0.000000,0.000000,0.000000,0.000000,0.000000,0.000000,0.000000,0.000000,0.000000,0.000000,0.000000,0.000000,0.110511,3,0
180000,0.000161,4.559568,0.011424,0.002437,24.998770,0.008808,0.000200,-0.000045,1.570698,-0.000178,-0.000000,-0.000071,0.000000,-0.000004,-0.000000,0.003332,-0.000169,0.138851,0.042164,0.302247,0.302247,0.313817,1.007875,0.000000,0.000000,0.000000,0.000000,0.000000,0.000000,0.000000,0.000000,0.000000,0.000000,0.000000,0.000000,0.131856,3,0
190000,0.000177,4.816324,0.009043,0.002497,25.000774,0.008216,0.000211,-0.000024,1.570695,-0.000252,-0.000000,-0.000046,0.000000,-0.000006,-0.000000,0.003509,-0.000186,0.140299,-0.049420,0.289642,0.289642,0.300003,1.007645,0.000000,0.000000,0.000000,0.000000,0.000000,0.000000,0.000000,0.000000,0.000000,0.000000,0.000000,0.000000,0.133526,3,0
200000,0.000194,5.067379,0.010295,0.002678,25.000771,0.008940,0.000231,-0.000028,1.570700,-0.000265,-0.000001,-0.000060,0.000000,-0.000006,-0.000000,0.000176,-0.000204,0.022676,0.024340,0.278296,0.278296,0.287598,1.007295,0.000000,0.000000,0.000000,0.000000,0.000000,0.000000,0.000000,0.000000,0.000000,0.000000,0.000000,0.000000,0.021624,3,0
210000,0.000212,5.321390,0.012349,0.002724,25.002205,0.009885,0.000240,-0.000023,1.570689,-0.000323,-0.000001,-0.000087,0.000000,-0.000008,-0.000000,0.001569,-0.000222,0.089682,0.042601,0.268055,0.268055,0.276421,1.006816,0.000000,0.000000,0.000000,0.000000,0.000000,0.000000,0.000000,0.000000,0.000000,0.000000,0.000000,0.000000,0.085676,3,0
220000,0.000229,5.572895,0.011684,0.002770,25.002537,0.009972,0.000261,-0.000022,1.570682,-0.000347,-0.000001,-0.000075,0.000000,-0.000009,-0.000000,0.000237,-0.000239,0.034445,-0.017303,0.258789,0.258789,0.266321,1.006202,0.000000,0.000000,0.000000,0.000000,0.000000,0.000000,0.000000,0.000000,0.000000,0.000000,0.000000,0.000000,0.032960,3,0
230000,0.000248,5.826303,0.011870,0.002918,25.003971,0.010189,0.000278,-0.000005,1.570681,-0.000409,-0.000001,-0.000076,0.000000,-0.000011,-0.000000,0.001052,-0.000258,0.081121,0.001972,0.250388,0.250388,0.257172,1.005446,0.000000,0.000000,0.000000,0.000000,0.000000,0.000000,0.000000,0.000000,0.000000,0.000000,0.000000,0.000000,0.077736,3,0
240000,0.000267,6.082237,0.012835,0.003065,25.006849,0.010712,0.000284,0.000031,1.570685,-0.000529,-0.000001,-0.000093,0.000000,-0.000015,-0.000000,0.003467,-0.000278,0.145762,0.020802,0.242758,0.242758,0.248866,1.004541,0.000000,0.000000,0.000000,0.000000,0.000000,0.000000,0.000000,0.000000,0.000000,0.000000,0.000000,0.000000,0.139865,3,0
250000,0.000288,6.336565,0.011596,0.003289,25.008940,0.010144,0.000302,0.000052,1.570690,-0.000626,-0.000002,-0.000064,0.000000,-0.000018,-0.000000,0.002063,-0.000300,0.108467,-0.033512,0.235821,0.235821,0.241314,1.003481,0.000000,0.000000,0.000000,0.000000,0.000000,0.000000,0.000000,0.000000,0.000000,0.000000,0.000000,0.000000,0.104205,3,0
260000,0.000310,6.593237,0.010252,0.003402,25.012705,0.009739,0.000322,0.000101,1.570680,-0.000791,-0.000002,-0.000028,0.000000,-0.000024,-0.000000,0.004973,-0.000322,0.172180,-0.037107,0.229508,0.229508,0.234436,1.002258,0.000000,0.000000,0.000000,0.000000,0.000000,0.000000,0.000000,0.000000,0.000000,0.000000,0.000000,0.000000,0.165594,3,0
270000,0.000332,6.847622,0.008832,0.003504,25.015173,0.009013,0.000337,0.000137,1.570686,-0.000909,-0.000002,0.000012,0.000000,-0.000029,-0.000000,0.002351,-0.000345,0.114259,-0.039947,0.223758,0.223758,0.228165,1.000869,0.000000,0.000000,0.000000,0.000000,0.000000,0.000000,0.000000,0.000000,0.000000,0.000000,0.000000,0.000000,0.109999,3,0
280000,0.000355,7.102803,0.009114,0.003656,25.018341,0.009230,0.000352,0.000186,1.570680,-0.001061,-0.000003,0.000007,0.000000,-0.000035,-0.000000,0.003070,-0.000369,0.138155,0.005141,0.218521,0.218521,0.222443,0.999307,0.000000,0.000000,0.000000,0.000000,0.000000,0.000000,0.000000,0.000000,0.000000,0.000000,0.000000,0.000000,0.133123,3,0
290000,0.000380,7.355187,0.007720,0.003815,25.019697,0.008512,0.000364,0.000195,1.570669,-0.001134,-0.000003,0.000055,0.000000,-0.000038,-0.000000,0.000887,-0.000394,0.061852,-0.041141,0.213750,0.213750,0.217219,0.997567,0.000000,0.000000,0.000000,0.000000,0.000000,0.000000,0.000000,0.000000,0.000000,0.000000,0.000000,0.000000,0.059650,3,0
300000,0.000405,7.611912,0.009053,0.004021,25.024364,0.009686,0.000386,0.000260,1.570660,-0.001369,-0.000004,0.000011,0.000000,-0.000048,-0.000000,0.005833,-0.000420,0.187154,0.035181,0.209405,0.209405,0.212446,0.995645,0.000000,0.000000,0.000000,0.000000,0.000000,0.000000,0.000000,0.000000,0.000000,0.000000,0.000000,0.000000,0.180623,3,0
310000,0.000431,7.869298,0.010535,0.004118,25.029793,0.011095,0.000403,0.000338,1.570653,-0.001648,-0.000004,-0.000042,0.000000,-0.000061,-0.000000,0.007265,-0.000447,0.208687,0.039821,0.205451,0.205451,0.208087,0.993536,0.000000,0.000000,0.000000,0.000000,0.000000,0.000000,0.000000,0.000000,0.000000,0.000000,0.000000,0.000000,0.201542,3,0
320000,0.000459,8.125978,0.010379,0.004315,25.034868,0.010986,0.000412,0.000417,1.570658,-0.001916,-0.000005,-0.000031,0.000000,-0.000073,-0.000000,0.005812,-0.000475,0.189795,-0.007893,0.201856,0.201856,0.204105,0.991236,0.000000,0.000000,0.000000,0.000000,0.000000,0.000000,0.000000,0.000000,0.000000,0.000000,0.000000,0.000000,0.183410,3,0
330000,0.000487,8.378056,0.011070,0.004481,25.036142,0.011873,0.000417,0.000440,1.570645,-0.001995,-0.000006,-0.000056,0.000000,-0.000077,-0.000000,0.000490,-0.000504,0.052337,0.017293,0.198591,0.198591,0.200469,0.988743,0.000000,0.000000,0.000000,0.000000,0.000000,0.000000,0.000000,0.000000,0.000000,0.000000,0.000000,0.000000,0.050607,3,0
340000,0.000515,8.632920,0.011428,0.004551,25.040012,0.012170,0.000425,0.000515,1.570646,-0.002213,-0.000007,-0.000068,0.000000,-0.000087,-0.000000,0.003087,-0.000533,0.138187,0.007239,0.195632,0.195632,0.197151,0.986053,0.000000,0.000000,0.000000,0.000000,0.000000,0.000000,0.000000,0.000000,0.000000,0.000000,0.000000,0.000000,0.133682,3,0
350000,0.000545,8.889793,0.011158,0.004752,25.046038,0.012097,0.000439,0.000612,1.570650,-0.002549,-0.000008,-0.000047,0.000000,-0.000104,-0.000000,0.006563,-0.000563,0.201346,-0.012198,0.192955,0.192955,0.194125,0.983163,0.000000,0.000000,0.000000,0.000000,0.000000,0.000000,0.000000,0.000000,0.000000,0.000000,0.000000,0.000000,0.194872,3,0
360000,0.000575,9.146061,0.010805,0.004888,25.051582,0.011877,0.000450,0.000706,1.570655,-0.002870,-0.000009,-0.000021,0.000000,-0.000121,-0.000000,0.005438,-0.000594,0.182961,-0.014932,0.190540,0.190540,0.191370,0.980072,0.000000,0.000000,0.000000,0.000000,0.000000,0.000000,0.000000,0.000000,0.000000,0.000000,0.000000,0.000000,0.177152,3,0
370000,0.000605,9.401136,0.009637,0.004957,25.056114,0.010990,0.000459,0.000798,1.570653,-0.003138,-0.000010,0.000054,0.000000,-0.000136,-0.000000,0.003680,-0.000625,0.145305,-0.041000,0.188367,0.188367,0.188863,0.976778,0.000000,0.000000,0.000000,0.000000,0.000000,0.000000,0.000000,0.000000,0.000000,0.000000,0.000000,0.000000,0.140745,3,0
380000,0.000636,9.653842,0.010692,0.005138,25.058210,0.012048,0.000464,0.000844,1.570656,-0.003272,-0.000011,-0.000005,0.000001,-0.000143,-0.000000,0.000920,-0.000657,0.069096,0.030351,0.186420,0.186420,0.186586,0.973281,0.000000,0.000000,0.000000,0.000000,0.000000,0.000000,0.000000,0.000000,0.000000,0.000000,0.000000,0.000000,0.066952,3,0
390000,0.000669,9.907948,0.009519,0.005357,25.061943,0.011191,0.000485,0.000909,1.570642,-0.003504,-0.000012,0.000081,0.000001,-0.000156,-0.000000,0.002408,-0.000690,0.114552,-0.042216,0.184682,0.184682,0.184522,0.969579,0.000000,0.000000,0.000000,0.000000,0.000000,0.000000,0.000000,0.000000,0.000000,0.000000,0.000000,0.000000,0.111028,3,0
400000,0.000702,10.164618,0.011095,0.005462,25.068659,0.013151,0.000498,0.001051,1.570642,-0.003924,-0.000014,-0.000021,0.000001,-0.000181,-0.000000,0.006729,-0.000724,0.198351,0.047962,0.183139,0.183139,0.182655,0.965674,0.000000,0.000000,0.000000,0.000000,0.000000,0.000000,0.000000,0.000000,0.000000,0.000000,0.000000,0.000000,0.192298,3,0
410000,0.000735,10.418954,0.012181,0.005620,25.072699,0.014576,0.000518,0.001132,1.570633,-0.004190,-0.000016,-0.000090,0.000001,-0.000197,-0.000000,0.002508,-0.000758,0.120523,0.031488,0.181777,0.181777,0.180971,0.961565,0.000000,0.000000,0.000000,0.000000,0.000000,0.000000,0.000000,0.000000,0.000000,0.000000,0.000000,0.000000,0.116874,3,0
420000,0.000770,10.676420,0.013137,0.005838,25.080763,0.015663,0.000524,0.001306,1.570636,-0.004706,-0.000018,-0.000152,0.000001,-0.000228,-0.000000,0.008227,-0.000794,0.223967,0.027031,0.180585,0.180585,0.179456,0.957254,0.000000,0.000000,0.000000,0.000000,0.000000,0.000000,0.000000,0.000000,0.000000,0.000000,0.000000,0.000000,0.217227,3,0
430000,0.000805,10.932766,0.013862,0.005918,25.087551,0.016684,0.000533,0.001453,1.570628,-0.005150,-0.000020,-0.000198,0.000001,-0.000256,-0.000000,0.005597,-0.000829,0.185087,0.019020,0.179550,0.179550,0.178097,0.952742,0.000000,0.000000,0.000000,0.000000,0.000000,0.000000,0.000000,0.000000,0.000000,0.000000,0.000000,0.000000,0.179550,3,0
440000,0.000841,11.187435,0.014763,0.006144,25.092249,0.017956,0.000537,0.001555,1.570615,-0.005468,-0.000022,-0.000259,0.000001,-0.000277,-0.000000,0.002726,-0.000866,0.127464,0.024750,0.178661,0.178661,0.176883,0.948031,0.000000,0.000000,0.000000,0.000000,0.000000,0.000000,0.000000,0.000000,0.000000,0.000000,0.000000,0.000000,0.123672,3,0
450000,0.000877,11.441656,0.015049,0.006311,25.096464,0.018257,0.000546,0.001643,1.570613,-0.005756,-0.000024,-0.000269,0.000001,-0.000296,-0.000000,0.002005,-0.000904,0.111294,0.003545,0.177910,0.177909,0.175803,0.943125,0.000000,0.000000,0.000000,0.000000,0.000000,0.000000,0.000000,0.000000,0.000000,0.000000,0.000000,0.000000,0.107998,3,0
460000,0.000914,11.700141,0.014307,0.006434,25.106321,0.017360,0.000566,0.001878,1.570605,-0.006440,-0.000027,-0.000183,0.000002,-0.000342,-0.000000,0.010649,-0.000942,0.254610,-0.031808,0.177285,0.177285,0.174847,0.938026,0.000000,0.000000,0.000000,0.000000,0.000000,0.000000,0.000000,0.000000,0.000000,0.000000,0.000000,0.000000,0.247089,3,0
470000,0.000951,11.957529,0.014949,0.006507,25.114843,0.018138,0.000585,0.002072,1.570609,-0.007038,-0.000030,-0.000228,0.000002,-0.000384,-0.000000,0.007498,-0.000980,0.214693,0.016073,0.176778,0.176778,0.174006,0.932737,0.000000,0.000000,0.000000,0.000000,0.000000,0.000000,0.000000,0.000000,0.000000,0.000000,0.000000,0.000000,0.208370,3,0
480000,0.000987,12.212678,0.014173,0.006581,25.120323,0.017206,0.000602,0.002195,1.570596,-0.007430,-0.000033,-0.000132,0.000002,-0.000412,-0.000001,0.003177,-0.001017,0.136130,-0.033272,0.176381,0.176381,0.173271,0.927264,0.000000,0.000000,0.000000,0.000000,0.000000,0.000000,0.000000,0.000000,0.000000,0.000000,0.000000,0.000000,0.132132,3,0
490000,0.001024,12.467971,0.014094,0.006705,25.126146,0.017217,0.000615,0.002346,1.570596,-0.007845,-0.000036,-0.000106,0.000002,-0.000442,-0.000001,0.003154,-0.001055,0.139352,-0.008845,0.176087,0.176086,0.172634,0.921610,0.000000,0.000000,0.000000,0.000000,0.000000,0.000000,0.000000,0.000000,0.000000,0.000000,0.000000,0.000000,0.135266,3,0
500000,0.001061,12.725156,0.014725,0.006905,25.134691,0.018154,0.000617,0.002553,1.570601,-0.008466,-0.000039,-0.000155,0.000002,-0.000488,-0.000001,0.006646,-0.001093,0.202063,0.015866,0.175886,0.175886,0.172087,0.915781,0.000000,0.000000,0.000000,0.000000,0.000000,0.000000,0.000000,0.000000,0.000000,0.000000,0.000000,0.000000,0.196142,3,0
510000,0.001099,12.981291,0.014011,0.007061,25.141661,0.017192,0.000628,0.002731,1.570592,-0.008984,-0.000043,-0.000054,0.000003,-0.000528,-0.000001,0.004483,-0.001132,0.163461,-0.031402,0.175773,0.175773,0.171622,0.909781,0.000000,0.000000,0.000000,0.000000,0.000000,0.000000,0.000000,0.000000,0.000000,0.000000,0.000000,0.000000,0.158676,3,0
520000,0.001137,13.236397,0.015451,0.007168,25.147203,0.019211,0.000636,0.002879,1.570594,-0.009396,-0.000047,-0.000200,0.000003,-0.000560,-0.000001,0.002884,-0.001171,0.125924,0.044318,0.175741,0.175741,0.171234,0.903618,0.000000,0.000000,0.000000,0.000000,0.000000,0.000000,0.000000,0.000000,0.000000,0.000000,0.000000,0.000000,0.122241,3,0
530000,0.001175,13.491071,0.014495,0.007325,25.151987,0.018096,0.000654,0.003010,1.570596,-0.009764,-0.000051,-0.000063,0.000003,-0.000589,-0.000001,0.002199,-0.001211,0.109310,-0.040482,0.175784,0.175783,0.170914,0.897295,0.000000,0.000000,0.000000,0.000000,0.000000,0.000000,0.000000,0.000000,0.000000,0.000000,0.000000,0.000000,0.106114,3,0
540000,0.001214,13.745905,0.013373,0.007508,25.157211,0.016490,0.000659,0.003140,1.570584,-0.010155,-0.000055,0.000097,0.000004,-0.000621,-0.000001,0.002408,-0.001251,0.113013,-0.045902,0.175894,0.175894,0.170658,0.890821,0.000000,0.000000,0.000000,0.000000,0.000000,0.000000,0.000000,0.000000,0.000000,0.000000,0.000000,0.000000,0.109707,3,0
550000,0.001252,14.000897,0.013610,0.007539,25.162573,0.016907,0.000678,0.003283,1.570589,-0.010570,-0.000060,0.000088,0.000004,-0.000655,-0.000001,0.002199,-0.001290,0.116553,0.002444,0.176068,0.176068,0.170460,0.884202,0.000000,0.000000,0.000000,0.000000,0.000000,0.000000,0.000000,0.000000,0.000000,0.000000,0.000000,0.000000,0.113140,3,0
560000,0.001291,14.257801,0.012349,0.007681,25.171028,0.015068,0.000682,0.003512,1.570587,-0.011226,-0.000065,0.000275,0.000004,-0.000710,-0.000001,0.005629,-0.001330,0.179567,-0.050474,0.176299,0.176299,0.170314,0.877445,0.000000,0.000000,0.000000,0.000000,0.000000,0.000000,0.000000,0.000000,0.000000,0.000000,0.000000,0.000000,0.174296,3,0
570000,0.001329,14.516010,0.013865,0.007801,25.181473,0.017246,0.000689,0.003806,1.570582,-0.012053,-0.000070,0.000092,0.000005,-0.000782,-0.000001,0.008257,-0.001369,0.220764,0.048018,0.176582,0.176582,0.170214,0.870557,0.000000,0.000000,0.000000,0.000000,0.000000,0.000000,0.000000,0.000000,0.000000,0.000000,0.000000,0.000000,0.214271,3,0
580000,0.001368,14.775511,0.014160,0.007997,25.193886,0.017550,0.000702,0.004168,1.570573,-0.013054,-0.000075,0.000075,0.000005,-0.000870,-0.000001,0.010991,-0.001410,0.260634,0.004238,0.176913,0.176913,0.170157,0.863545,0.000000,0.000000,0.000000,0.000000,0.000000,0.000000,0.000000,0.000000,0.000000,0.000000,0.000000,0.000000,0.252953,3,0
590000,0.001406,15.033942,0.015376,0.008043,25.204580,0.019340,0.000721,0.004486,1.570578,-0.013918,-0.000081,-0.000071,0.000006,-0.000947,-0.000001,0.008022,-0.001449,0.219677,0.036573,0.177286,0.177286,0.170138,0.856418,0.000000,0.000000,0.000000,0.000000,0.000000,0.000000,0.000000,0.000000,0.000000,0.000000,0.000000,0.000000,0.213191,3,0
600000,0.001444,15.291903,0.016340,0.008132,25.214420,0.020653,0.000739,0.004792,1.570574,-0.014721,-0.000087,-0.000182,0.000006,-0.001021,-0.000001,0.006568,-0.001488,0.199686,0.027075,0.177698,0.177698,0.170152,0.849183,0.000000,0.000000,0.000000,0.000000,0.000000,0.000000,0.000000,0.000000,0.000000,0.000000,0.000000,0.000000,0.193778,3,0
610000,0.001483,15.551171,0.016458,0.008343,25.226475,0.020751,0.000742,0.005160,1.570567,-0.015708,-0.000094,-0.000169,0.000007,-0.001113,-0.000001,0.009302,-0.001528,0.239809,-0.003222,0.178144,0.178144,0.170195,0.841847,0.000000,0.000000,0.000000,0.000000,0.000000,0.000000,0.000000,0.000000,0.000000,0.000000,0.000000,0.000000,0.232694,3,0
620000,0.001522,15.811141,0.017172,0.008476,25.239447,0.021850,0.000749,0.005574,1.570568,-0.016796,-0.000100,-0.000245,0.000008,-0.001216,-0.000002,0.010875,-0.001569,0.258726,0.017656,0.178621,0.178620,0.170264,0.834420,0.000000,0.000000,0.000000,0.000000,0.000000,0.000000,0.000000,0.000000,0.000000,0.000000,0.000000,0.000000,0.251028,3,0
630000,0.001560,16.070024,0.017560,0.008556,25.250528,0.022222,0.000752,0.005936,1.570572,-0.017729,-0.000107,-0.000272,0.000008,-0.001307,-0.000002,0.007641,-0.001608,0.217295,0.005924,0.179124,0.179123,0.170355,0.826909,0.000000,0.000000,0.000000,0.000000,0.000000,0.000000,0.000000,0.000000,0.000000,0.000000,0.000000,0.000000,0.210814,3,0
640000,0.001599,16.329617,0.018390,0.008737,25.262716,0.023373,0.000769,0.006337,1.570578,-0.018766,-0.000115,-0.000368,0.000009,-0.001409,-0.000002,0.009124,-0.001648,0.236605,0.021244,0.179650,0.179650,0.170465,0.819322,0.000000,0.000000,0.000000,0.000000,0.000000,0.000000,0.000000,0.000000,0.000000,0.000000,0.000000,0.000000,0.229526,3,0
650000,0.001637,16.588718,0.017622,0.008819,25.274069,0.022220,0.000788,0.006701,1.570578,-0.019728,-0.000122,-0.000206,0.000010,-0.001506,-0.000002,0.007706,-0.001688,0.215435,-0.035369,0.180196,0.180196,0.170591,0.811668,0.000000,0.000000,0.000000,0.000000,0.000000,0.000000,0.000000,0.000000,0.000000,0.000000,0.000000,0.000000,0.208972,3,0
660000,0.001676,16.844936,0.019004,0.008992,25.280544,0.024211,0.000796,0.006916,1.570569,-0.020253,-0.000130,-0.000396,0.000011,-0.001559,-0.000002,0.002415,-0.001728,0.115250,0.040639,0.180759,0.180758,0.170729,0.803954,0.000000,0.000000,0.000000,0.000000,0.000000,0.000000,0.000000,0.000000,0.000000,0.000000,0.000000,0.000000,0.111791,3,0
670000,0.001715,17.104300,0.018910,0.009166,25.292273,0.023976,0.000797,0.007314,1.570563,-0.021258,-0.000139,-0.000340,0.000012,-0.001664,-0.000002,0.007620,-0.001769,0.216787,-0.011930,0.181335,0.181335,0.170877,0.796188,0.000000,0.000000,0.000000,0.000000,0.000000,0.000000,0.000000,0.000000,0.000000,0.000000,0.000000,0.000000,0.210243,3,0
680000,0.001755,17.364975,0.018932,0.009352,25.306160,0.024120,0.000802,0.007797,1.570555,-0.022463,-0.000147,-0.000302,0.000012,-0.001792,-0.000002,0.010560,-0.001810,0.255491,-0.007846,0.181923,0.181923,0.171032,0.788379,0.000000,0.000000,0.000000,0.000000,0.000000,0.000000,0.000000,0.000000,0.000000,0.000000,0.000000,0.000000,0.247752,3,0
690000,0.001794,17.623323,0.017999,0.009384,25.315895,0.022806,0.000805,0.008139,1.570562,-0.023296,-0.000156,-0.000098,0.000013,-0.001882,-0.000003,0.005146,-0.001850,0.173586,-0.041337,0.182519,0.182519,0.171193,0.780535,0.000000,0.000000,0.000000,0.000000,0.000000,0.000000,0.000000,0.000000,0.000000,0.000000,0.000000,0.000000,0.168316,3,0
700000,0.001832,17.884214,0.018912,0.009498,25.329969,0.024297,0.000811,0.008629,1.570557,-0.024529,-0.000166,-0.000219,0.000014,-0.002018,-0.000003,0.010442,-0.001890,0.253082,0.023798,0.183122,0.183121,0.171357,0.772663,0.000000,0.000000,0.000000,0.000000,0.000000,0.000000,0.000000,0.000000,0.000000,0.000000,0.000000,0.000000,0.245364,3,0
710000,0.001870,18.140930,0.019616,0.009679,25.336670,0.025116,0.000824,0.008868,1.570558,-0.025081,-0.000175,-0.000302,0.000016,-0.002079,-0.000003,0.002045,-0.001930,0.111322,0.016062,0.183728,0.183728,0.171521,0.764771,0.000000,0.000000,0.000000,0.000000,0.000000,0.000000,0.000000,0.000000,0.000000,0.000000,0.000000,0.000000,0.107930,3,0
720000,0.001908,18.399607,0.019056,0.009687,25.346561,0.024169,0.000832,0.009232,1.570552,-0.025948,-0.000185,-0.000154,0.000017,-0.002178,-0.000003,0.004945,-0.001968,0.172604,-0.028478,0.184337,0.184336,0.171685,0.756866,0.000000,0.000000,0.000000,0.000000,0.000000,0.000000,0.000000,0.000000,0.000000,0.000000,0.000000,0.000000,0.167312,3,0
730000,0.001945,18.660227,0.018679,0.009773,25.359713,0.023345,0.000849,0.009713,1.570550,-0.027131,-0.000196,-0.000039,0.000018,-0.002315,-0.000003,0.008763,-0.002007,0.231890,-0.021687,0.184945,0.184945,0.171846,0.748957,0.000000,0.000000,0.000000,0.000000,0.000000,0.000000,0.000000,0.000000,0.000000,0.000000,0.000000,0.000000,0.224751,3,0
740000,0.001982,18.921545,0.017706,0.009879,25.373970,0.021614,0.000850,0.010255,1.570558,-0.028422,-0.000206,0.000188,0.000019,-0.002467,-0.000003,0.010338,-0.002045,0.249443,-0.042153,0.185552,0.185551,0.172003,0.741049,0.000000,0.000000,0.000000,0.000000,0.000000,0.000000,0.000000,0.000000,0.000000,0.000000,0.000000,0.000000,0.241738,3,0
750000,0.002019,19.179237,0.018890,0.010065,25.381735,0.023462,0.000854,0.010535,1.570551,-0.029088,-0.000217,0.000002,0.000020,-0.002547,-0.000004,0.002794,-0.002084,0.127134,0.033580,0.186155,0.186155,0.172154,0.733150,0.000000,0.000000,0.000000,0.000000,0.000000,0.000000,0.000000,0.000000,0.000000,0.000000,0.000000,0.000000,0.123206,3,0
760000,0.002055,19.438896,0.017787,0.010096,25.392889,0.021803,0.000868,0.010962,1.570544,-0.030084,-0.000229,0.000263,0.000022,-0.002668,-0.000004,0.006027,-0.002121,0.187428,-0.046718,0.186754,0.186753,0.172299,0.725267,0.000000,0.000000,0.000000,0.000000,0.000000,0.000000,0.000000,0.000000,0.000000,0.000000,0.000000,0.000000,0.181606,3,0
770000,0.002091,19.699268,0.018510,0.010227,25.405275,0.022890,0.000885,0.011436,1.570542,-0.031191,-0.000240,0.000163,0.000023,-0.002806,-0.000004,0.006899,-0.002159,0.205959,0.017403,0.187346,0.187346,0.172435,0.717406,0.000000,0.000000,0.000000,0.000000,0.000000,0.000000,0.000000,0.000000,0.000000,0.000000,0.000000,0.000000,0.199539,3,0
780000,0.002127,19.956606,0.019539,0.010402,25.412106,0.024351,0.000887,0.011685,1.570543,-0.031760,-0.000253,0.000002,0.000025,-0.002877,-0.000004,0.001888,-0.002196,0.104494,0.027710,0.187932,0.187931,0.172562,0.709573,0.000000,0.000000,0.000000,0.000000,0.000000,0.000000,0.000000,0.000000,0.000000,0.000000,0.000000,0.000000,0.101243,3,0
790000,0.002162,20.214054,0.020374,0.010398,25.419069,0.025399,0.000890,0.011949,1.570547,-0.032340,-0.000265,-0.000118,0.000026,-0.002952,-0.000004,0.001866,-0.002233,0.105515,0.020500,0.188508,0.188508,0.172680,0.701774,0.000000,0.000000,0.000000,0.000000,0.000000,0.000000,0.000000,0.000000,0.000000,0.000000,0.000000,0.000000,0.102222,3,0
800000,0.002197,20.474117,0.019396,0.010494,25.430569,0.023671,0.000889,0.012413,1.570551,-0.033376,-0.000278,0.000134,0.000028,-0.003087,-0.000004,0.005879,-0.002269,0.185936,-0.042854,0.189076,0.189076,0.172786,0.694016,0.000000,0.000000,0.000000,0.000000,0.000000,0.000000,0.000000,0.000000,0.000000,0.000000,0.000000,0.000000,0.180090,3,0
810000,0.002232,20.732372,0.020147,0.010613,25.438650,0.024610,0.000888,0.012742,1.570541,-0.034076,-0.000291,0.000027,0.000030,-0.003180,-0.000004,0.002555,-0.002305,0.124546,0.017761,0.189633,0.189633,0.172881,0.686303,0.000000,0.000000,0.000000,0.000000,0.000000,0.000000,0.000000,0.000000,0.000000,0.000000,0.000000,0.000000,0.120630,3,0
820000,0.002265,20.990091,0.018869,0.010607,25.445751,0.022806,0.000887,0.013019,1.570531,-0.034672,-0.000304,0.000348,0.000031,-0.003260,-0.000005,0.002227,-0.002339,0.104759,-0.053021,0.190180,0.190179,0.172964,0.678642,0.000000,0.000000,0.000000,0.000000,0.000000,0.000000,0.000000,0.000000,0.000000,0.000000,0.000000,0.000000,0.101464,3,0
830000,0.002298,21.248545,0.018798,0.010640,25.453999,0.022727,0.000899,0.013354,1.570534,-0.035391,-0.000318,0.000412,0.000033,-0.003358,-0.000005,0.002551,-0.002373,0.125273,-0.010511,0.190715,0.190714,0.173034,0.671036,0.000000,0.000000,0.000000,0.000000,0.000000,0.000000,0.000000,0.000000,0.000000,0.000000,0.000000,0.000000,0.121312,3,0
840000,0.002329,21.508354,0.020032,0.010686,25.464516,0.024387,0.000901,0.013798,1.570534,-0.036345,-0.000332,0.000193,0.000035,-0.003491,-0.000005,0.004586,-0.002406,0.164921,0.034811,0.191238,0.191238,0.173091,0.663490,0.000000,0.000000,0.000000,0.000000,0.000000,0.000000,0.000000,0.000000,0.000000,0.000000,0.000000,0.000000,0.159681,3,0
850000,0.002361,21.771414,0.020641,0.010847,25.480778,0.025273,0.000909,0.014498,1.570530,-0.037881,-0.000346,0.000111,0.000037,-0.003708,-0.000005,0.011171,-0.002439,0.262825,0.012509,0.191749,0.191748,0.173135,0.656010,0.000000,0.000000,0.000000,0.000000,0.000000,0.000000,0.000000,0.000000,0.000000,0.000000,0.000000,0.000000,0.254436,3,0
860000,0.002393,22.033867,0.021285,0.010954,25.495623,0.026025,0.000912,0.015148,1.570524,-0.039284,-0.000361,0.000022,0.000039,-0.003909,-0.000006,0.009180,-0.002472,0.238150,0.013475,0.192246,0.192246,0.173165,0.648599,0.000000,0.000000,0.000000,0.000000,0.000000,0.000000,0.000000,0.000000,0.000000,0.000000,0.000000,0.000000,0.230531,3,0
870000,0.002425,22.295717,0.022440,0.011119,25.509359,0.027429,0.000914,0.015755,1.570521,-0.040556,-0.000376,-0.000180,0.000042,-0.004095,-0.000006,0.007550,-0.002505,0.214094,0.030947,0.192731,0.192730,0.173181,0.641262,0.000000,0.000000,0.000000,0.000000,0.000000,0.000000,0.000000,0.000000,0.000000,0.000000,0.000000,0.000000,0.207230,3,0
880000,0.002457,22.556967,0.021337,0.011224,25.521881,0.025669,0.000923,0.016301,1.570521,-0.041698,-0.000392,0.000130,0.000044,-0.004264,-0.000006,0.006234,-0.002538,0.190653,-0.047819,0.193202,0.193202,0.173182,0.634001,0.000000,0.000000,0.000000,0.000000,0.000000,0.000000,0.000000,0.000000,0.000000,0.000000,0.000000,0.000000,0.184529,3,0
890000,0.002487,22.816336,0.021765,0.011213,25.530840,0.026349,0.000923,0.016693,1.570525,-0.042471,-0.000407,0.000090,0.000046,-0.004380,-0.000006,0.002652,-0.002570,0.128067,0.005777,0.193660,0.193660,0.173170,0.626821,0.000000,0.000000,0.000000,0.000000,0.000000,0.000000,0.000000,0.000000,0.000000,0.000000,0.000000,0.000000,0.123959,3,0
900000,0.002518,23.075127,0.022092,0.011330,25.538610,0.026753,0.000932,0.017038,1.570517,-0.043121,-0.000423,0.000075,0.000049,-0.004480,-0.000006,0.001854,-0.002602,0.107155,0.002105,0.194105,0.194104,0.173143,0.619724,0.000000,0.000000,0.000000,0.000000,0.000000,0.000000,0.000000,0.000000,0.000000,0.000000,0.000000,0.000000,0.103720,3,0
910000,0.002549,23.333990,0.021212,0.011490,25.546516,0.025276,0.000937,0.017383,1.570509,-0.043775,-0.000439,0.000342,0.000051,-0.004581,-0.000007,0.002094,-0.002634,0.106712,-0.039834,0.194536,0.194535,0.173103,0.612713,0.000000,0.000000,0.000000,0.000000,0.000000,0.000000,0.000000,0.000000,0.000000,0.000000,0.000000,0.000000,0.103284,3,0
920000,0.002579,23.592278,0.022297,0.011480,25.553320,0.026738,0.000933,0.017663,1.570508,-0.044306,-0.000456,0.000145,0.000054,-0.004665,-0.000007,0.001336,-0.002665,0.086315,0.028755,0.194953,0.194952,0.173048,0.605791,0.000000,0.000000,0.000000,0.000000,0.000000,0.000000,0.000000,0.000000,0.000000,0.000000,0.000000,0.000000,0.083551,3,0
930000,0.002607,23.852585,0.022834,0.011474,25.563536,0.027426,0.000945,0.018125,1.570507,-0.045210,-0.000473,0.000078,0.000056,-0.004810,-0.000007,0.003453,-0.002695,0.146021,0.009263,0.195357,0.195356,0.172979,0.598961,0.000000,0.000000,0.000000,0.000000,0.000000,0.000000,0.000000,0.000000,0.000000,0.000000,0.000000,0.000000,0.141290,3,0
940000,0.002636,24.112938,0.021551,0.011585,25.573652,0.025633,0.000949,0.018593,1.570500,-0.046108,-0.000490,0.000454,0.000059,-0.004956,-0.000007,0.003822,-0.002725,0.144041,-0.054215,0.195748,0.195747,0.172896,0.592225,0.000000,0.000000,0.000000,0.000000,0.000000,0.000000,0.000000,0.000000,0.000000,0.000000,0.000000,0.000000,0.139366,3,0
950000,0.002665,24.375286,0.020622,0.011703,25.587179,0.024195,0.000956,0.019237,1.570502,-0.047371,-0.000507,0.000740,0.000062,-0.005165,-0.000008,0.006832,-0.002755,0.201647,-0.041230,0.196126,0.196125,0.172799,0.585585,0.000000,0.000000,0.000000,0.000000,0.000000,0.000000,0.000000,0.000000,0.000000,0.000000,0.000000,0.000000,0.195073,3,0
960000,0.002694,24.638300,0.019675,0.011815,25.601730,0.022704,0.000965,0.019945,1.570492,-0.048741,-0.000525,0.001030,0.000065,-0.005394,-0.000008,0.007902,-0.002785,0.217468,-0.041354,0.196492,0.196491,0.172689,0.579042,0.000000,0.000000,0.000000,0.000000,0.000000,0.000000,0.000000,0.000000,0.000000,0.000000,0.000000,0.000000,0.210363,3,0
970000,0.002722,24.900013,0.020315,0.011860,25.613907,0.023414,0.000959,0.020520,1.570492,-0.049834,-0.000543,0.000923,0.000068,-0.005581,-0.000008,0.004858,-0.002814,0.172976,0.014355,0.196844,0.196843,0.172566,0.572598,0.000000,0.000000,0.000000,0.000000,0.000000,0.000000,0.000000,0.000000,0.000000,0.000000,0.000000,0.000000,0.167323,3,0
980000,0.002749,25.159786,0.019685,0.011905,25.622503,0.022355,0.000963,0.020912,1.570487,-0.050533,-0.000561,0.001139,0.000071,-0.005702,-0.000008,0.002096,-0.002842,0.109928,-0.030109,0.197185,0.197184,0.172429,0.566255,0.000000,0.000000,0.000000,0.000000,0.000000,0.000000,0.000000,0.000000,0.000000,0.000000,0.000000,0.000000,0.106351,3,0
990000,0.002776,25.423531,0.020705,0.011944,25.637915,0.023529,0.000969,0.021683,1.570494,-0.051986,-0.000579,0.000931,0.000074,-0.005957,-0.000009,0.008488,-0.002870,0.227768,0.027781,0.197514,0.197512,0.172280,0.560014,0.000000,0.000000,0.000000,0.000000,0.000000,0.000000,0.000000,0.000000,0.000000,0.000000,0.000000,0.000000,0.220288,3,0
1000000,0.002801,25.686605,0.019445,0.011919,25.651936,0.021758,0.000971,0.022393,1.570495,-0.053284,-0.000598,0.001310,0.000077,-0.006188,-0.000009,0.007046,-0.002896,0.202417,-0.052221,0.197831,0.197829,0.172119,0.553875,0.000000,0.000000,0.000000,0.000000,0.000000,0.000000,0.000000,0.000000,0.000000,0.000000,0.000000,0.000000,0.195764,3,0
1010000,0.002826,25.947048,0.019856,0.011953,25.661110,0.022157,0.000971,0.022823,1.570489,-0.054043,-0.000617,0.001257,0.000081,-0.006325,-0.000009,0.002257,-0.002923,0.118111,0.006762,0.198137,0.198135,0.171945,0.547839,0.000000,0.000000,0.000000,0.000000,0.000000,0.000000,0.000000,0.000000,0.000000,0.000000,0.000000,0.000000,0.114245,3,0
1020000,0.002850,26.210150,0.019247,0.011969,25.675009,0.021210,0.000968,0.023524,1.570479,-0.055306,-0.000636,0.001470,0.000084,-0.006557,-0.000010,0.006298,-0.002947,0.195517,-0.029034,0.198432,0.198430,0.171760,0.541908,0.000000,0.000000,0.000000,0.000000,0.000000,0.000000,0.000000,0.000000,0.000000,0.000000,0.000000,0.000000,0.189072,3,0
1030000,0.002874,26.471924,0.018446,0.011983,25.686333,0.020115,0.000966,0.024087,1.570468,-0.056284,-0.000656,0.001734,0.000088,-0.006740,-0.000010,0.003877,-0.002972,0.150944,-0.035505,0.198717,0.198715,0.171564,0.536082,0.000000,0.000000,0.000000,0.000000,0.000000,0.000000,0.000000,0.000000,0.000000,0.000000,0.000000,0.000000,0.145973,3,0
1040000,0.002896,26.734364,0.018658,0.012036,25.698761,0.020525,0.000970,0.024720,1.570476,-0.057370,-0.000675,0.001726,0.000092,-0.006945,-0.000010,0.004515,-0.002996,0.167360,0.000316,0.198992,0.198990,0.171356,0.530361,0.000000,0.000000,0.000000,0.000000,0.000000,0.000000,0.000000,0.000000,0.000000,0.000000,0.000000,0.000000,0.161836,3,0
1050000,0.002918,26.994816,0.019589,0.011999,25.707441,0.021611,0.000968,0.025146,1.570478,-0.058044,-0.000695,0.001528,0.000095,-0.007075,-0.000011,0.001835,-0.003018,0.103584,0.025447,0.199258,0.199256,0.171138,0.524745,0.000000,0.000000,0.000000,0.000000,0.000000,0.000000,0.000000,0.000000,0.000000,0.000000,0.000000,0.000000,0.100188,3,0
1060000,0.002938,27.255291,0.020868,0.012016,25.716091,0.023154,0.000975,0.025556,1.570474,-0.058705,-0.000715,0.001236,0.000099,-0.007204,-0.000011,0.001887,-0.003040,0.101473,0.037355,0.199514,0.199512,0.170910,0.519235,0.000000,0.000000,0.000000,0.000000,0.000000,0.000000,0.000000,0.000000,0.000000,0.000000,0.000000,0.000000,0.098143,3,0
1070000,0.002958,27.517773,0.020682,0.012005,25.728172,0.022914,0.000970,0.026179,1.570475,-0.059745,-0.000735,0.001345,0.000103,-0.007410,-0.000011,0.004108,-0.003060,0.158972,-0.014710,0.199762,0.199760,0.170672,0.513830,0.000000,0.000000,0.000000,0.000000,0.000000,0.000000,0.000000,0.000000,0.000000,0.000000,0.000000,0.000000,0.153707,3,0
1080000,0.002979,27.779581,0.020890,0.012135,25.738955,0.022926,0.000964,0.026730,1.570466,-0.060629,-0.000756,0.001346,0.000107,-0.007587,-0.000012,0.002934,-0.003081,0.134916,-0.000688,0.200002,0.199999,0.170425,0.508530,0.000000,0.000000,0.000000,0.000000,0.000000,0.000000,0.000000,0.000000,0.000000,0.000000,0.000000,0.000000,0.130453,3,0
1090000,0.002999,28.043379,0.019494,0.012102,25.753107,0.020939,0.000960,0.027494,1.570457,-0.061885,-0.000776,0.001792,0.000111,-0.007843,-0.000012,0.006414,-0.003102,0.191061,-0.057274,0.200234,0.200231,0.170169,0.503335,0.000000,0.000000,0.000000,0.000000,0.000000,0.000000,0.000000,0.000000,0.000000,0.000000,0.000000,0.000000,0.184707,3,0
1100000,0.003017,28.305811,0.018806,0.012064,25.764591,0.019766,0.000968,0.028087,1.570462,-0.062845,-0.000797,0.002039,0.000116,-0.008042,-0.000012,0.003587,-0.003121,0.145788,-0.031602,0.200459,0.200456,0.169904,0.498245,0.000000,0.000000,0.000000,0.000000,0.000000,0.000000,0.000000,0.000000,0.000000,0.000000,0.000000,0.000000,0.140949,3,0
1110000,0.003035,28.564238,0.018192,0.012102,25.769070,0.019008,0.000959,0.028251,1.570449,-0.062993,-0.000817,0.002269,0.000120,-0.008073,-0.000012,0.000217,-0.003140,0.022392,-0.028829,0.200677,0.200674,0.169631,0.493258,0.000000,0.000000,0.000000,0.000000,0.000000,0.000000,0.000000,0.000000,0.000000,0.000000,0.000000,0.000000,0.021854,3,0
1120000,0.003052,28.822708,0.017807,0.012030,25.773455,0.018282,0.000959,0.028408,1.570448,-0.063141,-0.000838,0.002433,0.000124,-0.008105,-0.000012,0.000149,-0.003157,0.022350,-0.020361,0.200888,0.200885,0.169350,0.488375,0.000000,0.000000,0.000000,0.000000,0.000000,0.000000,0.000000,0.000000,0.000000,0.000000,0.000000,0.000000,0.021815,3,0
1130000,0.003068,29.081884,0.017978,0.012118,25.779032,0.018650,0.000968,0.028641,1.570449,-0.063419,-0.000859,0.002436,0.000129,-0.008165,-0.000012,0.000288,-0.003175,0.042139,-0.000522,0.201094,0.201091,0.169062,0.483595,0.000000,0.000000,0.000000,0.000000,0.000000,0.000000,0.000000,0.000000,0.000000,0.000000,0.000000,0.000000,0.040843,3,0
1140000,0.003085,29.342426,0.018837,0.012190,25.786983,0.019703,0.000971,0.029026,1.570452,-0.063954,-0.000880,0.002236,0.000134,-0.008282,-0.000013,0.001153,-0.003192,0.081089,0.023919,0.201294,0.201291,0.168767,0.478916,0.000000,0.000000,0.000000,0.000000,0.000000,0.000000,0.000000,0.000000,0.000000,0.000000,0.000000,0.000000,0.078430,3,0
1150000,0.003101,29.600975,0.018435,0.012144,25.791294,0.019118,0.000971,0.029188,1.570452,-0.064082,-0.000902,0.002411,0.000138,-0.008311,-0.000013,0.000135,-0.003208,0.019257,-0.021374,0.201490,0.201486,0.168466,0.474339,0.000000,0.000000,0.000000,0.000000,0.000000,0.000000,0.000000,0.000000,0.000000,0.000000,0.000000,0.000000,0.018867,3,0
1160000,0.003116,29.862232,0.019218,0.012188,25.800293,0.020124,0.000964,0.029644,1.570454,-0.064732,-0.000923,0.002231,0.000143,-0.008457,-0.000013,0.001640,-0.003225,0.098608,0.021139,0.201680,0.201676,0.168158,0.469861,0.000000,0.000000,0.000000,0.000000,0.000000,0.000000,0.000000,0.000000,0.000000,0.000000,0.000000,0.000000,0.095346,3,0
1170000,0.003130,30.120811,0.019038,0.012138,25.804583,0.019957,0.000953,0.029784,1.570444,-0.064839,-0.000944,0.002345,0.000148,-0.008482,-0.000013,0.000074,-0.003239,0.016169,-0.013742,0.201867,0.201862,0.167845,0.465483,0.000000,0.000000,0.000000,0.000000,0.000000,0.000000,0.000000,0.000000,0.000000,0.000000,0.000000,0.000000,0.015935,3,0
1180000,0.003144,30.379429,0.019133,0.012083,25.808868,0.019887,0.000956,0.029922,1.570446,-0.064945,-0.000966,0.002376,0.000153,-0.008507,-0.000013,0.000045,-0.003253,0.015972,-0.003741,0.202050,0.202045,0.167526,0.461203,0.000000,0.000000,0.000000,0.000000,0.000000,0.000000,0.000000,0.000000,0.000000,0.000000,0.000000,0.000000,0.015751,3,0
1190000,0.003157,30.640093,0.018542,0.012161,25.816633,0.019180,0.000949,0.030313,1.570435,-0.065444,-0.000988,0.002612,0.000158,-0.008625,-0.000013,0.001047,-0.003267,0.075377,-0.028368,0.202229,0.202224,0.167203,0.457020,0.000000,0.000000,0.000000,0.000000,0.000000,0.000000,0.000000,0.000000,0.000000,0.000000,0.000000,0.000000,0.072902,3,0
1200000,0.003170,30.901428,0.018198,0.012163,25.825499,0.018582,0.000942,0.030768,1.570435,-0.066058,-0.001009,0.002770,0.000163,-0.008772,-0.000013,0.001452,-0.003281,0.092937,-0.019172,0.202406,0.202400,0.166874,0.452933,0.000000,0.000000,0.000000,0.000000,0.000000,0.000000,0.000000,0.000000,0.000000,0.000000,0.000000,0.000000,0.089858,3,0
1210000,0.003183,31.164770,0.016826,0.012138,25.837870,0.016521,0.000942,0.031469,1.570426,-0.067047,-0.001031,0.003241,0.000168,-0.009012,-0.000014,0.004111,-0.003294,0.149576,-0.055906,0.202579,0.202573,0.166542,0.448941,0.000000,0.000000,0.000000,0.000000,0.000000,0.000000,0.000000,0.000000,0.000000,0.000000,0.000000,0.000000,0.144559,3,0
1220000,0.003196,31.423367,0.016779,0.012246,25.841570,0.016413,0.000945,0.031574,1.570425,-0.067082,-0.001053,0.003308,0.000174,-0.009021,-0.000014,0.000016,-0.003308,0.005383,-0.007704,0.202751,0.202744,0.166205,0.445042,0.000000,0.000000,0.000000,0.000000,0.000000,0.000000,0.000000,0.000000,0.000000,0.000000,0.000000,0.000000,0.006103,3,0
1230000,0.003208,31.684681,0.016406,0.012177,25.850111,0.015833,0.000944,0.032005,1.570426,-0.067641,-0.001075,0.003470,0.000179,-0.009161,-0.000014,0.001217,-0.003320,0.084694,-0.019323,0.202920,0.202913,0.165865,0.441236,0.000000,0.000000,0.000000,0.000000,0.000000,0.000000,0.000000,0.000000,0.000000,0.000000,0.000000,0.000000,0.081892,3,0
1240000,0.003219,31.943968,0.015056,0.012111,25.854988,0.014190,0.000936,0.032195,1.570421,-0.067788,-0.001097,0.003947,0.000184,-0.009199,-0.000014,0.000566,-0.003331,0.022079,-0.054759,0.203088,0.203081,0.165522,0.437521,0.000000,0.000000,0.000000,0.000000,0.000000,0.000000,0.000000,0.000000,0.000000,0.000000,0.000000,0.000000,0.021571,3,0
1250000,0.003228,32.205963,0.015915,0.012033,25.864597,0.015165,0.000923,0.032710,1.570419,-0.068447,-0.001119,0.003710,0.000190,-0.009368,-0.000015,0.001746,-0.003341,0.100689,0.026197,0.203254,0.203247,0.165176,0.433895,0.000000,0.000000,0.000000,0.000000,0.000000,0.000000,0.000000,0.000000,0.000000,0.000000,0.000000,0.000000,0.097332,3,0
1260000,0.003236,32.467258,0.017212,0.012023,25.872869,0.016770,0.000921,0.033129,1.570413,-0.068950,-0.001141,0.003335,0.000196,-0.009499,-0.000015,0.001243,-0.003350,0.077141,0.041811,0.203420,0.203412,0.164827,0.430358,0.000000,0.000000,0.000000,0.000000,0.000000,0.000000,0.000000,0.000000,0.000000,0.000000,0.000000,0.000000,0.074598,3,0
1270000,0.003243,32.729889,0.018294,0.011971,25.883335,0.018191,0.000911,0.033711,1.570411,-0.069693,-0.001163,0.003029,0.000202,-0.009695,-0.000015,0.002274,-0.003357,0.113945,0.033495,0.203584,0.203576,0.164476,0.426907,0.000000,0.000000,0.000000,0.000000,0.000000,0.000000,0.000000,0.000000,0.000000,0.000000,0.000000,0.000000,0.110128,3,0
1280000,0.003251,32.990456,0.019116,0.012067,25.890104,0.019014,0.000899,0.034026,1.570413,-0.070018,-0.001185,0.002815,0.000208,-0.009782,-0.000015,0.000494,-0.003366,0.050003,0.023526,0.203749,0.203740,0.164123,0.423543,0.000000,0.000000,0.000000,0.000000,0.000000,0.000000,0.000000,0.000000,0.000000,0.000000,0.000000,0.000000,0.048415,3,0
1290000,0.003260,33.254398,0.018781,0.012111,25.902666,0.018478,0.000887,0.034778,1.570410,-0.070976,-0.001207,0.002975,0.000214,-0.010043,-0.000016,0.003548,-0.003374,0.147186,-0.018985,0.203913,0.203903,0.163769,0.420262,0.000000,0.000000,0.000000,0.000000,0.000000,0.000000,0.000000,0.000000,0.000000,0.000000,0.000000,0.000000,0.142219,3,0
1300000,0.003269,33.515575,0.018006,0.012155,25.910156,0.017607,0.000886,0.035146,1.570413,-0.071381,-0.001229,0.003288,0.000220,-0.010156,-0.000016,0.000822,-0.003383,0.062027,-0.035220,0.204077,0.204067,0.163413,0.417064,0.000000,0.000000,0.000000,0.000000,0.000000,0.000000,0.000000,0.000000,0.000000,0.000000,0.000000,0.000000,0.060003,3,0
1310000,0.003276,33.774700,0.018407,0.012103,25.913866,0.017901,0.000880,0.035233,1.570409,-0.071377,-0.001251,0.003213,0.000226,-0.010155,-0.000016,0.000013,-0.003392,-0.000439,0.008297,0.204241,0.204230,0.163056,0.413947,0.000000,0.000000,0.000000,0.000000,0.000000,0.000000,0.000000,0.000000,0.000000,0.000000,0.000000,0.000000,0.003304,3,0
1320000,0.003284,34.033161,0.017995,0.012074,25.916456,0.017304,0.000866,0.035234,1.570397,-0.071243,-0.001273,0.003415,0.000232,-0.010117,-0.000016,0.000151,-0.003399,-0.021053,-0.021927,0.204406,0.204395,0.162698,0.410911,0.000000,0.000000,0.000000,0.000000,0.000000,0.000000,0.000000,0.000000,0.000000,0.000000,0.000000,0.000000,0.020600,3,0
1330000,0.003290,34.295708,0.018040,0.012078,25.926210,0.017368,0.000862,0.035791,1.570401,-0.071874,-0.001295,0.003449,0.000239,-0.010299,-0.000016,0.001556,-0.003406,0.098164,-0.004547,0.204571,0.204559,0.162340,0.407952,0.000000,0.000000,0.000000,0.000000,0.000000,0.000000,0.000000,0.000000,0.000000,0.000000,0.000000,0.000000,0.094875,3,0
1340000,0.003297,34.555496,0.018898,0.012098,25.931047,0.018289,0.000857,0.035955,1.570407,-0.071965,-0.001317,0.003213,0.000245,-0.010325,-0.000016,0.000140,-0.003413,0.014427,0.025363,0.204738,0.204725,0.161981,0.405071,0.000000,0.000000,0.000000,0.000000,0.000000,0.000000,0.000000,0.000000,0.000000,0.000000,0.000000,0.000000,0.014323,3,0
1350000,0.003304,34.814613,0.018592,0.012141,25.934538,0.017850,0.000857,0.036032,1.570412,-0.071922,-0.001339,0.003383,0.000251,-0.010313,-0.000016,0.000063,-0.003420,-0.006863,-0.018211,0.204905,0.204892,0.161622,0.402265,0.000000,0.000000,0.000000,0.000000,0.000000,0.000000,0.000000,0.000000,0.000000,0.000000,0.000000,0.000000,0.007407,3,0
1360000,0.003310,35.075779,0.017896,0.012104,25.941679,0.016902,0.000844,0.036373,1.570410,-0.072256,-0.001361,0.003681,0.000258,-0.010414,-0.000016,0.000608,-0.003427,0.052048,-0.032428,0.205074,0.205060,0.161264,0.399533,0.000000,0.000000,0.000000,0.000000,0.000000,0.000000,0.000000,0.000000,0.000000,0.000000,0.000000,0.000000,0.050375,3,0
1370000,0.003315,35.338959,0.018652,0.012060,25.952368,0.017769,0.000837,0.036994,1.570403,-0.072944,-0.001383,0.003462,0.000265,-0.010624,-0.000017,0.001990,-0.003433,0.108871,0.022183,0.205243,0.205229,0.160906,0.396875,0.000000,0.000000,0.000000,0.000000,0.000000,0.000000,0.000000,0.000000,0.000000,0.000000,0.000000,0.000000,0.105201,3,0
1380000,0.003320,35.598679,0.019280,0.012052,25.956654,0.018680,0.000832,0.037107,1.570393,-0.072972,-0.001405,0.003304,0.000271,-0.010632,-0.000017,0.000051,-0.003438,0.004616,0.016708,0.205414,0.205399,0.160548,0.394286,0.000000,0.000000,0.000000,0.000000,0.000000,0.000000,0.000000,0.000000,0.000000,0.000000,0.000000,0.000000,0.005559,3,0
1390000,0.003325,35.862480,0.019972,0.012107,25.968222,0.019410,0.000817,0.037795,1.570386,-0.073741,-0.001426,0.003108,0.000278,-0.010874,-0.000017,0.002480,-0.003443,0.122555,0.019315,0.205587,0.205571,0.160192,0.391768,0.000000,0.000000,0.000000,0.000000,0.000000,0.000000,0.000000,0.000000,0.000000,0.000000,0.000000,0.000000,0.118405,3,0
1400000,0.003330,36.125542,0.018685,0.012043,25.978422,0.017488,0.000803,0.038375,1.570392,-0.074353,-0.001448,0.003624,0.000285,-0.011070,-0.000018,0.002016,-0.003447,0.097183,-0.055190,0.205762,0.205745,0.159836,0.389319,0.000000,0.000000,0.000000,0.000000,0.000000,0.000000,0.000000,0.000000,0.000000,0.000000,0.000000,0.000000,0.093904,3,0
1410000,0.003332,36.385811,0.019368,0.011940,25.983416,0.018116,0.000789,0.038536,1.570393,-0.074432,-0.001470,0.003439,0.000292,-0.011096,-0.000018,0.000088,-0.003451,0.012928,0.019170,0.205938,0.205920,0.159482,0.386936,0.000000,0.000000,0.000000,0.000000,0.000000,0.000000,0.000000,0.000000,0.000000,0.000000,0.000000,0.000000,0.012923,3,0
1420000,0.003335,36.644020,0.018991,0.011921,25.984673,0.017735,0.000790,0.038399,1.570380,-0.074132,-0.001491,0.003650,0.000299,-0.010997,-0.000017,0.000456,-0.003454,-0.048603,-0.021367,0.206115,0.206097,0.159129,0.384618,0.000000,0.000000,0.000000,0.000000,0.000000,0.000000,0.000000,0.000000,0.000000,0.000000,0.000000,0.000000,0.047054,3,0
1430000,0.003338,36.907028,0.018747,0.011915,25.994497,0.017419,0.000779,0.038965,1.570388,-0.074693,-0.001512,0.003791,0.000306,-0.011185,-0.000018,0.001367,-0.003457,0.090755,-0.015619,0.206295,0.206276,0.158778,0.382364,0.000000,0.000000,0.000000,0.000000,0.000000,0.000000,0.000000,0.000000,0.000000,0.000000,0.000000,0.000000,0.087699,3,0
1440000,0.003340,37.169975,0.019544,0.011955,26.004126,0.018148,0.000761,0.039509,1.570383,-0.075219,-0.001534,0.003548,0.000313,-0.011362,-0.000018,0.001287,-0.003460,0.086075,0.023954,0.206476,0.206456,0.158428,0.380174,0.000000,0.000000,0.000000,0.000000,0.000000,0.000000,0.000000,0.000000,0.000000,0.000000,0.000000,0.000000,0.083182,3,0
1450000,0.003343,37.428753,0.020712,0.012016,26.006075,0.019605,0.000750,0.039423,1.570376,-0.074986,-0.001555,0.003189,0.000321,-0.011281,-0.000018,0.000456,-0.003463,-0.037819,0.037173,0.206660,0.206639,0.158080,0.378044,0.000000,0.000000,0.000000,0.000000,0.000000,0.000000,0.000000,0.000000,0.000000,0.000000,0.000000,0.000000,0.036663,3,0
1460000,0.003345,37.688915,0.019572,0.011888,26.010405,0.018174,0.000737,0.039552,1.570374,-0.074999,-0.001576,0.003688,0.000328,-0.011287,-0.000018,0.000422,-0.003464,0.001572,-0.050865,0.206845,0.206823,0.157735,0.375973,0.000000,0.000000,0.000000,0.000000,0.000000,0.000000,0.000000,0.000000,0.000000,0.000000,0.000000,0.000000,0.003671,3,0
1470000,0.003347,37.947006,0.018406,0.011794,26.010967,0.016682,0.000732,0.039353,1.570371,-0.074642,-0.001597,0.004207,0.000335,-0.011162,-0.000018,0.001013,-0.003465,-0.059849,-0.051722,0.207032,0.207009,0.157392,0.373960,0.000000,0.000000,0.000000,0.000000,0.000000,0.000000,0.000000,0.000000,0.000000,0.000000,0.000000,0.000000,0.057889,3,0
1480000,0.003347,38.207161,0.018380,0.011775,26.015213,0.016731,0.000718,0.039460,1.570375,-0.074643,-0.001617,0.004281,0.000343,-0.011162,-0.000018,0.000011,-0.003467,0.000118,-0.007505,0.207221,0.207197,0.157051,0.372004,0.000000,0.000000,0.000000,0.000000,0.000000,0.000000,0.000000,0.000000,0.000000,0.000000,0.000000,0.000000,0.003349,3,0
1490000,0.003346,38.469353,0.019619,0.011759,26.023050,0.017980,0.000716,0.039860,1.570376,-0.074985,-0.001638,0.003861,0.000350,-0.011286,-0.000018,0.000821,-0.003467,0.057987,0.041344,0.207412,0.207387,0.156712,0.370104,0.000000,0.000000,0.000000,0.000000,0.000000,0.000000,0.000000,0.000000,0.000000,0.000000,0.000000,0.000000,0.056088,3,0
1500000,0.003345,38.732185,0.019909,0.011692,26.032024,0.018286,0.000705,0.040361,1.570366,-0.075422,-0.001659,0.003805,0.000358,-0.011448,-0.000018,0.000887,-0.003465,0.074017,0.004578,0.207604,0.207578,0.156377,0.368258,0.000000,0.000000,0.000000,0.000000,0.000000,0.000000,0.000000,0.000000,0.000000,0.000000,0.000000,0.000000,0.071535,3,0
1510000,0.003344,38.993587,0.019173,0.011623,26.038342,0.017195,0.000688,0.040627,1.570355,-0.075599,-0.001679,0.004155,0.000365,-0.011515,-0.000019,0.000345,-0.003464,0.029762,-0.035186,0.207799,0.207772,0.156044,0.366466,0.000000,0.000000,0.000000,0.000000,0.000000,0.000000,0.000000,0.000000,0.000000,0.000000,0.000000,0.000000,0.028919,3,0
1520000,0.003342,39.251495,0.019213,0.011580,26.038166,0.017340,0.000678,0.040345,1.570346,-0.075176,-0.001699,0.004222,0.000373,-0.011354,-0.000018,0.000857,-0.003462,-0.072670,-0.005615,0.207995,0.207967,0.155714,0.364725,0.000000,0.000000,0.000000,0.000000,0.000000,0.000000,0.000000,0.000000,0.000000,0.000000,0.000000,0.000000,0.070232,3,0
1530000,0.003340,39.511494,0.018357,0.011513,26.041840,0.016146,0.000675,0.040397,1.570348,-0.075107,-0.001719,0.004628,0.000381,-0.011328,-0.000018,0.000285,-0.003460,-0.012512,-0.039837,0.208193,0.208164,0.155386,0.363034,0.000000,0.000000,0.000000,0.000000,0.000000,0.000000,0.000000,0.000000,0.000000,0.000000,0.000000,0.000000,0.012538,3,0
1540000,0.003338,39.770092,0.017634,0.011476,26.042912,0.015429,0.000661,0.040213,1.570346,-0.074799,-0.001739,0.004990,0.000388,-0.011209,-0.000018,0.000665,-0.003457,-0.053883,-0.034704,0.208392,0.208362,0.155062,0.361392,0.000000,0.000000,0.000000,0.000000,0.000000,0.000000,0.000000,0.000000,0.000000,0.000000,0.000000,0.000000,0.052124,3,0
1550000,0.003334,40.032135,0.018149,0.011457,26.050058,0.016005,0.000647,0.040574,1.570345,-0.075057,-0.001759,0.004837,0.000396,-0.011311,-0.000018,0.000365,-0.003455,0.045330,0.014220,0.208593,0.208562,0.154741,0.359797,0.000000,0.000000,0.000000,0.000000,0.000000,0.000000,0.000000,0.000000,0.000000,0.000000,0.000000,0.000000,0.043885,3,0
1560000,0.003331,40.295509,0.018449,0.011440,26.059563,0.016171,0.000630,0.041138,1.570334,-0.075517,-0.001778,0.004763,0.000404,-0.011496,-0.000019,0.001074,-0.003451,0.081398,0.005977,0.208796,0.208763,0.154424,0.358248,0.000000,0.000000,0.000000,0.000000,0.000000,0.000000,0.000000,0.000000,0.000000,0.000000,0.000000,0.000000,0.078638,3,0
1570000,0.003326,40.555344,0.019170,0.011370,26.062567,0.017050,0.000623,0.041117,1.570323,-0.075386,-0.001798,0.004545,0.000412,-0.011442,-0.000019,0.000162,-0.003447,-0.023037,0.021512,0.209000,0.208966,0.154109,0.356746,0.000000,0.000000,0.000000,0.000000,0.000000,0.000000,0.000000,0.000000,0.000000,0.000000,0.000000,0.000000,0.022479,3,0
1580000,0.003321,40.816544,0.019590,0.011314,26.068007,0.017538,0.000619,0.041305,1.570318,-0.075470,-0.001817,0.004441,0.000420,-0.011477,-0.000019,0.000055,-0.003441,0.015282,0.009787,0.209205,0.209170,0.153799,0.355287,0.000000,0.000000,0.000000,0.000000,0.000000,0.000000,0.000000,0.000000,0.000000,0.000000,0.000000,0.000000,0.015121,3,0
1590000,0.003318,41.079102,0.018471,0.011327,26.075895,0.016143,0.000616,0.041715,1.570323,-0.075762,-0.001836,0.004955,0.000428,-0.011602,-0.000019,0.000851,-0.003437,0.052208,-0.050298,0.209411,0.209375,0.153491,0.353871,0.000000,0.000000,0.000000,0.000000,0.000000,0.000000,0.000000,0.000000,0.000000,0.000000,0.000000,0.000000,0.050486,3,0
1600000,0.003311,41.338104,0.019510,0.011178,26.077038,0.017262,0.000603,0.041523,1.570321,-0.075478,-0.001855,0.004610,0.000436,-0.011479,-0.000019,0.000614,-0.003432,-0.051395,0.033957,0.209618,0.209581,0.153187,0.352496,0.000000,0.000000,0.000000,0.000000,0.000000,0.000000,0.000000,0.000000,0.000000,0.000000,0.000000,0.000000,0.049705,3,0
1610000,0.003306,41.600578,0.019676,0.011209,26.084658,0.017152,0.000595,0.041893,1.570318,-0.075735,-0.001873,0.004600,0.000444,-0.011591,-0.000019,0.000363,-0.003425,0.047409,0.000127,0.209826,0.209788,0.152887,0.351162,0.000000,0.000000,0.000000,0.000000,0.000000,0.000000,0.000000,0.000000,0.000000,0.000000,0.000000,0.000000,0.045869,3,0
1620000,0.003299,41.860203,0.019740,0.011119,26.086807,0.017024,0.000577,0.041805,1.570306,-0.075541,-0.001892,0.004654,0.000452,-0.011505,-0.000019,0.000216,-0.003419,-0.036232,-0.004511,0.210035,0.209995,0.152591,0.349867,0.000000,0.000000,0.000000,0.000000,0.000000,0.000000,0.000000,0.000000,0.000000,0.000000,0.000000,0.000000,0.035121,3,0
1630000,0.003294,42.118416,0.019220,0.011091,26.086342,0.016234,0.000563,0.041476,1.570292,-0.075133,-0.001910,0.004963,0.000460,-0.011322,-0.000019,0.001087,-0.003413,-0.077209,-0.027823,0.210244,0.210203,0.152298,0.348609,0.000000,0.000000,0.000000,0.000000,0.000000,0.000000,0.000000,0.000000,0.000000,0.000000,0.000000,0.000000,0.074581,3,0
1640000,0.003287,42.376637,0.018369,0.011026,26.085972,0.015261,0.000543,0.041147,1.570277,-0.074731,-0.001927,0.005409,0.000468,-0.011140,-0.000018,0.001224,-0.003406,-0.076992,-0.040695,0.210454,0.210412,0.152009,0.347390,0.000000,0.000000,0.000000,0.000000,0.000000,0.000000,0.000000,0.000000,0.000000,0.000000,0.000000,0.000000,0.074375,3,0
1650000,0.003278,42.636234,0.019322,0.010870,26.087961,0.016332,0.000534,0.041028,1.570272,-0.074536,-0.001945,0.005083,0.000477,-0.011048,-0.000018,0.000381,-0.003398,-0.037022,0.031287,0.210664,0.210621,0.151724,0.346204,0.000000,0.000000,0.000000,0.000000,0.000000,0.000000,0.000000,0.000000,0.000000,0.000000,0.000000,0.000000,0.035867,3,0
1660000,0.003270,42.895126,0.018413,0.010777,26.088713,0.015271,0.000516,0.040803,1.570275,-0.074239,-0.001962,0.005556,0.000485,-0.010910,-0.000018,0.000847,-0.003388,-0.058094,-0.043099,0.210874,0.210829,0.151442,0.345054,0.000000,0.000000,0.000000,0.000000,0.000000,0.000000,0.000000,0.000000,0.000000,0.000000,0.000000,0.000000,0.056156,3,0
1670000,0.003259,43.158184,0.019606,0.010674,26.097113,0.016756,0.000509,0.041264,1.570278,-0.074546,-0.001980,0.005095,0.000493,-0.011055,-0.000018,0.000878,-0.003379,0.060703,0.041751,0.211084,0.211039,0.151165,0.343937,0.000000,0.000000,0.000000,0.000000,0.000000,0.000000,0.000000,0.000000,0.000000,0.000000,0.000000,0.000000,0.058669,3,0
1680000,0.003250,43.418381,0.018734,0.010679,26.100006,0.015630,0.000493,0.041234,1.570270,-0.074430,-0.001997,0.005548,0.000501,-0.011000,-0.000018,0.000372,-0.003368,-0.023529,-0.041596,0.211295,0.211248,0.150891,0.342852,0.000000,0.000000,0.000000,0.000000,0.000000,0.000000,0.000000,0.000000,0.000000,0.000000,0.000000,0.000000,0.022940,3,0
1690000,0.003242,43.678543,0.018036,0.010706,26.102938,0.014818,0.000480,0.041192,1.570272,-0.074306,-0.002014,0.005926,0.000509,-0.010940,-0.000018,0.000297,-0.003360,-0.025326,-0.034374,0.211505,0.211456,0.150622,0.341800,0.000000,0.000000,0.000000,0.000000,0.000000,0.000000,0.000000,0.000000,0.000000,0.000000,0.000000,0.000000,0.024655,3,0
1700000,0.003233,43.939362,0.018472,0.010724,26.106964,0.015129,0.000473,0.041256,1.570259,-0.074270,-0.002030,0.005803,0.000518,-0.010921,-0.000018,0.000031,-0.003351,-0.007214,0.011443,0.211715,0.211665,0.150356,0.340778,0.000000,0.000000,0.000000,0.000000,0.000000,0.000000,0.000000,0.000000,0.000000,0.000000,0.000000,0.000000,0.007672,3,0
1710000,0.003224,44.200123,0.019509,0.010739,26.110737,0.016491,0.000451,0.041297,1.570251,-0.074220,-0.002046,0.005422,0.000526,-0.010895,-0.000018,0.000218,-0.003343,-0.009644,0.035173,0.211924,0.211872,0.150094,0.339785,0.000000,0.000000,0.000000,0.000000,0.000000,0.000000,0.000000,0.000000,0.000000,0.000000,0.000000,0.000000,0.009836,3,0
1720000,0.003215,44.458042,0.019648,0.010693,26.109221,0.016807,0.000437,0.040840,1.570254,-0.073780,-0.002062,0.005465,0.000535,-0.010665,-0.000018,0.001350,-0.003333,-0.091537,-0.002089,0.212132,0.212080,0.149837,0.338820,0.000000,0.000000,0.000000,0.000000,0.000000,0.000000,0.000000,0.000000,0.000000,0.000000,0.000000,0.000000,0.088361,3,0
