time_us,pos_x,pos_y,pos_z,vel_x,vel_y,vel_z,roll,pitch,yaw,bias_ax,bias_ay,bias_az,bias_gx,bias_gy,bias_gz,nis,innov_x,innov_y,innov_z,cov_pos_x,cov_pos_y,cov_pos_z,cov_yaw,des_speed,des_heading,des_climb,pid_speed,pid_yaw,pid_alt,speed_meas,yaw_meas,climb_meas,fwd_accel,yaw_rate,vert_accel,drift_m,nav_mode,mission_state
0,-0.000002,0.150003,0.000001,-0.000409,25.000563,0.000373,0.000007,-0.000001,1.570800,0.000000,0.000000,0.000000,0.000000,0.000000,0.000000,0.006250,0.000004,-0.250008,-0.000004,2.400038,2.400038,3.600017,1.000518,0.000000,0.000000,0.000000,0.000000,0.000000,0.000000,0.000000,0.000000,0.000000,0.000000,0.000000,0.000000,0.150003,1,0
10000,-0.000008,0.370920,-0.019168,-0.000885,25.001200,0.000709,0.000011,-0.000017,1.570804,0.000000,0.000000,0.000000,0.000000,0.000000,0.000000,0.001507,0.000011,-0.101833,-0.051137,1.714420,1.714420,2.250079,1.001073,0.000000,0.000000,0.000000,0.000000,0.000000,0.000000,0.000000,0.000000,0.000000,0.000000,0.000000,0.000000,0.072736,3,0
20000,-0.000017,0.602223,-0.009925,-0.001417,25.001863,0.001283,0.000017,-0.000036,1.570812,0.000001,0.000000,-0.000000,-0.000000,0.000000,-0.000000,0.001058,0.000022,-0.084210,0.033841,1.333616,1.333616,1.636554,1.001655,0.000000,0.000000,0.000000,0.000000,0.000000,0.000000,0.000000,0.000000,0.000000,0.000000,0.000000,0.000000,0.065493,3,0
30000,-0.000029,0.834634,-0.003553,-0.001859,25.002386,0.001714,0.000031,-0.000049,1.570816,0.000003,0.000000,-0.000001,-0.000000,0.000000,-0.000000,0.001394,0.000036,-0.096852,0.029654,1.091392,1.091392,1.286065,1.002257,0.000000,0.000000,0.000000,0.000000,0.000000,0.000000,0.000000,0.000000,0.000000,0.000000,0.000000,0.000000,0.079235,3,0
40000,-0.000044,1.076819,-0.012583,-0.002296,25.003025,0.001782,0.000049,-0.000060,1.570822,0.000004,0.000000,0.000001,0.000000,0.000000,-0.000000,0.000727,0.000052,-0.050962,-0.051256,0.923811,0.923811,1.059385,1.002869,0.000000,0.000000,0.000000,0.000000,0.000000,0.000000,0.000000,0.000000,0.000000,0.000000,0.000000,0.000000,0.043116,3,0
50000,-0.000062,1.330182,-0.011423,-0.002747,25.003880,0.002132,0.000054,-0.000069,1.570823,0.000003,0.000000,0.000000,-0.000000,0.000000,-0.000000,0.000098,0.000072,0.024909,0.007587,0.801036,0.801036,0.900822,1.003484,0.000000,0.000000,0.000000,0.000000,0.000000,0.000000,0.000000,0.000000,0.000000,0.000000,0.000000,0.000000,0.021584,3,0
60000,-0.000082,1.581419,-0.018706,-0.003117,25.004824,0.002237,0.000067,-0.000070,1.570827,0.000003,0.000000,0.000004,0.000000,0.000000,-0.000000,0.000469,0.000093,0.010083,-0.055955,0.707270,0.707270,0.783741,1.004094,0.000000,0.000000,0.000000,0.000000,0.000000,0.000000,0.000000,0.000000,0.000000,0.000000,0.000000,0.000000,0.008895,3,0
70000,-0.000105,1.837494,-0.024372,-0.003527,25.005991,0.002321,0.000080,-0.000088,1.570828,-0.000002,0.000000,0.000007,0.000000,-0.000000,0.000000,0.000842,0.000118,0.057023,-0.049223,0.633370,0.633370,0.693801,1.004688,0.000000,0.000000,0.000000,0.000000,0.000000,0.000000,0.000000,0.000000,0.000000,0.000000,0.000000,0.000000,0.051003,3,0
80000,-0.000132,2.083734,-0.029223,-0.004078,25.006407,0.002217,0.000090,-0.000091,1.570832,0.000002,0.000000,0.000012,0.000000,0.000000,-0.000000,0.000572,0.000146,-0.040033,-0.046999,0.573673,0.573673,0.622594,1.005260,0.000000,0.000000,0.000000,0.000000,0.000000,0.000000,0.000000,0.000000,0.000000,0.000000,0.000000,0.000000,0.036206,3,0
90000,-0.000162,2.334847,-0.031197,-0.004505,25.007376,0.002330,0.000091,-0.000094,1.570849,0.000001,0.000000,0.000015,0.000000,-0.000000,0.000000,0.000090,0.000177,0.011906,-0.021231,0.524488,0.524488,0.564865,1.005801,0.000000,0.000000,0.000000,0.000000,0.000000,0.000000,0.000000,0.000000,0.000000,0.000000,0.000000,0.000000,0.010866,3,0
100000,-0.000195,2.583273,-0.034477,-0.005006,25.007902,0.002408,0.000096,-0.000106,1.570849,0.000004,0.000000,0.000020,-0.000000,0.000000,-0.000000,0.000289,0.000212,-0.020548,-0.038376,0.483303,0.483303,0.517162,1.006301,0.000000,0.000000,0.000000,0.000000,0.000000,0.000000,0.000000,0.000000,0.000000,0.000000,0.000000,0.000000,0.018894,3,0
110000,-0.000231,2.837027,-0.036699,-0.005516,25.009129,0.002467,0.000105,-0.000119,1.570850,-0.000005,0.000000,0.000026,-0.000000,-0.000000,0.000000,0.000494,0.000250,0.049084,-0.028287,0.448354,0.448354,0.477121,1.006754,0.000000,0.000000,0.000000,0.000000,0.000000,0.000000,0.000000,0.000000,0.000000,0.000000,0.000000,0.000000,0.045416,3,0
120000,-0.000271,3.085329,-0.033294,-0.006019,25.009651,0.003379,0.000106,-0.000130,1.570857,0.000000,0.000000,0.000016,-0.000000,-0.000000,0.000000,0.000426,0.000291,-0.025773,0.045720,0.418359,0.418359,0.443071,1.007150,0.000000,0.000000,0.000000,0.000000,0.000000,0.000000,0.000000,0.000000,0.000000,0.000000,0.000000,0.000000,0.023978,3,0
130000,-0.000313,3.333109,-0.031556,-0.006377,25.009937,0.004026,0.000121,-0.000146,1.570872,0.000009,0.000000,0.000010,-0.000000,0.000000,-0.000000,0.000291,0.000335,-0.035533,0.024662,0.392369,0.392369,0.413797,1.007481,0.000000,0.000000,0.000000,0.000000,0.000000,0.000000,0.000000,0.000000,0.000000,0.000000,0.000000,0.000000,0.033211,3,0
140000,-0.000358,3.585358,-0.029281,-0.006886,25.011278,0.004683,0.000122,-0.000157,1.570886,-0.000001,0.000000,-0.000000,-0.000000,-0.000000,0.000000,0.000374,0.000382,0.034745,0.034488,0.369667,0.369667,0.388393,1.007739,0.000000,0.000000,0.000000,0.000000,0.000000,0.000000,0.000000,0.000000,0.000000,0.000000,0.000000,0.000000,0.032607,3,0
150000,-0.000407,3.841339,-0.031934,-0.007426,25.013487,0.004418,0.000142,-0.000164,1.570902,-0.000035,0.000001,0.000014,-0.000000,-0.000001,0.000000,0.001894,0.000433,0.100546,-0.044291,0.349696,0.349695,0.366172,1.007916,0.000000,0.000000,0.000000,0.000000,0.000000,0.000000,0.000000,0.000000,0.000000,0.000000,0.000000,0.000000,0.094687,3,0
160000,-0.000460,4.099380,-0.030223,-0.007936,25.016474,0.004988,0.000160,-0.000155,1.570900,-0.000089,0.000001,0.000004,-0.000000,-0.000002,0.000000,0.003338,0.000487,0.142727,0.028828,0.332021,0.332021,0.346600,1.008003,0.000000,0.000000,0.000000,0.000000,0.000000,0.000000,0.000000,0.000000,0.000000,0.000000,0.000000,0.000000,0.134830,3,0
170000,-0.000514,4.357096,-0.032395,-0.008284,25.019484,0.004689,0.000174,-0.000146,1.570903,-0.000150,0.000001,0.000020,-0.000000,-0.000003,0.000000,0.003491,0.000543,0.143082,-0.040545,0.316298,0.316298,0.329260,1.007992,0.000000,0.000000,0.000000,0.000000,0.000000,0.000000,0.000000,0.000000,0.000000,0.000000,0.000000,0.000000,0.135541,3,0
180000,-0.000571,4.608531,-0.033340,-0.008670,25.020638,0.004722,0.000184,-0.000144,1.570914,-0.000162,0.000001,0.000029,-0.000000,-0.000004,0.000000,0.000152,0.000601,0.024489,-0.019036,0.302247,0.302247,0.313817,1.007876,0.000000,0.000000,0.000000,0.000000,0.000000,0.000000,0.000000,0.000000,0.000000,0.000000,0.000000,0.000000,0.023263,3,0
190000,-0.000629,4.859305,-0.032856,-0.009020,25.021643,0.005174,0.000185,-0.000143,1.570913,-0.000168,0.000002,0.000025,-0.000000,-0.000004,0.000000,0.000033,0.000661,0.011589,0.008670,0.289642,0.289642,0.300003,1.007647,0.000000,0.000000,0.000000,0.000000,0.000000,0.000000,0.000000,0.000000,0.000000,0.000000,0.000000,0.000000,0.011047,3,0
200000,-0.000689,5.113188,-0.033582,-0.009367,25.023821,0.005268,0.000200,-0.000136,1.570922,-0.000214,0.000002,0.000034,-0.000000,-0.000005,0.000000,0.001031,0.000723,0.078867,-0.016307,0.278297,0.278297,0.287598,1.007297,0.000000,0.000000,0.000000,0.000000,0.000000,0.000000,0.000000,0.000000,0.000000,0.000000,0.000000,0.000000,0.075212,3,0
210000,-0.000752,5.369823,-0.032153,-0.009773,25.027267,0.005977,0.000218,-0.000117,1.570924,-0.000305,0.000003,0.000015,-0.000000,-0.000008,0.000000,0.003399,0.000787,0.143026,0.029838,0.268055,0.268055,0.276421,1.006819,0.000000,0.000000,0.000000,0.000000,0.000000,0.000000,0.000000,0.000000,0.000000,0.000000,0.000000,0.000000,0.136639,3,0
220000,-0.000817,5.626348,-0.032696,-0.010154,25.030958,0.005961,0.000222,-0.000093,1.570940,-0.000407,0.000003,0.000025,-0.000000,-0.000011,0.000000,0.003373,0.000854,0.144782,-0.013629,0.258789,0.258789,0.266321,1.006205,0.000000,0.000000,0.000000,0.000000,0.000000,0.000000,0.000000,0.000000,0.000000,0.000000,0.000000,0.000000,0.138539,3,0
230000,-0.000885,5.880297,-0.031024,-0.010681,25.033545,0.006860,0.000233,-0.000074,1.570955,-0.000473,0.000004,-0.000003,-0.000000,-0.000013,0.000000,0.001435,0.000924,0.087009,0.037591,0.250388,0.250388,0.257172,1.005449,0.000000,0.000000,0.000000,0.000000,0.000000,0.000000,0.000000,0.000000,0.000000,0.000000,0.000000,0.000000,0.083383,3,0
240000,-0.000957,6.133538,-0.031383,-0.011149,25.035967,0.007133,0.000234,-0.000064,1.570969,-0.000532,0.000005,0.000005,-0.000000,-0.000015,0.000000,0.000837,0.000997,0.071580,-0.010420,0.242759,0.242759,0.248866,1.004544,0.000000,0.000000,0.000000,0.000000,0.000000,0.000000,0.000000,0.000000,0.000000,0.000000,0.000000,0.000000,0.068691,3,0
250000,-0.001030,6.387703,-0.031595,-0.011502,25.038933,0.007224,0.000237,-0.000053,1.570985,-0.000618,0.000006,0.000011,-0.000000,-0.000018,0.000000,0.001503,0.001072,0.096622,-0.007112,0.235822,0.235822,0.241314,1.003484,0.000000,0.000000,0.000000,0.000000,0.000000,0.000000,0.000000,0.000000,0.000000,0.000000,0.000000,0.000000,0.092830,3,0
260000,-0.001106,6.640437,-0.033174,-0.011959,25.041140,0.006612,0.000237,-0.000041,1.570995,-0.000677,0.000007,0.000052,-0.000000,-0.000020,0.000000,0.000886,0.001150,0.061094,-0.042336,0.229508,0.229508,0.234436,1.002262,0.000000,0.000000,0.000000,0.000000,0.000000,0.000000,0.000000,0.000000,0.000000,0.000000,0.000000,0.000000,0.058768,3,0
270000,-0.001183,6.894087,-0.033009,-0.012316,25.044033,0.007145,0.000250,-0.000028,1.570997,-0.000766,0.000008,0.000049,-0.000000,-0.000024,0.000000,0.001206,0.001229,0.086644,0.002457,0.223759,0.223759,0.228165,1.000873,0.000000,0.000000,0.000000,0.000000,0.000000,0.000000,0.000000,0.000000,0.000000,0.000000,0.000000,0.000000,0.083421,3,0
280000,-0.001263,7.150035,-0.031257,-0.012691,25.048574,0.008414,0.000255,0.000015,1.571009,-0.000933,0.000009,-0.000000,-0.000000,-0.000030,0.000000,0.003992,0.001311,0.151027,0.045280,0.218521,0.218521,0.222443,0.999311,0.000000,0.000000,0.000000,0.000000,0.000000,0.000000,0.000000,0.000000,0.000000,0.000000,0.000000,0.000000,0.145532,3,0
290000,-0.001346,7.402455,-0.031376,-0.013193,25.050814,0.008791,0.000270,0.000027,1.571015,-0.000997,0.000011,0.000006,-0.000000,-0.000033,0.000000,0.000475,0.001395,0.054064,-0.005749,0.213750,0.213750,0.217219,0.997571,0.000000,0.000000,0.000000,0.000000,0.000000,0.000000,0.000000,0.000000,0.000000,0.000000,0.000000,0.000000,0.052155,3,0
300000,-0.001431,7.655761,-0.032234,-0.013657,25.053740,0.008536,0.000277,0.000050,1.571016,-0.001097,0.000013,0.000040,-0.000000,-0.000037,0.000000,0.001144,0.001482,0.079927,-0.026821,0.209406,0.209406,0.212447,0.995650,0.000000,0.000000,0.000000,0.000000,0.000000,0.000000,0.000000,0.000000,0.000000,0.000000,0.000000,0.000000,0.077151,3,0
310000,-0.001518,7.910579,-0.030411,-0.014102,25.058060,0.010250,0.000280,0.000097,1.571023,-0.001263,0.000015,-0.000026,-0.000001,-0.000045,0.000000,0.002908,0.001572,0.124775,0.049981,0.205452,0.205452,0.208087,0.993541,0.000000,0.000000,0.000000,0.000000,0.000000,0.000000,0.000000,0.000000,0.000000,0.000000,0.000000,0.000000,0.120513,3,0
320000,-0.001607,8.164148,-0.030781,-0.014404,25.061426,0.010244,0.000285,0.000124,1.571029,-0.001389,0.000017,-0.000007,-0.000001,-0.000051,0.000000,0.001296,0.001663,0.088582,-0.013998,0.201857,0.201856,0.204105,0.991242,0.000000,0.000000,0.000000,0.000000,0.000000,0.000000,0.000000,0.000000,0.000000,0.000000,0.000000,0.000000,0.085617,3,0
330000,-0.001697,8.419837,-0.030777,-0.014770,25.066771,0.010510,0.000292,0.000187,1.571041,-0.001618,0.000020,-0.000002,-0.000001,-0.000061,0.000000,0.003776,0.001755,0.153042,-0.003054,0.198592,0.198592,0.200469,0.988749,0.000000,0.000000,0.000000,0.000000,0.000000,0.000000,0.000000,0.000000,0.000000,0.000000,0.000000,0.000000,0.147986,3,0
340000,-0.001790,8.672349,-0.028870,-0.015246,25.069252,0.012266,0.000306,0.000208,1.571055,-0.001707,0.000023,-0.000088,-0.000001,-0.000066,0.000000,0.000996,0.001850,0.056333,0.054775,0.195633,0.195633,0.197151,0.986059,0.000000,0.000000,0.000000,0.000000,0.000000,0.000000,0.000000,0.000000,0.000000,0.000000,0.000000,0.000000,0.054525,3,0
350000,-0.001883,8.928247,-0.028073,-0.015550,25.075150,0.013215,0.000319,0.000277,1.571066,-0.001977,0.000026,-0.000122,-0.000001,-0.000079,0.000000,0.004283,0.001946,0.161614,0.020742,0.192957,0.192956,0.194125,0.983170,0.000000,0.000000,0.000000,0.000000,0.000000,0.000000,0.000000,0.000000,0.000000,0.000000,0.000000,0.000000,0.156428,3,0
360000,-0.001978,9.181062,-0.026235,-0.015897,25.078077,0.015062,0.000328,0.000300,1.571079,-0.002090,0.000030,-0.000216,-0.000001,-0.000085,0.000000,0.001136,0.002043,0.064689,0.053406,0.190541,0.190541,0.191370,0.980079,0.000000,0.000000,0.000000,0.000000,0.000000,0.000000,0.000000,0.000000,0.000000,0.000000,0.000000,0.000000,0.062666,3,0
370000,-0.002075,9.437178,-0.025001,-0.016340,25.084473,0.016242,0.000335,0.000400,1.571086,-0.002403,0.000034,-0.000279,-0.000002,-0.000102,0.000000,0.004839,0.002142,0.169665,0.034387,0.188369,0.188369,0.188863,0.976786,0.000000,0.000000,0.000000,0.000000,0.000000,0.000000,0.000000,0.000000,0.000000,0.000000,0.000000,0.000000,0.164352,3,0
380000,-0.002174,9.694608,-0.025338,-0.016795,25.092436,0.016145,0.000341,0.000533,1.571098,-0.002812,0.000038,-0.000248,-0.000002,-0.000125,0.000001,0.007278,0.002243,0.211669,-0.016168,0.186422,0.186421,0.186586,0.973289,0.000000,0.000000,0.000000,0.000000,0.000000,0.000000,0.000000,0.000000,0.000000,0.000000,0.000000,0.000000,0.205104,3,0
390000,-0.002274,9.949024,-0.025443,-0.017120,25.097105,0.016108,0.000353,0.000606,1.571101,-0.003042,0.000043,-0.000230,-0.000002,-0.000138,0.000001,0.002083,0.002346,0.113192,-0.008736,0.184684,0.184684,0.184522,0.969588,0.000000,0.000000,0.000000,0.000000,0.000000,0.000000,0.000000,0.000000,0.000000,0.000000,0.000000,0.000000,0.109731,3,0
400000,-0.002374,10.204187,-0.025962,-0.017430,25.102858,0.015669,0.000361,0.000702,1.571099,-0.003332,0.000048,-0.000183,-0.000002,-0.000155,0.000001,0.003116,0.002449,0.137032,-0.022423,0.183141,0.183141,0.182656,0.965683,0.000000,0.000000,0.000000,0.000000,0.000000,0.000000,0.000000,0.000000,0.000000,0.000000,0.000000,0.000000,0.132870,3,0
410000,-0.002475,10.457667,-0.025563,-0.017717,25.106695,0.016272,0.000369,0.000748,1.571099,-0.003510,0.000054,-0.000200,-0.000003,-0.000165,0.000001,0.001061,0.002552,0.080600,0.007906,0.181780,0.181780,0.180971,0.961575,0.000000,0.000000,0.000000,0.000000,0.000000,0.000000,0.000000,0.000000,0.000000,0.000000,0.000000,0.000000,0.078198,3,0
420000,-0.002577,10.711317,-0.026839,-0.018146,25.110716,0.014818,0.000383,0.000810,1.571108,-0.003707,0.000060,-0.000089,-0.000003,-0.000178,0.000001,0.001558,0.002657,0.085508,-0.048133,0.180588,0.180587,0.179456,0.957264,0.000000,0.000000,0.000000,0.000000,0.000000,0.000000,0.000000,0.000000,0.000000,0.000000,0.000000,0.000000,0.082974,3,0
430000,-0.002681,10.968703,-0.026772,-0.018500,25.119413,0.014862,0.000392,0.000979,1.571119,-0.004209,0.000067,-0.000083,-0.000003,-0.000209,0.000001,0.007100,0.002763,0.209518,-0.002768,0.179553,0.179553,0.178097,0.952753,0.000000,0.000000,0.000000,0.000000,0.000000,0.000000,0.000000,0.000000,0.000000,0.000000,0.000000,0.000000,0.203266,3,0
440000,-0.002785,11.227359,-0.025293,-0.018882,25.129969,0.016666,0.000413,0.001184,1.571127,-0.004833,0.000074,-0.000195,-0.000004,-0.000250,0.000001,0.010455,0.002871,0.250227,0.045078,0.178665,0.178664,0.176883,0.948043,0.000000,0.000000,0.000000,0.000000,0.000000,0.000000,0.000000,0.000000,0.000000,0.000000,0.000000,0.000000,0.242792,3,0
450000,-0.002889,11.481953,-0.023635,-0.019116,25.135315,0.018855,0.000420,0.001281,1.571125,-0.005120,0.000082,-0.000327,-0.000005,-0.000269,0.000001,0.002402,0.002977,0.110739,0.050791,0.177913,0.177913,0.175803,0.943137,0.000000,0.000000,0.000000,0.000000,0.000000,0.000000,0.000000,0.000000,0.000000,0.000000,0.000000,0.000000,0.107494,3,0
460000,-0.002993,11.740811,-0.024654,-0.019408,25.146351,0.017772,0.000426,0.001499,1.571137,-0.005802,0.000090,-0.000215,-0.000005,-0.000315,0.000002,0.010689,0.003084,0.253672,-0.041550,0.177289,0.177288,0.174847,0.938038,0.000000,0.000000,0.000000,0.000000,0.000000,0.000000,0.000000,0.000000,0.000000,0.000000,0.000000,0.000000,0.246194,3,0
470000,-0.003097,11.998572,-0.023997,-0.019654,25.155989,0.018717,0.000447,0.001693,1.571137,-0.006395,0.000099,-0.000261,-0.000006,-0.000356,0.000002,0.007409,0.003191,0.213368,0.016429,0.176782,0.176782,0.174007,0.932751,0.000000,0.000000,0.000000,0.000000,0.000000,0.000000,0.000000,0.000000,0.000000,0.000000,0.000000,0.000000,0.207105,3,0
480000,-0.003200,12.254678,-0.022844,-0.019871,25.163338,0.020267,0.000456,0.001834,1.571141,-0.006840,0.000109,-0.000357,-0.000006,-0.000388,0.000002,0.004034,0.003297,0.154302,0.033370,0.176386,0.176385,0.173272,0.927278,0.000000,0.000000,0.000000,0.000000,0.000000,0.000000,0.000000,0.000000,0.000000,0.000000,0.000000,0.000000,0.149800,3,0
490000,-0.003304,12.509748,-0.022172,-0.020254,25.169168,0.021136,0.000463,0.001948,1.571139,-0.007188,0.000119,-0.000406,-0.000007,-0.000413,0.000002,0.002251,0.003404,0.116791,0.016216,0.176091,0.176091,0.172634,0.921625,0.000000,0.000000,0.000000,0.000000,0.000000,0.000000,0.000000,0.000000,0.000000,0.000000,0.000000,0.000000,0.113411,3,0
500000,-0.003407,12.766720,-0.021627,-0.020497,25.177893,0.021980,0.000482,0.002132,1.571140,-0.007740,0.000130,-0.000441,-0.000008,-0.000454,0.000002,0.005249,0.003510,0.179723,0.011536,0.175891,0.175890,0.172087,0.915797,0.000000,0.000000,0.000000,0.000000,0.000000,0.000000,0.000000,0.000000,0.000000,0.000000,0.000000,0.000000,0.174488,3,0
510000,-0.003510,13.022067,-0.020933,-0.020701,25.184172,0.023092,0.000505,0.002267,1.571151,-0.008125,0.000141,-0.000494,-0.000009,-0.000483,0.000002,0.002432,0.003616,0.121454,0.016422,0.175779,0.175778,0.171623,0.909798,0.000000,0.000000,0.000000,0.000000,0.000000,0.000000,0.000000,0.000000,0.000000,0.000000,0.000000,0.000000,0.117948,3,0
520000,-0.003613,13.276983,-0.020938,-0.021002,25.189819,0.022967,0.000522,0.002378,1.571148,-0.008467,0.000153,-0.000467,-0.000010,-0.000510,0.000002,0.001783,0.003722,0.104591,-0.008304,0.175747,0.175746,0.171234,0.903635,0.000000,0.000000,0.000000,0.000000,0.000000,0.000000,0.000000,0.000000,0.000000,0.000000,0.000000,0.000000,0.101592,3,0
530000,-0.003714,13.534970,-0.021923,-0.021184,25.200066,0.021605,0.000543,0.002616,1.571156,-0.009165,0.000166,-0.000322,-0.000011,-0.000566,0.000003,0.007259,0.003826,0.207438,-0.042682,0.175790,0.175789,0.170915,0.897313,0.000000,0.000000,0.000000,0.000000,0.000000,0.000000,0.000000,0.000000,0.000000,0.000000,0.000000,0.000000,0.201395,3,0
540000,-0.003815,13.790744,-0.021539,-0.021422,25.207056,0.022161,0.000558,0.002777,1.571160,-0.009609,0.000180,-0.000342,-0.000012,-0.000602,0.000003,0.002669,0.003930,0.128258,0.005814,0.175901,0.175900,0.170659,0.890840,0.000000,0.000000,0.000000,0.000000,0.000000,0.000000,0.000000,0.000000,0.000000,0.000000,0.000000,0.000000,0.124556,3,0
550000,-0.003915,14.047832,-0.020997,-0.021713,25.215961,0.022846,0.000582,0.002979,1.571169,-0.010216,0.000194,-0.000383,-0.000013,-0.000652,0.000003,0.004731,0.004034,0.170600,0.011221,0.176075,0.176074,0.170460,0.884222,0.000000,0.000000,0.000000,0.000000,0.000000,0.000000,0.000000,0.000000,0.000000,0.000000,0.000000,0.000000,0.165640,3,0
560000,-0.004015,14.305637,-0.021268,-0.021906,25.226009,0.022540,0.000599,0.003234,1.571179,-0.010916,0.000210,-0.000318,-0.000014,-0.000711,0.000003,0.006000,0.004136,0.191727,-0.017664,0.176306,0.176305,0.170314,0.877466,0.000000,0.000000,0.000000,0.000000,0.000000,0.000000,0.000000,0.000000,0.000000,0.000000,0.000000,0.000000,0.186136,3,0
570000,-0.004114,14.565322,-0.020536,-0.022194,25.238932,0.023452,0.000625,0.003561,1.571189,-0.011860,0.000226,-0.000386,-0.000016,-0.000792,0.000004,0.010318,0.004239,0.251884,0.017870,0.176590,0.176589,0.170215,0.870579,0.000000,0.000000,0.000000,0.000000,0.000000,0.000000,0.000000,0.000000,0.000000,0.000000,0.000000,0.000000,0.244505,3,0
580000,-0.004212,14.825109,-0.020117,-0.022445,25.251921,0.024231,0.000633,0.003909,1.571186,-0.012822,0.000242,-0.000411,-0.000017,-0.000877,0.000004,0.010159,0.004340,0.250495,0.006410,0.176921,0.176920,0.170158,0.863568,0.000000,0.000000,0.000000,0.000000,0.000000,0.000000,0.000000,0.000000,0.000000,0.000000,0.000000,0.000000,0.243145,3,0
590000,-0.004309,15.080888,-0.019218,-0.022540,25.258495,0.025538,0.000645,0.004061,1.571187,-0.013254,0.000260,-0.000503,-0.000019,-0.000916,0.000004,0.002041,0.004440,0.109850,0.023061,0.177295,0.177293,0.170138,0.856442,0.000000,0.000000,0.000000,0.000000,0.000000,0.000000,0.000000,0.000000,0.000000,0.000000,0.000000,0.000000,0.106692,3,0
600000,-0.004404,15.337994,-0.019315,-0.022740,25.267136,0.025536,0.000664,0.004286,1.571197,-0.013867,0.000278,-0.000452,-0.000021,-0.000972,0.000005,0.003775,0.004538,0.152190,-0.012578,0.177707,0.177705,0.170153,0.849208,0.000000,0.000000,0.000000,0.000000,0.000000,0.000000,0.000000,0.000000,0.000000,0.000000,0.000000,0.000000,0.147748,3,0
610000,-0.004497,15.596415,-0.018736,-0.022917,25.277924,0.026281,0.000675,0.004574,1.571209,-0.014662,0.000297,-0.000500,-0.000022,-0.001046,0.000005,0.006060,0.004635,0.193181,0.011398,0.178153,0.178152,0.170196,0.841873,0.000000,0.000000,0.000000,0.000000,0.000000,0.000000,0.000000,0.000000,0.000000,0.000000,0.000000,0.000000,0.187500,3,0
620000,-0.004589,15.853180,-0.018821,-0.023033,25.285828,0.026160,0.000690,0.004790,1.571219,-0.015223,0.000317,-0.000448,-0.000024,-0.001099,0.000005,0.002908,0.004730,0.133442,-0.012321,0.178630,0.178629,0.170265,0.834447,0.000000,0.000000,0.000000,0.000000,0.000000,0.000000,0.000000,0.000000,0.000000,0.000000,0.000000,0.000000,0.129550,3,0
630000,-0.004681,16.111864,-0.019465,-0.023266,25.296894,0.025129,0.000708,0.005098,1.571221,-0.016059,0.000338,-0.000308,-0.000026,-0.001181,0.000006,0.006296,0.004824,0.194660,-0.031946,0.179134,0.179132,0.170356,0.826937,0.000000,0.000000,0.000000,0.000000,0.000000,0.000000,0.000000,0.000000,0.000000,0.000000,0.000000,0.000000,0.188906,3,0
640000,-0.004771,16.370665,-0.019236,-0.023496,25.308077,0.025429,0.000734,0.005408,1.571226,-0.016910,0.000360,-0.000305,-0.000028,-0.001265,0.000006,0.006107,0.004918,0.194290,-0.000794,0.179661,0.179659,0.170466,0.819352,0.000000,0.000000,0.000000,0.000000,0.000000,0.000000,0.000000,0.000000,0.000000,0.000000,0.000000,0.000000,0.188533,3,0
650000,-0.004858,16.630178,-0.018134,-0.023543,25.320299,0.027038,0.000748,0.005761,1.571234,-0.017865,0.000383,-0.000442,-0.000031,-0.001360,0.000007,0.007529,0.005009,0.213682,0.029759,0.180207,0.180205,0.170592,0.811699,0.000000,0.000000,0.000000,0.000000,0.000000,0.000000,0.000000,0.000000,0.000000,0.000000,0.000000,0.000000,0.207321,3,0
660000,-0.004942,16.890995,-0.016719,-0.023584,25.334715,0.028989,0.000764,0.006207,1.571236,-0.019013,0.000406,-0.000631,-0.000033,-0.001478,0.000007,0.010551,0.005096,0.252230,0.040266,0.180771,0.180769,0.170730,0.803986,0.000000,0.000000,0.000000,0.000000,0.000000,0.000000,0.000000,0.000000,0.000000,0.000000,0.000000,0.000000,0.244681,3,0
670000,-0.005026,17.148901,-0.017510,-0.023717,25.344030,0.027664,0.000782,0.006473,1.571237,-0.019709,0.000430,-0.000450,-0.000036,-0.001551,0.000007,0.003889,0.005182,0.150299,-0.037976,0.181348,0.181346,0.170878,0.796222,0.000000,0.000000,0.000000,0.000000,0.000000,0.000000,0.000000,0.000000,0.000000,0.000000,0.000000,0.000000,0.145842,3,0
680000,-0.005107,17.407532,-0.017850,-0.023829,25.354544,0.027245,0.000795,0.006788,1.571244,-0.020514,0.000455,-0.000345,-0.000038,-0.001636,0.000008,0.004785,0.005267,0.170603,-0.021709,0.181936,0.181934,0.171034,0.788415,0.000000,0.000000,0.000000,0.000000,0.000000,0.000000,0.000000,0.000000,0.000000,0.000000,0.000000,0.000000,0.165509,3,0
690000,-0.005187,17.668089,-0.017531,-0.023946,25.368217,0.027748,0.000809,0.007217,1.571241,-0.021617,0.000481,-0.000354,-0.000041,-0.001755,0.000008,0.008548,0.005350,0.229929,0.001626,0.182533,0.182531,0.171194,0.780573,0.000000,0.000000,0.000000,0.000000,0.000000,0.000000,0.000000,0.000000,0.000000,0.000000,0.000000,0.000000,0.222995,3,0
700000,-0.005264,17.927525,-0.017990,-0.023982,25.379885,0.027041,0.000824,0.007588,1.571250,-0.022533,0.000508,-0.000224,-0.000044,-0.001856,0.000009,0.005818,0.005429,0.187904,-0.025843,0.183136,0.183134,0.171358,0.772702,0.000000,0.000000,0.000000,0.000000,0.000000,0.000000,0.000000,0.000000,0.000000,0.000000,0.000000,0.000000,0.182245,3,0
710000,-0.005338,18.187670,-0.017764,-0.023995,25.392584,0.027158,0.000843,0.008001,1.571256,-0.023556,0.000535,-0.000218,-0.000047,-0.001971,0.000010,0.006905,0.005507,0.206657,-0.001467,0.183743,0.183741,0.171523,0.764812,0.000000,0.000000,0.000000,0.000000,0.000000,0.000000,0.000000,0.000000,0.000000,0.000000,0.000000,0.000000,0.200400,3,0
720000,-0.005409,18.447905,-0.016565,-0.024011,25.405207,0.028690,0.000867,0.008410,1.571249,-0.024586,0.000563,-0.000389,-0.000050,-0.002088,0.000010,0.006952,0.005581,0.204811,0.032473,0.184352,0.184350,0.171686,0.756909,0.000000,0.000000,0.000000,0.000000,0.000000,0.000000,0.000000,0.000000,0.000000,0.000000,0.000000,0.000000,0.198592,3,0
730000,-0.005479,18.710068,-0.016967,-0.024119,25.421104,0.028116,0.000893,0.008959,1.571242,-0.025925,0.000593,-0.000262,-0.000053,-0.002243,0.000011,0.011230,0.005654,0.262512,-0.024016,0.184961,0.184959,0.171848,0.749001,0.000000,0.000000,0.000000,0.000000,0.000000,0.000000,0.000000,0.000000,0.000000,0.000000,0.000000,0.000000,0.254478,3,0
740000,-0.005547,18.969837,-0.015831,-0.024216,25.432642,0.029750,0.000923,0.009342,1.571240,-0.026851,0.000622,-0.000425,-0.000057,-0.002353,0.000011,0.005330,0.005725,0.179098,0.029816,0.185568,0.185566,0.172004,0.741095,0.000000,0.000000,0.000000,0.000000,0.000000,0.000000,0.000000,0.000000,0.000000,0.000000,0.000000,0.000000,0.173648,3,0
750000,-0.005613,19.227844,-0.015176,-0.024299,25.440985,0.030786,0.000937,0.009604,1.571242,-0.027470,0.000653,-0.000494,-0.000061,-0.002427,0.000012,0.002279,0.005793,0.118000,0.012361,0.186172,0.186170,0.172156,0.733199,0.000000,0.000000,0.000000,0.000000,0.000000,0.000000,0.000000,0.000000,0.000000,0.000000,0.000000,0.000000,0.114478,3,0
760000,-0.005678,19.489050,-0.013764,-0.024405,25.454800,0.032674,0.000963,0.010081,1.571237,-0.028626,0.000684,-0.000711,-0.000065,-0.002567,0.000012,0.007901,0.005861,0.217733,0.038544,0.186772,0.186769,0.172300,0.725317,0.000000,0.000000,0.000000,0.000000,0.000000,0.000000,0.000000,0.000000,0.000000,0.000000,0.000000,0.000000,0.211033,3,0
770000,-0.005740,19.747847,-0.014924,-0.024356,25.464365,0.030620,0.000987,0.010403,1.571248,-0.029353,0.000716,-0.000419,-0.000068,-0.002658,0.000013,0.003394,0.005925,0.135296,-0.051699,0.187365,0.187362,0.172437,0.717458,0.000000,0.000000,0.000000,0.000000,0.000000,0.000000,0.000000,0.000000,0.000000,0.000000,0.000000,0.000000,0.131195,3,0
780000,-0.005800,20.010473,-0.015913,-0.024366,25.480497,0.028875,0.001005,0.010991,1.571252,-0.030736,0.000749,-0.000162,-0.000072,-0.002833,0.000014,0.010757,0.005987,0.254105,-0.044905,0.187951,0.187948,0.172564,0.709628,0.000000,0.000000,0.000000,0.000000,0.000000,0.000000,0.000000,0.000000,0.000000,0.000000,0.000000,0.000000,0.246212,3,0
790000,-0.005856,20.268776,-0.015690,-0.024308,25.488750,0.029022,0.001023,0.011258,1.571252,-0.031345,0.000783,-0.000150,-0.000077,-0.002911,0.000014,0.001981,0.006046,0.110588,-0.002263,0.188528,0.188525,0.172682,0.701832,0.000000,0.000000,0.000000,0.000000,0.000000,0.000000,0.000000,0.000000,0.000000,0.000000,0.000000,0.000000,0.107273,3,0
800000,-0.005911,20.529051,-0.015047,-0.024429,25.500301,0.030034,0.001054,0.011669,1.571257,-0.032292,0.000817,-0.000224,-0.000081,-0.003034,0.000015,0.004710,0.006104,0.170267,0.012245,0.189097,0.189093,0.172788,0.694076,0.000000,0.000000,0.000000,0.000000,0.000000,0.000000,0.000000,0.000000,0.000000,0.000000,0.000000,0.000000,0.165008,3,0
810000,-0.005964,20.787512,-0.016009,-0.024349,25.508621,0.028581,0.001077,0.011952,1.571266,-0.032904,0.000852,0.000038,-0.000086,-0.003116,0.000015,0.002223,0.006158,0.108665,-0.043866,0.189655,0.189651,0.172883,0.686366,0.000000,0.000000,0.000000,0.000000,0.000000,0.000000,0.000000,0.000000,0.000000,0.000000,0.000000,0.000000,0.105399,3,0
820000,-0.006014,21.048584,-0.016788,-0.024261,25.521448,0.027370,0.001111,0.012419,1.571268,-0.033973,0.000887,0.000260,-0.000090,-0.003260,0.000016,0.005934,0.006210,0.188061,-0.036912,0.190202,0.190198,0.172966,0.678707,0.000000,0.000000,0.000000,0.000000,0.000000,0.000000,0.000000,0.000000,0.000000,0.000000,0.000000,0.000000,0.182198,3,0
830000,-0.006062,21.309080,-0.017331,-0.024338,25.532974,0.026363,0.001138,0.012852,1.571264,-0.034922,0.000924,0.000432,-0.000095,-0.003390,0.000016,0.004550,0.006261,0.165409,-0.028208,0.190738,0.190734,0.173037,0.671104,0.000000,0.000000,0.000000,0.000000,0.000000,0.000000,0.000000,0.000000,0.000000,0.000000,0.000000,0.000000,0.160265,3,0
840000,-0.006108,21.570272,-0.018208,-0.024280,25.545755,0.024913,0.001155,0.013339,1.571271,-0.035982,0.000961,0.000676,-0.000100,-0.003538,0.000017,0.005667,0.006308,0.183100,-0.039420,0.191262,0.191257,0.173094,0.663561,0.000000,0.000000,0.000000,0.000000,0.000000,0.000000,0.000000,0.000000,0.000000,0.000000,0.000000,0.000000,0.177367,3,0
850000,-0.006151,21.831516,-0.019291,-0.024243,25.558367,0.023361,0.001185,0.013826,1.571265,-0.037035,0.000998,0.000965,-0.000105,-0.003687,0.000018,0.005590,0.006354,0.180206,-0.046136,0.191773,0.191768,0.173137,0.656084,0.000000,0.000000,0.000000,0.000000,0.000000,0.000000,0.000000,0.000000,0.000000,0.000000,0.000000,0.000000,0.174553,3,0
860000,-0.006192,22.092169,-0.018534,-0.024254,25.569826,0.024245,0.001212,0.014264,1.571262,-0.037963,0.001036,0.000846,-0.000111,-0.003820,0.000018,0.004057,0.006397,0.157381,0.018272,0.192271,0.192267,0.173167,0.648676,0.000000,0.000000,0.000000,0.000000,0.000000,0.000000,0.000000,0.000000,0.000000,0.000000,0.000000,0.000000,0.152464,3,0
870000,-0.006230,22.354153,-0.019246,-0.024135,25.583361,0.023299,0.001239,0.014799,1.571254,-0.039120,0.001075,0.001056,-0.000116,-0.003990,0.000019,0.006304,0.006437,0.194798,-0.033002,0.192757,0.192752,0.173183,0.641342,0.000000,0.000000,0.000000,0.000000,0.000000,0.000000,0.000000,0.000000,0.000000,0.000000,0.000000,0.000000,0.188641,3,0
880000,-0.006268,22.613605,-0.019222,-0.024199,25.592270,0.023083,0.001259,0.015135,1.571261,-0.039788,0.001114,0.001101,-0.000122,-0.004089,0.000020,0.002024,0.006476,0.111589,-0.007144,0.193229,0.193224,0.173185,0.634084,0.000000,0.000000,0.000000,0.000000,0.000000,0.000000,0.000000,0.000000,0.000000,0.000000,0.000000,0.000000,0.108178,3,0
890000,-0.006303,22.874403,-0.018528,-0.024228,25.603474,0.024070,0.001296,0.015571,1.571255,-0.040694,0.001153,0.000992,-0.000128,-0.004225,0.000020,0.003689,0.006514,0.150230,0.016125,0.193687,0.193682,0.173173,0.626907,0.000000,0.000000,0.000000,0.000000,0.000000,0.000000,0.000000,0.000000,0.000000,0.000000,0.000000,0.000000,0.145518,3,0
900000,-0.006336,23.133318,-0.018252,-0.024121,25.611286,0.024349,0.001320,0.015843,1.571251,-0.041229,0.001193,0.000981,-0.000134,-0.004307,0.000021,0.001259,0.006548,0.088108,0.001285,0.194132,0.194127,0.173147,0.619813,0.000000,0.000000,0.000000,0.000000,0.000000,0.000000,0.000000,0.000000,0.000000,0.000000,0.000000,0.000000,0.085492,3,0
910000,-0.006366,23.394228,-0.016849,-0.024009,25.622414,0.026182,0.001349,0.016288,1.571244,-0.042129,0.001233,0.000706,-0.000140,-0.004446,0.000022,0.003763,0.006580,0.147179,0.040307,0.194564,0.194558,0.173106,0.612806,0.000000,0.000000,0.000000,0.000000,0.000000,0.000000,0.000000,0.000000,0.000000,0.000000,0.000000,0.000000,0.142551,3,0
920000,-0.006395,23.656473,-0.017970,-0.023976,25.635809,0.024267,0.001370,0.016844,1.571251,-0.043264,0.001274,0.001028,-0.000147,-0.004626,0.000022,0.005855,0.006609,0.184340,-0.047696,0.194982,0.194976,0.173051,0.605888,0.000000,0.000000,0.000000,0.000000,0.000000,0.000000,0.000000,0.000000,0.000000,0.000000,0.000000,0.000000,0.178461,3,0
930000,-0.006423,23.920031,-0.019000,-0.023911,25.651451,0.022841,0.001396,0.017510,1.571248,-0.044627,0.001316,0.001326,-0.000153,-0.004845,0.000023,0.008134,0.006638,0.220144,-0.043967,0.195387,0.195381,0.172982,0.599062,0.000000,0.000000,0.000000,0.000000,0.000000,0.000000,0.000000,0.000000,0.000000,0.000000,0.000000,0.000000,0.213071,3,0
940000,-0.006448,24.181639,-0.018885,-0.023920,25.663275,0.023088,0.001423,0.018009,1.571251,-0.045594,0.001358,0.001350,-0.000160,-0.005002,0.000024,0.003894,0.006666,0.155218,-0.003877,0.195778,0.195772,0.172899,0.592330,0.000000,0.000000,0.000000,0.000000,0.000000,0.000000,0.000000,0.000000,0.000000,0.000000,0.000000,0.000000,0.150293,3,0
950000,-0.006472,24.440670,-0.018816,-0.023899,25.670513,0.023150,0.001448,0.018271,1.571260,-0.046047,0.001400,0.001387,-0.000167,-0.005077,0.000025,0.000857,0.006691,0.072401,-0.005581,0.196157,0.196150,0.172803,0.585693,0.000000,0.000000,0.000000,0.000000,0.000000,0.000000,0.000000,0.000000,0.000000,0.000000,0.000000,0.000000,0.070332,3,0
960000,-0.006495,24.701057,-0.018185,-0.023864,25.680048,0.023993,0.001488,0.018650,1.571262,-0.046749,0.001442,0.001285,-0.000174,-0.005195,0.000025,0.002042,0.006715,0.111481,0.013939,0.196523,0.196516,0.172693,0.579155,0.000000,0.000000,0.000000,0.000000,0.000000,0.000000,0.000000,0.000000,0.000000,0.000000,0.000000,0.000000,0.108025,3,0
970000,-0.006514,24.961479,-0.017398,-0.023718,25.689453,0.024940,0.001529,0.019027,1.571262,-0.047440,0.001485,0.001145,-0.000181,-0.005313,0.000026,0.001997,0.006736,0.109425,0.019149,0.196876,0.196869,0.172570,0.572715,0.000000,0.000000,0.000000,0.000000,0.000000,0.000000,0.000000,0.000000,0.000000,0.000000,0.000000,0.000000,0.106035,3,0
980000,-0.006533,25.222588,-0.017629,-0.023616,25.700001,0.024698,0.001565,0.019463,1.571256,-0.048249,0.001528,0.001261,-0.000189,-0.005453,0.000026,0.002661,0.006754,0.127213,-0.016644,0.197217,0.197209,0.172434,0.566376,0.000000,0.000000,0.000000,0.000000,0.000000,0.000000,0.000000,0.000000,0.000000,0.000000,0.000000,0.000000,0.123203,3,0
990000,-0.006550,25.484373,-0.018846,-0.023536,25.711662,0.022936,0.001597,0.019970,1.571264,-0.049170,0.001572,0.001628,-0.000196,-0.005615,0.000027,0.003782,0.006772,0.144304,-0.050857,0.197546,0.197538,0.172285,0.560139,0.000000,0.000000,0.000000,0.000000,0.000000,0.000000,0.000000,0.000000,0.000000,0.000000,0.000000,0.000000,0.139705,3,0
1000000,-0.006564,25.745512,-0.019080,-0.023376,25.722002,0.022504,0.001625,0.020410,1.571259,-0.049944,0.001616,0.001742,-0.000204,-0.005754,0.000028,0.002406,0.006787,0.120945,-0.015977,0.197864,0.197856,0.172123,0.554005,0.000000,0.000000,0.000000,0.000000,0.000000,0.000000,0.000000,0.000000,0.000000,0.000000,0.000000,0.000000,0.117141,3,0
1010000,-0.006574,26.006008,-0.017926,-0.023197,25.731092,0.023997,0.001664,0.020765,1.571256,-0.050576,0.001659,0.001497,-0.000212,-0.005868,0.000028,0.001735,0.006800,0.098251,0.032527,0.198171,0.198162,0.171950,0.547975,0.000000,0.000000,0.000000,0.000000,0.000000,0.000000,0.000000,0.000000,0.000000,0.000000,0.000000,0.000000,0.095236,3,0
1020000,-0.006584,26.266531,-0.018336,-0.023072,25.739964,0.023171,0.001707,0.021129,1.571269,-0.051196,0.001704,0.001663,-0.000220,-0.005982,0.000029,0.001578,0.006809,0.096090,-0.022538,0.198467,0.198458,0.171765,0.542048,0.000000,0.000000,0.000000,0.000000,0.000000,0.000000,0.000000,0.000000,0.000000,0.000000,0.000000,0.000000,0.093144,3,0
1030000,-0.006592,26.530371,-0.019072,-0.022958,25.754709,0.021979,0.001749,0.021822,1.571264,-0.052447,0.001748,0.001909,-0.000228,-0.006216,0.000030,0.006210,0.006818,0.193298,-0.033523,0.198752,0.198743,0.171569,0.536227,0.000000,0.000000,0.000000,0.000000,0.000000,0.000000,0.000000,0.000000,0.000000,0.000000,0.000000,0.000000,0.187010,3,0
1040000,-0.006599,26.790882,-0.018869,-0.022917,25.763252,0.022191,0.001779,0.022160,1.571266,-0.053021,0.001793,0.001909,-0.000236,-0.006325,0.000031,0.001265,0.006826,0.088345,-0.000482,0.199028,0.199018,0.171362,0.530510,0.000000,0.000000,0.000000,0.000000,0.000000,0.000000,0.000000,0.000000,0.000000,0.000000,0.000000,0.000000,0.085669,3,0
1050000,-0.006604,27.049433,-0.019403,-0.022748,25.768360,0.021355,0.001813,0.022298,1.571266,-0.053194,0.001838,0.002111,-0.000245,-0.006358,0.000031,0.000235,0.006831,0.026535,-0.026501,0.199294,0.199283,0.171144,0.524899,0.000000,0.000000,0.000000,0.000000,0.000000,0.000000,0.000000,0.000000,0.000000,0.000000,0.000000,0.000000,0.026488,3,0
1060000,-0.006607,27.311993,-0.017961,-0.022691,25.780348,0.023124,0.001858,0.022847,1.571269,-0.054143,0.001882,0.001770,-0.000254,-0.006543,0.000032,0.003730,0.006835,0.145632,0.043405,0.199551,0.199540,0.170916,0.519394,0.000000,0.000000,0.000000,0.000000,0.000000,0.000000,0.000000,0.000000,0.000000,0.000000,0.000000,0.000000,0.140946,3,0
1070000,-0.006608,27.571892,-0.017921,-0.022505,25.787607,0.022928,0.001885,0.023111,1.571275,-0.054548,0.001927,0.001818,-0.000263,-0.006623,0.000032,0.000631,0.006836,0.061861,-0.006611,0.199799,0.199788,0.170678,0.513993,0.000000,0.000000,0.000000,0.000000,0.000000,0.000000,0.000000,0.000000,0.000000,0.000000,0.000000,0.000000,0.060165,3,0
1080000,-0.006608,27.832476,-0.017076,-0.022364,25.795937,0.023982,0.001923,0.023449,1.571285,-0.055073,0.001972,0.001643,-0.000272,-0.006728,0.000033,0.001121,0.006836,0.080196,0.021793,0.200039,0.200027,0.170431,0.508698,0.000000,0.000000,0.000000,0.000000,0.000000,0.000000,0.000000,0.000000,0.000000,0.000000,0.000000,0.000000,0.077805,3,0
1090000,-0.006606,28.093071,-0.015924,-0.022266,25.804100,0.025470,0.001968,0.023781,1.571285,-0.055584,0.002016,0.001384,-0.000281,-0.006832,0.000033,0.001155,0.006834,0.077953,0.032282,0.200271,0.200259,0.170175,0.503508,0.000000,0.000000,0.000000,0.000000,0.000000,0.000000,0.000000,0.000000,0.000000,0.000000,0.000000,0.000000,0.075643,3,0
1100000,-0.006601,28.353678,-0.015024,-0.022060,25.812349,0.026743,0.002003,0.024116,1.571281,-0.056081,0.002061,0.001198,-0.000291,-0.006934,0.000034,0.001015,0.006830,0.075701,0.022831,0.200497,0.200484,0.169911,0.498423,0.000000,0.000000,0.000000,0.000000,0.000000,0.000000,0.000000,0.000000,0.000000,0.000000,0.000000,0.000000,0.073471,3,0
1110000,-0.006596,28.616293,-0.015729,-0.021858,25.823988,0.025512,0.002042,0.024658,1.571283,-0.056958,0.002107,0.001465,-0.000300,-0.007119,0.000035,0.003048,0.006824,0.133074,-0.034065,0.200715,0.200702,0.169638,0.493441,0.000000,0.000000,0.000000,0.000000,0.000000,0.000000,0.000000,0.000000,0.000000,0.000000,0.000000,0.000000,0.128789,3,0
1120000,-0.006590,28.880217,-0.016545,-0.021743,25.837778,0.024396,0.002071,0.025347,1.571290,-0.058069,0.002152,0.001760,-0.000309,-0.007357,0.000036,0.004811,0.006818,0.168526,-0.037584,0.200927,0.200913,0.169358,0.488563,0.000000,0.000000,0.000000,0.000000,0.000000,0.000000,0.000000,0.000000,0.000000,0.000000,0.000000,0.000000,0.163013,3,0
1130000,-0.006581,29.144094,-0.016447,-0.021533,25.851273,0.024398,0.002105,0.026023,1.571287,-0.059143,0.002198,0.001790,-0.000319,-0.007589,0.000037,0.004285,0.006810,0.162888,-0.004767,0.201133,0.201119,0.169070,0.483788,0.000000,0.000000,0.000000,0.000000,0.000000,0.000000,0.000000,0.000000,0.000000,0.000000,0.000000,0.000000,0.157564,3,0
1140000,-0.006571,29.404591,-0.016416,-0.021356,25.858587,0.024310,0.002143,0.026308,1.571290,-0.059525,0.002243,0.001848,-0.000329,-0.007673,0.000038,0.000557,0.006799,0.057907,-0.007483,0.201334,0.201319,0.168776,0.479114,0.000000,0.000000,0.000000,0.000000,0.000000,0.000000,0.000000,0.000000,0.000000,0.000000,0.000000,0.000000,0.056348,3,0
1150000,-0.006557,29.663082,-0.015171,-0.021131,25.862343,0.026030,0.002188,0.026348,1.571292,-0.059499,0.002287,0.001555,-0.000339,-0.007667,0.000038,0.000214,0.006786,-0.003872,0.035506,0.201530,0.201514,0.168474,0.474542,0.000000,0.000000,0.000000,0.000000,0.000000,0.000000,0.000000,0.000000,0.000000,0.000000,0.000000,0.000000,0.007548,3,0
1160000,-0.006542,29.924950,-0.013907,-0.020867,25.872023,0.027646,0.002236,0.026787,1.571303,-0.060129,0.002332,0.001250,-0.000349,-0.007808,0.000038,0.001684,0.006770,0.095417,0.036006,0.201721,0.201705,0.168167,0.470070,0.000000,0.000000,0.000000,0.000000,0.000000,0.000000,0.000000,0.000000,0.000000,0.000000,0.000000,0.000000,0.092444,3,0
1170000,-0.006524,30.183455,-0.012711,-0.020623,25.875601,0.029285,0.002276,0.026823,1.571307,-0.060078,0.002376,0.000977,-0.000360,-0.007795,0.000038,0.000190,0.006752,-0.007515,0.032687,0.201908,0.201891,0.167854,0.465697,0.000000,0.000000,0.000000,0.000000,0.000000,0.000000,0.000000,0.000000,0.000000,0.000000,0.000000,0.000000,0.009760,3,0
1180000,-0.006506,30.446016,-0.013906,-0.020411,25.886263,0.027689,0.002315,0.027335,1.571304,-0.060816,0.002421,0.001416,-0.000370,-0.007969,0.000039,0.002470,0.006732,0.111643,-0.053033,0.202091,0.202074,0.167536,0.461423,0.000000,0.000000,0.000000,0.000000,0.000000,0.000000,0.000000,0.000000,0.000000,0.000000,0.000000,0.000000,0.108074,3,0
1190000,-0.006486,30.707201,-0.013666,-0.020182,25.894388,0.027804,0.002363,0.027683,1.571318,-0.061263,0.002466,0.001421,-0.000380,-0.008074,0.000040,0.000744,0.006712,0.067642,-0.001150,0.202271,0.202253,0.167212,0.457245,0.000000,0.000000,0.000000,0.000000,0.000000,0.000000,0.000000,0.000000,0.000000,0.000000,0.000000,0.000000,0.065682,3,0
1200000,-0.006465,30.968378,-0.014736,-0.019938,25.902346,0.026134,0.002398,0.028026,1.571321,-0.061691,0.002510,0.001828,-0.000390,-0.008178,0.000040,0.001061,0.006689,0.064802,-0.048280,0.202448,0.202429,0.166884,0.453163,0.000000,0.000000,0.000000,0.000000,0.000000,0.000000,0.000000,0.000000,0.000000,0.000000,0.000000,0.000000,0.062943,3,0
1210000,-0.006442,31.229540,-0.015475,-0.019771,25.910332,0.025074,0.002431,0.028344,1.571326,-0.062100,0.002555,0.002131,-0.000401,-0.008278,0.000041,0.000834,0.006666,0.061970,-0.035889,0.202622,0.202603,0.166552,0.449177,0.000000,0.000000,0.000000,0.000000,0.000000,0.000000,0.000000,0.000000,0.000000,0.000000,0.000000,0.000000,0.060219,3,0
1220000,-0.006417,31.493368,-0.014302,-0.019594,25.922842,0.026411,0.002467,0.028996,1.571323,-0.063013,0.002599,0.001828,-0.000412,-0.008502,0.000042,0.003289,0.006642,0.138670,0.033802,0.202794,0.202774,0.166216,0.445284,0.000000,0.000000,0.000000,0.000000,0.000000,0.000000,0.000000,0.000000,0.000000,0.000000,0.000000,0.000000,0.134141,3,0
1230000,-0.006390,31.752434,-0.013714,-0.019364,25.926672,0.026878,0.002513,0.029035,1.571321,-0.062973,0.002642,0.001728,-0.000423,-0.008492,0.000042,0.000035,0.006614,-0.006008,0.011645,0.202964,0.202943,0.165876,0.441483,0.000000,0.000000,0.000000,0.000000,0.000000,0.000000,0.000000,0.000000,0.000000,0.000000,0.000000,0.000000,0.008633,3,0
1240000,-0.006363,32.012863,-0.012979,-0.019218,25.933027,0.027764,0.002546,0.029240,1.571330,-0.063190,0.002685,0.001577,-0.000434,-0.008546,0.000042,0.000230,0.006586,0.033066,0.016947,0.203132,0.203110,0.165533,0.437773,0.000000,0.000000,0.000000,0.000000,0.000000,0.000000,0.000000,0.000000,0.000000,0.000000,0.000000,0.000000,0.032576,3,0
1250000,-0.006334,32.273960,-0.012503,-0.018945,25.940380,0.028071,0.002581,0.029532,1.571331,-0.063523,0.002728,0.001508,-0.000445,-0.008632,0.000043,0.000433,0.006556,0.050880,0.007365,0.203299,0.203276,0.165187,0.434153,0.000000,0.000000,0.000000,0.000000,0.000000,0.000000,0.000000,0.000000,0.000000,0.000000,0.000000,0.000000,0.049563,3,0
1260000,-0.006303,32.537064,-0.011946,-0.018696,25.951286,0.028591,0.002621,0.030072,1.571330,-0.064228,0.002771,0.001405,-0.000456,-0.008816,0.000044,0.001895,0.006525,0.107769,0.010469,0.203465,0.203441,0.164839,0.430622,0.000000,0.000000,0.000000,0.000000,0.000000,0.000000,0.000000,0.000000,0.000000,0.000000,0.000000,0.000000,0.104305,3,0
1270000,-0.006272,32.798767,-0.012474,-0.018440,25.959517,0.027875,0.002663,0.030420,1.571336,-0.064642,0.002814,0.001662,-0.000467,-0.008926,0.000044,0.000792,0.006491,0.063229,-0.029512,0.203630,0.203606,0.164489,0.427177,0.000000,0.000000,0.000000,0.000000,0.000000,0.000000,0.000000,0.000000,0.000000,0.000000,0.000000,0.000000,0.061402,3,0
1280000,-0.006239,33.057739,-0.011917,-0.018248,25.962839,0.028639,0.002702,0.030404,1.571351,-0.064514,0.002856,0.001575,-0.000479,-0.008892,0.000044,0.000085,0.006458,-0.019646,0.009906,0.203795,0.203769,0.164136,0.423818,0.000000,0.000000,0.000000,0.000000,0.000000,0.000000,0.000000,0.000000,0.000000,0.000000,0.000000,0.000000,0.019977,3,0
1290000,-0.006203,33.320099,-0.010682,-0.017970,25.972034,0.030142,0.002740,0.030827,1.571361,-0.065028,0.002897,0.001253,-0.000490,-0.009030,0.000045,0.001215,0.006422,0.079166,0.035025,0.203960,0.203933,0.163782,0.420543,0.000000,0.000000,0.000000,0.000000,0.000000,0.000000,0.000000,0.000000,0.000000,0.000000,0.000000,0.000000,0.076732,3,0
1300000,-0.006167,33.581066,-0.009916,-0.017809,25.978722,0.030759,0.002789,0.031073,1.571361,-0.065257,0.002938,0.001093,-0.000502,-0.009093,0.000045,0.000256,0.006385,0.035381,0.017236,0.204124,0.204097,0.163426,0.417351,0.000000,0.000000,0.000000,0.000000,0.000000,0.000000,0.000000,0.000000,0.000000,0.000000,0.000000,0.000000,0.034732,3,0
1310000,-0.006132,33.843365,-0.009673,-0.017684,25.987566,0.030823,0.002838,0.031471,1.571365,-0.065726,0.002979,0.001104,-0.000514,-0.009225,0.000046,0.000854,0.006348,0.072533,-0.002060,0.204289,0.204260,0.163070,0.414239,0.000000,0.000000,0.000000,0.000000,0.000000,0.000000,0.000000,0.000000,0.000000,0.000000,0.000000,0.000000,0.070332,3,0
1320000,-0.006096,34.103592,-0.009490,-0.017511,25.992664,0.030730,0.002878,0.031594,1.571373,-0.065784,0.003020,0.001146,-0.000525,-0.009241,0.000046,0.000023,0.006311,0.008934,-0.004623,0.204455,0.204425,0.162712,0.411208,0.000000,0.000000,0.000000,0.000000,0.000000,0.000000,0.000000,0.000000,0.000000,0.000000,0.000000,0.000000,0.010565,3,0
1330000,-0.006058,34.365158,-0.008387,-0.017301,26.000053,0.031965,0.002925,0.031898,1.571380,-0.066084,0.003060,0.000869,-0.000537,-0.009327,0.000047,0.000501,0.006273,0.046841,0.029574,0.204620,0.204590,0.162355,0.408255,0.000000,0.000000,0.000000,0.000000,0.000000,0.000000,0.000000,0.000000,0.000000,0.000000,0.000000,0.000000,0.045650,3,0
1340000,-0.006020,34.625340,-0.008069,-0.017148,26.004917,0.032024,0.002978,0.031989,1.571393,-0.066109,0.003100,0.000869,-0.000549,-0.009334,0.000047,0.000009,0.006233,0.003864,-0.000071,0.204787,0.204755,0.161996,0.405379,0.000000,0.000000,0.000000,0.000000,0.000000,0.000000,0.000000,0.000000,0.000000,0.000000,0.000000,0.000000,0.007083,3,0
1350000,-0.005982,34.886189,-0.008382,-0.016863,26.010979,0.031350,0.003024,0.032173,1.571398,-0.066249,0.003140,0.001084,-0.000560,-0.009377,0.000047,0.000173,0.006193,0.021942,-0.023429,0.204955,0.204922,0.161638,0.402580,0.000000,0.000000,0.000000,0.000000,0.000000,0.000000,0.000000,0.000000,0.000000,0.000000,0.000000,0.000000,0.022019,3,0
1360000,-0.005944,35.148376,-0.009634,-0.016727,26.019285,0.029518,0.003061,0.032539,1.571407,-0.066627,0.003180,0.001619,-0.000572,-0.009494,0.000048,0.001115,0.006153,0.059219,-0.057943,0.205124,0.205089,0.161280,0.399853,0.000000,0.000000,0.000000,0.000000,0.000000,0.000000,0.000000,0.000000,0.000000,0.000000,0.000000,0.000000,0.057494,3,0
1370000,-0.005902,35.409142,-0.008405,-0.016412,26.024979,0.030834,0.003109,0.032700,1.571419,-0.066725,0.003219,0.001289,-0.000584,-0.009522,0.000048,0.000242,0.006112,0.015614,0.034842,0.205294,0.205258,0.160922,0.397200,0.000000,0.000000,0.000000,0.000000,0.000000,0.000000,0.000000,0.000000,0.000000,0.000000,0.000000,0.000000,0.016200,3,0
1380000,-0.005861,35.671944,-0.009728,-0.016133,26.034189,0.028913,0.003163,0.033147,1.571427,-0.067186,0.003258,0.001852,-0.000595,-0.009668,0.000049,0.001455,0.006067,0.072857,-0.060540,0.205465,0.205428,0.160565,0.394617,0.000000,0.000000,0.000000,0.000000,0.000000,0.000000,0.000000,0.000000,0.000000,0.000000,0.000000,0.000000,0.070594,3,0
1390000,-0.005815,35.934673,-0.008691,-0.015830,26.043201,0.029920,0.003212,0.033552,1.571437,-0.067615,0.003296,0.001573,-0.000607,-0.009802,0.000050,0.000889,0.006023,0.068382,0.028399,0.205638,0.205600,0.160209,0.392104,0.000000,0.000000,0.000000,0.000000,0.000000,0.000000,0.000000,0.000000,0.000000,0.000000,0.000000,0.000000,0.066299,3,0
1400000,-0.005769,36.196659,-0.007667,-0.015600,26.050652,0.030821,0.003262,0.033861,1.571439,-0.067891,0.003332,0.001305,-0.000620,-0.009888,0.000050,0.000442,0.005975,0.044113,0.027500,0.205812,0.205773,0.159854,0.389659,0.000000,0.000000,0.000000,0.000000,0.000000,0.000000,0.000000,0.000000,0.000000,0.000000,0.000000,0.000000,0.042995,3,0
1410000,-0.005724,36.455879,-0.007826,-0.015373,26.052984,0.030467,0.003299,0.033756,1.571442,-0.067648,0.003370,0.001483,-0.000631,-0.009811,0.000050,0.000303,0.005927,-0.039040,-0.017942,0.205988,0.205948,0.159500,0.387281,0.000000,0.000000,0.000000,0.000000,0.000000,0.000000,0.000000,0.000000,0.000000,0.000000,0.000000,0.000000,0.038136,3,0
1420000,-0.005677,36.719189,-0.008119,-0.015063,26.062782,0.029808,0.003354,0.034232,1.571444,-0.068140,0.003407,0.001683,-0.000643,-0.009974,0.000051,0.001099,0.005878,0.079418,-0.021996,0.206166,0.206125,0.159148,0.384968,0.000000,0.000000,0.000000,0.000000,0.000000,0.000000,0.000000,0.000000,0.000000,0.000000,0.000000,0.000000,0.076897,3,0
1430000,-0.005628,36.978329,-0.008470,-0.014782,26.064837,0.029288,0.003400,0.034101,1.571459,-0.067865,0.003443,0.001932,-0.000655,-0.009883,0.000051,0.000430,0.005828,-0.044842,-0.024986,0.206346,0.206303,0.158797,0.382719,0.000000,0.000000,0.000000,0.000000,0.000000,0.000000,0.000000,0.000000,0.000000,0.000000,0.000000,0.000000,0.043669,3,0
1440000,-0.005580,37.236782,-0.009458,-0.014570,26.065710,0.027972,0.003436,0.033867,1.571466,-0.067464,0.003479,0.002419,-0.000667,-0.009750,0.000050,0.001086,0.005778,-0.065453,-0.049062,0.206527,0.206483,0.158448,0.380533,0.000000,0.000000,0.000000,0.000000,0.000000,0.000000,0.000000,0.000000,0.000000,0.000000,0.000000,0.000000,0.063455,3,0
1450000,-0.005531,37.497295,-0.010704,-0.014295,26.070263,0.026349,0.003474,0.033932,1.571477,-0.067430,0.003516,0.002987,-0.000678,-0.009742,0.000050,0.000558,0.005726,-0.005848,-0.058059,0.206711,0.206665,0.158101,0.378407,0.000000,0.000000,0.000000,0.000000,0.000000,0.000000,0.000000,0.000000,0.000000,0.000000,0.000000,0.000000,0.007912,3,0
1460000,-0.005480,37.760521,-0.011511,-0.014006,26.079489,0.025261,0.003518,0.034391,1.571491,-0.067864,0.003551,0.003371,-0.000690,-0.009895,0.000051,0.001091,0.005674,0.071533,-0.040246,0.206896,0.206849,0.157756,0.376340,0.000000,0.000000,0.000000,0.000000,0.000000,0.000000,0.000000,0.000000,0.000000,0.000000,0.000000,0.000000,0.069275,3,0
1470000,-0.005429,38.020931,-0.012392,-0.013823,26.083626,0.024157,0.003568,0.034412,1.571491,-0.067787,0.003586,0.003802,-0.000702,-0.009871,0.000051,0.000338,0.005621,-0.012878,-0.043432,0.207083,0.207035,0.157413,0.374333,0.000000,0.000000,0.000000,0.000000,0.000000,0.000000,0.000000,0.000000,0.000000,0.000000,0.000000,0.000000,0.013576,3,0
1480000,-0.005377,38.278557,-0.012725,-0.013629,26.082541,0.023569,0.003608,0.034016,1.571507,-0.067222,0.003620,0.004043,-0.000714,-0.009669,0.000051,0.001524,0.005568,-0.094418,-0.022748,0.207272,0.207222,0.157072,0.372381,0.000000,0.000000,0.000000,0.000000,0.000000,0.000000,0.000000,0.000000,0.000000,0.000000,0.000000,0.000000,0.091318,3,0
1490000,-0.005323,38.541008,-0.013070,-0.013302,26.090214,0.022910,0.003649,0.034352,1.571504,-0.067494,0.003653,0.004253,-0.000726,-0.009769,0.000051,0.000416,0.005513,0.045547,-0.021873,0.207463,0.207412,0.156735,0.370484,0.000000,0.000000,0.000000,0.000000,0.000000,0.000000,0.000000,0.000000,0.000000,0.000000,0.000000,0.000000,0.044289,3,0
1500000,-0.005268,38.799950,-0.012780,-0.013086,26.091341,0.023040,0.003704,0.034130,1.571507,-0.067151,0.003685,0.004245,-0.000737,-0.009643,0.000051,0.000546,0.005457,-0.057949,0.001809,0.207656,0.207603,0.156399,0.368641,0.000000,0.000000,0.000000,0.000000,0.000000,0.000000,0.000000,0.000000,0.000000,0.000000,0.000000,0.000000,0.056190,3,0
1510000,-0.005212,39.058884,-0.012400,-0.012761,26.092415,0.023316,0.003744,0.033901,1.571507,-0.066808,0.003717,0.004203,-0.000749,-0.009514,0.000051,0.000559,0.005399,-0.058475,0.005196,0.207850,0.207796,0.156067,0.366851,0.000000,0.000000,0.000000,0.000000,0.000000,0.000000,0.000000,0.000000,0.000000,0.000000,0.000000,0.000000,0.056690,3,0
1520000,-0.005154,39.321941,-0.012047,-0.012402,26.101042,0.023735,0.003796,0.034304,1.571508,-0.067159,0.003748,0.004142,-0.000761,-0.009647,0.000051,0.000593,0.005340,0.060280,0.005022,0.208046,0.207990,0.155737,0.365112,0.000000,0.000000,0.000000,0.000000,0.000000,0.000000,0.000000,0.000000,0.000000,0.000000,0.000000,0.000000,0.058421,3,0
1530000,-0.005095,39.583553,-0.012266,-0.012046,26.106850,0.023251,0.003846,0.034474,1.571519,-0.067251,0.003779,0.004316,-0.000773,-0.009684,0.000052,0.000094,0.005278,0.015800,-0.017494,0.208244,0.208186,0.155410,0.363424,0.000000,0.000000,0.000000,0.000000,0.000000,0.000000,0.000000,0.000000,0.000000,0.000000,0.000000,0.000000,0.016076,3,0
1540000,-0.005036,39.843033,-0.012050,-0.011845,26.108753,0.023461,0.003900,0.034309,1.571533,-0.066980,0.003809,0.004337,-0.000785,-0.009578,0.000051,0.000361,0.005217,-0.047077,-0.001169,0.208443,0.208384,0.155087,0.361784,0.000000,0.000000,0.000000,0.000000,0.000000,0.000000,0.000000,0.000000,0.000000,0.000000,0.000000,0.000000,0.045719,3,0
1550000,-0.004977,40.103882,-0.012499,-0.011598,26.113132,0.022845,0.003946,0.034360,1.571545,-0.066933,0.003839,0.004612,-0.000796,-0.009561,0.000051,0.000131,0.005155,-0.008392,-0.026669,0.208643,0.208583,0.154766,0.360193,0.000000,0.000000,0.000000,0.000000,0.000000,0.000000,0.000000,0.000000,0.000000,0.000000,0.000000,0.000000,0.009512,3,0
1560000,-0.004917,40.366772,-0.013593,-0.011292,26.121216,0.021511,0.003992,0.034728,1.571551,-0.067209,0.003869,0.005126,-0.000808,-0.009676,0.000052,0.000809,0.005093,0.048775,-0.050999,0.208846,0.208784,0.154449,0.358648,0.000000,0.000000,0.000000,0.000000,0.000000,0.000000,0.000000,0.000000,0.000000,0.000000,0.000000,0.000000,0.047322,3,0
1570000,-0.004855,40.626118,-0.013914,-0.010932,26.122681,0.021157,0.004036,0.034502,1.571560,-0.066900,0.003898,0.005360,-0.000819,-0.009551,0.000052,0.000569,0.005029,-0.055164,-0.021543,0.209049,0.208986,0.154135,0.357148,0.000000,0.000000,0.000000,0.000000,0.000000,0.000000,0.000000,0.000000,0.000000,0.000000,0.000000,0.000000,0.053470,3,0
1580000,-0.004791,40.885429,-0.012860,-0.010683,26.124031,0.022461,0.004074,0.034260,1.571574,-0.066588,0.003924,0.005038,-0.000831,-0.009418,0.000051,0.000678,0.004965,-0.056099,0.032176,0.209254,0.209189,0.153825,0.355692,0.000000,0.000000,0.000000,0.000000,0.000000,0.000000,0.000000,0.000000,0.000000,0.000000,0.000000,0.000000,0.054346,3,0
1590000,-0.004727,41.147503,-0.012661,-0.010357,26.130255,0.022437,0.004124,0.034471,1.571577,-0.066712,0.003951,0.005041,-0.000842,-0.009471,0.000052,0.000086,0.004898,0.022518,-0.000784,0.209460,0.209394,0.153518,0.354276,0.000000,0.000000,0.000000,0.000000,0.000000,0.000000,0.000000,0.000000,0.000000,0.000000,0.000000,0.000000,0.022240,3,0
1600000,-0.004663,41.407440,-0.013499,-0.010049,26.132488,0.021581,0.004174,0.034333,1.571592,-0.066489,0.003979,0.005491,-0.000853,-0.009378,0.000052,0.000561,0.004830,-0.040829,-0.042192,0.209667,0.209599,0.153214,0.352903,0.000000,0.000000,0.000000,0.000000,0.000000,0.000000,0.000000,0.000000,0.000000,0.000000,0.000000,0.000000,0.039688,3,0
1610000,-0.004597,41.667328,-0.013158,-0.009778,26.134584,0.021921,0.004216,0.034172,1.571595,-0.066260,0.004004,0.005454,-0.000865,-0.009278,0.000051,0.000295,0.004763,-0.042362,0.004359,0.209875,0.209806,0.152915,0.351569,0.000000,0.000000,0.000000,0.000000,0.000000,0.000000,0.000000,0.000000,0.000000,0.000000,0.000000,0.000000,0.041136,3,0
1620000,-0.004531,41.928581,-0.013229,-0.009503,26.139120,0.021812,0.004265,0.034230,1.571603,-0.066238,0.004030,0.005577,-0.000876,-0.009269,0.000051,0.000028,0.004695,-0.004089,-0.011574,0.210084,0.210013,0.152618,0.350274,0.000000,0.000000,0.000000,0.000000,0.000000,0.000000,0.000000,0.000000,0.000000,0.000000,0.000000,0.000000,0.006010,3,0
1630000,-0.004464,42.190483,-0.013626,-0.009181,26.144770,0.021372,0.004317,0.034400,1.571601,-0.066307,0.004055,0.005830,-0.000887,-0.009302,0.000052,0.000125,0.004625,0.012920,-0.024199,0.210293,0.210220,0.152326,0.349017,0.000000,0.000000,0.000000,0.000000,0.000000,0.000000,0.000000,0.000000,0.000000,0.000000,0.000000,0.000000,0.013234,3,0
1640000,-0.004398,42.450932,-0.014839,-0.008974,26.147814,0.020069,0.004362,0.034312,1.571607,-0.066147,0.004081,0.006440,-0.000897,-0.009234,0.000052,0.000677,0.004557,-0.030373,-0.056830,0.210503,0.210429,0.152037,0.347799,0.000000,0.000000,0.000000,0.000000,0.000000,0.000000,0.000000,0.000000,0.000000,0.000000,0.000000,0.000000,0.029652,3,0
1650000,-0.004330,42.707825,-0.014039,-0.008649,26.144150,0.021118,0.004401,0.033619,1.571616,-0.065461,0.004103,0.006237,-0.000908,-0.008913,0.000051,0.002876,0.004488,-0.131821,0.022008,0.210713,0.210638,0.151753,0.346615,0.000000,0.000000,0.000000,0.000000,0.000000,0.000000,0.000000,0.000000,0.000000,0.000000,0.000000,0.000000,0.127259,3,0
1660000,-0.004261,42.969627,-0.013673,-0.008429,26.149422,0.021378,0.004455,0.033748,1.571620,-0.065507,0.004126,0.006169,-0.000919,-0.008934,0.000051,0.000022,0.004417,0.008904,0.006193,0.210924,0.210847,0.151472,0.345464,0.000000,0.000000,0.000000,0.000000,0.000000,0.000000,0.000000,0.000000,0.000000,0.000000,0.000000,0.000000,0.009590,3,0
1670000,-0.004193,43.227863,-0.013009,-0.008205,26.148108,0.022092,0.004502,0.033273,1.571628,-0.065028,0.004147,0.006013,-0.000930,-0.008703,0.000050,0.001466,0.004346,-0.093922,0.016651,0.211135,0.211056,0.151195,0.344347,0.000000,0.000000,0.000000,0.000000,0.000000,0.000000,0.000000,0.000000,0.000000,0.000000,0.000000,0.000000,0.090711,3,0
1680000,-0.004124,43.488888,-0.012633,-0.007927,26.151903,0.022489,0.004545,0.033256,1.571626,-0.064956,0.004168,0.005953,-0.000940,-0.008667,0.000050,0.000041,0.004275,-0.014198,0.005896,0.211345,0.211264,0.150922,0.343262,0.000000,0.000000,0.000000,0.000000,0.000000,0.000000,0.000000,0.000000,0.000000,0.000000,0.000000,0.000000,0.014302,3,0
1690000,-0.004057,43.750580,-0.013792,-0.007721,26.156981,0.021049,0.004589,0.033359,1.571630,-0.064971,0.004191,0.006549,-0.000950,-0.008680,0.000050,0.000499,0.004204,0.003040,-0.055175,0.211555,0.211473,0.150652,0.342210,0.000000,0.000000,0.000000,0.000000,0.000000,0.000000,0.000000,0.000000,0.000000,0.000000,0.000000,0.000000,0.004996,3,0
1700000,-0.003989,44.011494,-0.014295,-0.007375,26.160343,0.020463,0.004640,0.033312,1.571632,-0.064871,0.004212,0.006867,-0.000960,-0.008633,0.000050,0.000203,0.004134,-0.020153,-0.028826,0.211765,0.211681,0.150387,0.341186,0.000000,0.000000,0.000000,0.000000,0.000000,0.000000,0.000000,0.000000,0.000000,0.000000,0.000000,0.000000,0.019856,3,0
1710000,-0.003919,44.268135,-0.014377,-0.007053,26.155706,0.020428,0.004689,0.032541,1.571650,-0.064180,0.004232,0.007051,-0.000970,-0.008280,0.000049,0.003272,0.004062,-0.141949,-0.013460,0.211974,0.211889,0.150126,0.340191,0.000000,0.000000,0.000000,0.000000,0.000000,0.000000,0.000000,0.000000,0.000000,0.000000,0.000000,0.000000,0.136996,3,0
1720000,-0.003848,44.529705,-0.014259,-0.006748,26.160234,0.020513,0.004742,0.032611,1.571666,-0.064175,0.004252,0.007090,-0.000980,-0.008277,0.000049,0.000005,0.003989,-0.000969,-0.003534,0.212183,0.212096,0.149868,0.339223,0.000000,0.000000,0.000000,0.000000,0.000000,0.000000,0.000000,0.000000,0.000000,0.000000,0.000000,0.000000,0.003960,3,0
