time_us,pos_x,pos_y,pos_z,vel_x,vel_y,vel_z,roll,pitch,yaw,bias_ax,bias_ay,bias_az,bias_gx,bias_gy,bias_gz,nis,innov_x,innov_y,innov_z,cov_pos_x,cov_pos_y,cov_pos_z,cov_yaw,des_speed,des_heading,des_climb,pid_speed,pid_yaw,pid_alt,speed_meas,yaw_meas,climb_meas,fwd_accel,yaw_rate,vert_accel,drift_m,nav_mode,mission_state
0,-0.000005,0.150000,0.000001,-0.000779,25.000006,0.000338,0.000009,0.000014,1.570779,0.000000,0.000000,0.000000,0.000000,0.000000,0.000000,0.006250,0.000008,-0.250003,-0.000003,2.400038,2.400038,3.600017,1.000518,0.000000,0.000000,0.000000,0.000000,0.000000,0.000000,0.000000,0.000000,0.000000,0.000000,0.000000,0.000000,0.150000,1,0
10000,-0.000015,0.353869,-0.005438,-0.001667,24.999969,0.000644,0.000005,0.000032,1.570758,0.000000,0.000000,0.000000,0.000000,0.000000,0.000000,0.003125,0.000021,-0.161456,-0.014522,1.714420,1.714420,2.250079,1.001073,0.000000,0.000000,0.000000,0.000000,0.000000,0.000000,0.000000,0.000000,0.000000,0.000000,0.000000,0.000000,0.115322,3,0
20000,-0.000031,0.553600,0.009851,-0.002502,24.999622,0.001127,0.000011,0.000046,1.570745,0.000002,0.000000,-0.000000,-0.000000,0.000000,-0.000000,0.007011,0.000040,-0.226172,0.056017,1.333616,1.333616,1.636554,1.001655,0.000000,0.000000,0.000000,0.000000,0.000000,0.000000,0.000000,0.000000,0.000000,0.000000,0.000000,0.000000,0.175901,3,0
30000,-0.000053,0.798448,0.014453,-0.003343,24.999809,0.001568,0.000025,0.000064,1.570727,0.000003,0.000000,-0.000001,-0.000000,0.000000,-0.000000,0.000169,0.000065,-0.028322,0.021399,1.091392,1.091392,1.286065,1.002257,0.000000,0.000000,0.000000,0.000000,0.000000,0.000000,0.000000,0.000000,0.000000,0.000000,0.000000,0.000000,0.023170,3,0
40000,-0.000080,1.027813,0.011932,-0.004181,24.999397,0.001868,0.000031,0.000081,1.570707,0.000007,0.000000,-0.000000,-0.000000,0.000000,-0.000000,0.002561,0.000095,-0.134018,-0.014389,0.923811,0.923811,1.059385,1.002869,0.000000,0.000000,0.000000,0.000000,0.000000,0.000000,0.000000,0.000000,0.000000,0.000000,0.000000,0.000000,0.113383,3,0
50000,-0.000113,1.269106,0.012407,-0.004995,24.999323,0.002058,0.000038,0.000091,1.570686,0.000010,0.000000,-0.000000,-0.000000,0.000000,-0.000000,0.000615,0.000130,-0.065196,0.003030,0.801036,0.801036,0.900822,1.003484,0.000000,0.000000,0.000000,0.000000,0.000000,0.000000,0.000000,0.000000,0.000000,0.000000,0.000000,0.000000,0.056492,3,0
60000,-0.000151,1.518124,0.014629,-0.005891,24.999599,0.002296,0.000051,0.000111,1.570674,0.000010,0.000000,-0.000001,-0.000000,0.000000,-0.000000,0.000051,0.000172,-0.008305,0.016840,0.707270,0.707270,0.783741,1.004094,0.000000,0.000000,0.000000,0.000000,0.000000,0.000000,0.000000,0.000000,0.000000,0.000000,0.000000,0.000000,0.007328,3,0
70000,-0.000195,1.761943,0.012716,-0.006636,24.999393,0.002343,0.000058,0.000134,1.570663,0.000015,0.000000,-0.000000,-0.000000,0.000000,-0.000000,0.000552,0.000218,-0.058535,-0.016754,0.633370,0.633370,0.693801,1.004688,0.000000,0.000000,0.000000,0.000000,0.000000,0.000000,0.000000,0.000000,0.000000,0.000000,0.000000,0.000000,0.052356,3,0
80000,-0.000243,2.017244,0.011162,-0.007420,25.000204,0.002582,0.000061,0.000159,1.570659,0.000009,0.000000,0.000001,-0.000000,0.000000,-0.000000,0.000498,0.000269,0.055467,-0.015238,0.573673,0.573673,0.622594,1.005260,0.000000,0.000000,0.000000,0.000000,0.000000,0.000000,0.000000,0.000000,0.000000,0.000000,0.000000,0.000000,0.050164,3,0
90000,-0.000297,2.267156,0.013549,-0.008155,25.000448,0.002933,0.000058,0.000184,1.570642,0.000009,0.000000,-0.000002,-0.000000,0.000000,-0.000000,0.000095,0.000325,-0.001052,0.025063,0.524488,0.524488,0.564865,1.005801,0.000000,0.000000,0.000000,0.000000,0.000000,0.000000,0.000000,0.000000,0.000000,0.000000,0.000000,0.000000,0.001004,3,0
100000,-0.000356,2.512961,0.015031,-0.009019,25.000307,0.003536,0.000058,0.000194,1.570633,0.000017,0.000000,-0.000004,-0.000000,0.000000,-0.000000,0.000460,0.000387,-0.052179,0.016809,0.483303,0.483303,0.517162,1.006302,0.000000,0.000000,0.000000,0.000000,0.000000,0.000000,0.000000,0.000000,0.000000,0.000000,0.000000,0.000000,0.047977,3,0
110000,-0.000419,2.761496,0.015213,-0.009758,25.000322,0.003909,0.000059,0.000206,1.570611,0.000021,0.000000,-0.000005,-0.000000,0.000000,-0.000000,0.000060,0.000453,-0.019676,0.001791,0.448354,0.448354,0.477121,1.006754,0.000000,0.000000,0.000000,0.000000,0.000000,0.000000,0.000000,0.000000,0.000000,0.000000,0.000000,0.000000,0.018210,3,0
120000,-0.000488,3.009435,0.012369,-0.010559,25.000366,0.004029,0.000062,0.000215,1.570589,0.000028,0.000000,0.000004,-0.000000,0.000000,-0.000000,0.000373,0.000525,-0.029666,-0.039105,0.418359,0.418359,0.443071,1.007150,0.000000,0.000000,0.000000,0.000000,0.000000,0.000000,0.000000,0.000000,0.000000,0.000000,0.000000,0.000000,0.027602,3,0
130000,-0.000562,3.264688,0.008369,-0.011320,25.001696,0.003499,0.000060,0.000231,1.570569,0.000007,0.000001,0.000018,-0.000000,-0.000000,0.000000,0.001535,0.000602,0.080216,-0.058606,0.392369,0.392369,0.413797,1.007482,0.000000,0.000000,0.000000,0.000000,0.000000,0.000000,0.000000,0.000000,0.000000,0.000000,0.000000,0.000000,0.074973,3,0
140000,-0.000641,3.512496,0.010477,-0.012024,25.001553,0.004176,0.000068,0.000245,1.570560,0.000018,0.000001,0.000009,-0.000000,0.000000,-0.000000,0.000361,0.000683,-0.035897,0.031976,0.369667,0.369667,0.388393,1.007740,0.000000,0.000000,0.000000,0.000000,0.000000,0.000000,0.000000,0.000000,0.000000,0.000000,0.000000,0.000000,0.033692,3,0
150000,-0.000723,3.764518,0.008139,-0.012737,25.002392,0.004160,0.000078,0.000262,1.570539,0.000006,0.000001,0.000022,-0.000000,-0.000000,0.000000,0.000424,0.000768,0.034358,-0.039077,0.349695,0.349695,0.366172,1.007916,0.000000,0.000000,0.000000,0.000000,0.000000,0.000000,0.000000,0.000000,0.000000,0.000000,0.000000,0.000000,0.032363,3,0
160000,-0.000810,4.016800,0.006792,-0.013446,25.003262,0.004060,0.000076,0.000290,1.570533,-0.000009,0.000001,0.000031,-0.000000,-0.000000,0.000000,0.000353,0.000858,0.040754,-0.024082,0.332021,0.332021,0.346600,1.008003,0.000000,0.000000,0.000000,0.000000,0.000000,0.000000,0.000000,0.000000,0.000000,0.000000,0.000000,0.000000,0.038507,3,0
170000,-0.000902,4.271404,0.008752,-0.014147,25.005001,0.005016,0.000090,0.000326,1.570522,-0.000046,0.000002,0.000016,-0.000000,-0.000001,0.000000,0.001377,0.000952,0.086647,0.034898,0.316298,0.316298,0.329260,1.007993,0.000000,0.000000,0.000000,0.000000,0.000000,0.000000,0.000000,0.000000,0.000000,0.000000,0.000000,0.000000,0.082084,3,0
180000,-0.000998,4.522008,0.007597,-0.014892,25.005547,0.005087,0.000089,0.000351,1.570502,-0.000052,0.000002,0.000027,-0.000000,-0.000001,0.000000,0.000103,0.001051,0.010935,-0.023112,0.302247,0.302247,0.313817,1.007877,0.000000,0.000000,0.000000,0.000000,0.000000,0.000000,0.000000,0.000000,0.000000,0.000000,0.000000,0.000000,0.010432,3,0
190000,-0.001099,4.773931,0.006247,-0.015646,25.006424,0.005052,0.000099,0.000363,1.570498,-0.000072,0.000003,0.000042,-0.000000,-0.000002,0.000000,0.000362,0.001155,0.038631,-0.028105,0.289642,0.289642,0.300003,1.007647,0.000000,0.000000,0.000000,0.000000,0.000000,0.000000,0.000000,0.000000,0.000000,0.000000,0.000000,0.000000,0.036783,3,0
200000,-0.001204,5.030703,0.004208,-0.016335,25.009438,0.004621,0.000112,0.000408,1.570492,-0.000156,0.000004,0.000067,-0.000000,-0.000004,0.000000,0.003622,0.001262,0.144519,-0.043660,0.278296,0.278297,0.287598,1.007297,0.000000,0.000000,0.000000,0.000000,0.000000,0.000000,0.000000,0.000000,0.000000,0.000000,0.000000,0.000000,0.137821,3,0
210000,-0.001314,5.285553,0.006305,-0.017074,25.011772,0.005673,0.000111,0.000454,1.570488,-0.000224,0.000004,0.000039,-0.000000,-0.000006,0.000000,0.002117,0.001375,0.106386,0.044457,0.268055,0.268055,0.276421,1.006819,0.000000,0.000000,0.000000,0.000000,0.000000,0.000000,0.000000,0.000000,0.000000,0.000000,0.000000,0.000000,0.101642,3,0
220000,-0.001427,5.541273,0.008087,-0.017780,25.014641,0.006769,0.000126,0.000492,1.570466,-0.000315,0.000005,0.000012,-0.000000,-0.000009,0.000000,0.002928,0.001492,0.129817,0.038794,0.258789,0.258789,0.266321,1.006205,0.000000,0.000000,0.000000,0.000000,0.000000,0.000000,0.000000,0.000000,0.000000,0.000000,0.000000,0.000000,0.124227,3,0
230000,-0.001547,5.796123,0.006224,-0.018629,25.017372,0.006137,0.000140,0.000533,1.570458,-0.000401,0.000007,0.000046,-0.000000,-0.000012,0.000000,0.002351,0.001614,0.112616,-0.045111,0.250388,0.250388,0.257172,1.005449,0.000000,0.000000,0.000000,0.000000,0.000000,0.000000,0.000000,0.000000,0.000000,0.000000,0.000000,0.000000,0.107927,3,0
240000,-0.001670,6.051000,0.006469,-0.019336,25.020193,0.006707,0.000139,0.000574,1.570436,-0.000497,0.000008,0.000042,-0.000000,-0.000015,0.000000,0.002161,0.001740,0.116165,0.004313,0.242758,0.242759,0.248866,1.004544,0.000000,0.000000,0.000000,0.000000,0.000000,0.000000,0.000000,0.000000,0.000000,0.000000,0.000000,0.000000,0.111477,3,0
250000,-0.001798,6.304347,0.005569,-0.020124,25.022390,0.006610,0.000145,0.000614,1.570430,-0.000568,0.000010,0.000064,-0.000000,-0.000018,0.000000,0.001117,0.001872,0.079926,-0.024144,0.235821,0.235822,0.241314,1.003484,0.000000,0.000000,0.000000,0.000000,0.000000,0.000000,0.000000,0.000000,0.000000,0.000000,0.000000,0.000000,0.076806,3,0
260000,-0.001929,6.558586,0.006683,-0.020770,25.025263,0.007345,0.000145,0.000653,1.570411,-0.000669,0.000012,0.000038,-0.000000,-0.000021,0.000000,0.001878,0.002006,0.104862,0.026770,0.229508,0.229508,0.234436,1.002262,0.000000,0.000000,0.000000,0.000000,0.000000,0.000000,0.000000,0.000000,0.000000,0.000000,0.000000,0.000000,0.100870,3,0
270000,-0.002066,6.813648,0.007736,-0.021565,25.028650,0.008372,0.000142,0.000702,1.570388,-0.000802,0.000014,0.000012,-0.000000,-0.000027,0.000000,0.002772,0.002146,0.128901,0.025650,0.223759,0.223759,0.228165,1.000873,0.000000,0.000000,0.000000,0.000000,0.000000,0.000000,0.000000,0.000000,0.000000,0.000000,0.000000,0.000000,0.124111,3,0
280000,-0.002206,7.066582,0.008114,-0.022309,25.030783,0.008974,0.000155,0.000745,1.570374,-0.000882,0.000016,0.000003,-0.000001,-0.000030,0.000000,0.000857,0.002289,0.072594,0.007827,0.218521,0.218521,0.222443,0.999311,0.000000,0.000000,0.000000,0.000000,0.000000,0.000000,0.000000,0.000000,0.000000,0.000000,0.000000,0.000000,0.069984,3,0
290000,-0.002350,7.318967,0.009625,-0.023037,25.032728,0.010095,0.000156,0.000791,1.570367,-0.000950,0.000019,-0.000042,-0.000001,-0.000033,0.000000,0.000792,0.002437,0.058184,0.039203,0.213750,0.213750,0.217219,0.997571,0.000000,0.000000,0.000000,0.000000,0.000000,0.000000,0.000000,0.000000,0.000000,0.000000,0.000000,0.000000,0.056160,3,0
300000,-0.002497,7.574314,0.007669,-0.023699,25.036924,0.009078,0.000165,0.000857,1.570343,-0.001131,0.000022,0.000030,-0.000001,-0.000040,0.000000,0.003868,0.002588,0.143722,-0.058216,0.209405,0.209406,0.212446,0.995649,0.000000,0.000000,0.000000,0.000000,0.000000,0.000000,0.000000,0.000000,0.000000,0.000000,0.000000,0.000000,0.138728,3,0
310000,-0.002648,7.828351,0.006726,-0.024353,25.040310,0.008687,0.000163,0.000925,1.570335,-0.001274,0.000026,0.000070,-0.000001,-0.000047,0.000000,0.001988,0.002742,0.107000,-0.029903,0.205451,0.205452,0.208087,0.993541,0.000000,0.000000,0.000000,0.000000,0.000000,0.000000,0.000000,0.000000,0.000000,0.000000,0.000000,0.000000,0.103370,3,0
320000,-0.002802,8.081835,0.005834,-0.025071,25.043217,0.008455,0.000166,0.000979,1.570316,-0.001403,0.000030,0.000110,-0.000001,-0.000053,0.000000,0.001484,0.002899,0.091477,-0.028951,0.201856,0.201856,0.204105,0.991242,0.000000,0.000000,0.000000,0.000000,0.000000,0.000000,0.000000,0.000000,0.000000,0.000000,0.000000,0.000000,0.088444,3,0
330000,-0.002959,8.334146,0.005002,-0.025794,25.045351,0.008218,0.000180,0.001032,1.570308,-0.001488,0.000035,0.000151,-0.000001,-0.000057,0.000000,0.000641,0.003061,0.056631,-0.027576,0.198592,0.198592,0.200469,0.988749,0.000000,0.000000,0.000000,0.000000,0.000000,0.000000,0.000000,0.000000,0.000000,0.000000,0.000000,0.000000,0.054837,3,0
340000,-0.003119,8.588593,0.005909,-0.026425,25.049437,0.009068,0.000187,0.001117,1.570290,-0.001682,0.000040,0.000112,-0.000002,-0.000066,0.000001,0.002517,0.003225,0.122362,0.025067,0.195633,0.195633,0.197151,0.986059,0.000000,0.000000,0.000000,0.000000,0.000000,0.000000,0.000000,0.000000,0.000000,0.000000,0.000000,0.000000,0.118414,3,0
350000,-0.003282,8.841872,0.006758,-0.027097,25.052410,0.010265,0.000199,0.001170,1.570269,-0.001826,0.000045,0.000073,-0.000002,-0.000074,0.000001,0.001297,0.003391,0.086544,0.023280,0.192956,0.192956,0.194125,0.983169,0.000000,0.000000,0.000000,0.000000,0.000000,0.000000,0.000000,0.000000,0.000000,0.000000,0.000000,0.000000,0.083826,3,0
360000,-0.003448,9.097836,0.005109,-0.027710,25.058270,0.009002,0.000204,0.001291,1.570244,-0.002126,0.000052,0.000169,-0.000002,-0.000089,0.000001,0.005219,0.003561,0.171174,-0.055039,0.190541,0.190541,0.191370,0.980079,0.000000,0.000000,0.000000,0.000000,0.000000,0.000000,0.000000,0.000000,0.000000,0.000000,0.000000,0.000000,0.165774,3,0
370000,-0.003615,9.350752,0.006089,-0.028300,25.061037,0.010295,0.000221,0.001356,1.570223,-0.002263,0.000058,0.000117,-0.000003,-0.000097,0.000001,0.001018,0.003732,0.074183,0.028129,0.188368,0.188369,0.188863,0.976786,0.000000,0.000000,0.000000,0.000000,0.000000,0.000000,0.000000,0.000000,0.000000,0.000000,0.000000,0.000000,0.071945,3,0
380000,-0.003785,9.603841,0.006038,-0.029028,25.064024,0.010405,0.000232,0.001418,1.570212,-0.002417,0.000066,0.000127,-0.000003,-0.000105,0.000001,0.001031,0.003906,0.079667,-0.005032,0.186421,0.186422,0.186586,0.973289,0.000000,0.000000,0.000000,0.000000,0.000000,0.000000,0.000000,0.000000,0.000000,0.000000,0.000000,0.000000,0.077284,3,0
390000,-0.003958,9.860161,0.005290,-0.029747,25.070768,0.009890,0.000233,0.001561,1.570187,-0.002790,0.000074,0.000183,-0.000003,-0.000126,0.000001,0.005618,0.004084,0.184367,-0.027803,0.184684,0.184684,0.184523,0.969588,0.000000,0.000000,0.000000,0.000000,0.000000,0.000000,0.000000,0.000000,0.000000,0.000000,0.000000,0.000000,0.178736,3,0
400000,-0.004134,10.114741,0.004904,-0.030436,25.075598,0.009900,0.000245,0.001659,1.570173,-0.003059,0.000083,0.000217,-0.000004,-0.000142,0.000001,0.002641,0.004264,0.126770,-0.016095,0.183141,0.183141,0.182656,0.965683,0.000000,0.000000,0.000000,0.000000,0.000000,0.000000,0.000000,0.000000,0.000000,0.000000,0.000000,0.000000,0.122970,3,0
410000,-0.004312,10.368253,0.004132,-0.031104,25.079260,0.009484,0.000246,0.001741,1.570167,-0.003259,0.000093,0.000281,-0.000004,-0.000154,0.000001,0.001473,0.004446,0.090808,-0.029077,0.181780,0.181780,0.180971,0.961574,0.000000,0.000000,0.000000,0.000000,0.000000,0.000000,0.000000,0.000000,0.000000,0.000000,0.000000,0.000000,0.088162,3,0
420000,-0.004492,10.624323,0.004032,-0.031746,25.086153,0.009738,0.000248,0.001902,1.570159,-0.003663,0.000103,0.000296,-0.000005,-0.000179,0.000001,0.004973,0.004631,0.175201,-0.006664,0.180588,0.180588,0.179456,0.957263,0.000000,0.000000,0.000000,0.000000,0.000000,0.000000,0.000000,0.000000,0.000000,0.000000,0.000000,0.000000,0.169988,3,0
430000,-0.004673,10.878120,0.003770,-0.032415,25.090258,0.009806,0.000266,0.001988,1.570150,-0.003898,0.000115,0.000325,-0.000006,-0.000194,0.000002,0.001580,0.004818,0.097973,-0.012260,0.179553,0.179553,0.178097,0.952752,0.000000,0.000000,0.000000,0.000000,0.000000,0.000000,0.000000,0.000000,0.000000,0.000000,0.000000,0.000000,0.095156,3,0
440000,-0.004856,11.132082,0.003944,-0.032950,25.094685,0.010115,0.000271,0.002081,1.570139,-0.004154,0.000127,0.000319,-0.000007,-0.000210,0.000002,0.001706,0.005005,0.102560,0.002506,0.178665,0.178665,0.176883,0.948042,0.000000,0.000000,0.000000,0.000000,0.000000,0.000000,0.000000,0.000000,0.000000,0.000000,0.000000,0.000000,0.099625,3,0
450000,-0.005038,11.389153,0.003709,-0.033428,25.103201,0.010201,0.000288,0.002285,1.570117,-0.004688,0.000141,0.000349,-0.000008,-0.000246,0.000002,0.006914,0.005192,0.206374,-0.011627,0.177913,0.177914,0.175803,0.943136,0.000000,0.000000,0.000000,0.000000,0.000000,0.000000,0.000000,0.000000,0.000000,0.000000,0.000000,0.000000,0.200318,3,0
460000,-0.005221,11.643976,0.004988,-0.034001,25.108757,0.012127,0.000308,0.002426,1.570102,-0.005033,0.000155,0.000240,-0.000009,-0.000269,0.000002,0.002922,0.005380,0.128128,0.040221,0.177289,0.177290,0.174847,0.938037,0.000000,0.000000,0.000000,0.000000,0.000000,0.000000,0.000000,0.000000,0.000000,0.000000,0.000000,0.000000,0.124452,3,0
470000,-0.005406,11.898364,0.004514,-0.034622,25.113894,0.011830,0.000328,0.002541,1.570083,-0.005344,0.000170,0.000298,-0.000010,-0.000291,0.000002,0.002096,0.005570,0.111795,-0.020657,0.176783,0.176783,0.174006,0.932749,0.000000,0.000000,0.000000,0.000000,0.000000,0.000000,0.000000,0.000000,0.000000,0.000000,0.000000,0.000000,0.108636,3,0
480000,-0.005590,12.155250,0.004520,-0.035184,25.122416,0.012138,0.000347,0.002744,1.570068,-0.005906,0.000187,0.000309,-0.000011,-0.000331,0.000003,0.006178,0.005760,0.195298,-0.004052,0.176386,0.176387,0.173272,0.927276,0.000000,0.000000,0.000000,0.000000,0.000000,0.000000,0.000000,0.000000,0.000000,0.000000,0.000000,0.000000,0.189639,3,0
490000,-0.005775,12.412253,0.004145,-0.035649,25.131102,0.011771,0.000350,0.002960,1.570050,-0.006492,0.000204,0.000361,-0.000012,-0.000374,0.000003,0.006317,0.005949,0.196754,-0.017338,0.176092,0.176093,0.172634,0.921623,0.000000,0.000000,0.000000,0.000000,0.000000,0.000000,0.000000,0.000000,0.000000,0.000000,0.000000,0.000000,0.191067,3,0
500000,-0.005958,12.669961,0.005004,-0.036057,25.140976,0.013167,0.000356,0.003200,1.570027,-0.007162,0.000223,0.000281,-0.000013,-0.000423,0.000003,0.007799,0.006138,0.217966,0.025725,0.175892,0.175893,0.172087,0.915794,0.000000,0.000000,0.000000,0.000000,0.000000,0.000000,0.000000,0.000000,0.000000,0.000000,0.000000,0.000000,0.211660,3,0
510000,-0.006142,12.926617,0.005788,-0.036646,25.149368,0.014182,0.000370,0.003408,1.570004,-0.007729,0.000243,0.000208,-0.000015,-0.000467,0.000004,0.005264,0.006327,0.178827,0.022766,0.175780,0.175781,0.171623,0.909795,0.000000,0.000000,0.000000,0.000000,0.000000,0.000000,0.000000,0.000000,0.000000,0.000000,0.000000,0.000000,0.173697,3,0
520000,-0.006325,13.182823,0.006993,-0.037141,25.157112,0.015869,0.000376,0.003606,1.569991,-0.008254,0.000264,0.000085,-0.000017,-0.000507,0.000004,0.004405,0.006516,0.160634,0.037154,0.175748,0.175749,0.171234,0.903632,0.000000,0.000000,0.000000,0.000000,0.000000,0.000000,0.000000,0.000000,0.000000,0.000000,0.000000,0.000000,0.156057,3,0
530000,-0.006508,13.438588,0.008247,-0.037682,25.164131,0.017651,0.000382,0.003789,1.569973,-0.008735,0.000286,-0.000045,-0.000019,-0.000546,0.000004,0.003549,0.006705,0.142899,0.038381,0.175791,0.175792,0.170915,0.897311,0.000000,0.000000,0.000000,0.000000,0.000000,0.000000,0.000000,0.000000,0.000000,0.000000,0.000000,0.000000,0.138865,3,0
540000,-0.006690,13.697415,0.009545,-0.038142,25.175795,0.019325,0.000391,0.004099,1.569946,-0.009583,0.000310,-0.000183,-0.000021,-0.000614,0.000005,0.009961,0.006892,0.244884,0.039396,0.175902,0.175904,0.170659,0.890837,0.000000,0.000000,0.000000,0.000000,0.000000,0.000000,0.000000,0.000000,0.000000,0.000000,0.000000,0.000000,0.237799,3,0
550000,-0.006871,13.952269,0.010039,-0.038524,25.181347,0.020211,0.000403,0.004253,1.569921,-0.009957,0.000335,-0.000221,-0.000023,-0.000645,0.000005,0.001817,0.007079,0.105213,0.010434,0.176077,0.176078,0.170460,0.884219,0.000000,0.000000,0.000000,0.000000,0.000000,0.000000,0.000000,0.000000,0.000000,0.000000,0.000000,0.000000,0.102356,3,0
560000,-0.007050,14.208453,0.009340,-0.038913,25.188978,0.019385,0.000420,0.004474,1.569894,-0.010499,0.000361,-0.000104,-0.000025,-0.000691,0.000006,0.003740,0.007263,0.148487,-0.031900,0.176308,0.176309,0.170314,0.877462,0.000000,0.000000,0.000000,0.000000,0.000000,0.000000,0.000000,0.000000,0.000000,0.000000,0.000000,0.000000,0.144296,3,0
570000,-0.007227,14.464201,0.009668,-0.039316,25.195950,0.019815,0.000437,0.004662,1.569870,-0.010989,0.000389,-0.000122,-0.000027,-0.000734,0.000006,0.002779,0.007447,0.130772,0.004675,0.176592,0.176593,0.170215,0.870575,0.000000,0.000000,0.000000,0.000000,0.000000,0.000000,0.000000,0.000000,0.000000,0.000000,0.000000,0.000000,0.127128,3,0
580000,-0.007403,14.724204,0.009559,-0.039692,25.209545,0.019570,0.000458,0.005068,1.569853,-0.012036,0.000418,-0.000080,-0.000030,-0.000826,0.000007,0.012043,0.007628,0.272535,-0.010869,0.176923,0.176924,0.170158,0.863564,0.000000,0.000000,0.000000,0.000000,0.000000,0.000000,0.000000,0.000000,0.000000,0.000000,0.000000,0.000000,0.264602,3,0
590000,-0.007577,14.981961,0.010238,-0.040131,25.219557,0.020543,0.000481,0.005363,1.569828,-0.012788,0.000449,-0.000149,-0.000033,-0.000893,0.000007,0.005976,0.007808,0.191303,0.016980,0.177297,0.177299,0.170138,0.856437,0.000000,0.000000,0.000000,0.000000,0.000000,0.000000,0.000000,0.000000,0.000000,0.000000,0.000000,0.000000,0.185805,3,0
600000,-0.007749,15.242205,0.008956,-0.040446,25.233591,0.018800,0.000499,0.005789,1.569797,-0.013881,0.000480,0.000065,-0.000035,-0.000993,0.000008,0.012369,0.007985,0.271389,-0.052555,0.177710,0.177711,0.170152,0.849203,0.000000,0.000000,0.000000,0.000000,0.000000,0.000000,0.000000,0.000000,0.000000,0.000000,0.000000,0.000000,0.263464,3,0
610000,-0.007921,15.500780,0.007767,-0.040899,25.244833,0.017039,0.000517,0.006137,1.569775,-0.014745,0.000514,0.000269,-0.000038,-0.001074,0.000009,0.007511,0.008162,0.209793,-0.048612,0.178156,0.178158,0.170196,0.841868,0.000000,0.000000,0.000000,0.000000,0.000000,0.000000,0.000000,0.000000,0.000000,0.000000,0.000000,0.000000,0.203718,3,0
620000,-0.008089,15.758886,0.008166,-0.041251,25.255249,0.017512,0.000530,0.006458,1.569744,-0.015542,0.000548,0.000233,-0.000042,-0.001150,0.000009,0.005838,0.008337,0.189651,0.008043,0.178633,0.178635,0.170265,0.834442,0.000000,0.000000,0.000000,0.000000,0.000000,0.000000,0.000000,0.000000,0.000000,0.000000,0.000000,0.000000,0.184182,3,0
630000,-0.008254,16.018305,0.007695,-0.041479,25.267708,0.016828,0.000543,0.006861,1.569722,-0.016528,0.000585,0.000333,-0.000045,-0.001246,0.000010,0.008622,0.008508,0.229626,-0.022818,0.179137,0.179138,0.170356,0.826932,0.000000,0.000000,0.000000,0.000000,0.000000,0.000000,0.000000,0.000000,0.000000,0.000000,0.000000,0.000000,0.222924,3,0
640000,-0.008417,16.276644,0.007316,-0.041835,25.278193,0.016363,0.000556,0.007195,1.569708,-0.017355,0.000622,0.000419,-0.000049,-0.001327,0.000011,0.005833,0.008677,0.188751,-0.019341,0.179664,0.179665,0.170466,0.819346,0.000000,0.000000,0.000000,0.000000,0.000000,0.000000,0.000000,0.000000,0.000000,0.000000,0.000000,0.000000,0.183293,3,0
650000,-0.008577,16.535704,0.006452,-0.042066,25.289911,0.014964,0.000585,0.007565,1.569680,-0.018287,0.000662,0.000583,-0.000053,-0.001421,0.000012,0.007260,0.008842,0.208609,-0.036167,0.180210,0.180212,0.170591,0.811692,0.000000,0.000000,0.000000,0.000000,0.000000,0.000000,0.000000,0.000000,0.000000,0.000000,0.000000,0.000000,0.202525,3,0
660000,-0.008734,16.796677,0.005122,-0.042334,25.304815,0.013184,0.000604,0.008056,1.569659,-0.019505,0.000702,0.000826,-0.000057,-0.001546,0.000013,0.012018,0.009005,0.267494,-0.052073,0.180774,0.180775,0.170730,0.803979,0.000000,0.000000,0.000000,0.000000,0.000000,0.000000,0.000000,0.000000,0.000000,0.000000,0.000000,0.000000,0.259581,3,0
670000,-0.008887,17.054737,0.004679,-0.042513,25.314587,0.012718,0.000627,0.008385,1.569636,-0.020272,0.000744,0.000922,-0.000061,-0.001626,0.000013,0.004502,0.009164,0.165403,-0.020297,0.181351,0.181353,0.170878,0.796215,0.000000,0.000000,0.000000,0.000000,0.000000,0.000000,0.000000,0.000000,0.000000,0.000000,0.000000,0.000000,0.160650,3,0
680000,-0.009036,17.312317,0.005900,-0.042730,25.323444,0.014636,0.000653,0.008676,1.569613,-0.020959,0.000788,0.000734,-0.000066,-0.001699,0.000014,0.003687,0.009320,0.145794,0.038319,0.181939,0.181941,0.171033,0.788407,0.000000,0.000000,0.000000,0.000000,0.000000,0.000000,0.000000,0.000000,0.000000,0.000000,0.000000,0.000000,0.141661,3,0
690000,-0.009183,17.570023,0.006399,-0.043002,25.332455,0.015393,0.000681,0.008989,1.569599,-0.021662,0.000833,0.000672,-0.000071,-0.001775,0.000014,0.003510,0.009471,0.146549,0.012306,0.182536,0.182538,0.171194,0.780564,0.000000,0.000000,0.000000,0.000000,0.000000,0.000000,0.000000,0.000000,0.000000,0.000000,0.000000,0.000000,0.142388,3,0
700000,-0.009326,17.826639,0.007369,-0.043176,25.339441,0.016997,0.000710,0.009234,1.569590,-0.022186,0.000880,0.000528,-0.000076,-0.001833,0.000015,0.002010,0.009620,0.107422,0.028437,0.183139,0.183141,0.171358,0.772693,0.000000,0.000000,0.000000,0.000000,0.000000,0.000000,0.000000,0.000000,0.000000,0.000000,0.000000,0.000000,0.104560,3,0
710000,-0.009467,18.084608,0.006482,-0.043423,25.348633,0.015702,0.000733,0.009562,1.569564,-0.022923,0.000928,0.000717,-0.000081,-0.001915,0.000016,0.003820,0.009765,0.148918,-0.037005,0.183746,0.183748,0.171522,0.764802,0.000000,0.000000,0.000000,0.000000,0.000000,0.000000,0.000000,0.000000,0.000000,0.000000,0.000000,0.000000,0.144668,3,0
720000,-0.009603,18.345140,0.007901,-0.043580,25.362286,0.017858,0.000753,0.010053,1.569534,-0.024073,0.000977,0.000484,-0.000087,-0.002046,0.000017,0.008787,0.009908,0.228798,0.044046,0.184355,0.184357,0.171686,0.756899,0.000000,0.000000,0.000000,0.000000,0.000000,0.000000,0.000000,0.000000,0.000000,0.000000,0.000000,0.000000,0.221975,3,0
730000,-0.009736,18.606375,0.008906,-0.043810,25.377003,0.019396,0.000780,0.010588,1.569501,-0.025330,0.001027,0.000329,-0.000093,-0.002192,0.000018,0.009961,0.010046,0.246435,0.028831,0.184964,0.184966,0.171847,0.748990,0.000000,0.000000,0.000000,0.000000,0.000000,0.000000,0.000000,0.000000,0.000000,0.000000,0.000000,0.000000,0.239037,3,0
740000,-0.009867,18.864618,0.007659,-0.044029,25.386398,0.017425,0.000801,0.010923,1.569481,-0.026075,0.001080,0.000600,-0.000099,-0.002280,0.000019,0.003779,0.010182,0.144083,-0.050278,0.185571,0.185573,0.172004,0.741084,0.000000,0.000000,0.000000,0.000000,0.000000,0.000000,0.000000,0.000000,0.000000,0.000000,0.000000,0.000000,0.139974,3,0
750000,-0.009995,19.124205,0.007393,-0.044135,25.397898,0.017071,0.000831,0.011352,1.569450,-0.027040,0.001134,0.000683,-0.000105,-0.002396,0.000019,0.005519,0.010314,0.183929,-0.015408,0.186175,0.186177,0.172155,0.733186,0.000000,0.000000,0.000000,0.000000,0.000000,0.000000,0.000000,0.000000,0.000000,0.000000,0.000000,0.000000,0.178503,3,0
760000,-0.010118,19.382030,0.006698,-0.044231,25.406309,0.016112,0.000854,0.011648,1.569426,-0.027693,0.001189,0.000850,-0.000112,-0.002476,0.000020,0.002609,0.010443,0.123016,-0.030204,0.186774,0.186776,0.172300,0.725305,0.000000,0.000000,0.000000,0.000000,0.000000,0.000000,0.000000,0.000000,0.000000,0.000000,0.000000,0.000000,0.119615,3,0
770000,-0.010237,19.640589,0.005860,-0.044275,25.415756,0.015040,0.000883,0.011996,1.569396,-0.028465,0.001245,0.001047,-0.000119,-0.002571,0.000021,0.003536,0.010567,0.143412,-0.034876,0.187367,0.187369,0.172436,0.717445,0.000000,0.000000,0.000000,0.000000,0.000000,0.000000,0.000000,0.000000,0.000000,0.000000,0.000000,0.000000,0.139310,3,0
780000,-0.010352,19.902363,0.006197,-0.044357,25.430855,0.015694,0.000909,0.012584,1.569371,-0.029785,0.001303,0.001007,-0.000126,-0.002738,0.000022,0.009525,0.010687,0.242579,0.006453,0.187953,0.187955,0.172564,0.709613,0.000000,0.000000,0.000000,0.000000,0.000000,0.000000,0.000000,0.000000,0.000000,0.000000,0.000000,0.000000,0.235208,3,0
790000,-0.010462,20.163578,0.007444,-0.044489,25.444782,0.017500,0.000934,0.013137,1.569350,-0.030991,0.001361,0.000783,-0.000134,-0.002892,0.000024,0.008008,0.010803,0.219198,0.037914,0.188530,0.188532,0.172681,0.701816,0.000000,0.000000,0.000000,0.000000,0.000000,0.000000,0.000000,0.000000,0.000000,0.000000,0.000000,0.000000,0.212568,3,0
800000,-0.010570,20.421101,0.008661,-0.044627,25.451927,0.019282,0.000961,0.013407,1.569331,-0.031530,0.001422,0.000567,-0.000142,-0.002963,0.000024,0.001749,0.010915,0.096998,0.036148,0.189098,0.189101,0.172788,0.694060,0.000000,0.000000,0.000000,0.000000,0.000000,0.000000,0.000000,0.000000,0.000000,0.000000,0.000000,0.000000,0.094534,3,0
810000,-0.010676,20.683130,0.007893,-0.044752,25.467012,0.018152,0.000986,0.014022,1.569312,-0.032864,0.001483,0.000764,-0.000150,-0.003140,0.000026,0.009264,0.011023,0.236980,-0.033358,0.189656,0.189658,0.172883,0.686349,0.000000,0.000000,0.000000,0.000000,0.000000,0.000000,0.000000,0.000000,0.000000,0.000000,0.000000,0.000000,0.229737,3,0
820000,-0.010777,20.941433,0.008136,-0.044763,25.475307,0.018651,0.001024,0.014335,1.569289,-0.033511,0.001546,0.000750,-0.000158,-0.003227,0.000026,0.002116,0.011129,0.113953,0.002046,0.190203,0.190206,0.172966,0.678689,0.000000,0.000000,0.000000,0.000000,0.000000,0.000000,0.000000,0.000000,0.000000,0.000000,0.000000,0.000000,0.110865,3,0
830000,-0.010874,21.201096,0.007931,-0.044812,25.485975,0.018435,0.001057,0.014752,1.569262,-0.034393,0.001610,0.000832,-0.000167,-0.003348,0.000027,0.003865,0.011231,0.153749,-0.013615,0.190739,0.190741,0.173036,0.671085,0.000000,0.000000,0.000000,0.000000,0.000000,0.000000,0.000000,0.000000,0.000000,0.000000,0.000000,0.000000,0.149258,3,0
840000,-0.010968,21.462734,0.008173,-0.044874,25.499893,0.018654,0.001099,0.015341,1.569243,-0.035621,0.001675,0.000816,-0.000176,-0.003518,0.000029,0.007276,0.011329,0.212044,0.002058,0.191263,0.191265,0.173093,0.663541,0.000000,0.000000,0.000000,0.000000,0.000000,0.000000,0.000000,0.000000,0.000000,0.000000,0.000000,0.000000,0.205577,3,0
850000,-0.011059,21.721249,0.007616,-0.044917,25.508179,0.017704,0.001132,0.015673,1.569231,-0.036260,0.001741,0.000977,-0.000185,-0.003609,0.000029,0.002056,0.011424,0.109297,-0.025766,0.191774,0.191776,0.173137,0.656063,0.000000,0.000000,0.000000,0.000000,0.000000,0.000000,0.000000,0.000000,0.000000,0.000000,0.000000,0.000000,0.106379,3,0
860000,-0.011147,21.981125,0.006583,-0.044945,25.518753,0.016053,0.001177,0.016104,1.569216,-0.037138,0.001809,0.001242,-0.000195,-0.003735,0.000031,0.003881,0.011515,0.148882,-0.041882,0.192272,0.192274,0.173167,0.648654,0.000000,0.000000,0.000000,0.000000,0.000000,0.000000,0.000000,0.000000,0.000000,0.000000,0.000000,0.000000,0.144540,3,0
870000,-0.011231,22.241707,0.006647,-0.045002,25.530485,0.016097,0.001215,0.016592,1.569195,-0.038131,0.001877,0.001260,-0.000205,-0.003880,0.000032,0.004533,0.011604,0.167204,-0.003314,0.192757,0.192759,0.173183,0.641319,0.000000,0.000000,0.000000,0.000000,0.000000,0.000000,0.000000,0.000000,0.000000,0.000000,0.000000,0.000000,0.162222,3,0
880000,-0.011310,22.502344,0.007718,-0.044970,25.542114,0.017666,0.001250,0.017096,1.569164,-0.039118,0.001947,0.001050,-0.000215,-0.004026,0.000033,0.004571,0.011687,0.164930,0.031569,0.193228,0.193230,0.173185,0.634060,0.000000,0.000000,0.000000,0.000000,0.000000,0.000000,0.000000,0.000000,0.000000,0.000000,0.000000,0.000000,0.160020,3,0
890000,-0.011387,22.765606,0.007891,-0.045049,25.558270,0.018116,0.001297,0.017801,1.569141,-0.040579,0.002017,0.001046,-0.000226,-0.004246,0.000035,0.009477,0.011767,0.242117,-0.000118,0.193687,0.193689,0.173172,0.626882,0.000000,0.000000,0.000000,0.000000,0.000000,0.000000,0.000000,0.000000,0.000000,0.000000,0.000000,0.000000,0.234577,3,0
900000,-0.011461,23.023739,0.007954,-0.044983,25.565081,0.018162,0.001337,0.018071,1.569132,-0.041053,0.002088,0.001072,-0.000237,-0.004319,0.000035,0.001009,0.011844,0.078089,-0.004116,0.194131,0.194133,0.173146,0.619787,0.000000,0.000000,0.000000,0.000000,0.000000,0.000000,0.000000,0.000000,0.000000,0.000000,0.000000,0.000000,0.076426,3,0
910000,-0.011529,23.284533,0.008629,-0.044860,25.576639,0.019279,0.001376,0.018576,1.569114,-0.042018,0.002160,0.000953,-0.000248,-0.004469,0.000037,0.004087,0.011916,0.157827,0.017055,0.194563,0.194564,0.173105,0.612779,0.000000,0.000000,0.000000,0.000000,0.000000,0.000000,0.000000,0.000000,0.000000,0.000000,0.000000,0.000000,0.153145,3,0
920000,-0.011596,23.546019,0.008258,-0.044902,25.589125,0.018767,0.001409,0.019131,1.569093,-0.043097,0.002234,0.001082,-0.000260,-0.004639,0.000038,0.005036,0.011985,0.175224,-0.019497,0.194981,0.194982,0.173050,0.605859,0.000000,0.000000,0.000000,0.000000,0.000000,0.000000,0.000000,0.000000,0.000000,0.000000,0.000000,0.000000,0.169925,3,0
930000,-0.011661,23.806244,0.006992,-0.044939,25.599222,0.016786,0.001448,0.019571,1.569081,-0.043917,0.002308,0.001427,-0.000271,-0.004771,0.000039,0.003255,0.012052,0.132278,-0.050373,0.195385,0.195386,0.172981,0.599032,0.000000,0.000000,0.000000,0.000000,0.000000,0.000000,0.000000,0.000000,0.000000,0.000000,0.000000,0.000000,0.128500,3,0
940000,-0.011723,24.069113,0.005672,-0.044914,25.613943,0.015031,0.001481,0.020252,1.569056,-0.045225,0.002383,0.001781,-0.000283,-0.004984,0.000041,0.007557,0.012117,0.209892,-0.051578,0.195776,0.195778,0.172898,0.592298,0.000000,0.000000,0.000000,0.000000,0.000000,0.000000,0.000000,0.000000,0.000000,0.000000,0.000000,0.000000,0.203381,3,0
950000,-0.011781,24.330042,0.004592,-0.044751,25.624968,0.013650,0.001526,0.020753,1.569036,-0.046137,0.002459,0.002077,-0.000295,-0.005135,0.000042,0.003740,0.012178,0.145668,-0.042712,0.196155,0.196156,0.172802,0.585660,0.000000,0.000000,0.000000,0.000000,0.000000,0.000000,0.000000,0.000000,0.000000,0.000000,0.000000,0.000000,0.141397,3,0
960000,-0.011833,24.589703,0.004914,-0.044643,25.633642,0.013995,0.001571,0.021123,1.569020,-0.046787,0.002535,0.002028,-0.000308,-0.005245,0.000043,0.001751,0.012234,0.103294,0.006506,0.196520,0.196521,0.172692,0.579120,0.000000,0.000000,0.000000,0.000000,0.000000,0.000000,0.000000,0.000000,0.000000,0.000000,0.000000,0.000000,0.100609,3,0
970000,-0.011882,24.851370,0.005448,-0.044551,25.645895,0.014946,0.001608,0.021689,1.568993,-0.047809,0.002612,0.001925,-0.000321,-0.005419,0.000044,0.004265,0.012286,0.161608,0.013729,0.196873,0.196874,0.172568,0.572679,0.000000,0.000000,0.000000,0.000000,0.000000,0.000000,0.000000,0.000000,0.000000,0.000000,0.000000,0.000000,0.156756,3,0
980000,-0.011927,25.113712,0.006681,-0.044397,25.659111,0.016689,0.001660,0.022305,1.568960,-0.048940,0.002689,0.001645,-0.000335,-0.005614,0.000046,0.005370,0.012334,0.178123,0.037828,0.197214,0.197215,0.172432,0.566339,0.000000,0.000000,0.000000,0.000000,0.000000,0.000000,0.000000,0.000000,0.000000,0.000000,0.000000,0.000000,0.172682,3,0
990000,-0.011969,25.374754,0.007515,-0.044353,25.669870,0.017842,0.001704,0.022804,1.568946,-0.049796,0.002768,0.001471,-0.000349,-0.005764,0.000047,0.003020,0.012378,0.134317,0.023290,0.197543,0.197543,0.172283,0.560101,0.000000,0.000000,0.000000,0.000000,0.000000,0.000000,0.000000,0.000000,0.000000,0.000000,0.000000,0.000000,0.130446,3,0
1000000,-0.012011,25.633202,0.006835,-0.044337,25.675980,0.016708,0.001741,0.023052,1.568924,-0.050130,0.002847,0.001689,-0.000363,-0.005824,0.000048,0.000606,0.012420,0.052076,-0.029880,0.197860,0.197861,0.172122,0.553965,0.000000,0.000000,0.000000,0.000000,0.000000,0.000000,0.000000,0.000000,0.000000,0.000000,0.000000,0.000000,0.051770,3,0
1010000,-0.012049,25.893021,0.007533,-0.044258,25.684443,0.017825,0.001781,0.023412,1.568905,-0.050720,0.002927,0.001549,-0.000377,-0.005931,0.000049,0.001437,0.012461,0.091751,0.018480,0.198167,0.198167,0.171949,0.547933,0.000000,0.000000,0.000000,0.000000,0.000000,0.000000,0.000000,0.000000,0.000000,0.000000,0.000000,0.000000,0.089537,3,0
1020000,-0.012082,26.152224,0.008375,-0.044053,25.691692,0.019204,0.001821,0.023720,1.568896,-0.051173,0.003007,0.001373,-0.000392,-0.006014,0.000049,0.000910,0.012497,0.070395,0.023120,0.198462,0.198462,0.171764,0.542005,0.000000,0.000000,0.000000,0.000000,0.000000,0.000000,0.000000,0.000000,0.000000,0.000000,0.000000,0.000000,0.069132,3,0
1030000,-0.012114,26.413450,0.007578,-0.043852,25.702257,0.017960,0.001875,0.024221,1.568878,-0.052010,0.003087,0.001628,-0.000407,-0.006170,0.000051,0.002907,0.012528,0.129183,-0.034478,0.198747,0.198747,0.171567,0.536182,0.000000,0.000000,0.000000,0.000000,0.000000,0.000000,0.000000,0.000000,0.000000,0.000000,0.000000,0.000000,0.125489,3,0
1040000,-0.012145,26.674036,0.006266,-0.043806,25.711699,0.016297,0.001917,0.024666,1.568857,-0.052702,0.003169,0.002022,-0.000422,-0.006302,0.000052,0.002291,0.012560,0.106394,-0.052236,0.199023,0.199022,0.171360,0.530464,0.000000,0.000000,0.000000,0.000000,0.000000,0.000000,0.000000,0.000000,0.000000,0.000000,0.000000,0.000000,0.103578,3,0
1050000,-0.012171,26.935305,0.006303,-0.043729,25.722178,0.016227,0.001971,0.025172,1.568836,-0.053510,0.003250,0.002049,-0.000438,-0.006457,0.000053,0.002507,0.012590,0.124022,-0.004265,0.199288,0.199287,0.171142,0.524852,0.000000,0.000000,0.000000,0.000000,0.000000,0.000000,0.000000,0.000000,0.000000,0.000000,0.000000,0.000000,0.120518,3,0
1060000,-0.012195,27.197906,0.006572,-0.043616,25.734859,0.016504,0.002023,0.025811,1.568803,-0.054559,0.003332,0.002012,-0.000454,-0.006662,0.000055,0.004196,0.012615,0.160831,0.003931,0.199545,0.199544,0.170914,0.519345,0.000000,0.000000,0.000000,0.000000,0.000000,0.000000,0.000000,0.000000,0.000000,0.000000,0.000000,0.000000,0.155961,3,0
1070000,-0.012216,27.461824,0.006692,-0.043426,25.749676,0.016649,0.002074,0.026586,1.568773,-0.055842,0.003413,0.002013,-0.000470,-0.006916,0.000057,0.006234,0.012637,0.196285,-0.001341,0.199793,0.199792,0.170677,0.513943,0.000000,0.000000,0.000000,0.000000,0.000000,0.000000,0.000000,0.000000,0.000000,0.000000,0.000000,0.000000,0.190142,3,0
1080000,-0.012235,27.725052,0.005832,-0.043245,25.763245,0.015440,0.002129,0.027272,1.568748,-0.056962,0.003496,0.002287,-0.000486,-0.007141,0.000059,0.004933,0.012656,0.170763,-0.035920,0.200033,0.200031,0.170429,0.508647,0.000000,0.000000,0.000000,0.000000,0.000000,0.000000,0.000000,0.000000,0.000000,0.000000,0.000000,0.000000,0.165520,3,0
1090000,-0.012248,27.986261,0.007005,-0.042982,25.772966,0.017149,0.002178,0.027742,1.568719,-0.057658,0.003578,0.001997,-0.000503,-0.007283,0.000060,0.002052,0.012672,0.106190,0.035989,0.200266,0.200263,0.170173,0.503455,0.000000,0.000000,0.000000,0.000000,0.000000,0.000000,0.000000,0.000000,0.000000,0.000000,0.000000,0.000000,0.103376,3,0
1100000,-0.012258,28.246149,0.007704,-0.042679,25.780212,0.017982,0.002239,0.028058,1.568707,-0.058075,0.003660,0.001845,-0.000521,-0.007369,0.000061,0.000733,0.012682,0.063551,0.018677,0.200491,0.200488,0.169909,0.498368,0.000000,0.000000,0.000000,0.000000,0.000000,0.000000,0.000000,0.000000,0.000000,0.000000,0.000000,0.000000,0.062639,3,0
1110000,-0.012267,28.504734,0.007168,-0.042568,25.785194,0.017173,0.002302,0.028232,1.568689,-0.058223,0.003744,0.002048,-0.000538,-0.007400,0.000061,0.000210,0.012691,0.022257,-0.025345,0.200709,0.200706,0.169636,0.493385,0.000000,0.000000,0.000000,0.000000,0.000000,0.000000,0.000000,0.000000,0.000000,0.000000,0.000000,0.000000,0.024763,3,0
1120000,-0.012274,28.766024,0.006968,-0.042422,25.794758,0.017043,0.002358,0.028689,1.568660,-0.058892,0.003827,0.002148,-0.000555,-0.007543,0.000062,0.001715,0.012699,0.101564,-0.013097,0.200921,0.200917,0.169356,0.488505,0.000000,0.000000,0.000000,0.000000,0.000000,0.000000,0.000000,0.000000,0.000000,0.000000,0.000000,0.000000,0.098926,3,0
1130000,-0.012277,29.027313,0.007005,-0.042134,25.804310,0.016893,0.002417,0.029143,1.568637,-0.059543,0.003911,0.002179,-0.000573,-0.007684,0.000064,0.001595,0.012703,0.098604,-0.004554,0.201127,0.201123,0.169068,0.483729,0.000000,0.000000,0.000000,0.000000,0.000000,0.000000,0.000000,0.000000,0.000000,0.000000,0.000000,0.000000,0.096086,3,0
1140000,-0.012278,29.286602,0.006736,-0.041855,25.810175,0.016372,0.002475,0.029370,1.568614,-0.059781,0.003995,0.002305,-0.000592,-0.007737,0.000064,0.000274,0.012703,0.036009,-0.015546,0.201327,0.201323,0.168773,0.479054,0.000000,0.000000,0.000000,0.000000,0.000000,0.000000,0.000000,0.000000,0.000000,0.000000,0.000000,0.000000,0.036902,3,0
1150000,-0.012274,29.547920,0.007798,-0.041662,25.819454,0.017806,0.002532,0.029831,1.568599,-0.060405,0.004077,0.002034,-0.000611,-0.007875,0.000065,0.001638,0.012702,0.094723,0.032109,0.201523,0.201518,0.168472,0.474480,0.000000,0.000000,0.000000,0.000000,0.000000,0.000000,0.000000,0.000000,0.000000,0.000000,0.000000,0.000000,0.092362,3,0
1160000,-0.012269,29.809238,0.007397,-0.041402,25.828608,0.017160,0.002589,0.030282,1.568574,-0.061012,0.004161,0.002199,-0.000629,-0.008012,0.000067,0.001450,0.012695,0.091740,-0.020511,0.201714,0.201708,0.168164,0.470006,0.000000,0.000000,0.000000,0.000000,0.000000,0.000000,0.000000,0.000000,0.000000,0.000000,0.000000,0.000000,0.089499,3,0
1170000,-0.012262,30.069214,0.007276,-0.041200,25.835400,0.017052,0.002645,0.030573,1.568565,-0.061336,0.004244,0.002283,-0.000648,-0.008087,0.000067,0.000430,0.012689,0.048992,-0.010456,0.201900,0.201894,0.167851,0.465631,0.000000,0.000000,0.000000,0.000000,0.000000,0.000000,0.000000,0.000000,0.000000,0.000000,0.000000,0.000000,0.048905,3,0
1180000,-0.012251,30.331209,0.007800,-0.040849,25.845585,0.017723,0.002716,0.031096,1.568540,-0.062042,0.004327,0.002167,-0.000668,-0.008251,0.000069,0.001897,0.012678,0.107014,0.012847,0.202083,0.202076,0.167533,0.461355,0.000000,0.000000,0.000000,0.000000,0.000000,0.000000,0.000000,0.000000,0.000000,0.000000,0.000000,0.000000,0.104134,3,0
1190000,-0.012236,30.591845,0.008801,-0.040646,25.853323,0.018864,0.002781,0.031440,1.568519,-0.062461,0.004410,0.001911,-0.000688,-0.008349,0.000070,0.000820,0.012665,0.063583,0.029718,0.202262,0.202255,0.167209,0.457176,0.000000,0.000000,0.000000,0.000000,0.000000,0.000000,0.000000,0.000000,0.000000,0.000000,0.000000,0.000000,0.062650,3,0
1200000,-0.012221,30.855841,0.008581,-0.040278,25.866957,0.018458,0.002838,0.032194,1.568486,-0.063521,0.004492,0.002022,-0.000707,-0.008603,0.000072,0.004217,0.012647,0.160692,-0.014330,0.202439,0.202431,0.166881,0.453093,0.000000,0.000000,0.000000,0.000000,0.000000,0.000000,0.000000,0.000000,0.000000,0.000000,0.000000,0.000000,0.155750,3,0
1210000,-0.012202,31.119781,0.009092,-0.040066,25.880224,0.019167,0.002896,0.032932,1.568457,-0.064542,0.004574,0.001906,-0.000727,-0.008851,0.000074,0.003918,0.012629,0.154984,0.012101,0.202612,0.202604,0.166549,0.449105,0.000000,0.000000,0.000000,0.000000,0.000000,0.000000,0.000000,0.000000,0.000000,0.000000,0.000000,0.000000,0.150248,3,0
1220000,-0.012181,31.383003,0.008788,-0.039680,25.892189,0.018622,0.002952,0.033567,1.568431,-0.065395,0.004657,0.002047,-0.000748,-0.009062,0.000076,0.002774,0.012606,0.129456,-0.017559,0.202784,0.202775,0.166213,0.445211,0.000000,0.000000,0.000000,0.000000,0.000000,0.000000,0.000000,0.000000,0.000000,0.000000,0.000000,0.000000,0.125670,3,0
1230000,-0.012156,31.646851,0.008959,-0.039379,25.904985,0.018831,0.003022,0.034272,1.568402,-0.066345,0.004738,0.002037,-0.000768,-0.009299,0.000078,0.003384,0.012582,0.144423,-0.000199,0.202953,0.202944,0.165873,0.441409,0.000000,0.000000,0.000000,0.000000,0.000000,0.000000,0.000000,0.000000,0.000000,0.000000,0.000000,0.000000,0.140066,3,0
1240000,-0.012128,31.908625,0.009687,-0.038994,25.914125,0.019771,0.003080,0.034706,1.568388,-0.066865,0.004820,0.001859,-0.000789,-0.009431,0.000079,0.001099,0.012554,0.079233,0.019705,0.203121,0.203111,0.165530,0.437699,0.000000,0.000000,0.000000,0.000000,0.000000,0.000000,0.000000,0.000000,0.000000,0.000000,0.000000,0.000000,0.077508,3,0
1250000,-0.012096,32.169025,0.010577,-0.038617,25.920689,0.020812,0.003141,0.034960,1.568374,-0.067100,0.004901,0.001634,-0.000811,-0.009491,0.000079,0.000337,0.012521,0.036037,0.025210,0.203288,0.203276,0.165184,0.434079,0.000000,0.000000,0.000000,0.000000,0.000000,0.000000,0.000000,0.000000,0.000000,0.000000,0.000000,0.000000,0.036862,3,0
1260000,-0.012064,32.432129,0.009804,-0.038231,25.931927,0.019865,0.003202,0.035558,1.568346,-0.067844,0.004983,0.001938,-0.000831,-0.009686,0.000081,0.002303,0.012486,0.113510,-0.035450,0.203453,0.203441,0.164835,0.430547,0.000000,0.000000,0.000000,0.000000,0.000000,0.000000,0.000000,0.000000,0.000000,0.000000,0.000000,0.000000,0.110319,3,0
1270000,-0.012030,32.694508,0.009161,-0.037961,25.941643,0.019163,0.003276,0.036049,1.568329,-0.068426,0.005064,0.002201,-0.000852,-0.009841,0.000082,0.001447,0.012451,0.088844,-0.030522,0.203618,0.203605,0.164485,0.427101,0.000000,0.000000,0.000000,0.000000,0.000000,0.000000,0.000000,0.000000,0.000000,0.000000,0.000000,0.000000,0.086666,3,0
1280000,-0.011991,32.958199,0.009367,-0.037566,25.953659,0.019498,0.003345,0.036709,1.568304,-0.069238,0.005144,0.002182,-0.000874,-0.010059,0.000084,0.002523,0.012413,0.124550,0.000840,0.203783,0.203769,0.164132,0.423742,0.000000,0.000000,0.000000,0.000000,0.000000,0.000000,0.000000,0.000000,0.000000,0.000000,0.000000,0.000000,0.120915,3,0
1290000,-0.011953,33.217106,0.008402,-0.037325,25.957104,0.018298,0.003404,0.036744,1.568285,-0.069110,0.005226,0.002568,-0.000895,-0.010025,0.000084,0.000384,0.012372,-0.019989,-0.042681,0.203947,0.203932,0.163778,0.420467,0.000000,0.000000,0.000000,0.000000,0.000000,0.000000,0.000000,0.000000,0.000000,0.000000,0.000000,0.000000,0.022714,3,0
1300000,-0.011910,33.478729,0.009052,-0.036995,25.965252,0.018888,0.003467,0.037115,1.568259,-0.069492,0.005305,0.002405,-0.000918,-0.010130,0.000085,0.000634,0.012331,0.059010,0.017338,0.204112,0.204096,0.163422,0.417275,0.000000,0.000000,0.000000,0.000000,0.000000,0.000000,0.000000,0.000000,0.000000,0.000000,0.000000,0.000000,0.058234,3,0
1310000,-0.011865,33.736938,0.009253,-0.036563,25.967134,0.019158,0.003542,0.037030,1.568247,-0.069210,0.005385,0.002408,-0.000940,-0.010051,0.000085,0.000331,0.012283,-0.043663,0.000140,0.204276,0.204260,0.163065,0.414163,0.000000,0.000000,0.000000,0.000000,0.000000,0.000000,0.000000,0.000000,0.000000,0.000000,0.000000,0.000000,0.043813,3,0
1320000,-0.011819,33.997215,0.008414,-0.036116,25.972834,0.018160,0.003612,0.037221,1.568230,-0.069316,0.005464,0.002755,-0.000962,-0.010082,0.000085,0.000301,0.012234,0.016167,-0.038057,0.204441,0.204424,0.162708,0.411132,0.000000,0.000000,0.000000,0.000000,0.000000,0.000000,0.000000,0.000000,0.000000,0.000000,0.000000,0.000000,0.019579,3,0
1330000,-0.011770,34.255447,0.007115,-0.035698,25.974630,0.016388,0.003685,0.037132,1.568224,-0.069027,0.005545,0.003266,-0.000984,-0.010000,0.000085,0.000846,0.012183,-0.045376,-0.054985,0.204607,0.204589,0.162350,0.408179,0.000000,0.000000,0.000000,0.000000,0.000000,0.000000,0.000000,0.000000,0.000000,0.000000,0.000000,0.000000,0.045387,3,0
1340000,-0.011716,34.517086,0.007929,-0.035304,25.982552,0.017524,0.003755,0.037493,1.568208,-0.069373,0.005621,0.003036,-0.001007,-0.010101,0.000086,0.000591,0.012131,0.054195,0.024182,0.204774,0.204754,0.161992,0.405303,0.000000,0.000000,0.000000,0.000000,0.000000,0.000000,0.000000,0.000000,0.000000,0.000000,0.000000,0.000000,0.053644,3,0
1350000,-0.011658,34.776657,0.008855,-0.034878,25.986563,0.018731,0.003835,0.037573,1.568205,-0.069316,0.005697,0.002780,-0.001030,-0.010083,0.000086,0.000160,0.012072,-0.008732,0.027719,0.204942,0.204921,0.161633,0.402501,0.000000,0.000000,0.000000,0.000000,0.000000,0.000000,0.000000,0.000000,0.000000,0.000000,0.000000,0.000000,0.014387,3,0
1360000,-0.011598,35.037582,0.010138,-0.034519,25.992966,0.020100,0.003916,0.037818,1.568196,-0.069504,0.005772,0.002394,-0.001054,-0.010139,0.000086,0.000438,0.012011,0.029839,0.040901,0.205110,0.205089,0.161275,0.399774,0.000000,0.000000,0.000000,0.000000,0.000000,0.000000,0.000000,0.000000,0.000000,0.000000,0.000000,0.000000,0.031070,3,0
1370000,-0.011537,35.299850,0.010254,-0.034082,26.001760,0.020183,0.003989,0.038246,1.568179,-0.069929,0.005848,0.002414,-0.001077,-0.010269,0.000087,0.000748,0.011946,0.067032,-0.002942,0.205281,0.205258,0.160917,0.397120,0.000000,0.000000,0.000000,0.000000,0.000000,0.000000,0.000000,0.000000,0.000000,0.000000,0.000000,0.000000,0.065759,3,0
1380000,-0.011474,35.560028,0.011290,-0.033740,26.006653,0.021391,0.004058,0.038373,1.568161,-0.069949,0.005922,0.002120,-0.001100,-0.010274,0.000088,0.000182,0.011882,0.003468,0.031102,0.205452,0.205428,0.160560,0.394537,0.000000,0.000000,0.000000,0.000000,0.000000,0.000000,0.000000,0.000000,0.000000,0.000000,0.000000,0.000000,0.011954,3,0
1390000,-0.011411,35.818836,0.011190,-0.033394,26.009035,0.021368,0.004124,0.038306,1.568158,-0.069711,0.005997,0.002240,-0.001124,-0.010199,0.000087,0.000280,0.011815,-0.038094,-0.012106,0.205625,0.205600,0.160204,0.392024,0.000000,0.000000,0.000000,0.000000,0.000000,0.000000,0.000000,0.000000,0.000000,0.000000,0.000000,0.000000,0.038518,3,0
1400000,-0.011347,36.080391,0.010123,-0.032997,26.016380,0.020122,0.004191,0.038628,1.568135,-0.069970,0.006071,0.002692,-0.001146,-0.010284,0.000088,0.000667,0.011748,0.041016,-0.047998,0.205800,0.205773,0.159849,0.389579,0.000000,0.000000,0.000000,0.000000,0.000000,0.000000,0.000000,0.000000,0.000000,0.000000,0.000000,0.000000,0.041194,3,0
1410000,-0.011280,36.341904,0.009724,-0.032584,26.023422,0.019492,0.004264,0.038939,1.568111,-0.070206,0.006144,0.002902,-0.001170,-0.010361,0.000089,0.000334,0.011680,0.037815,-0.022414,0.205976,0.205949,0.159495,0.387200,0.000000,0.000000,0.000000,0.000000,0.000000,0.000000,0.000000,0.000000,0.000000,0.000000,0.000000,0.000000,0.038217,3,0
1420000,-0.011211,36.602695,0.009899,-0.032273,26.029217,0.019489,0.004338,0.039129,1.568089,-0.070298,0.006216,0.002907,-0.001193,-0.010391,0.000089,0.000057,0.011610,0.014774,-0.000697,0.206155,0.206125,0.159142,0.384888,0.000000,0.000000,0.000000,0.000000,0.000000,0.000000,0.000000,0.000000,0.000000,0.000000,0.000000,0.000000,0.018145,3,0
1430000,-0.011142,36.862785,0.008968,-0.031822,26.033613,0.018358,0.004420,0.039217,1.568085,-0.070254,0.006289,0.003322,-0.001217,-0.010378,0.000090,0.000327,0.011537,-0.007526,-0.042718,0.206334,0.206304,0.158791,0.382639,0.000000,0.000000,0.000000,0.000000,0.000000,0.000000,0.000000,0.000000,0.000000,0.000000,0.000000,0.000000,0.013307,3,0
1440000,-0.011068,37.120796,0.009422,-0.031370,26.034201,0.019097,0.004488,0.038990,1.568077,-0.069831,0.006359,0.003239,-0.001241,-0.010235,0.000089,0.000799,0.011463,-0.068871,0.009635,0.206516,0.206485,0.158442,0.380452,0.000000,0.000000,0.000000,0.000000,0.000000,0.000000,0.000000,0.000000,0.000000,0.000000,0.000000,0.000000,0.067413,3,0
1450000,-0.010993,37.383629,0.008887,-0.030892,26.043512,0.018313,0.004553,0.039463,1.568064,-0.070264,0.006429,0.003493,-0.001264,-0.010384,0.000090,0.000944,0.011384,0.070690,-0.027138,0.206700,0.206667,0.158095,0.378327,0.000000,0.000000,0.000000,0.000000,0.000000,0.000000,0.000000,0.000000,0.000000,0.000000,0.000000,0.000000,0.069128,3,0
1460000,-0.010913,37.647072,0.009905,-0.030406,26.053707,0.019441,0.004620,0.040030,1.568050,-0.070784,0.006495,0.003163,-0.001288,-0.010564,0.000092,0.001382,0.011304,0.086071,0.032277,0.206886,0.206851,0.157750,0.376261,0.000000,0.000000,0.000000,0.000000,0.000000,0.000000,0.000000,0.000000,0.000000,0.000000,0.000000,0.000000,0.083824,3,0
1470000,-0.010833,37.909081,0.010038,-0.030044,26.061199,0.019608,0.004693,0.040358,1.568034,-0.071032,0.006563,0.003178,-0.001312,-0.010652,0.000092,0.000294,0.011220,0.041191,-0.002202,0.207073,0.207037,0.157407,0.374253,0.000000,0.000000,0.000000,0.000000,0.000000,0.000000,0.000000,0.000000,0.000000,0.000000,0.000000,0.000000,0.041217,3,0
1480000,-0.010754,38.171051,0.008850,-0.029612,26.068613,0.018150,0.004768,0.040680,1.568009,-0.071259,0.006631,0.003695,-0.001335,-0.010736,0.000093,0.000697,0.011136,0.037533,-0.052691,0.207262,0.207225,0.157066,0.372303,0.000000,0.000000,0.000000,0.000000,0.000000,0.000000,0.000000,0.000000,0.000000,0.000000,0.000000,0.000000,0.037787,3,0
1490000,-0.010673,38.430222,0.007687,-0.029169,26.070749,0.016650,0.004848,0.040580,1.567991,-0.070991,0.006699,0.004220,-0.001358,-0.010641,0.000093,0.000791,0.011053,-0.045601,-0.051885,0.207454,0.207415,0.156728,0.370408,0.000000,0.000000,0.000000,0.000000,0.000000,0.000000,0.000000,0.000000,0.000000,0.000000,0.000000,0.000000,0.045312,3,0
1500000,-0.010586,38.692806,0.008640,-0.028700,26.079107,0.017703,0.004928,0.040971,1.567966,-0.071303,0.006762,0.003905,-0.001383,-0.010755,0.000094,0.000623,0.010967,0.053028,0.030521,0.207647,0.207607,0.156393,0.368568,0.000000,0.000000,0.000000,0.000000,0.000000,0.000000,0.000000,0.000000,0.000000,0.000000,0.000000,0.000000,0.052284,3,0
1510000,-0.010500,38.953968,0.007798,-0.028188,26.084677,0.016562,0.005007,0.041153,1.567947,-0.071358,0.006827,0.004298,-0.001406,-0.010777,0.000094,0.000281,0.010875,0.009029,-0.039171,0.207842,0.207800,0.156060,0.366779,0.000000,0.000000,0.000000,0.000000,0.000000,0.000000,0.000000,0.000000,0.000000,0.000000,0.000000,0.000000,0.013642,3,0
1520000,-0.010413,39.211647,0.006960,-0.027772,26.083952,0.015634,0.005090,0.040776,1.567948,-0.070817,0.006893,0.004714,-0.001430,-0.010573,0.000093,0.001669,0.010785,-0.093159,-0.039554,0.208038,0.207995,0.155731,0.365043,0.000000,0.000000,0.000000,0.000000,0.000000,0.000000,0.000000,0.000000,0.000000,0.000000,0.000000,0.000000,0.090540,3,0
1530000,-0.010320,39.473461,0.007972,-0.027328,26.090586,0.016982,0.005171,0.041030,1.567925,-0.070971,0.006953,0.004373,-0.001454,-0.010631,0.000094,0.000313,0.010693,0.026871,0.033111,0.208236,0.208191,0.155404,0.363357,0.000000,0.000000,0.000000,0.000000,0.000000,0.000000,0.000000,0.000000,0.000000,0.000000,0.000000,0.000000,0.027925,3,0
1540000,-0.010226,39.736610,0.008222,-0.026782,26.099575,0.017312,0.005239,0.041486,1.567900,-0.071333,0.007013,0.004326,-0.001478,-0.010773,0.000095,0.000662,0.010595,0.063175,0.003518,0.208436,0.208390,0.155080,0.361718,0.000000,0.000000,0.000000,0.000000,0.000000,0.000000,0.000000,0.000000,0.000000,0.000000,0.000000,0.000000,0.061833,3,0
1550000,-0.010130,39.996914,0.009220,-0.026334,26.103306,0.018337,0.005316,0.041489,1.567892,-0.071211,0.007072,0.004005,-0.001502,-0.010723,0.000095,0.000254,0.010496,-0.021156,0.031779,0.208638,0.208589,0.154760,0.360129,0.000000,0.000000,0.000000,0.000000,0.000000,0.000000,0.000000,0.000000,0.000000,0.000000,0.000000,0.000000,0.022788,3,0
1560000,-0.010033,40.255116,0.009905,-0.025953,26.103125,0.019328,0.005394,0.041144,1.567874,-0.070743,0.007131,0.003831,-0.001526,-0.010532,0.000094,0.001174,0.010396,-0.082710,0.018561,0.208841,0.208791,0.154442,0.358586,0.000000,0.000000,0.000000,0.000000,0.000000,0.000000,0.000000,0.000000,0.000000,0.000000,0.000000,0.000000,0.080454,3,0
1570000,-0.009936,40.518173,0.010063,-0.025524,26.111757,0.019436,0.005474,0.041586,1.567863,-0.071061,0.007188,0.003829,-0.001550,-0.010663,0.000095,0.000534,0.010295,0.056671,-0.000925,0.209045,0.208993,0.154128,0.357087,0.000000,0.000000,0.000000,0.000000,0.000000,0.000000,0.000000,0.000000,0.000000,0.000000,0.000000,0.000000,0.055590,3,0
1580000,-0.009837,40.775600,0.011118,-0.025119,26.110041,0.020652,0.005557,0.041105,1.567861,-0.070464,0.007244,0.003515,-0.001574,-0.010412,0.000093,0.002032,0.010194,-0.107082,0.032485,0.209250,0.209197,0.153818,0.355633,0.000000,0.000000,0.000000,0.000000,0.000000,0.000000,0.000000,0.000000,0.000000,0.000000,0.000000,0.000000,0.103807,3,0
1590000,-0.009740,41.033756,0.010196,-0.024619,26.109547,0.019706,0.005634,0.040753,1.567849,-0.069992,0.007303,0.004003,-0.001598,-0.010215,0.000092,0.001542,0.010089,-0.086182,-0.045147,0.209457,0.209402,0.153511,0.354220,0.000000,0.000000,0.000000,0.000000,0.000000,0.000000,0.000000,0.000000,0.000000,0.000000,0.000000,0.000000,0.083755,3,0
1600000,-0.009639,41.293293,0.010151,-0.024094,26.111544,0.019595,0.005713,0.040602,1.567840,-0.069740,0.007358,0.004118,-0.001621,-0.010107,0.000092,0.000375,0.009987,-0.046150,-0.010009,0.209664,0.209607,0.153208,0.352848,0.000000,0.000000,0.000000,0.000000,0.000000,0.000000,0.000000,0.000000,0.000000,0.000000,0.000000,0.000000,0.045571,3,0
1610000,-0.009536,41.550720,0.010315,-0.023594,26.109625,0.019785,0.005801,0.040119,1.567832,-0.069162,0.007413,0.004167,-0.001645,-0.009855,0.000090,0.001855,0.009881,-0.106918,-0.002437,0.209873,0.209814,0.152908,0.351516,0.000000,0.000000,0.000000,0.000000,0.000000,0.000000,0.000000,0.000000,0.000000,0.000000,0.000000,0.000000,0.103620,3,0
1620000,-0.009431,41.813034,0.010245,-0.023059,26.116673,0.019780,0.005880,0.040422,1.567820,-0.069341,0.007465,0.004268,-0.001668,-0.009934,0.000091,0.000211,0.009773,0.033253,-0.010349,0.210082,0.210022,0.152612,0.350223,0.000000,0.000000,0.000000,0.000000,0.000000,0.000000,0.000000,0.000000,0.000000,0.000000,0.000000,0.000000,0.033443,3,0
1630000,-0.009321,42.073872,0.011399,-0.022488,26.120886,0.021165,0.005960,0.040476,1.567802,-0.069284,0.007515,0.003875,-0.001691,-0.009906,0.000091,0.000261,0.009662,-0.010464,0.037462,0.210292,0.210230,0.152319,0.348967,0.000000,0.000000,0.000000,0.000000,0.000000,0.000000,0.000000,0.000000,0.000000,0.000000,0.000000,0.000000,0.013734,3,0
1640000,-0.009212,42.331184,0.012027,-0.022027,26.118565,0.021832,0.006037,0.039931,1.567788,-0.068693,0.007566,0.003741,-0.001715,-0.009635,0.000089,0.002080,0.009548,-0.112309,0.015130,0.210502,0.210438,0.152031,0.347749,0.000000,0.000000,0.000000,0.000000,0.000000,0.000000,0.000000,0.000000,0.000000,0.000000,0.000000,0.000000,0.108755,3,0
1650000,-0.009102,42.590611,0.012290,-0.021520,26.120043,0.021938,0.006113,0.039745,1.567768,-0.068425,0.007615,0.003741,-0.001738,-0.009510,0.000089,0.000442,0.009434,-0.051540,0.001137,0.210713,0.210647,0.151746,0.346565,0.000000,0.000000,0.000000,0.000000,0.000000,0.000000,0.000000,0.000000,0.000000,0.000000,0.000000,0.000000,0.050558,3,0
1660000,-0.008993,42.848625,0.011874,-0.021053,26.118876,0.021665,0.006193,0.039323,1.567766,-0.067950,0.007666,0.004046,-0.001760,-0.009288,0.000087,0.001498,0.009319,-0.092312,-0.026389,0.210924,0.210856,0.151465,0.345416,0.000000,0.000000,0.000000,0.000000,0.000000,0.000000,0.000000,0.000000,0.000000,0.000000,0.000000,0.000000,0.089530,3,0
1670000,-0.008884,43.111542,0.010709,-0.020663,26.126825,0.020248,0.006273,0.039712,1.567758,-0.068193,0.007715,0.004619,-0.001782,-0.009408,0.000089,0.000854,0.009205,0.047264,-0.054433,0.211134,0.211065,0.151188,0.344300,0.000000,0.000000,0.000000,0.000000,0.000000,0.000000,0.000000,0.000000,0.000000,0.000000,0.000000,0.000000,0.046443,3,0
1680000,-0.008772,43.372971,0.010245,-0.020094,26.131857,0.019656,0.006354,0.039847,1.567739,-0.068209,0.007762,0.004904,-0.001804,-0.009418,0.000089,0.000129,0.009091,0.002934,-0.026557,0.211345,0.211274,0.150915,0.343216,0.000000,0.000000,0.000000,0.000000,0.000000,0.000000,0.000000,0.000000,0.000000,0.000000,0.000000,0.000000,0.009215,3,0
1690000,-0.008657,43.633625,0.011113,-0.019653,26.135361,0.020632,0.006426,0.039829,1.567717,-0.068108,0.007805,0.004624,-0.001827,-0.009366,0.000089,0.000191,0.008975,-0.019997,0.026411,0.211556,0.211483,0.150645,0.342164,0.000000,0.000000,0.000000,0.000000,0.000000,0.000000,0.000000,0.000000,0.000000,0.000000,0.000000,0.000000,0.021137,3,0
1700000,-0.008543,43.895657,0.010282,-0.019080,26.141432,0.019472,0.006490,0.040050,1.567705,-0.068196,0.007851,0.005067,-0.001848,-0.009413,0.000089,0.000338,0.008854,0.017498,-0.041196,0.211766,0.211692,0.150380,0.341143,0.000000,0.000000,0.000000,0.000000,0.000000,0.000000,0.000000,0.000000,0.000000,0.000000,0.000000,0.000000,0.018909,3,0
1710000,-0.008426,44.155502,0.010353,-0.018535,26.143410,0.019593,0.006575,0.039883,1.567700,-0.067973,0.007894,0.005141,-0.001870,-0.009299,0.000089,0.000355,0.008734,-0.045807,-0.005650,0.211976,0.211899,0.150119,0.340152,0.000000,0.000000,0.000000,0.000000,0.000000,0.000000,0.000000,0.000000,0.000000,0.000000,0.000000,0.000000,0.044986,3,0
1720000,-0.008309,44.415321,0.009914,-0.018042,26.145180,0.018980,0.006658,0.039712,1.567690,-0.067747,0.007938,0.005439,-0.001892,-0.009183,0.000088,0.000482,0.008612,-0.047245,-0.026092,0.212185,0.212106,0.149862,0.339188,0.000000,0.000000,0.000000,0.000000,0.000000,0.000000,0.000000,0.000000,0.000000,0.000000,0.000000,0.000000,0.046333,3,0
1730000,-0.008189,44.675095,0.010585,-0.017582,26.146889,0.019946,0.006743,0.039516,1.567669,-0.067515,0.007978,0.005249,-0.001913,-0.009059,0.000088,0.000448,0.008491,-0.048656,0.018478,0.212392,0.212313,0.149608,0.338252,0.000000,0.000000,0.000000,0.000000,0.000000,0.000000,0.000000,0.000000,0.000000,0.000000,0.000000,0.000000,0.047638,3,0
