time_us,pos_x,pos_y,pos_z,vel_x,vel_y,vel_z,roll,pitch,yaw,bias_ax,bias_ay,bias_az,bias_gx,bias_gy,bias_gz,nis,innov_x,innov_y,innov_z,cov_pos_x,cov_pos_y,cov_pos_z,cov_yaw,des_speed,des_heading,des_climb,pid_speed,pid_yaw,pid_alt,speed_meas,yaw_meas,climb_meas,fwd_accel,yaw_rate,vert_accel,drift_m,nav_mode,mission_state
0,0.000000,0.149996,0.000002,0.000047,24.999298,0.000479,0.000015,-0.000015,1.570790,0.000000,0.000000,0.000000,0.000000,0.000000,0.000000,0.006250,-0.000000,-0.249995,-0.000005,2.400038,2.400038,3.600017,1.000518,0.000000,0.000000,0.000000,0.000000,0.000000,0.000000,0.000000,0.000000,0.000000,0.000000,0.000000,0.000000,0.149996,1,0
10000,0.000001,0.359535,0.006252,0.000105,24.998453,0.000992,0.000023,-0.000032,1.570786,0.000000,-0.000000,-0.000000,0.000000,0.000000,0.000000,0.002414,-0.000001,-0.141557,0.016641,1.714420,1.714420,2.250079,1.001073,0.000000,0.000000,0.000000,0.000000,0.000000,0.000000,0.000000,0.000000,0.000000,0.000000,0.000000,0.000000,0.101109,3,0
20000,0.000002,0.593336,0.005425,0.000207,24.997610,0.001738,0.000034,-0.000048,1.570778,0.000001,-0.000000,-0.000000,0.000000,0.000000,0.000000,0.000688,-0.000003,-0.072782,-0.003099,1.333616,1.333616,1.636554,1.001655,0.000000,0.000000,0.000000,0.000000,0.000000,0.000000,0.000000,0.000000,0.000000,0.000000,0.000000,0.000000,0.056605,3,0
30000,0.000005,0.849012,-0.001789,0.000316,24.997219,0.002448,0.000048,-0.000049,1.570777,0.000001,-0.000000,0.000001,-0.000000,-0.000000,-0.000000,0.000284,-0.000006,0.031366,-0.033775,1.091392,1.091392,1.286065,1.002257,0.000000,0.000000,0.000000,0.000000,0.000000,0.000000,0.000000,0.000000,0.000000,0.000000,0.000000,0.000000,0.025660,3,0
40000,0.000008,1.101171,0.007700,0.000485,24.996675,0.003381,0.000050,-0.000059,1.570772,0.000000,-0.000000,-0.000001,0.000000,-0.000000,-0.000000,0.000422,-0.000009,0.014241,0.053564,0.923811,0.923811,1.059385,1.002869,0.000000,0.000000,0.000000,0.000000,0.000000,0.000000,0.000000,0.000000,0.000000,0.000000,0.000000,0.000000,0.012048,3,0
50000,0.000012,1.348563,0.008590,0.000635,24.995989,0.004195,0.000048,-0.000071,1.570757,0.000001,-0.000000,-0.000001,0.000000,0.000000,0.000000,0.000058,-0.000014,-0.019245,0.005651,0.801036,0.801036,0.900822,1.003484,0.000000,0.000000,0.000000,0.000000,0.000000,0.000000,0.000000,0.000000,0.000000,0.000000,0.000000,0.000000,0.016675,3,0
60000,0.000017,1.602237,0.009966,0.000698,24.995674,0.004981,0.000063,-0.000087,1.570745,-0.000001,-0.000000,-0.000002,0.000000,-0.000000,-0.000000,0.000161,-0.000019,0.031554,0.010155,0.707270,0.707270,0.783741,1.004094,0.000000,0.000000,0.000000,0.000000,0.000000,0.000000,0.000000,0.000000,0.000000,0.000000,0.000000,0.000000,0.027834,3,0
70000,0.000022,1.845529,0.014781,0.000775,24.994717,0.005980,0.000068,-0.000100,1.570727,0.000004,-0.000000,-0.000005,0.000000,0.000000,0.000000,0.000843,-0.000025,-0.063086,0.041152,0.633370,0.633370,0.693801,1.004688,0.000000,0.000000,0.000000,0.000000,0.000000,0.000000,0.000000,0.000000,0.000000,0.000000,0.000000,0.000000,0.056426,3,0
80000,0.000028,2.094687,0.013609,0.000859,24.994001,0.006712,0.000079,-0.000114,1.570727,0.000005,-0.000000,-0.000004,0.000000,0.000000,0.000000,0.000031,-0.000031,-0.008183,-0.011950,0.573673,0.573673,0.622594,1.005260,0.000000,0.000000,0.000000,0.000000,0.000000,0.000000,0.000000,0.000000,0.000000,0.000000,0.000000,0.000000,0.007401,3,0
90000,0.000035,2.342978,0.017644,0.001023,24.993191,0.007606,0.000086,-0.000120,1.570719,0.000007,-0.000000,-0.000009,0.000000,0.000000,0.000000,0.000321,-0.000038,-0.018787,0.042079,0.524488,0.524488,0.564865,1.005801,0.000000,0.000000,0.000000,0.000000,0.000000,0.000000,0.000000,0.000000,0.000000,0.000000,0.000000,0.000000,0.017145,3,0
100000,0.000043,2.589006,0.021611,0.001175,24.992216,0.008617,0.000084,-0.000131,1.570713,0.000015,-0.000000,-0.000016,0.000000,0.000000,0.000000,0.000668,-0.000047,-0.048404,0.045075,0.483304,0.483304,0.517162,1.006301,0.000000,0.000000,0.000000,0.000000,0.000000,0.000000,0.000000,0.000000,0.000000,0.000000,0.000000,0.000000,0.044505,3,0
110000,0.000052,2.837718,0.023823,0.001349,24.991457,0.009633,0.000093,-0.000148,1.570706,0.000018,-0.000000,-0.000020,0.000000,0.000000,0.000000,0.000149,-0.000056,-0.016117,0.026647,0.448354,0.448354,0.477121,1.006754,0.000000,0.000000,0.000000,0.000000,0.000000,0.000000,0.000000,0.000000,0.000000,0.000000,0.000000,0.000000,0.014912,3,0
120000,0.000063,3.092726,0.023859,0.001595,24.991766,0.010157,0.000097,-0.000146,1.570689,0.000002,-0.000000,-0.000020,0.000000,-0.000000,-0.000000,0.000829,-0.000068,0.073120,-0.000893,0.418359,0.418359,0.443071,1.007150,0.000000,0.000000,0.000000,0.000000,0.000000,0.000000,0.000000,0.000000,0.000000,0.000000,0.000000,0.000000,0.068022,3,0
130000,0.000076,3.347643,0.023754,0.001764,24.992140,0.010871,0.000103,-0.000144,1.570688,-0.000018,-0.000000,-0.000019,0.000000,-0.000000,-0.000000,0.000914,-0.000081,0.076535,-0.003106,0.392370,0.392370,0.413797,1.007481,0.000000,0.000000,0.000000,0.000000,0.000000,0.000000,0.000000,0.000000,0.000000,0.000000,0.000000,0.000000,0.071530,3,0
140000,0.000089,3.595141,0.021980,0.001934,24.990995,0.011011,0.000106,-0.000150,1.570677,-0.000006,-0.000000,-0.000011,0.000000,-0.000000,-0.000000,0.000373,-0.000095,-0.039232,-0.029165,0.369667,0.369667,0.388393,1.007739,0.000000,0.000000,0.000000,0.000000,0.000000,0.000000,0.000000,0.000000,0.000000,0.000000,0.000000,0.000000,0.036816,3,0
150000,0.000104,3.850349,0.024514,0.002136,24.991783,0.012245,0.000122,-0.000142,1.570673,-0.000037,-0.000000,-0.000024,0.000000,-0.000001,-0.000000,0.001545,-0.000111,0.090979,0.039601,0.349696,0.349696,0.366172,1.007915,0.000000,0.000000,0.000000,0.000000,0.000000,0.000000,0.000000,0.000000,0.000000,0.000000,0.000000,0.000000,0.085676,3,0
160000,0.000119,4.098872,0.023760,0.002206,24.990757,0.012821,0.000133,-0.000164,1.570675,-0.000027,-0.000000,-0.000018,0.000000,-0.000001,-0.000000,0.000136,-0.000126,-0.025082,-0.015307,0.332022,0.332022,0.346600,1.008002,0.000000,0.000000,0.000000,0.000000,0.000000,0.000000,0.000000,0.000000,0.000000,0.000000,0.000000,0.000000,0.023694,3,0
170000,0.000135,4.354262,0.022434,0.002311,24.991817,0.013256,0.000132,-0.000167,1.570669,-0.000072,-0.000000,-0.000007,0.000000,-0.000002,-0.000000,0.001823,-0.000142,0.104104,-0.026643,0.316298,0.316298,0.329260,1.007991,0.000000,0.000000,0.000000,0.000000,0.000000,0.000000,0.000000,0.000000,0.000000,0.000000,0.000000,0.000000,0.098616,3,0
180000,0.000151,4.607568,0.020379,0.002420,24.992350,0.013234,0.000134,-0.000161,1.570665,-0.000104,-0.000000,0.000012,0.000000,-0.000002,-0.000000,0.000996,-0.000159,0.067371,-0.041949,0.302248,0.302248,0.313817,1.007875,0.000000,0.000000,0.000000,0.000000,0.000000,0.000000,0.000000,0.000000,0.000000,0.000000,0.000000,0.000000,0.063978,3,0
190000,0.000169,4.859066,0.020865,0.002636,24.992409,0.013867,0.000135,-0.000173,1.570650,-0.000121,-0.000000,0.000009,0.000000,-0.000003,-0.000000,0.000178,-0.000177,0.032727,0.006969,0.289643,0.289643,0.300003,1.007645,0.000000,0.000000,0.000000,0.000000,0.000000,0.000000,0.000000,0.000000,0.000000,0.000000,0.000000,0.000000,0.031148,3,0
200000,0.000188,5.115435,0.020350,0.002871,24.994434,0.014409,0.000147,-0.000149,1.570637,-0.000202,-0.000001,0.000017,0.000000,-0.000005,-0.000000,0.003103,-0.000198,0.139049,-0.013810,0.278298,0.278298,0.287598,1.007295,0.000000,0.000000,0.000000,0.000000,0.000000,0.000000,0.000000,0.000000,0.000000,0.000000,0.000000,0.000000,0.132599,3,0
210000,0.000209,5.371676,0.022542,0.003047,24.996521,0.015716,0.000157,-0.000132,1.570620,-0.000293,-0.000001,-0.000011,0.000000,-0.000008,-0.000000,0.003482,-0.000219,0.141087,0.044343,0.268057,0.268057,0.276421,1.006816,0.000000,0.000000,0.000000,0.000000,0.000000,0.000000,0.000000,0.000000,0.000000,0.000000,0.000000,0.000000,0.134783,3,0
220000,0.000231,5.621813,0.021537,0.003247,24.996017,0.015666,0.000164,-0.000145,1.570603,-0.000295,-0.000001,0.000007,0.000000,-0.000008,-0.000000,0.000113,-0.000242,0.004097,-0.026289,0.258790,0.258790,0.266321,1.006203,0.000000,0.000000,0.000000,0.000000,0.000000,0.000000,0.000000,0.000000,0.000000,0.000000,0.000000,0.000000,0.003927,3,0
230000,0.000255,5.878091,0.020688,0.003466,24.998577,0.015670,0.000180,-0.000119,1.570601,-0.000411,-0.000001,0.000025,0.000000,-0.000012,-0.000000,0.003756,-0.000266,0.151545,-0.023558,0.250389,0.250389,0.257172,1.005447,0.000000,0.000000,0.000000,0.000000,0.000000,0.000000,0.000000,0.000000,0.000000,0.000000,0.000000,0.000000,0.145221,3,0
240000,0.000279,6.135093,0.022709,0.003633,25.001755,0.017120,0.000181,-0.000075,1.570585,-0.000554,-0.000001,-0.000012,0.000000,-0.000017,-0.000000,0.005137,-0.000291,0.173545,0.044813,0.242761,0.242760,0.248866,1.004542,0.000000,0.000000,0.000000,0.000000,0.000000,0.000000,0.000000,0.000000,0.000000,0.000000,0.000000,0.000000,0.166524,3,0
250000,0.000306,6.386512,0.021218,0.003874,25.002090,0.016792,0.000185,-0.000082,1.570578,-0.000586,-0.000002,0.000025,0.000000,-0.000018,-0.000000,0.000480,-0.000318,0.035784,-0.041457,0.235824,0.235824,0.241314,1.003481,0.000000,0.000000,0.000000,0.000000,0.000000,0.000000,0.000000,0.000000,0.000000,0.000000,0.000000,0.000000,0.034379,3,0
260000,0.000333,6.637405,0.019905,0.004029,25.002150,0.016671,0.000195,-0.000083,1.570568,-0.000608,-0.000002,0.000061,0.000000,-0.000019,-0.000000,0.000317,-0.000346,0.022909,-0.038108,0.229511,0.229511,0.234436,1.002259,0.000000,0.000000,0.000000,0.000000,0.000000,0.000000,0.000000,0.000000,0.000000,0.000000,0.000000,0.000000,0.022035,3,0
270000,0.000360,6.893003,0.018163,0.004107,25.005138,0.016305,0.000196,-0.000036,1.570567,-0.000762,-0.000002,0.000112,0.000000,-0.000024,-0.000000,0.004004,-0.000374,0.149716,-0.050385,0.223762,0.223762,0.228165,1.000870,0.000000,0.000000,0.000000,0.000000,0.000000,0.000000,0.000000,0.000000,0.000000,0.000000,0.000000,0.000000,0.144133,3,0
280000,0.000389,7.150053,0.017015,0.004325,25.009525,0.016002,0.000206,0.000021,1.570569,-0.000974,-0.000003,0.000151,0.000000,-0.000033,-0.000000,0.006139,-0.000403,0.192270,-0.035519,0.218525,0.218525,0.222443,0.999308,0.000000,0.000000,0.000000,0.000000,0.000000,0.000000,0.000000,0.000000,0.000000,0.000000,0.000000,0.000000,0.185267,3,0
290000,0.000418,7.402792,0.018594,0.004496,25.010990,0.017712,0.000204,0.000036,1.570557,-0.001062,-0.000003,0.000105,0.000000,-0.000037,-0.000000,0.001132,-0.000434,0.074329,0.039000,0.213754,0.213754,0.217219,0.997568,0.000000,0.000000,0.000000,0.000000,0.000000,0.000000,0.000000,0.000000,0.000000,0.000000,0.000000,0.000000,0.071683,3,0
300000,0.000449,7.658464,0.017242,0.004628,25.014816,0.017188,0.000204,0.000080,1.570553,-0.001262,-0.000004,0.000159,0.000000,-0.000045,-0.000000,0.004395,-0.000465,0.159517,-0.043346,0.209410,0.209410,0.212446,0.995646,0.000000,0.000000,0.000000,0.000000,0.000000,0.000000,0.000000,0.000000,0.000000,0.000000,0.000000,0.000000,0.153950,3,0
310000,0.000479,7.911440,0.018330,0.004726,25.016571,0.018704,0.000214,0.000112,1.570553,-0.001373,-0.000005,0.000125,0.000000,-0.000050,-0.000000,0.001211,-0.000496,0.082717,0.026154,0.205457,0.205457,0.208087,0.993537,0.000000,0.000000,0.000000,0.000000,0.000000,0.000000,0.000000,0.000000,0.000000,0.000000,0.000000,0.000000,0.079886,3,0
320000,0.000510,8.167909,0.018780,0.004894,25.021305,0.019516,0.000221,0.000188,1.570552,-0.001638,-0.000005,0.000114,0.000000,-0.000062,-0.000000,0.005674,-0.000528,0.187546,0.007547,0.201862,0.201862,0.204105,0.991238,0.000000,0.000000,0.000000,0.000000,0.000000,0.000000,0.000000,0.000000,0.000000,0.000000,0.000000,0.000000,0.181237,3,0
330000,0.000543,8.420440,0.020297,0.005091,25.022890,0.021156,0.000225,0.000213,1.570539,-0.001743,-0.000006,0.000056,0.000000,-0.000068,-0.000000,0.001044,-0.000561,0.070181,0.039400,0.198599,0.198598,0.200469,0.988744,0.000000,0.000000,0.000000,0.000000,0.000000,0.000000,0.000000,0.000000,0.000000,0.000000,0.000000,0.000000,0.067860,3,0
340000,0.000576,8.674439,0.021415,0.005285,25.025799,0.022701,0.000224,0.000265,1.570527,-0.001927,-0.000007,0.000013,0.000000,-0.000077,-0.000000,0.002283,-0.000596,0.115818,0.027338,0.195640,0.195640,0.197151,0.986054,0.000000,0.000000,0.000000,0.000000,0.000000,0.000000,0.000000,0.000000,0.000000,0.000000,0.000000,0.000000,0.112043,3,0
350000,0.000610,8.930477,0.020608,0.005407,25.030914,0.022472,0.000231,0.000353,1.570524,-0.002227,-0.000008,0.000066,0.000000,-0.000092,-0.000000,0.005385,-0.000631,0.179851,-0.032186,0.192964,0.192964,0.194125,0.983165,0.000000,0.000000,0.000000,0.000000,0.000000,0.000000,0.000000,0.000000,0.000000,0.000000,0.000000,0.000000,0.174068,3,0
360000,0.000644,9.187831,0.022005,0.005467,25.037540,0.024365,0.000236,0.000465,1.570519,-0.002616,-0.000009,0.000002,0.000000,-0.000112,-0.000000,0.008164,-0.000665,0.221946,0.036513,0.190550,0.190550,0.191370,0.980074,0.000000,0.000000,0.000000,0.000000,0.000000,0.000000,0.000000,0.000000,0.000000,0.000000,0.000000,0.000000,0.214898,3,0
370000,0.000678,9.443329,0.021520,0.005547,25.042313,0.024305,0.000237,0.000561,1.570517,-0.002917,-0.000011,0.000045,0.000000,-0.000128,-0.000000,0.004394,-0.000700,0.163316,-0.023361,0.188379,0.188378,0.188863,0.976780,0.000000,0.000000,0.000000,0.000000,0.000000,0.000000,0.000000,0.000000,0.000000,0.000000,0.000000,0.000000,0.158189,3,0
380000,0.000712,9.697059,0.023156,0.005716,25.045412,0.026189,0.000239,0.000626,1.570518,-0.003123,-0.000012,-0.000041,0.000001,-0.000140,-0.000000,0.002155,-0.000735,0.106558,0.044613,0.186432,0.186432,0.186586,0.973283,0.000000,0.000000,0.000000,0.000000,0.000000,0.000000,0.000000,0.000000,0.000000,0.000000,0.000000,0.000000,0.103249,3,0
390000,0.000748,9.953381,0.024287,0.005887,25.051580,0.027799,0.000239,0.000738,1.570507,-0.003509,-0.000014,-0.000097,0.000001,-0.000162,-0.000000,0.006004,-0.000772,0.190739,0.028018,0.184696,0.184695,0.184522,0.969582,0.000000,0.000000,0.000000,0.000000,0.000000,0.000000,0.000000,0.000000,0.000000,0.000000,0.000000,0.000000,0.184868,3,0
400000,0.000783,10.208564,0.025047,0.005951,25.056564,0.029140,0.000249,0.000833,1.570494,-0.003833,-0.000016,-0.000130,0.000001,-0.000181,-0.000000,0.003823,-0.000808,0.153023,0.015546,0.183154,0.183154,0.182656,0.965676,0.000000,0.000000,0.000000,0.000000,0.000000,0.000000,0.000000,0.000000,0.000000,0.000000,0.000000,0.000000,0.148354,3,0
410000,0.000819,10.461450,0.023627,0.006117,25.058910,0.028011,0.000253,0.000878,1.570491,-0.004003,-0.000017,-0.000004,0.000001,-0.000191,-0.000000,0.001476,-0.000844,0.076700,-0.057007,0.181794,0.181794,0.180971,0.961567,0.000000,0.000000,0.000000,0.000000,0.000000,0.000000,0.000000,0.000000,0.000000,0.000000,0.000000,0.000000,0.074381,3,0
420000,0.000855,10.715107,0.024998,0.006235,25.062141,0.029945,0.000265,0.000948,1.570477,-0.004238,-0.000020,-0.000087,0.000001,-0.000206,-0.000000,0.001897,-0.000882,0.102098,0.036238,0.180603,0.180603,0.179456,0.957256,0.000000,0.000000,0.000000,0.000000,0.000000,0.000000,0.000000,0.000000,0.000000,0.000000,0.000000,0.000000,0.099028,3,0
430000,0.000892,10.968327,0.025841,0.006416,25.064932,0.031083,0.000279,0.001019,1.570466,-0.004447,-0.000022,-0.000131,0.000001,-0.000219,-0.000000,0.001276,-0.000919,0.086953,0.018114,0.179570,0.179569,0.178097,0.952744,0.000000,0.000000,0.000000,0.000000,0.000000,0.000000,0.000000,0.000000,0.000000,0.000000,0.000000,0.000000,0.084355,3,0
440000,0.000930,11.224675,0.026866,0.006597,25.071815,0.032674,0.000276,0.001173,1.570459,-0.004924,-0.000024,-0.000190,0.000001,-0.000250,-0.000000,0.006025,-0.000958,0.191526,0.023965,0.178683,0.178683,0.176883,0.948034,0.000000,0.000000,0.000000,0.000000,0.000000,0.000000,0.000000,0.000000,0.000000,0.000000,0.000000,0.000000,0.185825,3,0
450000,0.000968,11.482308,0.027801,0.006716,25.080555,0.034216,0.000287,0.001377,1.570462,-0.005528,-0.000027,-0.000243,0.000001,-0.000290,-0.000000,0.008870,-0.000997,0.233291,0.020457,0.177933,0.177933,0.175803,0.943128,0.000000,0.000000,0.000000,0.000000,0.000000,0.000000,0.000000,0.000000,0.000000,0.000000,0.000000,0.000000,0.226375,3,0
460000,0.001006,11.738850,0.027400,0.006824,25.087805,0.034024,0.000288,0.001544,1.570446,-0.006050,-0.000030,-0.000174,0.000002,-0.000326,-0.000001,0.006210,-0.001036,0.194241,-0.025782,0.177310,0.177310,0.174847,0.938028,0.000000,0.000000,0.000000,0.000000,0.000000,0.000000,0.000000,0.000000,0.000000,0.000000,0.000000,0.000000,0.188503,3,0
470000,0.001045,11.995502,0.028425,0.007007,25.095320,0.035496,0.000291,0.001716,1.570443,-0.006596,-0.000033,-0.000239,0.000002,-0.000364,-0.000001,0.006306,-0.001076,0.196053,0.023395,0.176805,0.176805,0.174006,0.932740,0.000000,0.000000,0.000000,0.000000,0.000000,0.000000,0.000000,0.000000,0.000000,0.000000,0.000000,0.000000,0.190278,3,0
480000,0.001083,12.250513,0.028362,0.007095,25.100704,0.035591,0.000298,0.001842,1.570427,-0.006994,-0.000036,-0.000197,0.000002,-0.000392,-0.000001,0.003121,-0.001116,0.138113,-0.014732,0.176411,0.176410,0.173271,0.927267,0.000000,0.000000,0.000000,0.000000,0.000000,0.000000,0.000000,0.000000,0.000000,0.000000,0.000000,0.000000,0.134057,3,0
490000,0.001122,12.505088,0.029543,0.007228,25.105543,0.037370,0.000311,0.001962,1.570421,-0.007356,-0.000040,-0.000282,0.000002,-0.000419,-0.000001,0.002523,-0.001156,0.121593,0.028414,0.176118,0.176117,0.172634,0.921613,0.000000,0.000000,0.000000,0.000000,0.000000,0.000000,0.000000,0.000000,0.000000,0.000000,0.000000,0.000000,0.118029,3,0
500000,0.001161,12.759233,0.029071,0.007330,25.109684,0.037043,0.000318,0.002060,1.570422,-0.007680,-0.000043,-0.000190,0.000003,-0.000443,-0.000001,0.001945,-0.001196,0.105519,-0.029761,0.175920,0.175919,0.172087,0.915784,0.000000,0.000000,0.000000,0.000000,0.000000,0.000000,0.000000,0.000000,0.000000,0.000000,0.000000,0.000000,0.102432,3,0
510000,0.001199,13.015874,0.030338,0.007411,25.117575,0.038795,0.000330,0.002254,1.570410,-0.008280,-0.000047,-0.000289,0.000003,-0.000489,-0.000001,0.005953,-0.001235,0.189272,0.031121,0.175809,0.175809,0.171622,0.909785,0.000000,0.000000,0.000000,0.000000,0.000000,0.000000,0.000000,0.000000,0.000000,0.000000,0.000000,0.000000,0.183730,3,0
520000,0.001238,13.273808,0.030071,0.007556,25.127485,0.038653,0.000344,0.002505,1.570395,-0.009034,-0.000052,-0.000212,0.000003,-0.000547,-0.000001,0.008701,-0.001275,0.230736,-0.023248,0.175779,0.175779,0.171234,0.903621,0.000000,0.000000,0.000000,0.000000,0.000000,0.000000,0.000000,0.000000,0.000000,0.000000,0.000000,0.000000,0.223980,3,0
530000,0.001277,13.532436,0.030580,0.007671,25.138432,0.039336,0.000348,0.002790,1.570379,-0.009879,-0.000056,-0.000226,0.000004,-0.000615,-0.000001,0.010196,-0.001315,0.251008,0.004075,0.175824,0.175824,0.170914,0.897299,0.000000,0.000000,0.000000,0.000000,0.000000,0.000000,0.000000,0.000000,0.000000,0.000000,0.000000,0.000000,0.243656,3,0
540000,0.001315,13.788255,0.031655,0.007716,25.145006,0.040721,0.000359,0.002975,1.570382,-0.010403,-0.000061,-0.000309,0.000004,-0.000657,-0.000001,0.003795,-0.001354,0.151302,0.023764,0.175938,0.175937,0.170658,0.890825,0.000000,0.000000,0.000000,0.000000,0.000000,0.000000,0.000000,0.000000,0.000000,0.000000,0.000000,0.000000,0.146872,3,0
550000,0.001352,14.047136,0.031999,0.007792,25.156412,0.041102,0.000373,0.003284,1.570386,-0.011303,-0.000066,-0.000301,0.000004,-0.000732,-0.000001,0.010376,-0.001393,0.253237,-0.002440,0.176114,0.176113,0.170460,0.884206,0.000000,0.000000,0.000000,0.000000,0.000000,0.000000,0.000000,0.000000,0.000000,0.000000,0.000000,0.000000,0.245808,3,0
560000,0.001391,14.302620,0.033397,0.007997,25.162457,0.043062,0.000376,0.003462,1.570373,-0.011791,-0.000071,-0.000428,0.000005,-0.000774,-0.000001,0.003072,-0.001433,0.133393,0.034558,0.176347,0.176347,0.170314,0.877448,0.000000,0.000000,0.000000,0.000000,0.000000,0.000000,0.000000,0.000000,0.000000,0.000000,0.000000,0.000000,0.129480,3,0
570000,0.001430,14.557671,0.032060,0.008169,25.167858,0.041151,0.000371,0.003617,1.570369,-0.012227,-0.000077,-0.000191,0.000005,-0.000811,-0.000001,0.002826,-0.001473,0.116396,-0.062563,0.176633,0.176632,0.170214,0.870560,0.000000,0.000000,0.000000,0.000000,0.000000,0.000000,0.000000,0.000000,0.000000,0.000000,0.000000,0.000000,0.112978,3,0
580000,0.001470,14.815811,0.031513,0.008352,25.178188,0.040276,0.000374,0.003926,1.570362,-0.013068,-0.000083,-0.000058,0.000006,-0.000886,-0.000001,0.007953,-0.001514,0.219111,-0.034010,0.176966,0.176966,0.170157,0.863549,0.000000,0.000000,0.000000,0.000000,0.000000,0.000000,0.000000,0.000000,0.000000,0.000000,0.000000,0.000000,0.212654,3,0
590000,0.001509,15.071724,0.032273,0.008489,25.184793,0.041575,0.000369,0.004126,1.570354,-0.013618,-0.000089,-0.000108,0.000006,-0.000935,-0.000001,0.003185,-0.001555,0.139779,0.012293,0.177343,0.177342,0.170138,0.856421,0.000000,0.000000,0.000000,0.000000,0.000000,0.000000,0.000000,0.000000,0.000000,0.000000,0.000000,0.000000,0.135656,3,0
600000,0.001549,15.329552,0.031839,0.008650,25.194439,0.040931,0.000379,0.004419,1.570345,-0.014430,-0.000096,0.000016,0.000007,-0.001010,-0.000002,0.006739,-0.001597,0.201863,-0.030212,0.177757,0.177756,0.170152,0.849186,0.000000,0.000000,0.000000,0.000000,0.000000,0.000000,0.000000,0.000000,0.000000,0.000000,0.000000,0.000000,0.195889,3,0
610000,0.001590,15.585734,0.030560,0.008828,25.201338,0.039211,0.000381,0.004640,1.570342,-0.015018,-0.000103,0.000267,0.000008,-0.001065,-0.000002,0.003875,-0.001638,0.142728,-0.059837,0.178206,0.178205,0.170195,0.841851,0.000000,0.000000,0.000000,0.000000,0.000000,0.000000,0.000000,0.000000,0.000000,0.000000,0.000000,0.000000,0.138498,3,0
620000,0.001629,15.844431,0.030862,0.008875,25.212376,0.039632,0.000393,0.004988,1.570345,-0.015961,-0.000110,0.000282,0.000008,-0.001155,-0.000002,0.008146,-0.001679,0.224417,-0.003429,0.178685,0.178685,0.170264,0.834423,0.000000,0.000000,0.000000,0.000000,0.000000,0.000000,0.000000,0.000000,0.000000,0.000000,0.000000,0.000000,0.217739,3,0
630000,0.001669,16.102654,0.030735,0.009028,25.222546,0.039664,0.000392,0.005322,1.570334,-0.016838,-0.000117,0.000364,0.000009,-0.001240,-0.000002,0.006797,-0.001721,0.204157,-0.018767,0.179191,0.179190,0.170355,0.826912,0.000000,0.000000,0.000000,0.000000,0.000000,0.000000,0.000000,0.000000,0.000000,0.000000,0.000000,0.000000,0.198066,3,0
640000,0.001708,16.362190,0.030189,0.009078,25.234991,0.038728,0.000395,0.005724,1.570338,-0.017907,-0.000125,0.000514,0.000010,-0.001346,-0.000002,0.009808,-0.001761,0.244015,-0.033393,0.179720,0.179720,0.170465,0.819325,0.000000,0.000000,0.000000,0.000000,0.000000,0.000000,0.000000,0.000000,0.000000,0.000000,0.000000,0.000000,0.236712,3,0
650000,0.001747,16.620642,0.029633,0.009223,25.245436,0.037779,0.000396,0.006068,1.570323,-0.018814,-0.000133,0.000666,0.000011,-0.001437,-0.000002,0.006844,-0.001801,0.203022,-0.033385,0.180270,0.180269,0.170591,0.811671,0.000000,0.000000,0.000000,0.000000,0.000000,0.000000,0.000000,0.000000,0.000000,0.000000,0.000000,0.000000,0.196930,3,0
660000,0.001786,16.876816,0.028557,0.009264,25.251949,0.036391,0.000409,0.006278,1.570317,-0.019375,-0.000142,0.000907,0.000011,-0.001495,-0.000002,0.002889,-0.001841,0.123375,-0.051404,0.180835,0.180834,0.170729,0.803957,0.000000,0.000000,0.000000,0.000000,0.000000,0.000000,0.000000,0.000000,0.000000,0.000000,0.000000,0.000000,0.119671,3,0
670000,0.001823,17.133736,0.028580,0.009286,25.259697,0.036631,0.000405,0.006543,1.570314,-0.020049,-0.000151,0.000965,0.000012,-0.001565,-0.000002,0.003444,-0.001879,0.145441,-0.012289,0.181415,0.181414,0.170877,0.796191,0.000000,0.000000,0.000000,0.000000,0.000000,0.000000,0.000000,0.000000,0.000000,0.000000,0.000000,0.000000,0.141054,3,0
680000,0.001859,17.390791,0.027548,0.009337,25.267654,0.035134,0.000415,0.006823,1.570300,-0.020742,-0.000160,0.001205,0.000013,-0.001639,-0.000003,0.003880,-0.001917,0.146868,-0.049285,0.182006,0.182005,0.171033,0.788382,0.000000,0.000000,0.000000,0.000000,0.000000,0.000000,0.000000,0.000000,0.000000,0.000000,0.000000,0.000000,0.142424,3,0
690000,0.001896,17.652214,0.027471,0.009506,25.283014,0.035037,0.000425,0.007370,1.570296,-0.022120,-0.000170,0.001281,0.000014,-0.001788,-0.000003,0.013378,-0.001955,0.287312,-0.015302,0.182605,0.182604,0.171193,0.780538,0.000000,0.000000,0.000000,0.000000,0.000000,0.000000,0.000000,0.000000,0.000000,0.000000,0.000000,0.000000,0.278575,3,0
700000,0.001931,17.913725,0.028681,0.009497,25.298378,0.037138,0.000432,0.007919,1.570283,-0.023505,-0.000180,0.001130,0.000015,-0.001941,-0.000003,0.013191,-0.001992,0.284161,0.029725,0.183211,0.183209,0.171357,0.772666,0.000000,0.000000,0.000000,0.000000,0.000000,0.000000,0.000000,0.000000,0.000000,0.000000,0.000000,0.000000,0.275491,3,0
710000,0.001965,18.171667,0.029726,0.009565,25.307354,0.038612,0.000443,0.008243,1.570270,-0.024305,-0.000190,0.001009,0.000017,-0.002031,-0.000003,0.004311,-0.002027,0.161648,0.023358,0.183820,0.183819,0.171522,0.764773,0.000000,0.000000,0.000000,0.000000,0.000000,0.000000,0.000000,0.000000,0.000000,0.000000,0.000000,0.000000,0.156707,3,0
720000,0.001999,18.430340,0.030300,0.009616,25.317646,0.039614,0.000453,0.008607,1.570272,-0.025219,-0.000200,0.000976,0.000018,-0.002136,-0.000003,0.005353,-0.002063,0.181919,0.006222,0.184432,0.184430,0.171685,0.756868,0.000000,0.000000,0.000000,0.000000,0.000000,0.000000,0.000000,0.000000,0.000000,0.000000,0.000000,0.000000,0.176338,3,0
730000,0.002032,18.690348,0.030245,0.009596,25.329975,0.039740,0.000456,0.009058,1.570267,-0.026348,-0.000211,0.001061,0.000019,-0.002267,-0.000004,0.007955,-0.002096,0.221329,-0.016098,0.185043,0.185042,0.171846,0.748958,0.000000,0.000000,0.000000,0.000000,0.000000,0.000000,0.000000,0.000000,0.000000,0.000000,0.000000,0.000000,0.214512,3,0
740000,0.002064,18.949221,0.029312,0.009732,25.340332,0.038502,0.000454,0.009453,1.570269,-0.027278,-0.000223,0.001314,0.000020,-0.002377,-0.000004,0.005579,-0.002130,0.179863,-0.046727,0.185653,0.185652,0.172003,0.741050,0.000000,0.000000,0.000000,0.000000,0.000000,0.000000,0.000000,0.000000,0.000000,0.000000,0.000000,0.000000,0.174310,3,0
750000,0.002096,19.208815,0.029646,0.009786,25.351791,0.039111,0.000460,0.009898,1.570267,-0.028322,-0.000234,0.001324,0.000022,-0.002503,-0.000004,0.006409,-0.002163,0.199190,-0.002091,0.186259,0.186258,0.172154,0.733151,0.000000,0.000000,0.000000,0.000000,0.000000,0.000000,0.000000,0.000000,0.000000,0.000000,0.000000,0.000000,0.193018,3,0
760000,0.002128,19.469740,0.028545,0.009887,25.365368,0.037674,0.000460,0.010435,1.570262,-0.029584,-0.000246,0.001616,0.000023,-0.002657,-0.000004,0.009565,-0.002196,0.237667,-0.052318,0.186861,0.186860,0.172299,0.725267,0.000000,0.000000,0.000000,0.000000,0.000000,0.000000,0.000000,0.000000,0.000000,0.000000,0.000000,0.000000,0.230276,3,0
770000,0.002160,19.731987,0.028075,0.009987,25.381142,0.037028,0.000460,0.011067,1.570253,-0.031061,-0.000258,0.001784,0.000025,-0.002841,-0.000004,0.012336,-0.002229,0.274788,-0.029804,0.187457,0.187455,0.172435,0.717406,0.000000,0.000000,0.000000,0.000000,0.000000,0.000000,0.000000,0.000000,0.000000,0.000000,0.000000,0.000000,0.266212,3,0
780000,0.002190,19.990557,0.028950,0.010044,25.390316,0.038493,0.000453,0.011429,1.570257,-0.031885,-0.000271,0.001684,0.000026,-0.002945,-0.000005,0.003756,-0.002261,0.151535,0.017242,0.188045,0.188044,0.172562,0.709573,0.000000,0.000000,0.000000,0.000000,0.000000,0.000000,0.000000,0.000000,0.000000,0.000000,0.000000,0.000000,0.146802,3,0
790000,0.002221,20.248602,0.030197,0.010133,25.398569,0.040388,0.000464,0.011758,1.570249,-0.032608,-0.000284,0.001510,0.000028,-0.003038,-0.000005,0.002932,-0.002293,0.131418,0.029710,0.188625,0.188624,0.172680,0.701774,0.000000,0.000000,0.000000,0.000000,0.000000,0.000000,0.000000,0.000000,0.000000,0.000000,0.000000,0.000000,0.127306,3,0
800000,0.002251,20.509256,0.030526,0.010226,25.411180,0.040826,0.000459,0.012280,1.570252,-0.033783,-0.000297,0.001525,0.000030,-0.003192,-0.000005,0.007204,-0.002324,0.211235,-0.002866,0.189196,0.189195,0.172786,0.694015,0.000000,0.000000,0.000000,0.000000,0.000000,0.000000,0.000000,0.000000,0.000000,0.000000,0.000000,0.000000,0.204587,3,0
810000,0.002281,20.768726,0.031475,0.010263,25.421585,0.042355,0.000454,0.012701,1.570240,-0.034734,-0.000310,0.001414,0.000031,-0.003318,-0.000005,0.004672,-0.002355,0.169121,0.018458,0.189757,0.189755,0.172881,0.686302,0.000000,0.000000,0.000000,0.000000,0.000000,0.000000,0.000000,0.000000,0.000000,0.000000,0.000000,0.000000,0.163788,3,0
820000,0.002310,21.030172,0.031855,0.010340,25.435308,0.042890,0.000461,0.013280,1.570241,-0.036027,-0.000324,0.001423,0.000033,-0.003493,-0.000005,0.008362,-0.002385,0.227608,-0.001798,0.190306,0.190305,0.172964,0.678640,0.000000,0.000000,0.000000,0.000000,0.000000,0.000000,0.000000,0.000000,0.000000,0.000000,0.000000,0.000000,0.220401,3,0
830000,0.002338,21.291676,0.032615,0.010395,25.448948,0.044005,0.000451,0.013860,1.570228,-0.037314,-0.000339,0.001353,0.000035,-0.003670,-0.000006,0.008150,-0.002415,0.224451,0.011173,0.190844,0.190843,0.173034,0.671033,0.000000,0.000000,0.000000,0.000000,0.000000,0.000000,0.000000,0.000000,0.000000,0.000000,0.000000,0.000000,0.217324,3,0
840000,0.002365,21.552599,0.033935,0.010409,25.461449,0.045787,0.000444,0.014397,1.570233,-0.038479,-0.000353,0.001162,0.000037,-0.003833,-0.000006,0.006691,-0.002444,0.201357,0.030244,0.191371,0.191369,0.173091,0.663487,0.000000,0.000000,0.000000,0.000000,0.000000,0.000000,0.000000,0.000000,0.000000,0.000000,0.000000,0.000000,0.194949,3,0
850000,0.002392,21.813581,0.034309,0.010412,25.473846,0.046138,0.000438,0.014933,1.570221,-0.039640,-0.000368,0.001181,0.000039,-0.003997,-0.000006,0.006375,-0.002471,0.198734,-0.003125,0.191884,0.191883,0.173135,0.656007,0.000000,0.000000,0.000000,0.000000,0.000000,0.000000,0.000000,0.000000,0.000000,0.000000,0.000000,0.000000,0.192394,3,0
860000,0.002418,22.073345,0.033341,0.010455,25.484087,0.044813,0.000434,0.015374,1.570220,-0.040561,-0.000383,0.001498,0.000041,-0.004130,-0.000006,0.004344,-0.002498,0.156294,-0.049843,0.192385,0.192383,0.173165,0.648595,0.000000,0.000000,0.000000,0.000000,0.000000,0.000000,0.000000,0.000000,0.000000,0.000000,0.000000,0.000000,0.151303,3,0
870000,0.002444,22.335094,0.033143,0.010561,25.497528,0.044369,0.000427,0.015964,1.570210,-0.041835,-0.000398,0.001643,0.000044,-0.004316,-0.000007,0.007505,-0.002525,0.214491,-0.022638,0.192873,0.192871,0.173181,0.641257,0.000000,0.000000,0.000000,0.000000,0.000000,0.000000,0.000000,0.000000,0.000000,0.000000,0.000000,0.000000,0.207610,3,0
880000,0.002469,22.598167,0.033301,0.010544,25.513323,0.044387,0.000426,0.016662,1.570212,-0.043335,-0.000414,0.001706,0.000046,-0.004540,-0.000007,0.010162,-0.002551,0.250788,-0.010131,0.193347,0.193345,0.173183,0.633995,0.000000,0.000000,0.000000,0.000000,0.000000,0.000000,0.000000,0.000000,0.000000,0.000000,0.000000,0.000000,0.242719,3,0
890000,0.002493,22.858051,0.034464,0.010619,25.523191,0.046076,0.000418,0.017104,1.570215,-0.044219,-0.000430,0.001542,0.000048,-0.004673,-0.000007,0.003565,-0.002577,0.146591,0.024624,0.193807,0.193806,0.173170,0.626814,0.000000,0.000000,0.000000,0.000000,0.000000,0.000000,0.000000,0.000000,0.000000,0.000000,0.000000,0.000000,0.141877,3,0
900000,0.002517,23.119926,0.035623,0.010645,25.536537,0.047588,0.000409,0.017698,1.570205,-0.045461,-0.000446,0.001379,0.000051,-0.004864,-0.000008,0.006850,-0.002601,0.204668,0.023975,0.194255,0.194253,0.173144,0.619717,0.000000,0.000000,0.000000,0.000000,0.000000,0.000000,0.000000,0.000000,0.000000,0.000000,0.000000,0.000000,0.198058,3,0
910000,0.002540,23.379896,0.034850,0.010666,25.546249,0.046232,0.000401,0.018136,1.570204,-0.046326,-0.000462,0.001672,0.000053,-0.004999,-0.000008,0.003534,-0.002625,0.141451,-0.043492,0.194688,0.194686,0.173103,0.612705,0.000000,0.000000,0.000000,0.000000,0.000000,0.000000,0.000000,0.000000,0.000000,0.000000,0.000000,0.000000,0.136885,3,0
920000,0.002562,23.640568,0.033863,0.010603,25.557087,0.044596,0.000398,0.018623,1.570202,-0.047309,-0.000479,0.002014,0.000056,-0.005154,-0.000008,0.004525,-0.002648,0.159687,-0.050464,0.195108,0.195106,0.173048,0.605783,0.000000,0.000000,0.000000,0.000000,0.000000,0.000000,0.000000,0.000000,0.000000,0.000000,0.000000,0.000000,0.154516,3,0
930000,0.002584,23.899988,0.033998,0.010713,25.565659,0.044789,0.000388,0.018996,1.570188,-0.048036,-0.000495,0.002089,0.000058,-0.005271,-0.000008,0.002250,-0.002671,0.117575,-0.011049,0.195515,0.195513,0.172979,0.598953,0.000000,0.000000,0.000000,0.000000,0.000000,0.000000,0.000000,0.000000,0.000000,0.000000,0.000000,0.000000,0.113772,3,0
940000,0.002604,24.162712,0.034515,0.010692,25.579952,0.045451,0.000394,0.019673,1.570176,-0.049380,-0.000512,0.002071,0.000061,-0.005491,-0.000009,0.007516,-0.002692,0.215891,0.002152,0.195908,0.195906,0.172896,0.592216,0.000000,0.000000,0.000000,0.000000,0.000000,0.000000,0.000000,0.000000,0.000000,0.000000,0.000000,0.000000,0.208858,3,0
950000,0.002625,24.423496,0.035584,0.010783,25.590580,0.046999,0.000397,0.020162,1.570169,-0.050329,-0.000530,0.001920,0.000064,-0.005648,-0.000009,0.003789,-0.002714,0.151812,0.021083,0.196289,0.196287,0.172799,0.585575,0.000000,0.000000,0.000000,0.000000,0.000000,0.000000,0.000000,0.000000,0.000000,0.000000,0.000000,0.000000,0.146868,3,0
960000,0.002644,24.686270,0.035460,0.010760,25.604540,0.046784,0.000391,0.020848,1.570174,-0.051644,-0.000547,0.002065,0.000067,-0.005870,-0.000009,0.007112,-0.002734,0.208984,-0.020898,0.196656,0.196654,0.172689,0.579031,0.000000,0.000000,0.000000,0.000000,0.000000,0.000000,0.000000,0.000000,0.000000,0.000000,0.000000,0.000000,0.202152,3,0
970000,0.002663,24.949701,0.034364,0.010747,25.619493,0.045111,0.000384,0.021574,1.570172,-0.053063,-0.000565,0.002453,0.000070,-0.006112,-0.000010,0.008599,-0.002753,0.224373,-0.054631,0.197012,0.197009,0.172565,0.572586,0.000000,0.000000,0.000000,0.000000,0.000000,0.000000,0.000000,0.000000,0.000000,0.000000,0.000000,0.000000,0.217023,3,0
980000,0.002682,25.213127,0.033254,0.010745,25.634251,0.043430,0.000389,0.022298,1.570160,-0.054456,-0.000583,0.002844,0.000073,-0.006354,-0.000010,0.008228,-0.002772,0.219215,-0.054526,0.197354,0.197352,0.172429,0.566242,0.000000,0.000000,0.000000,0.000000,0.000000,0.000000,0.000000,0.000000,0.000000,0.000000,0.000000,0.000000,0.212023,3,0
990000,0.002699,25.474581,0.032128,0.010729,25.645494,0.041919,0.000389,0.022839,1.570155,-0.055441,-0.000601,0.003240,0.000076,-0.006528,-0.000010,0.004328,-0.002791,0.154432,-0.054605,0.197685,0.197683,0.172280,0.560000,0.000000,0.000000,0.000000,0.000000,0.000000,0.000000,0.000000,0.000000,0.000000,0.000000,0.000000,0.000000,0.149368,3,0
1000000,0.002715,25.733427,0.032681,0.010709,25.651886,0.042802,0.000394,0.023115,1.570157,-0.055900,-0.000619,0.003206,0.000079,-0.006610,-0.000010,0.000835,-0.002808,0.071775,0.004402,0.198005,0.198002,0.172118,0.553861,0.000000,0.000000,0.000000,0.000000,0.000000,0.000000,0.000000,0.000000,0.000000,0.000000,0.000000,0.000000,0.069460,3,0
1010000,0.002731,25.991669,0.032069,0.010686,25.657171,0.041736,0.000388,0.023338,1.570153,-0.056232,-0.000638,0.003475,0.000082,-0.006670,-0.000010,0.000642,-0.002824,0.051413,-0.036419,0.198313,0.198311,0.171945,0.547825,0.000000,0.000000,0.000000,0.000000,0.000000,0.000000,0.000000,0.000000,0.000000,0.000000,0.000000,0.000000,0.049788,3,0
1020000,0.002746,26.254576,0.032675,0.010787,25.670683,0.042481,0.000376,0.024027,1.570144,-0.057461,-0.000656,0.003423,0.000086,-0.006897,-0.000011,0.005868,-0.002840,0.190695,0.006381,0.198611,0.198608,0.171760,0.541893,0.000000,0.000000,0.000000,0.000000,0.000000,0.000000,0.000000,0.000000,0.000000,0.000000,0.000000,0.000000,0.184404,3,0
1030000,0.002760,26.516157,0.033001,0.010713,25.681643,0.042787,0.000367,0.024573,1.570142,-0.058407,-0.000675,0.003447,0.000089,-0.007074,-0.000011,0.003453,-0.002855,0.146320,-0.003603,0.198898,0.198895,0.171563,0.536066,0.000000,0.000000,0.000000,0.000000,0.000000,0.000000,0.000000,0.000000,0.000000,0.000000,0.000000,0.000000,0.141497,3,0
1040000,0.002773,26.779068,0.034093,0.010662,25.694767,0.044352,0.000356,0.025246,1.570135,-0.059591,-0.000694,0.003267,0.000093,-0.007299,-0.000012,0.005472,-0.002869,0.182812,0.023035,0.199175,0.199172,0.171356,0.530344,0.000000,0.000000,0.000000,0.000000,0.000000,0.000000,0.000000,0.000000,0.000000,0.000000,0.000000,0.000000,0.176764,3,0
1050000,0.002785,27.040644,0.033616,0.010580,25.705423,0.043433,0.000343,0.025776,1.570121,-0.060493,-0.000713,0.003512,0.000097,-0.007473,-0.000012,0.003259,-0.002881,0.138437,-0.032402,0.199442,0.199439,0.171138,0.524728,0.000000,0.000000,0.000000,0.000000,0.000000,0.000000,0.000000,0.000000,0.000000,0.000000,0.000000,0.000000,0.133864,3,0
1060000,0.002798,27.300900,0.032167,0.010657,25.713591,0.041240,0.000339,0.026179,1.570124,-0.061117,-0.000732,0.004022,0.000100,-0.007595,-0.000012,0.002179,-0.002893,0.095425,-0.066231,0.199701,0.199698,0.170910,0.519216,0.000000,0.000000,0.000000,0.000000,0.000000,0.000000,0.000000,0.000000,0.000000,0.000000,0.000000,0.000000,0.092291,3,0
1070000,0.002810,27.561840,0.031912,0.010697,25.722931,0.040711,0.000330,0.026639,1.570115,-0.061858,-0.000752,0.004202,0.000104,-0.007742,-0.000012,0.002163,-0.002906,0.113390,-0.023592,0.199950,0.199947,0.170672,0.513811,0.000000,0.000000,0.000000,0.000000,0.000000,0.000000,0.000000,0.000000,0.000000,0.000000,0.000000,0.000000,0.109648,3,0
1080000,0.002822,27.824783,0.031940,0.010792,25.735729,0.040792,0.000327,0.027313,1.570104,-0.062974,-0.000771,0.004304,0.000108,-0.007967,-0.000013,0.004710,-0.002919,0.170418,-0.013542,0.200192,0.200189,0.170424,0.508510,0.000000,0.000000,0.000000,0.000000,0.000000,0.000000,0.000000,0.000000,0.000000,0.000000,0.000000,0.000000,0.164756,3,0
1090000,0.002833,28.088369,0.032296,0.010717,25.749407,0.041366,0.000330,0.028041,1.570100,-0.064191,-0.000791,0.004314,0.000112,-0.008216,-0.000013,0.005554,-0.002931,0.185650,-0.002007,0.200426,0.200422,0.170168,0.503314,0.000000,0.000000,0.000000,0.000000,0.000000,0.000000,0.000000,0.000000,0.000000,0.000000,0.000000,0.000000,0.179471,3,0
1100000,0.002844,28.351259,0.032271,0.010747,25.761805,0.041218,0.000315,0.028689,1.570102,-0.065245,-0.000811,0.004433,0.000116,-0.008435,-0.000013,0.004189,-0.002942,0.160475,-0.015585,0.200652,0.200649,0.169903,0.498223,0.000000,0.000000,0.000000,0.000000,0.000000,0.000000,0.000000,0.000000,0.000000,0.000000,0.000000,0.000000,0.155134,3,0
1110000,0.002855,28.612795,0.033022,0.010834,25.771637,0.042305,0.000317,0.029190,1.570099,-0.066008,-0.000830,0.004334,0.000120,-0.008596,-0.000014,0.002196,-0.002954,0.116127,0.011792,0.200872,0.200868,0.169630,0.493235,0.000000,0.000000,0.000000,0.000000,0.000000,0.000000,0.000000,0.000000,0.000000,0.000000,0.000000,0.000000,0.112276,3,0
1120000,0.002866,28.876324,0.031662,0.010832,25.784855,0.040597,0.000312,0.029909,1.570088,-0.067147,-0.000850,0.004840,0.000124,-0.008839,-0.000014,0.005448,-0.002965,0.172556,-0.063346,0.201085,0.201081,0.169350,0.488352,0.000000,0.000000,0.000000,0.000000,0.000000,0.000000,0.000000,0.000000,0.000000,0.000000,0.000000,0.000000,0.166797,3,0
1130000,0.002876,29.137150,0.030745,0.010746,25.793173,0.039445,0.000304,0.030324,1.570086,-0.067727,-0.000870,0.005220,0.000128,-0.008965,-0.000014,0.001604,-0.002976,0.087803,-0.047169,0.201293,0.201288,0.169062,0.483570,0.000000,0.000000,0.000000,0.000000,0.000000,0.000000,0.000000,0.000000,0.000000,0.000000,0.000000,0.000000,0.084905,3,0
1140000,0.002885,29.397310,0.031755,0.010722,25.800135,0.040838,0.000302,0.030656,1.570077,-0.068157,-0.000890,0.005040,0.000133,-0.009060,-0.000014,0.000768,-0.002985,0.065441,0.021745,0.201495,0.201490,0.168767,0.478891,0.000000,0.000000,0.000000,0.000000,0.000000,0.000000,0.000000,0.000000,0.000000,0.000000,0.000000,0.000000,0.063310,3,0
1150000,0.002893,29.655479,0.031910,0.010731,25.803537,0.040921,0.000293,0.030749,1.570072,-0.068184,-0.000910,0.005115,0.000137,-0.009066,-0.000014,0.000018,-0.002994,0.004000,-0.009207,0.201692,0.201687,0.168465,0.474313,0.000000,0.000000,0.000000,0.000000,0.000000,0.000000,0.000000,0.000000,0.000000,0.000000,0.000000,0.000000,0.004827,3,0
1160000,0.002902,29.917702,0.033203,0.010800,25.814096,0.042581,0.000290,0.031317,1.570077,-0.068997,-0.000930,0.004849,0.000142,-0.009251,-0.000015,0.002618,-0.003003,0.123495,0.031465,0.201884,0.201879,0.168158,0.469835,0.000000,0.000000,0.000000,0.000000,0.000000,0.000000,0.000000,0.000000,0.000000,0.000000,0.000000,0.000000,0.119376,3,0
1170000,0.002910,30.180573,0.032476,0.010782,25.825548,0.041712,0.000284,0.031941,1.570075,-0.069919,-0.000950,0.005188,0.000146,-0.009463,-0.000015,0.003412,-0.003011,0.139473,-0.041367,0.202072,0.202067,0.167844,0.465456,0.000000,0.000000,0.000000,0.000000,0.000000,0.000000,0.000000,0.000000,0.000000,0.000000,0.000000,0.000000,0.134807,3,0
1180000,0.002919,30.440729,0.032748,0.010849,25.832176,0.042128,0.000283,0.032242,1.570076,-0.070284,-0.000970,0.005231,0.000151,-0.009548,-0.000015,0.000500,-0.003021,0.055395,-0.005376,0.202256,0.202251,0.167525,0.461175,0.000000,0.000000,0.000000,0.000000,0.000000,0.000000,0.000000,0.000000,0.000000,0.000000,0.000000,0.000000,0.053607,3,0
1190000,0.002927,30.703575,0.031953,0.010782,25.843405,0.041087,0.000272,0.032853,1.570079,-0.071163,-0.000990,0.005595,0.000155,-0.009756,-0.000015,0.003165,-0.003028,0.133118,-0.043727,0.202437,0.202432,0.167202,0.456992,0.000000,0.000000,0.000000,0.000000,0.000000,0.000000,0.000000,0.000000,0.000000,0.000000,0.000000,0.000000,0.128659,3,0
1200000,0.002934,30.964371,0.032067,0.010756,25.850855,0.041300,0.000272,0.033224,1.570066,-0.071618,-0.001011,0.005684,0.000160,-0.009866,-0.000016,0.000786,-0.003036,0.068947,-0.010823,0.202615,0.202609,0.166873,0.452904,0.000000,0.000000,0.000000,0.000000,0.000000,0.000000,0.000000,0.000000,0.000000,0.000000,0.000000,0.000000,0.066683,3,0
1210000,0.002940,31.226505,0.032897,0.010771,25.860712,0.042313,0.000270,0.033741,1.570055,-0.072317,-0.001031,0.005550,0.000165,-0.010036,-0.000016,0.001856,-0.003043,0.106258,0.014947,0.202790,0.202784,0.166541,0.448912,0.000000,0.000000,0.000000,0.000000,0.000000,0.000000,0.000000,0.000000,0.000000,0.000000,0.000000,0.000000,0.102709,3,0
1220000,0.002947,31.487268,0.032618,0.010740,25.867960,0.042017,0.000259,0.034084,1.570056,-0.072730,-0.001051,0.005766,0.000170,-0.010138,-0.000016,0.000740,-0.003049,0.062693,-0.025497,0.202963,0.202957,0.166204,0.445013,0.000000,0.000000,0.000000,0.000000,0.000000,0.000000,0.000000,0.000000,0.000000,0.000000,0.000000,0.000000,0.060643,3,0
1230000,0.002952,31.749372,0.031724,0.010699,25.877560,0.040904,0.000248,0.034592,1.570050,-0.073389,-0.001072,0.006174,0.000175,-0.010304,-0.000016,0.001981,-0.003055,0.100040,-0.047642,0.203134,0.203127,0.165864,0.441206,0.000000,0.000000,0.000000,0.000000,0.000000,0.000000,0.000000,0.000000,0.000000,0.000000,0.000000,0.000000,0.096696,3,0
1240000,0.002958,32.011444,0.031478,0.010690,25.886868,0.040420,0.000230,0.035089,1.570044,-0.074022,-0.001092,0.006376,0.000180,-0.010465,-0.000017,0.001585,-0.003061,0.096268,-0.023739,0.203303,0.203296,0.165521,0.437490,0.000000,0.000000,0.000000,0.000000,0.000000,0.000000,0.000000,0.000000,0.000000,0.000000,0.000000,0.000000,0.093053,3,0
1250000,0.002963,32.274162,0.030528,0.010704,25.897203,0.039199,0.000217,0.035659,1.570046,-0.074760,-0.001112,0.006802,0.000185,-0.010656,-0.000017,0.002429,-0.003067,0.112408,-0.049230,0.203471,0.203463,0.165174,0.433864,0.000000,0.000000,0.000000,0.000000,0.000000,0.000000,0.000000,0.000000,0.000000,0.000000,0.000000,0.000000,0.108633,3,0
1260000,0.002966,32.532791,0.031379,0.010577,25.900160,0.040398,0.000214,0.035714,1.570032,-0.074686,-0.001132,0.006657,0.000191,-0.010637,-0.000017,0.000066,-0.003071,-0.011269,0.016467,0.203638,0.203630,0.164826,0.430326,0.000000,0.000000,0.000000,0.000000,0.000000,0.000000,0.000000,0.000000,0.000000,0.000000,0.000000,0.000000,0.011284,3,0
1270000,0.002968,32.791443,0.031930,0.010463,25.903248,0.040936,0.000208,0.035759,1.570030,-0.074611,-0.001152,0.006612,0.000196,-0.010617,-0.000017,0.000027,-0.003073,-0.011497,0.005200,0.203804,0.203796,0.164475,0.426876,0.000000,0.000000,0.000000,0.000000,0.000000,0.000000,0.000000,0.000000,0.000000,0.000000,0.000000,0.000000,0.011498,3,0
1280000,0.002970,33.052143,0.031041,0.010391,25.909929,0.039713,0.000195,0.036064,1.570027,-0.074925,-0.001173,0.007033,0.000201,-0.010702,-0.000017,0.000737,-0.003074,0.047882,-0.047515,0.203970,0.203961,0.164122,0.423511,0.000000,0.000000,0.000000,0.000000,0.000000,0.000000,0.000000,0.000000,0.000000,0.000000,0.000000,0.000000,0.046348,3,0
1290000,0.002971,33.310799,0.031209,0.010300,25.912775,0.040021,0.000193,0.036093,1.570029,-0.074834,-0.001193,0.007112,0.000207,-0.010677,-0.000017,0.000046,-0.003075,-0.014095,-0.008653,0.204135,0.204125,0.163767,0.420230,0.000000,0.000000,0.000000,0.000000,0.000000,0.000000,0.000000,0.000000,0.000000,0.000000,0.000000,0.000000,0.013935,3,0
1300000,0.002972,33.574215,0.030244,0.010360,25.924025,0.038740,0.000185,0.036741,1.570016,-0.075645,-0.001213,0.007556,0.000212,-0.010902,-0.000017,0.002915,-0.003076,0.124802,-0.050062,0.204300,0.204290,0.163411,0.417032,0.000000,0.000000,0.000000,0.000000,0.000000,0.000000,0.000000,0.000000,0.000000,0.000000,0.000000,0.000000,0.120585,3,0
1310000,0.002973,33.835541,0.030603,0.010386,25.931585,0.039217,0.000166,0.037112,1.570001,-0.076033,-0.001233,0.007561,0.000218,-0.011012,-0.000017,0.000582,-0.003078,0.060055,-0.001107,0.204466,0.204455,0.163054,0.413915,0.000000,0.000000,0.000000,0.000000,0.000000,0.000000,0.000000,0.000000,0.000000,0.000000,0.000000,0.000000,0.058086,3,0
1320000,0.002974,34.094131,0.030676,0.010410,25.934156,0.039234,0.000159,0.037110,1.569998,-0.075889,-0.001253,0.007673,0.000223,-0.010971,-0.000017,0.000106,-0.003079,-0.022430,-0.011980,0.204632,0.204621,0.162696,0.410879,0.000000,0.000000,0.000000,0.000000,0.000000,0.000000,0.000000,0.000000,0.000000,0.000000,0.000000,0.000000,0.021871,3,0
1330000,0.002974,34.355453,0.030391,0.010322,25.941420,0.038744,0.000150,0.037473,1.569995,-0.076256,-0.001273,0.007898,0.000229,-0.011077,-0.000017,0.000624,-0.003079,0.056892,-0.025031,0.204798,0.204787,0.162338,0.407920,0.000000,0.000000,0.000000,0.000000,0.000000,0.000000,0.000000,0.000000,0.000000,0.000000,0.000000,0.000000,0.055031,3,0
1340000,0.002974,34.614716,0.029491,0.010293,25.944979,0.037671,0.000138,0.037548,1.569983,-0.076223,-0.001293,0.008342,0.000235,-0.011068,-0.000017,0.000379,-0.003079,-0.005714,-0.047915,0.204966,0.204953,0.161979,0.405038,0.000000,0.000000,0.000000,0.000000,0.000000,0.000000,0.000000,0.000000,0.000000,0.000000,0.000000,0.000000,0.006274,3,0
1350000,0.002975,34.878063,0.028291,0.010344,25.955864,0.036065,0.000120,0.038175,1.569987,-0.076944,-0.001313,0.008875,0.000240,-0.011284,-0.000018,0.002598,-0.003080,0.112686,-0.058383,0.205134,0.205121,0.161620,0.402233,0.000000,0.000000,0.000000,0.000000,0.000000,0.000000,0.000000,0.000000,0.000000,0.000000,0.000000,0.000000,0.108870,3,0
1360000,0.002974,35.137943,0.029315,0.010226,25.960310,0.037432,0.000115,0.038308,1.569984,-0.076995,-0.001332,0.008645,0.000246,-0.011299,-0.000018,0.000110,-0.003079,0.008263,0.024493,0.205303,0.205290,0.161262,0.399500,0.000000,0.000000,0.000000,0.000000,0.000000,0.000000,0.000000,0.000000,0.000000,0.000000,0.000000,0.000000,0.008516,3,0
1370000,0.002971,35.399178,0.030080,0.010154,25.967087,0.038465,0.000099,0.038626,1.569983,-0.077288,-0.001352,0.008505,0.000252,-0.011389,-0.000018,0.000384,-0.003077,0.046520,0.014497,0.205474,0.205460,0.160904,0.396841,0.000000,0.000000,0.000000,0.000000,0.000000,0.000000,0.000000,0.000000,0.000000,0.000000,0.000000,0.000000,0.045028,3,0
1380000,0.002969,35.661751,0.029421,0.010042,25.976231,0.037616,0.000096,0.039125,1.569968,-0.077816,-0.001372,0.008864,0.000258,-0.011554,-0.000018,0.001367,-0.003074,0.083405,-0.038941,0.205646,0.205631,0.160546,0.394252,0.000000,0.000000,0.000000,0.000000,0.000000,0.000000,0.000000,0.000000,0.000000,0.000000,0.000000,0.000000,0.080598,3,0
1390000,0.002966,35.922230,0.028612,0.009970,25.981621,0.036696,0.000087,0.039319,1.569960,-0.077942,-0.001391,0.009285,0.000264,-0.011594,-0.000018,0.000385,-0.003070,0.019527,-0.044541,0.205819,0.205804,0.160190,0.391735,0.000000,0.000000,0.000000,0.000000,0.000000,0.000000,0.000000,0.000000,0.000000,0.000000,0.000000,0.000000,0.019084,3,0
1400000,0.002962,36.182003,0.028824,0.009921,25.985569,0.036771,0.000084,0.039407,1.569948,-0.077927,-0.001410,0.009342,0.000270,-0.011589,-0.000018,0.000008,-0.003067,-0.002460,-0.005912,0.205994,0.205978,0.159834,0.389284,0.000000,0.000000,0.000000,0.000000,0.000000,0.000000,0.000000,0.000000,0.000000,0.000000,0.000000,0.000000,0.003797,3,0
1410000,0.002957,36.445187,0.027792,0.009847,25.995544,0.035357,0.000075,0.039993,1.569945,-0.078524,-0.001430,0.009835,0.000276,-0.011784,-0.000019,0.001917,-0.003062,0.095551,-0.052441,0.206171,0.206154,0.159480,0.386901,0.000000,0.000000,0.000000,0.000000,0.000000,0.000000,0.000000,0.000000,0.000000,0.000000,0.000000,0.000000,0.092310,3,0
1420000,0.002952,36.708302,0.029150,0.009841,26.005301,0.037112,0.000068,0.040557,1.569948,-0.079081,-0.001449,0.009459,0.000283,-0.011968,-0.000019,0.001559,-0.003058,0.090691,0.037979,0.206349,0.206331,0.159127,0.384583,0.000000,0.000000,0.000000,0.000000,0.000000,0.000000,0.000000,0.000000,0.000000,0.000000,0.000000,0.000000,0.087624,3,0
1430000,0.002946,36.971352,0.030491,0.009813,26.014963,0.038874,0.000055,0.041086,1.569943,-0.079607,-0.001468,0.009094,0.000289,-0.012143,-0.000019,0.001408,-0.003052,0.085899,0.036744,0.206529,0.206511,0.158775,0.382329,0.000000,0.000000,0.000000,0.000000,0.000000,0.000000,0.000000,0.000000,0.000000,0.000000,0.000000,0.000000,0.082999,3,0
1440000,0.002941,37.232971,0.030911,0.009742,26.021748,0.039276,0.000050,0.041412,1.569933,-0.079860,-0.001486,0.009077,0.000296,-0.012229,-0.000019,0.000278,-0.003046,0.041424,0.001232,0.206711,0.206692,0.158426,0.380138,0.000000,0.000000,0.000000,0.000000,0.000000,0.000000,0.000000,0.000000,0.000000,0.000000,0.000000,0.000000,0.040105,3,0
1450000,0.002936,37.495926,0.029928,0.009747,26.030931,0.037850,0.000044,0.041933,1.569918,-0.080337,-0.001505,0.009576,0.000302,-0.012395,-0.000020,0.001417,-0.003040,0.077919,-0.051999,0.206895,0.206875,0.158078,0.378008,0.000000,0.000000,0.000000,0.000000,0.000000,0.000000,0.000000,0.000000,0.000000,0.000000,0.000000,0.000000,0.075283,3,0
1460000,0.002929,37.758808,0.030815,0.009615,26.039913,0.038825,0.000037,0.042423,1.569906,-0.080779,-0.001524,0.009376,0.000308,-0.012549,-0.000020,0.000928,-0.003034,0.073299,0.019482,0.207081,0.207059,0.157732,0.375938,0.000000,0.000000,0.000000,0.000000,0.000000,0.000000,0.000000,0.000000,0.000000,0.000000,0.000000,0.000000,0.070831,3,0
1470000,0.002923,38.017513,0.030086,0.009612,26.041231,0.037795,0.000035,0.042274,1.569906,-0.080479,-0.001542,0.009806,0.000315,-0.012443,-0.000020,0.000711,-0.003027,-0.050522,-0.042918,0.207268,0.207246,0.157389,0.373927,0.000000,0.000000,0.000000,0.000000,0.000000,0.000000,0.000000,0.000000,0.000000,0.000000,0.000000,0.000000,0.048870,3,0
1480000,0.002917,38.279648,0.030806,0.009621,26.048670,0.038444,0.000016,0.042639,1.569895,-0.080768,-0.001560,0.009669,0.000321,-0.012547,-0.000020,0.000410,-0.003021,0.048580,0.013202,0.207457,0.207434,0.157048,0.371972,0.000000,0.000000,0.000000,0.000000,0.000000,0.000000,0.000000,0.000000,0.000000,0.000000,0.000000,0.000000,0.046992,3,0
1490000,0.002911,38.540363,0.029786,0.009567,26.053476,0.037111,0.000002,0.042777,1.569879,-0.080802,-0.001578,0.010205,0.000328,-0.012561,-0.000020,0.000477,-0.003014,0.005039,-0.053900,0.207648,0.207624,0.156710,0.370073,0.000000,0.000000,0.000000,0.000000,0.000000,0.000000,0.000000,0.000000,0.000000,0.000000,0.000000,0.000000,0.005662,3,0
1500000,0.002904,38.803108,0.028763,0.009478,26.061941,0.035616,-0.000019,0.043225,1.569869,-0.081173,-0.001596,0.010730,0.000334,-0.012700,-0.000020,0.001087,-0.003007,0.062340,-0.053281,0.207840,0.207815,0.156374,0.368228,0.000000,0.000000,0.000000,0.000000,0.000000,0.000000,0.000000,0.000000,0.000000,0.000000,0.000000,0.000000,0.060243,3,0
1510000,0.002897,39.061653,0.027883,0.009489,26.062651,0.034524,-0.000040,0.043014,1.569860,-0.080818,-0.001614,0.011221,0.000340,-0.012567,-0.000020,0.000981,-0.003001,-0.061340,-0.047989,0.208034,0.208008,0.156041,0.366437,0.000000,0.000000,0.000000,0.000000,0.000000,0.000000,0.000000,0.000000,0.000000,0.000000,0.000000,0.000000,0.059290,3,0
1520000,0.002890,39.320877,0.028424,0.009428,26.064491,0.035090,-0.000054,0.042896,1.569856,-0.080576,-0.001631,0.011154,0.000347,-0.012474,-0.000020,0.000288,-0.002993,-0.041584,0.007194,0.208230,0.208203,0.155711,0.364696,0.000000,0.000000,0.000000,0.000000,0.000000,0.000000,0.000000,0.000000,0.000000,0.000000,0.000000,0.000000,0.040242,3,0
1530000,0.002883,39.581486,0.027415,0.009415,26.068930,0.033949,-0.000059,0.042999,1.569849,-0.080565,-0.001649,0.011689,0.000354,-0.012470,-0.000020,0.000454,-0.002986,-0.002647,-0.052717,0.208427,0.208399,0.155384,0.363006,0.000000,0.000000,0.000000,0.000000,0.000000,0.000000,0.000000,0.000000,0.000000,0.000000,0.000000,0.000000,0.003858,3,0
1540000,0.002875,39.839283,0.028258,0.009393,26.067991,0.035028,-0.000068,0.042643,1.569842,-0.080080,-0.001665,0.011510,0.000360,-0.012279,-0.000020,0.001204,-0.002978,-0.084389,0.018818,0.208626,0.208597,0.155059,0.361365,0.000000,0.000000,0.000000,0.000000,0.000000,0.000000,0.000000,0.000000,0.000000,0.000000,0.000000,0.000000,0.081502,3,0
1550000,0.002867,40.098473,0.029150,0.009399,26.069687,0.035953,-0.000084,0.042521,1.569832,-0.079829,-0.001682,0.011306,0.000367,-0.012178,-0.000019,0.000382,-0.002971,-0.043991,0.020620,0.208827,0.208797,0.154738,0.359771,0.000000,0.000000,0.000000,0.000000,0.000000,0.000000,0.000000,0.000000,0.000000,0.000000,0.000000,0.000000,0.042554,3,0
1560000,0.002860,40.360432,0.028582,0.009365,26.076368,0.035360,-0.000092,0.042819,1.569826,-0.080027,-0.001699,0.011670,0.000374,-0.012259,-0.000020,0.000406,-0.002962,0.034744,-0.036025,0.209028,0.208997,0.154421,0.358223,0.000000,0.000000,0.000000,0.000000,0.000000,0.000000,0.000000,0.000000,0.000000,0.000000,0.000000,0.000000,0.033649,3,0
1570000,0.002851,40.622322,0.029250,0.009260,26.082777,0.036265,-0.000097,0.043111,1.569809,-0.080201,-0.001715,0.011539,0.000381,-0.012331,-0.000020,0.000182,-0.002954,0.031147,0.012215,0.209231,0.209199,0.154106,0.356720,0.000000,0.000000,0.000000,0.000000,0.000000,0.000000,0.000000,0.000000,0.000000,0.000000,0.000000,0.000000,0.030199,3,0
1580000,0.002842,40.879303,0.029114,0.009189,26.080227,0.036068,-0.000103,0.042612,1.569792,-0.079584,-0.001731,0.011768,0.000387,-0.012073,-0.000019,0.002070,-0.002945,-0.111538,-0.020334,0.209436,0.209402,0.153796,0.355262,0.000000,0.000000,0.000000,0.000000,0.000000,0.000000,0.000000,0.000000,0.000000,0.000000,0.000000,0.000000,0.107684,3,0
1590000,0.002832,41.139774,0.030417,0.009062,26.084024,0.037501,-0.000113,0.042665,1.569786,-0.079523,-0.001747,0.011389,0.000394,-0.012046,-0.000019,0.000238,-0.002935,-0.010674,0.036622,0.209641,0.209606,0.153488,0.353847,0.000000,0.000000,0.000000,0.000000,0.000000,0.000000,0.000000,0.000000,0.000000,0.000000,0.000000,0.000000,0.010678,3,0
1600000,0.002820,41.400909,0.030777,0.008908,26.089041,0.037941,-0.000132,0.042822,1.569776,-0.079561,-0.001763,0.011395,0.000401,-0.012063,-0.000019,0.000010,-0.002923,0.007122,-0.000719,0.209847,0.209811,0.153184,0.352473,0.000000,0.000000,0.000000,0.000000,0.000000,0.000000,0.000000,0.000000,0.000000,0.000000,0.000000,0.000000,0.007430,3,0
1610000,0.002809,41.659904,0.031615,0.008882,26.089893,0.039113,-0.000141,0.042615,1.569771,-0.079262,-0.001779,0.011223,0.000408,-0.011931,-0.000019,0.000542,-0.002911,-0.055271,0.017384,0.210054,0.210017,0.152884,0.351138,0.000000,0.000000,0.000000,0.000000,0.000000,0.000000,0.000000,0.000000,0.000000,0.000000,0.000000,0.000000,0.053407,3,0
1620000,0.002799,41.916813,0.030875,0.008858,26.087017,0.038250,-0.000158,0.042071,1.569756,-0.078648,-0.001794,0.011723,0.000415,-0.011658,-0.000019,0.002483,-0.002899,-0.115486,-0.045527,0.210262,0.210224,0.152587,0.349843,0.000000,0.000000,0.000000,0.000000,0.000000,0.000000,0.000000,0.000000,0.000000,0.000000,0.000000,0.000000,0.111485,3,0
1630000,0.002788,42.176521,0.030813,0.008845,26.089197,0.038290,-0.000162,0.041973,1.569752,-0.078468,-0.001809,0.011920,0.000422,-0.011577,-0.000018,0.000245,-0.002889,-0.034424,-0.018024,0.210471,0.210431,0.152295,0.348586,0.000000,0.000000,0.000000,0.000000,0.000000,0.000000,0.000000,0.000000,0.000000,0.000000,0.000000,0.000000,0.033335,3,0
1640000,0.002776,42.438293,0.031784,0.008769,26.095129,0.039199,-0.000185,0.042212,1.569744,-0.078591,-0.001824,0.011668,0.000429,-0.011633,-0.000019,0.000182,-0.002877,0.023907,0.023315,0.210680,0.210639,0.152006,0.347365,0.000000,0.000000,0.000000,0.000000,0.000000,0.000000,0.000000,0.000000,0.000000,0.000000,0.000000,0.000000,0.023238,3,0
1650000,0.002764,42.697227,0.031219,0.008607,26.095791,0.038693,-0.000195,0.041981,1.569727,-0.078288,-0.001839,0.012090,0.000435,-0.011493,-0.000018,0.000803,-0.002864,-0.059013,-0.038564,0.210889,0.210847,0.151720,0.346180,0.000000,0.000000,0.000000,0.000000,0.000000,0.000000,0.000000,0.000000,0.000000,0.000000,0.000000,0.000000,0.057017,3,0
1660000,0.002751,42.956833,0.031920,0.008599,26.097649,0.039490,-0.000201,0.041843,1.569727,-0.078084,-0.001854,0.011970,0.000442,-0.011395,-0.000018,0.000277,-0.002852,-0.039650,0.011963,0.211099,0.211055,0.151439,0.345030,0.000000,0.000000,0.000000,0.000000,0.000000,0.000000,0.000000,0.000000,0.000000,0.000000,0.000000,0.000000,0.038353,3,0
1670000,0.002738,43.213612,0.032972,0.008553,26.094158,0.040835,-0.000219,0.041242,1.569713,-0.077471,-0.001867,0.011727,0.000449,-0.011099,-0.000018,0.002431,-0.002839,-0.120365,0.024819,0.211308,0.211264,0.151162,0.343913,0.000000,0.000000,0.000000,0.000000,0.000000,0.000000,0.000000,0.000000,0.000000,0.000000,0.000000,0.000000,0.116155,3,0
1680000,0.002725,43.472511,0.033864,0.008445,26.094614,0.041954,-0.000241,0.040985,1.569713,-0.077173,-0.001881,0.011540,0.000456,-0.010952,-0.000018,0.000617,-0.002825,-0.059044,0.018502,0.211518,0.211472,0.150888,0.342827,0.000000,0.000000,0.000000,0.000000,0.000000,0.000000,0.000000,0.000000,0.000000,0.000000,0.000000,0.000000,0.057022,3,0
1690000,0.002711,43.732803,0.034453,0.008410,26.097567,0.042480,-0.000256,0.040971,1.569705,-0.077074,-0.001895,0.011474,0.000463,-0.010903,-0.000017,0.000071,-0.002811,-0.019764,0.006447,0.211727,0.211680,0.150618,0.341773,0.000000,0.000000,0.000000,0.000000,0.000000,0.000000,0.000000,0.000000,0.000000,0.000000,0.000000,0.000000,0.019258,3,0
1700000,0.002697,43.993069,0.034003,0.008243,26.100512,0.042053,-0.000261,0.040949,1.569702,-0.076971,-0.001909,0.011862,0.000470,-0.010852,-0.000017,0.000280,-0.002796,-0.021660,-0.035348,0.211935,0.211887,0.150353,0.340750,0.000000,0.000000,0.000000,0.000000,0.000000,0.000000,0.000000,0.000000,0.000000,0.000000,0.000000,0.000000,0.021078,3,0
1710000,0.002683,44.251884,0.034022,0.008173,26.100660,0.042262,-0.000269,0.040669,1.569700,-0.076665,-0.001922,0.012060,0.000477,-0.010695,-0.000017,0.000692,-0.002781,-0.063286,-0.016935,0.212144,0.212094,0.150091,0.339756,0.000000,0.000000,0.000000,0.000000,0.000000,0.000000,0.000000,0.000000,0.000000,0.000000,0.000000,0.000000,0.061113,3,0
1720000,0.002667,44.513500,0.034092,0.007994,26.106005,0.042303,-0.000292,0.040872,1.569685,-0.076742,-0.001936,0.012212,0.000484,-0.010736,-0.000017,0.000074,-0.002765,0.015835,-0.014165,0.212351,0.212300,0.149834,0.338790,0.000000,0.000000,0.000000,0.000000,0.000000,0.000000,0.000000,0.000000,0.000000,0.000000,0.000000,0.000000,0.015501,3,0
