time_us,pos_x,pos_y,pos_z,vel_x,vel_y,vel_z,roll,pitch,yaw,bias_ax,bias_ay,bias_az,bias_gx,bias_gy,bias_gz,nis,innov_x,innov_y,innov_z,cov_pos_x,cov_pos_y,cov_pos_z,cov_yaw,des_speed,des_heading,des_climb,pid_speed,pid_yaw,pid_alt,speed_meas,yaw_meas,climb_meas,fwd_accel,yaw_rate,vert_accel,drift_m,nav_mode,mission_state
0,0.000002,0.150001,0.000000,0.000353,25.000151,0.000114,0.000005,0.000008,1.570808,0.000000,0.000000,0.000000,0.000000,0.000000,0.000000,0.006250,-0.000004,-0.250004,-0.000001,2.400038,2.400038,3.600017,1.000518,0.000000,0.000000,0.000000,0.000000,0.000000,0.000000,0.000000,0.000000,0.000000,0.000000,0.000000,0.000000,0.150001,1,0
10000,0.000006,0.365231,0.001469,0.000679,25.000277,0.000404,0.000002,0.000001,1.570812,0.000000,-0.000000,-0.000000,0.000000,0.000000,0.000000,0.001765,-0.000009,-0.121701,0.003906,1.714420,1.714420,2.250079,1.001073,0.000000,0.000000,0.000000,0.000000,0.000000,0.000000,0.000000,0.000000,0.000000,0.000000,0.000000,0.000000,0.086927,3,0
20000,0.000012,0.593370,0.010659,0.000962,25.000450,0.000579,0.000015,0.000007,1.570819,0.000001,-0.000000,-0.000000,0.000000,0.000000,0.000000,0.001392,-0.000016,-0.098387,0.033674,1.333616,1.333616,1.636554,1.001655,0.000000,0.000000,0.000000,0.000000,0.000000,0.000000,0.000000,0.000000,0.000000,0.000000,0.000000,0.000000,0.076518,3,0
30000,0.000021,0.830992,0.000373,0.001366,25.000616,0.000474,0.000015,0.000015,1.570825,0.000002,-0.000000,0.000000,-0.000000,0.000000,0.000000,0.000934,-0.000026,-0.068101,-0.048020,1.091392,1.091392,1.286065,1.002257,0.000000,0.000000,0.000000,0.000000,0.000000,0.000000,0.000000,0.000000,0.000000,0.000000,0.000000,0.000000,0.055714,3,0
40000,0.000032,1.079841,-0.004606,0.001639,25.000967,0.000470,0.000021,0.000018,1.570837,0.000003,-0.000000,0.000001,-0.000000,0.000000,0.000000,0.000117,-0.000038,-0.007540,-0.028230,0.923811,0.923811,1.059385,1.002869,0.000000,0.000000,0.000000,0.000000,0.000000,0.000000,0.000000,0.000000,0.000000,0.000000,0.000000,0.000000,0.006379,3,0
50000,0.000044,1.316856,0.002690,0.001861,25.000826,0.000730,0.000026,0.000024,1.570850,0.000007,-0.000000,-0.000001,0.000000,0.000000,0.000000,0.001703,-0.000051,-0.097361,0.048559,0.801036,0.801036,0.900822,1.003484,0.000000,0.000000,0.000000,0.000000,0.000000,0.000000,0.000000,0.000000,0.000000,0.000000,0.000000,0.000000,0.084363,3,0
60000,0.000058,1.557915,0.005912,0.002189,25.000704,0.000907,0.000034,0.000026,1.570854,0.000011,-0.000000,-0.000002,0.000000,0.000000,0.000000,0.000936,-0.000066,-0.075949,0.024611,0.707270,0.707270,0.783741,1.004094,0.000000,0.000000,0.000000,0.000000,0.000000,0.000000,0.000000,0.000000,0.000000,0.000000,0.000000,0.000000,0.066996,3,0
70000,0.000074,1.816431,-0.000514,0.002490,25.001642,0.000850,0.000041,0.000022,1.570871,0.000005,-0.000000,0.000002,0.000000,0.000000,0.000000,0.001425,-0.000083,0.080572,-0.055681,0.633370,0.633370,0.693801,1.004688,0.000000,0.000000,0.000000,0.000000,0.000000,0.000000,0.000000,0.000000,0.000000,0.000000,0.000000,0.000000,0.072066,3,0
80000,0.000093,2.074146,-0.003489,0.002820,25.002714,0.000797,0.000044,0.000020,1.570878,-0.000003,-0.000000,0.000005,0.000000,-0.000000,-0.000000,0.001100,-0.000102,0.080472,-0.028761,0.573673,0.573673,0.622594,1.005260,0.000000,0.000000,0.000000,0.000000,0.000000,0.000000,0.000000,0.000000,0.000000,0.000000,0.000000,0.000000,0.072778,3,0
90000,0.000113,2.327796,-0.002733,0.003162,25.003386,0.001113,0.000049,0.000031,1.570878,-0.000009,-0.000000,0.000004,0.000000,-0.000000,-0.000000,0.000270,-0.000124,0.041415,0.007921,0.524488,0.524488,0.564865,1.005801,0.000000,0.000000,0.000000,0.000000,0.000000,0.000000,0.000000,0.000000,0.000000,0.000000,0.000000,0.000000,0.037795,3,0
100000,0.000136,2.573547,-0.002610,0.003419,25.003187,0.001104,0.000054,0.000035,1.570877,-0.000000,-0.000000,0.000004,0.000000,-0.000000,-0.000000,0.000434,-0.000148,-0.053211,0.001295,0.483304,0.483304,0.517162,1.006301,0.000000,0.000000,0.000000,0.000000,0.000000,0.000000,0.000000,0.000000,0.000000,0.000000,0.000000,0.000000,0.048925,3,0
110000,0.000160,2.822039,-0.005474,0.003759,25.003321,0.000897,0.000049,0.000037,1.570882,0.000004,-0.000000,0.000010,0.000000,0.000000,0.000000,0.000267,-0.000173,-0.020655,-0.036173,0.448354,0.448354,0.477121,1.006754,0.000000,0.000000,0.000000,0.000000,0.000000,0.000000,0.000000,0.000000,0.000000,0.000000,0.000000,0.000000,0.019113,3,0
120000,0.000187,3.076873,-0.003880,0.004036,25.004498,0.001431,0.000047,0.000038,1.570883,-0.000012,-0.000000,0.000006,0.000000,-0.000000,-0.000000,0.000805,-0.000201,0.068793,0.021428,0.418359,0.418359,0.443071,1.007150,0.000000,0.000000,0.000000,0.000000,0.000000,0.000000,0.000000,0.000000,0.000000,0.000000,0.000000,0.000000,0.063996,3,0
130000,0.000214,3.327754,-0.005886,0.004264,25.005037,0.001161,0.000057,0.000044,1.570893,-0.000015,-0.000000,0.000013,0.000000,-0.000000,-0.000000,0.000159,-0.000229,0.012736,-0.029309,0.392369,0.392369,0.413797,1.007481,0.000000,0.000000,0.000000,0.000000,0.000000,0.000000,0.000000,0.000000,0.000000,0.000000,0.000000,0.000000,0.011905,3,0
140000,0.000244,3.582732,-0.004890,0.004533,25.006470,0.001586,0.000064,0.000044,1.570903,-0.000038,-0.000000,0.000009,0.000000,-0.000001,-0.000000,0.001035,-0.000260,0.079912,0.015172,0.369667,0.369667,0.388393,1.007739,0.000000,0.000000,0.000000,0.000000,0.000000,0.000000,0.000000,0.000000,0.000000,0.000000,0.000000,0.000000,0.074989,3,0
150000,0.000274,3.831866,-0.003343,0.004745,25.006664,0.002024,0.000078,0.000043,1.570920,-0.000033,-0.000000,0.000000,0.000000,-0.000001,-0.000000,0.000139,-0.000291,-0.016049,0.025067,0.349695,0.349695,0.366172,1.007915,0.000000,0.000000,0.000000,0.000000,0.000000,0.000000,0.000000,0.000000,0.000000,0.000000,0.000000,0.000000,0.015116,3,0
160000,0.000308,4.089263,-0.005800,0.005148,25.009043,0.001641,0.000077,0.000066,1.570926,-0.000083,-0.000000,0.000016,0.000000,-0.000002,-0.000000,0.003049,-0.000326,0.132393,-0.042927,0.332021,0.332021,0.346600,1.008002,0.000000,0.000000,0.000000,0.000000,0.000000,0.000000,0.000000,0.000000,0.000000,0.000000,0.000000,0.000000,0.125068,3,0
170000,0.000343,4.345342,-0.006362,0.005433,25.011276,0.001634,0.000076,0.000073,1.570931,-0.000132,-0.000001,0.000021,0.000000,-0.000003,-0.000000,0.002052,-0.000362,0.113520,-0.010558,0.316298,0.316298,0.329260,1.007991,0.000000,0.000000,0.000000,0.000000,0.000000,0.000000,0.000000,0.000000,0.000000,0.000000,0.000000,0.000000,0.107536,3,0
180000,0.000381,4.600292,-0.007327,0.005767,25.013155,0.001530,0.000077,0.000088,1.570932,-0.000178,-0.000001,0.000030,0.000000,-0.000004,-0.000000,0.001513,-0.000401,0.095966,-0.018804,0.302247,0.302247,0.313817,1.007875,0.000000,0.000000,0.000000,0.000000,0.000000,0.000000,0.000000,0.000000,0.000000,0.000000,0.000000,0.000000,0.091132,3,0
190000,0.000419,4.858106,-0.007727,0.005979,25.016245,0.001647,0.000088,0.000124,1.570948,-0.000262,-0.000001,0.000034,0.000000,-0.000006,-0.000000,0.004024,-0.000440,0.159060,-0.008359,0.289642,0.289642,0.300003,1.007645,0.000000,0.000000,0.000000,0.000000,0.000000,0.000000,0.000000,0.000000,0.000000,0.000000,0.000000,0.000000,0.151382,3,0
200000,0.000459,5.110144,-0.005350,0.006187,25.017345,0.002452,0.000089,0.000134,1.570959,-0.000285,-0.000001,0.000006,0.000000,-0.000007,-0.000000,0.000644,-0.000481,0.040368,0.049271,0.278296,0.278296,0.287598,1.007295,0.000000,0.000000,0.000000,0.000000,0.000000,0.000000,0.000000,0.000000,0.000000,0.000000,0.000000,0.000000,0.038498,3,0
210000,0.000500,5.365962,-0.006950,0.006490,25.020142,0.001934,0.000094,0.000158,1.570967,-0.000366,-0.000002,0.000028,0.000000,-0.000009,-0.000000,0.002736,-0.000524,0.126259,-0.035300,0.268055,0.268055,0.276421,1.006816,0.000000,0.000000,0.000000,0.000000,0.000000,0.000000,0.000000,0.000000,0.000000,0.000000,0.000000,0.000000,0.120620,3,0
220000,0.000543,5.618295,-0.005777,0.006716,25.021549,0.002522,0.000103,0.000175,1.570979,-0.000400,-0.000002,0.000010,0.000000,-0.000010,-0.000000,0.000495,-0.000568,0.049324,0.025963,0.258788,0.258788,0.266321,1.006202,0.000000,0.000000,0.000000,0.000000,0.000000,0.000000,0.000000,0.000000,0.000000,0.000000,0.000000,0.000000,0.047200,3,0
230000,0.000588,5.869996,-0.007385,0.007064,25.022583,0.001785,0.000115,0.000182,1.570995,-0.000427,-0.000003,0.000039,0.000000,-0.000011,-0.000000,0.000433,-0.000614,0.035525,-0.038100,0.250387,0.250387,0.257172,1.005446,0.000000,0.000000,0.000000,0.000000,0.000000,0.000000,0.000000,0.000000,0.000000,0.000000,0.000000,0.000000,0.034048,3,0
240000,0.000635,6.125151,-0.008528,0.007288,25.025583,0.001204,0.000124,0.000205,1.571009,-0.000528,-0.000003,0.000061,0.000000,-0.000015,-0.000000,0.002496,-0.000661,0.121755,-0.027986,0.242757,0.242757,0.248866,1.004541,0.000000,0.000000,0.000000,0.000000,0.000000,0.000000,0.000000,0.000000,0.000000,0.000000,0.000000,0.000000,0.116831,3,0
250000,0.000682,6.380323,-0.006455,0.007528,25.028749,0.002613,0.000119,0.000248,1.571021,-0.000639,-0.000004,0.000016,0.000000,-0.000019,-0.000000,0.002921,-0.000710,0.124995,0.051170,0.235820,0.235820,0.241314,1.003481,0.000000,0.000000,0.000000,0.000000,0.000000,0.000000,0.000000,0.000000,0.000000,0.000000,0.000000,0.000000,0.120084,3,0
260000,0.000732,6.633998,-0.005310,0.007866,25.031183,0.003446,0.000121,0.000276,1.571037,-0.000724,-0.000004,-0.000011,0.000000,-0.000022,-0.000000,0.001385,-0.000761,0.088459,0.028589,0.229507,0.229507,0.234436,1.002258,0.000000,0.000000,0.000000,0.000000,0.000000,0.000000,0.000000,0.000000,0.000000,0.000000,0.000000,0.000000,0.085079,3,0
270000,0.000783,6.887789,-0.006305,0.008090,25.033806,0.003057,0.000129,0.000312,1.571037,-0.000820,-0.000005,0.000017,0.000000,-0.000025,-0.000000,0.001512,-0.000813,0.093186,-0.027150,0.223757,0.223757,0.228165,1.000869,0.000000,0.000000,0.000000,0.000000,0.000000,0.000000,0.000000,0.000000,0.000000,0.000000,0.000000,0.000000,0.089714,3,0
280000,0.000835,7.142418,-0.004972,0.008402,25.037249,0.004174,0.000135,0.000365,1.571053,-0.000950,-0.000006,-0.000021,0.000000,-0.000031,-0.000000,0.002421,-0.000867,0.117672,0.035059,0.218519,0.218519,0.222443,0.999307,0.000000,0.000000,0.000000,0.000000,0.000000,0.000000,0.000000,0.000000,0.000000,0.000000,0.000000,0.000000,0.113390,3,0
290000,0.000889,7.397120,-0.003127,0.008644,25.040800,0.005403,0.000140,0.000417,1.571069,-0.001093,-0.000007,-0.000079,0.000000,-0.000036,-0.000000,0.002769,-0.000922,0.121436,0.049805,0.213748,0.213748,0.217219,0.997567,0.000000,0.000000,0.000000,0.000000,0.000000,0.000000,0.000000,0.000000,0.000000,0.000000,0.000000,0.000000,0.117113,3,0
300000,0.000945,7.652593,-0.004461,0.008967,25.045105,0.004677,0.000154,0.000478,1.571073,-0.001276,-0.000008,-0.000031,0.000000,-0.000044,-0.000000,0.003630,-0.000979,0.145002,-0.039276,0.209403,0.209403,0.212446,0.995645,0.000000,0.000000,0.000000,0.000000,0.000000,0.000000,0.000000,0.000000,0.000000,0.000000,0.000000,0.000000,0.139945,3,0
310000,0.001003,7.906752,-0.004291,0.009309,25.048519,0.004828,0.000158,0.000524,1.571082,-0.001420,-0.000010,-0.000035,0.000000,-0.000051,-0.000000,0.001885,-0.001038,0.108154,0.003560,0.205449,0.205449,0.208087,0.993536,0.000000,0.000000,0.000000,0.000000,0.000000,0.000000,0.000000,0.000000,0.000000,0.000000,0.000000,0.000000,0.104456,3,0
320000,0.001062,8.160353,-0.002411,0.009548,25.051600,0.006207,0.000152,0.000563,1.571092,-0.001551,-0.000011,-0.000111,0.000000,-0.000057,-0.000000,0.001845,-0.001099,0.092509,0.053851,0.201853,0.201853,0.204105,0.991237,0.000000,0.000000,0.000000,0.000000,0.000000,0.000000,0.000000,0.000000,0.000000,0.000000,0.000000,0.000000,0.089404,3,0
330000,0.001121,8.416068,-0.002399,0.009756,25.056713,0.006383,0.000166,0.000646,1.571094,-0.001786,-0.000013,-0.000109,0.000001,-0.000068,-0.000000,0.003970,-0.001159,0.156940,-0.001551,0.198588,0.198588,0.200469,0.988743,0.000000,0.000000,0.000000,0.000000,0.000000,0.000000,0.000000,0.000000,0.000000,0.000000,0.000000,0.000000,0.151749,3,0
340000,0.001182,8.672491,-0.001926,0.010038,25.062588,0.006853,0.000171,0.000735,1.571098,-0.002070,-0.000015,-0.000128,0.000001,-0.000082,-0.000000,0.005219,-0.001222,0.179479,0.012396,0.195629,0.195629,0.197151,0.986053,0.000000,0.000000,0.000000,0.000000,0.000000,0.000000,0.000000,0.000000,0.000000,0.000000,0.000000,0.000000,0.173631,3,0
350000,0.001245,8.928316,-0.000859,0.010376,25.068068,0.007733,0.000181,0.000825,1.571114,-0.002339,-0.000017,-0.000179,0.000001,-0.000095,-0.000000,0.004363,-0.001286,0.161543,0.030871,0.192952,0.192952,0.194125,0.983164,0.000000,0.000000,0.000000,0.000000,0.000000,0.000000,0.000000,0.000000,0.000000,0.000000,0.000000,0.000000,0.156353,3,0
360000,0.001308,9.184212,0.000127,0.010591,25.073673,0.008635,0.000187,0.000918,1.571132,-0.002627,-0.000019,-0.000229,0.000001,-0.000110,-0.000000,0.004476,-0.001351,0.164090,0.028469,0.190536,0.190536,0.191370,0.980073,0.000000,0.000000,0.000000,0.000000,0.000000,0.000000,0.000000,0.000000,0.000000,0.000000,0.000000,0.000000,0.158885,3,0
370000,0.001372,9.441431,0.001704,0.010827,25.080931,0.010263,0.000190,0.001049,1.571138,-0.003008,-0.000022,-0.000316,0.000001,-0.000131,-0.000000,0.007234,-0.001417,0.206321,0.047320,0.188363,0.188363,0.188863,0.976779,0.000000,0.000000,0.000000,0.000000,0.000000,0.000000,0.000000,0.000000,0.000000,0.000000,0.000000,0.000000,0.199848,3,0
380000,0.001437,9.698072,0.001030,0.011037,25.087629,0.009655,0.000190,0.001168,1.571142,-0.003370,-0.000025,-0.000268,0.000001,-0.000151,-0.000000,0.005783,-0.001483,0.187576,-0.025032,0.186415,0.186415,0.186586,0.973282,0.000000,0.000000,0.000000,0.000000,0.000000,0.000000,0.000000,0.000000,0.000000,0.000000,0.000000,0.000000,0.181754,3,0
390000,0.001503,9.954169,0.001457,0.011273,25.093987,0.010108,0.000202,0.001274,1.571153,-0.003713,-0.000028,-0.000289,0.000001,-0.000170,-0.000001,0.004655,-0.001550,0.169414,0.010722,0.184677,0.184677,0.184522,0.969581,0.000000,0.000000,0.000000,0.000000,0.000000,0.000000,0.000000,0.000000,0.000000,0.000000,0.000000,0.000000,0.164206,3,0
400000,0.001569,10.209747,0.001040,0.011491,25.099777,0.009625,0.000203,0.001391,1.571157,-0.004035,-0.000031,-0.000253,0.000002,-0.000189,-0.000001,0.003771,-0.001618,0.151801,-0.017029,0.183133,0.183133,0.182656,0.965675,0.000000,0.000000,0.000000,0.000000,0.000000,0.000000,0.000000,0.000000,0.000000,0.000000,0.000000,0.000000,0.147177,3,0
410000,0.001635,10.467240,0.001444,0.011660,25.108004,0.010149,0.000206,0.001542,1.571167,-0.004508,-0.000035,-0.000276,0.000002,-0.000217,-0.000001,0.007434,-0.001686,0.214228,0.010151,0.181771,0.181771,0.180971,0.961566,0.000000,0.000000,0.000000,0.000000,0.000000,0.000000,0.000000,0.000000,0.000000,0.000000,0.000000,0.000000,0.207744,3,0
420000,0.001701,10.721209,0.000649,0.011824,25.112057,0.009278,0.000205,0.001629,1.571180,-0.004729,-0.000039,-0.000207,0.000002,-0.000231,-0.000001,0.001630,-0.001754,0.095805,-0.030014,0.180578,0.180578,0.179456,0.957255,0.000000,0.000000,0.000000,0.000000,0.000000,0.000000,0.000000,0.000000,0.000000,0.000000,0.000000,0.000000,0.092938,3,0
430000,0.001768,10.977119,0.000361,0.012089,25.118673,0.009022,0.000199,0.001765,1.571183,-0.005112,-0.000043,-0.000176,0.000002,-0.000255,-0.000001,0.004159,-0.001823,0.159857,-0.012889,0.179543,0.179542,0.178097,0.952743,0.000000,0.000000,0.000000,0.000000,0.000000,0.000000,0.000000,0.000000,0.000000,0.000000,0.000000,0.000000,0.155083,3,0
440000,0.001836,11.233737,-0.000226,0.012391,25.126204,0.008469,0.000203,0.001920,1.571192,-0.005567,-0.000048,-0.000119,0.000003,-0.000284,-0.000001,0.005454,-0.001893,0.182185,-0.023054,0.178654,0.178653,0.176883,0.948033,0.000000,0.000000,0.000000,0.000000,0.000000,0.000000,0.000000,0.000000,0.000000,0.000000,0.000000,0.000000,0.176770,3,0
450000,0.001905,11.490458,0.001153,0.012615,25.134008,0.010239,0.000211,0.002090,1.571193,-0.006043,-0.000053,-0.000233,0.000003,-0.000316,-0.000001,0.005786,-0.001963,0.183919,0.044116,0.177901,0.177901,0.175803,0.943127,0.000000,0.000000,0.000000,0.000000,0.000000,0.000000,0.000000,0.000000,0.000000,0.000000,0.000000,0.000000,0.178476,3,0
460000,0.001974,11.748461,0.002523,0.012820,25.143513,0.011791,0.000218,0.002293,1.571204,-0.006648,-0.000058,-0.000350,0.000003,-0.000357,-0.000001,0.008517,-0.002034,0.225303,0.043511,0.177276,0.177275,0.174847,0.938028,0.000000,0.000000,0.000000,0.000000,0.000000,0.000000,0.000000,0.000000,0.000000,0.000000,0.000000,0.000000,0.218655,3,0
470000,0.002042,12.004209,0.001464,0.012960,25.150143,0.010598,0.000215,0.002434,1.571214,-0.007055,-0.000064,-0.000237,0.000004,-0.000385,-0.000001,0.003722,-0.002104,0.146113,-0.040673,0.176768,0.176768,0.174006,0.932740,0.000000,0.000000,0.000000,0.000000,0.000000,0.000000,0.000000,0.000000,0.000000,0.000000,0.000000,0.000000,0.141823,3,0
480000,0.002112,12.262425,0.000264,0.013233,25.160164,0.008920,0.000225,0.002663,1.571232,-0.007712,-0.000070,-0.000107,0.000004,-0.000432,-0.000001,0.008759,-0.002176,0.228244,-0.045185,0.176371,0.176371,0.173271,0.927267,0.000000,0.000000,0.000000,0.000000,0.000000,0.000000,0.000000,0.000000,0.000000,0.000000,0.000000,0.000000,0.221545,3,0
490000,0.002182,12.521317,0.001568,0.013530,25.171146,0.010772,0.000217,0.002918,1.571235,-0.008451,-0.000077,-0.000233,0.000005,-0.000486,-0.000001,0.010256,-0.002248,0.248230,0.042133,0.176075,0.176075,0.172634,0.921614,0.000000,0.000000,0.000000,0.000000,0.000000,0.000000,0.000000,0.000000,0.000000,0.000000,0.000000,0.000000,0.240956,3,0
500000,0.002253,12.776217,0.002448,0.013812,25.176476,0.012009,0.000223,0.003033,1.571238,-0.008785,-0.000084,-0.000316,0.000005,-0.000510,-0.000002,0.002022,-0.002321,0.108501,0.026866,0.175874,0.175874,0.172087,0.915785,0.000000,0.000000,0.000000,0.000000,0.000000,0.000000,0.000000,0.000000,0.000000,0.000000,0.000000,0.000000,0.105345,3,0
510000,0.002324,13.033016,0.001546,0.013962,25.184685,0.010926,0.000221,0.003234,1.571243,-0.009329,-0.000091,-0.000202,0.000006,-0.000552,-0.000002,0.004973,-0.002394,0.171611,-0.035829,0.175760,0.175760,0.171622,0.909786,0.000000,0.000000,0.000000,0.000000,0.000000,0.000000,0.000000,0.000000,0.000000,0.000000,0.000000,0.000000,0.166600,3,0
520000,0.002394,13.290524,0.001169,0.014147,25.193821,0.010352,0.000215,0.003458,1.571248,-0.009960,-0.000099,-0.000146,0.000006,-0.000601,-0.000002,0.006076,-0.002466,0.193035,-0.017027,0.175728,0.175727,0.171234,0.903622,0.000000,0.000000,0.000000,0.000000,0.000000,0.000000,0.000000,0.000000,0.000000,0.000000,0.000000,0.000000,0.187397,3,0
530000,0.002465,13.549313,0.000301,0.014443,25.204903,0.009153,0.000210,0.003740,1.571264,-0.010747,-0.000108,-0.000030,0.000007,-0.000663,-0.000002,0.009019,-0.002539,0.233620,-0.034116,0.175769,0.175769,0.170914,0.897301,0.000000,0.000000,0.000000,0.000000,0.000000,0.000000,0.000000,0.000000,0.000000,0.000000,0.000000,0.000000,0.226790,3,0
540000,0.002535,13.805291,0.001026,0.014573,25.211781,0.010168,0.000204,0.003906,1.571265,-0.011210,-0.000117,-0.000108,0.000008,-0.000701,-0.000002,0.002975,-0.002612,0.133750,0.022237,0.175879,0.175879,0.170658,0.890827,0.000000,0.000000,0.000000,0.000000,0.000000,0.000000,0.000000,0.000000,0.000000,0.000000,0.000000,0.000000,0.129854,3,0
550000,0.002606,14.063745,0.001522,0.014798,25.222504,0.010650,0.000200,0.004176,1.571275,-0.011977,-0.000126,-0.000159,0.000008,-0.000764,-0.000002,0.007556,-0.002685,0.215645,0.013946,0.176052,0.176052,0.170460,0.884208,0.000000,0.000000,0.000000,0.000000,0.000000,0.000000,0.000000,0.000000,0.000000,0.000000,0.000000,0.000000,0.209333,3,0
560000,0.002677,14.322896,0.002301,0.015078,25.234259,0.011646,0.000200,0.004492,1.571278,-0.012836,-0.000136,-0.000247,0.000009,-0.000837,-0.000002,0.009055,-0.002758,0.235387,0.023701,0.176282,0.176282,0.170314,0.877452,0.000000,0.000000,0.000000,0.000000,0.000000,0.000000,0.000000,0.000000,0.000000,0.000000,0.000000,0.000000,0.228486,3,0
570000,0.002747,14.582150,0.003654,0.015231,25.246054,0.013584,0.000206,0.004806,1.571293,-0.013715,-0.000147,-0.000413,0.000010,-0.000912,-0.000003,0.009207,-0.002830,0.234545,0.043556,0.176564,0.176564,0.170214,0.870564,0.000000,0.000000,0.000000,0.000000,0.000000,0.000000,0.000000,0.000000,0.000000,0.000000,0.000000,0.000000,0.227660,3,0
580000,0.002818,14.841508,0.003125,0.015511,25.258102,0.012605,0.000198,0.005135,1.571311,-0.014612,-0.000158,-0.000322,0.000011,-0.000991,-0.000003,0.008916,-0.002903,0.233598,-0.023388,0.176894,0.176894,0.170157,0.863553,0.000000,0.000000,0.000000,0.000000,0.000000,0.000000,0.000000,0.000000,0.000000,0.000000,0.000000,0.000000,0.226728,3,0
590000,0.002889,15.100970,0.003073,0.015764,25.270281,0.012630,0.000191,0.005471,1.571328,-0.015527,-0.000169,-0.000297,0.000012,-0.001073,-0.000003,0.008754,-0.002977,0.232544,-0.006366,0.177266,0.177266,0.170138,0.856426,0.000000,0.000000,0.000000,0.000000,0.000000,0.000000,0.000000,0.000000,0.000000,0.000000,0.000000,0.000000,0.225692,3,0
600000,0.002960,15.357003,0.003177,0.015988,25.276762,0.012633,0.000183,0.005656,1.571334,-0.015978,-0.000181,-0.000294,0.000013,-0.001114,-0.000003,0.002034,-0.003050,0.112114,-0.000751,0.177677,0.177677,0.170152,0.849192,0.000000,0.000000,0.000000,0.000000,0.000000,0.000000,0.000000,0.000000,0.000000,0.000000,0.000000,0.000000,0.108834,3,0
610000,0.003031,15.614949,0.003317,0.016210,25.286312,0.012936,0.000179,0.005930,1.571340,-0.016695,-0.000194,-0.000297,0.000015,-0.001181,-0.000004,0.004902,-0.003124,0.174079,0.000411,0.178122,0.178122,0.170195,0.841857,0.000000,0.000000,0.000000,0.000000,0.000000,0.000000,0.000000,0.000000,0.000000,0.000000,0.000000,0.000000,0.168938,3,0
620000,0.003100,15.875383,0.004753,0.016328,25.299938,0.014822,0.000174,0.006341,1.571356,-0.017763,-0.000207,-0.000496,0.000016,-0.001282,-0.000004,0.010777,-0.003196,0.253978,0.046117,0.178598,0.178597,0.170264,0.834431,0.000000,0.000000,0.000000,0.000000,0.000000,0.000000,0.000000,0.000000,0.000000,0.000000,0.000000,0.000000,0.246438,3,0
630000,0.003170,16.132946,0.003935,0.016545,25.308653,0.013436,0.000182,0.006594,1.571372,-0.018418,-0.000221,-0.000347,0.000017,-0.001346,-0.000004,0.003946,-0.003267,0.152437,-0.034013,0.179100,0.179099,0.170356,0.826920,0.000000,0.000000,0.000000,0.000000,0.000000,0.000000,0.000000,0.000000,0.000000,0.000000,0.000000,0.000000,0.147920,3,0
640000,0.003239,16.388847,0.005301,0.016704,25.314577,0.015508,0.000179,0.006752,1.571374,-0.018828,-0.000236,-0.000541,0.000019,-0.001386,-0.000004,0.001721,-0.003339,0.093576,0.043285,0.179625,0.179625,0.170465,0.819334,0.000000,0.000000,0.000000,0.000000,0.000000,0.000000,0.000000,0.000000,0.000000,0.000000,0.000000,0.000000,0.090832,3,0
650000,0.003306,16.648472,0.003992,0.016794,25.326738,0.013442,0.000177,0.007125,1.571379,-0.019790,-0.000251,-0.000306,0.000020,-0.001483,-0.000004,0.007926,-0.003408,0.215315,-0.051506,0.180170,0.180170,0.170591,0.811681,0.000000,0.000000,0.000000,0.000000,0.000000,0.000000,0.000000,0.000000,0.000000,0.000000,0.000000,0.000000,0.208875,3,0
660000,0.003374,16.905205,0.003675,0.017033,25.333904,0.012742,0.000184,0.007344,1.571386,-0.020311,-0.000266,-0.000233,0.000022,-0.001536,-0.000005,0.002165,-0.003478,0.114599,-0.015816,0.180732,0.180731,0.170729,0.803967,0.000000,0.000000,0.000000,0.000000,0.000000,0.000000,0.000000,0.000000,0.000000,0.000000,0.000000,0.000000,0.111198,3,0
670000,0.003440,17.162670,0.003187,0.017195,25.342234,0.012106,0.000179,0.007608,1.571390,-0.020942,-0.000283,-0.000130,0.000023,-0.001602,-0.000005,0.003072,-0.003547,0.136099,-0.021672,0.181307,0.181307,0.170877,0.796203,0.000000,0.000000,0.000000,0.000000,0.000000,0.000000,0.000000,0.000000,0.000000,0.000000,0.000000,0.000000,0.132031,3,0
680000,0.003506,17.420860,0.001944,0.017292,25.351646,0.010310,0.000179,0.007900,1.571409,-0.021682,-0.000299,0.000103,0.000025,-0.001680,-0.000005,0.004350,-0.003615,0.156857,-0.047883,0.181894,0.181893,0.171033,0.788395,0.000000,0.000000,0.000000,0.000000,0.000000,0.000000,0.000000,0.000000,0.000000,0.000000,0.000000,0.000000,0.152142,3,0
690000,0.003570,17.679167,0.000702,0.017415,25.361164,0.008341,0.000176,0.008206,1.571430,-0.022436,-0.000317,0.000336,0.000027,-0.001762,-0.000005,0.004344,-0.003682,0.156996,-0.047099,0.182489,0.182489,0.171194,0.780552,0.000000,0.000000,0.000000,0.000000,0.000000,0.000000,0.000000,0.000000,0.000000,0.000000,0.000000,0.000000,0.152262,3,0
700000,0.003633,17.936977,0.000418,0.017551,25.369770,0.007697,0.000171,0.008477,1.571436,-0.023105,-0.000335,0.000400,0.000029,-0.001835,-0.000006,0.003068,-0.003747,0.137142,-0.012806,0.183090,0.183090,0.171357,0.772681,0.000000,0.000000,0.000000,0.000000,0.000000,0.000000,0.000000,0.000000,0.000000,0.000000,0.000000,0.000000,0.133007,3,0
710000,0.003696,18.196730,-0.000478,0.017701,25.381634,0.006265,0.000169,0.008881,1.571446,-0.024082,-0.000354,0.000573,0.000031,-0.001944,-0.000006,0.006479,-0.003812,0.197309,-0.033969,0.183696,0.183695,0.171522,0.764790,0.000000,0.000000,0.000000,0.000000,0.000000,0.000000,0.000000,0.000000,0.000000,0.000000,0.000000,0.000000,0.191305,3,0
720000,0.003757,18.454744,-0.000691,0.017777,25.390257,0.005769,0.000162,0.009165,1.571459,-0.024767,-0.000373,0.000622,0.000033,-0.002022,-0.000006,0.003015,-0.003876,0.136227,-0.009554,0.184303,0.184302,0.171686,0.756886,0.000000,0.000000,0.000000,0.000000,0.000000,0.000000,0.000000,0.000000,0.000000,0.000000,0.000000,0.000000,0.132095,3,0
730000,0.003816,18.716547,-0.001623,0.017805,25.405455,0.004263,0.000154,0.009709,1.571482,-0.026072,-0.000393,0.000804,0.000035,-0.002173,-0.000007,0.010766,-0.003937,0.255825,-0.034422,0.184910,0.184909,0.171847,0.748978,0.000000,0.000000,0.000000,0.000000,0.000000,0.000000,0.000000,0.000000,0.000000,0.000000,0.000000,0.000000,0.247969,3,0
740000,0.003874,18.978418,-0.000925,0.017961,25.420542,0.005422,0.000147,0.010255,1.571487,-0.027377,-0.000413,0.000678,0.000038,-0.002327,-0.000007,0.010368,-0.003997,0.252295,0.022894,0.185515,0.185515,0.172003,0.741071,0.000000,0.000000,0.000000,0.000000,0.000000,0.000000,0.000000,0.000000,0.000000,0.000000,0.000000,0.000000,0.244524,3,0
750000,0.003931,19.239738,-0.002177,0.018047,25.434479,0.003669,0.000137,0.010757,1.571509,-0.028577,-0.000434,0.000926,0.000040,-0.002471,-0.000008,0.008794,-0.004056,0.228819,-0.045521,0.186118,0.186117,0.172155,0.733174,0.000000,0.000000,0.000000,0.000000,0.000000,0.000000,0.000000,0.000000,0.000000,0.000000,0.000000,0.000000,0.221755,3,0
760000,0.003986,19.501745,-0.001398,0.018168,25.449514,0.005017,0.000140,0.011315,1.571516,-0.029882,-0.000455,0.000779,0.000043,-0.002630,-0.000008,0.009857,-0.004115,0.245663,0.025878,0.186715,0.186714,0.172299,0.725292,0.000000,0.000000,0.000000,0.000000,0.000000,0.000000,0.000000,0.000000,0.000000,0.000000,0.000000,0.000000,0.238051,3,0
770000,0.004040,19.761328,-0.001223,0.018157,25.460230,0.005221,0.000138,0.011691,1.571531,-0.030755,-0.000478,0.000753,0.000046,-0.002738,-0.000008,0.004265,-0.004170,0.162416,0.004443,0.187306,0.187305,0.172436,0.717432,0.000000,0.000000,0.000000,0.000000,0.000000,0.000000,0.000000,0.000000,0.000000,0.000000,0.000000,0.000000,0.157399,3,0
780000,0.004093,20.021616,-0.001116,0.018295,25.471882,0.005552,0.000137,0.012125,1.571539,-0.031741,-0.000500,0.000740,0.000049,-0.002862,-0.000009,0.005295,-0.004225,0.181032,0.001882,0.187890,0.187889,0.172563,0.709600,0.000000,0.000000,0.000000,0.000000,0.000000,0.000000,0.000000,0.000000,0.000000,0.000000,0.000000,0.000000,0.175411,3,0
790000,0.004145,20.283226,-0.000433,0.018455,25.485773,0.006604,0.000129,0.012663,1.571548,-0.032945,-0.000524,0.000609,0.000052,-0.003016,-0.000009,0.007810,-0.004280,0.218809,0.021896,0.188466,0.188465,0.172680,0.701804,0.000000,0.000000,0.000000,0.000000,0.000000,0.000000,0.000000,0.000000,0.000000,0.000000,0.000000,0.000000,0.211977,3,0
800000,0.004197,20.544266,-0.000319,0.018597,25.498501,0.006730,0.000113,0.013151,1.571558,-0.034034,-0.000547,0.000597,0.000055,-0.003157,-0.000010,0.006180,-0.004333,0.195606,0.001758,0.189032,0.189031,0.172787,0.694047,0.000000,0.000000,0.000000,0.000000,0.000000,0.000000,0.000000,0.000000,0.000000,0.000000,0.000000,0.000000,0.189490,3,0
810000,0.004248,20.802853,0.000124,0.018694,25.506754,0.007423,0.000103,0.013443,1.571562,-0.034672,-0.000572,0.000517,0.000058,-0.003242,-0.000010,0.002104,-0.004386,0.113348,0.013037,0.189589,0.189588,0.172882,0.686336,0.000000,0.000000,0.000000,0.000000,0.000000,0.000000,0.000000,0.000000,0.000000,0.000000,0.000000,0.000000,0.109848,3,0
820000,0.004296,21.060896,0.000329,0.018694,25.514004,0.007595,0.000088,0.013696,1.571576,-0.035201,-0.000597,0.000488,0.000061,-0.003313,-0.000010,0.001409,-0.004437,0.093225,0.004608,0.190134,0.190133,0.172965,0.678676,0.000000,0.000000,0.000000,0.000000,0.000000,0.000000,0.000000,0.000000,0.000000,0.000000,0.000000,0.000000,0.090373,3,0
830000,0.004344,21.320925,0.000705,0.018761,25.524635,0.007958,0.000075,0.014113,1.571582,-0.036080,-0.000622,0.000421,0.000065,-0.003433,-0.000011,0.003807,-0.004486,0.153173,0.010519,0.190668,0.190667,0.173035,0.671072,0.000000,0.000000,0.000000,0.000000,0.000000,0.000000,0.000000,0.000000,0.000000,0.000000,0.000000,0.000000,0.148369,3,0
840000,0.004390,21.581020,0.000281,0.018808,25.535334,0.007386,0.000070,0.014518,1.571589,-0.036958,-0.000648,0.000527,0.000068,-0.003555,-0.000011,0.003754,-0.004534,0.151463,-0.017398,0.191190,0.191188,0.173092,0.663528,0.000000,0.000000,0.000000,0.000000,0.000000,0.000000,0.000000,0.000000,0.000000,0.000000,0.000000,0.000000,0.146701,3,0
850000,0.004435,21.842449,-0.000939,0.018810,25.548212,0.005668,0.000065,0.015030,1.571607,-0.038066,-0.000675,0.000807,0.000072,-0.003711,-0.000012,0.006118,-0.004581,0.189444,-0.044783,0.191699,0.191698,0.173136,0.656050,0.000000,0.000000,0.000000,0.000000,0.000000,0.000000,0.000000,0.000000,0.000000,0.000000,0.000000,0.000000,0.183443,3,0
860000,0.004478,22.105196,-0.000961,0.018930,25.563234,0.005555,0.000059,0.015645,1.571621,-0.039398,-0.000702,0.000820,0.000076,-0.003902,-0.000012,0.008249,-0.004627,0.226068,-0.002558,0.192196,0.192194,0.173166,0.648642,0.000000,0.000000,0.000000,0.000000,0.000000,0.000000,0.000000,0.000000,0.000000,0.000000,0.000000,0.000000,0.218872,3,0
870000,0.004520,22.367331,0.000238,0.018958,25.577036,0.007197,0.000055,0.016223,1.571634,-0.040597,-0.000729,0.000559,0.000080,-0.004077,-0.000013,0.006824,-0.004671,0.201717,0.039789,0.192679,0.192678,0.173182,0.641306,0.000000,0.000000,0.000000,0.000000,0.000000,0.000000,0.000000,0.000000,0.000000,0.000000,0.000000,0.000000,0.195292,3,0
880000,0.004561,22.629496,-0.000021,0.018948,25.590677,0.006825,0.000042,0.016794,1.571645,-0.041782,-0.000757,0.000629,0.000084,-0.004252,-0.000013,0.006340,-0.004712,0.197870,-0.011357,0.193150,0.193148,0.173184,0.634048,0.000000,0.000000,0.000000,0.000000,0.000000,0.000000,0.000000,0.000000,0.000000,0.000000,0.000000,0.000000,0.191554,3,0
890000,0.004599,22.889120,0.000847,0.018914,25.599623,0.007867,0.000025,0.017148,1.571657,-0.042472,-0.000785,0.000443,0.000088,-0.004356,-0.000014,0.002243,-0.004753,0.114479,0.027845,0.193606,0.193604,0.173172,0.626870,0.000000,0.000000,0.000000,0.000000,0.000000,0.000000,0.000000,0.000000,0.000000,0.000000,0.000000,0.000000,0.110882,3,0
900000,0.004635,23.147516,0.002001,0.018890,25.606264,0.009539,0.000018,0.017397,1.571673,-0.042918,-0.000814,0.000192,0.000093,-0.004423,-0.000014,0.001098,-0.004791,0.073433,0.037290,0.194050,0.194047,0.173145,0.619775,0.000000,0.000000,0.000000,0.000000,0.000000,0.000000,0.000000,0.000000,0.000000,0.000000,0.000000,0.000000,0.071209,3,0
910000,0.004669,23.405981,0.003149,0.018826,25.612913,0.011155,0.000009,0.017651,1.571683,-0.043366,-0.000844,-0.000057,0.000098,-0.004493,-0.000014,0.001089,-0.004826,0.073397,0.036531,0.194479,0.194477,0.173104,0.612767,0.000000,0.000000,0.000000,0.000000,0.000000,0.000000,0.000000,0.000000,0.000000,0.000000,0.000000,0.000000,0.071172,3,0
920000,0.004702,23.666451,0.004452,0.018824,25.622959,0.012801,0.000004,0.018070,1.571690,-0.044184,-0.000873,-0.000343,0.000102,-0.004621,-0.000015,0.003132,-0.004860,0.132929,0.041466,0.194896,0.194893,0.173049,0.605848,0.000000,0.000000,0.000000,0.000000,0.000000,0.000000,0.000000,0.000000,0.000000,0.000000,0.000000,0.000000,0.128698,3,0
930000,0.004735,23.927612,0.003182,0.018882,25.634195,0.011014,0.000004,0.018558,1.571696,-0.045118,-0.000903,-0.000012,0.000107,-0.004771,-0.000015,0.004044,-0.004894,0.150660,-0.048451,0.195298,0.195296,0.172980,0.599020,0.000000,0.000000,0.000000,0.000000,0.000000,0.000000,0.000000,0.000000,0.000000,0.000000,0.000000,0.000000,0.145831,3,0
940000,0.004767,24.186857,0.001793,0.018973,25.641809,0.008838,-0.000010,0.018863,1.571708,-0.045668,-0.000934,0.000347,0.000112,-0.004861,-0.000015,0.001693,-0.004927,0.088177,-0.051897,0.195688,0.195685,0.172898,0.592287,0.000000,0.000000,0.000000,0.000000,0.000000,0.000000,0.000000,0.000000,0.000000,0.000000,0.000000,0.000000,0.085432,3,0
950000,0.004799,24.449402,0.002243,0.019071,25.655285,0.009217,-0.000013,0.019477,1.571719,-0.046837,-0.000964,0.000252,0.000117,-0.005053,-0.000016,0.005649,-0.004961,0.186674,0.012783,0.196065,0.196062,0.172801,0.585649,0.000000,0.000000,0.000000,0.000000,0.000000,0.000000,0.000000,0.000000,0.000000,0.000000,0.000000,0.000000,0.180638,3,0
960000,0.004830,24.707399,0.001029,0.019157,25.660559,0.007618,-0.000032,0.019665,1.571729,-0.047111,-0.000996,0.000574,0.000122,-0.005099,-0.000016,0.000640,-0.004993,0.043268,-0.045410,0.196429,0.196426,0.172691,0.579109,0.000000,0.000000,0.000000,0.000000,0.000000,0.000000,0.000000,0.000000,0.000000,0.000000,0.000000,0.000000,0.042129,3,0
970000,0.004860,24.969374,0.001922,0.019253,25.672678,0.008855,-0.000042,0.020222,1.571747,-0.048141,-0.001027,0.000364,0.000128,-0.005274,-0.000017,0.004415,-0.005026,0.162918,0.028551,0.196781,0.196777,0.172568,0.572668,0.000000,0.000000,0.000000,0.000000,0.000000,0.000000,0.000000,0.000000,0.000000,0.000000,0.000000,0.000000,0.157651,3,0
980000,0.004889,25.230705,0.002671,0.019172,25.683510,0.009738,-0.000063,0.020702,1.571768,-0.049026,-0.001059,0.000192,0.000133,-0.005427,-0.000017,0.003222,-0.005055,0.139370,0.023186,0.197120,0.197116,0.172431,0.566328,0.000000,0.000000,0.000000,0.000000,0.000000,0.000000,0.000000,0.000000,0.000000,0.000000,0.000000,0.000000,0.134881,3,0
990000,0.004916,25.488789,0.001324,0.019135,25.688625,0.007872,-0.000085,0.020869,1.571787,-0.049263,-0.001091,0.000559,0.000139,-0.005469,-0.000018,0.000634,-0.005083,0.036957,-0.050311,0.197447,0.197443,0.172282,0.560089,0.000000,0.000000,0.000000,0.000000,0.000000,0.000000,0.000000,0.000000,0.000000,0.000000,0.000000,0.000000,0.036075,3,0
1000000,0.004943,25.748243,0.000060,0.019152,25.695950,0.005996,-0.000093,0.021180,1.571801,-0.049757,-0.001124,0.000900,0.000144,-0.005558,-0.000018,0.001313,-0.005111,0.077011,-0.046722,0.197763,0.197759,0.172121,0.553953,0.000000,0.000000,0.000000,0.000000,0.000000,0.000000,0.000000,0.000000,0.000000,0.000000,0.000000,0.000000,0.074634,3,0
1010000,0.004967,26.011677,-0.000735,0.019041,25.710230,0.004885,-0.000102,0.021860,1.571818,-0.051014,-0.001156,0.001113,0.000150,-0.005785,-0.000019,0.006285,-0.005136,0.195179,-0.029589,0.198068,0.198064,0.171948,0.547921,0.000000,0.000000,0.000000,0.000000,0.000000,0.000000,0.000000,0.000000,0.000000,0.000000,0.000000,0.000000,0.188799,3,0
1020000,0.004989,26.273121,-0.000704,0.018944,25.720934,0.004798,-0.000117,0.022349,1.571837,-0.051855,-0.001189,0.001112,0.000156,-0.005939,-0.000019,0.002744,-0.005160,0.130390,-0.000399,0.198363,0.198358,0.171763,0.541993,0.000000,0.000000,0.000000,0.000000,0.000000,0.000000,0.000000,0.000000,0.000000,0.000000,0.000000,0.000000,0.126178,3,0
1030000,0.005010,26.535891,-0.000895,0.018966,25.733694,0.004677,-0.000138,0.022970,1.571854,-0.052937,-0.001222,0.001167,0.000162,-0.006141,-0.000020,0.004511,-0.005182,0.167023,-0.008187,0.198646,0.198641,0.171566,0.536170,0.000000,0.000000,0.000000,0.000000,0.000000,0.000000,0.000000,0.000000,0.000000,0.000000,0.000000,0.000000,0.161571,3,0
1040000,0.005030,26.794035,-0.001080,0.018946,25.738213,0.004472,-0.000152,0.023116,1.571854,-0.053089,-0.001256,0.001228,0.000169,-0.006169,-0.000020,0.000103,-0.005203,0.023399,-0.008120,0.198920,0.198915,0.171359,0.530452,0.000000,0.000000,0.000000,0.000000,0.000000,0.000000,0.000000,0.000000,0.000000,0.000000,0.000000,0.000000,0.023176,3,0
1050000,0.005049,27.055536,-0.002431,0.018841,25.748625,0.002620,-0.000158,0.023595,1.571863,-0.053892,-0.001290,0.001597,0.000175,-0.006324,-0.000020,0.002828,-0.005222,0.123030,-0.048753,0.199185,0.199179,0.171141,0.524840,0.000000,0.000000,0.000000,0.000000,0.000000,0.000000,0.000000,0.000000,0.000000,0.000000,0.000000,0.000000,0.119049,3,0
1060000,0.005066,27.319017,-0.001400,0.018828,25.762257,0.004130,-0.000178,0.024267,1.571885,-0.055063,-0.001324,0.001315,0.000182,-0.006551,-0.000021,0.005400,-0.005240,0.179489,0.035541,0.199440,0.199434,0.170913,0.519332,0.000000,0.000000,0.000000,0.000000,0.000000,0.000000,0.000000,0.000000,0.000000,0.000000,0.000000,0.000000,0.173599,3,0
1070000,0.005082,27.581812,-0.001316,0.018858,25.774609,0.004040,-0.000193,0.024865,1.571908,-0.056073,-0.001358,0.001294,0.000188,-0.006751,-0.000022,0.003847,-0.005257,0.154413,0.001804,0.199687,0.199681,0.170676,0.513930,0.000000,0.000000,0.000000,0.000000,0.000000,0.000000,0.000000,0.000000,0.000000,0.000000,0.000000,0.000000,0.149361,3,0
1080000,0.005097,27.842598,-0.000488,0.018748,25.783232,0.005128,-0.000210,0.025249,1.571923,-0.056664,-0.001392,0.001070,0.000195,-0.006869,-0.000022,0.001444,-0.005273,0.090284,0.027895,0.199926,0.199920,0.170429,0.508634,0.000000,0.000000,0.000000,0.000000,0.000000,0.000000,0.000000,0.000000,0.000000,0.000000,0.000000,0.000000,0.087427,3,0
1090000,0.005109,28.104719,0.000348,0.018655,25.794041,0.006104,-0.000232,0.025767,1.571939,-0.057502,-0.001426,0.000843,0.000203,-0.007039,-0.000023,0.002754,-0.005286,0.127598,0.027959,0.200157,0.200150,0.170172,0.503442,0.000000,0.000000,0.000000,0.000000,0.000000,0.000000,0.000000,0.000000,0.000000,0.000000,0.000000,0.000000,0.123448,3,0
1100000,0.005123,28.367496,-0.000683,0.018669,25.806047,0.004521,-0.000253,0.026350,1.571950,-0.058448,-0.001461,0.001141,0.000209,-0.007235,-0.000024,0.003567,-0.005299,0.143671,-0.038246,0.200381,0.200374,0.169908,0.498355,0.000000,0.000000,0.000000,0.000000,0.000000,0.000000,0.000000,0.000000,0.000000,0.000000,0.000000,0.000000,0.138965,3,0
1110000,0.005135,28.626926,-0.001380,0.018649,25.811985,0.003382,-0.000272,0.026578,1.571965,-0.058711,-0.001495,0.001348,0.000217,-0.007291,-0.000024,0.000370,-0.005312,0.039803,-0.026131,0.200598,0.200591,0.169635,0.493372,0.000000,0.000000,0.000000,0.000000,0.000000,0.000000,0.000000,0.000000,0.000000,0.000000,0.000000,0.000000,0.038811,3,0
1120000,0.005146,28.885714,-0.001999,0.018516,25.816591,0.002591,-0.000296,0.026727,1.571969,-0.058836,-0.001531,0.001534,0.000224,-0.007318,-0.000024,0.000148,-0.005324,0.018864,-0.023111,0.200809,0.200801,0.169355,0.488492,0.000000,0.000000,0.000000,0.000000,0.000000,0.000000,0.000000,0.000000,0.000000,0.000000,0.000000,0.000000,0.018943,3,0
1130000,0.005154,29.147200,-0.002627,0.018382,25.825891,0.001642,-0.000321,0.027165,1.571982,-0.059483,-0.001566,0.001716,0.000231,-0.007458,-0.000024,0.001636,-0.005333,0.097971,-0.022957,0.201014,0.201005,0.169067,0.483714,0.000000,0.000000,0.000000,0.000000,0.000000,0.000000,0.000000,0.000000,0.000000,0.000000,0.000000,0.000000,0.094827,3,0
1140000,0.005162,29.406673,-0.001959,0.018389,25.831537,0.002424,-0.000342,0.027382,1.571995,-0.059715,-0.001601,0.001523,0.000239,-0.007508,-0.000025,0.000292,-0.005341,0.035181,0.023256,0.201213,0.201204,0.168772,0.479039,0.000000,0.000000,0.000000,0.000000,0.000000,0.000000,0.000000,0.000000,0.000000,0.000000,0.000000,0.000000,0.034392,3,0
1150000,0.005169,29.664835,-0.002156,0.018370,25.834938,0.002169,-0.000359,0.027440,1.572002,-0.059677,-0.001636,0.001589,0.000247,-0.007500,-0.000025,0.000020,-0.005349,-0.005682,-0.007916,0.201407,0.201398,0.168471,0.474465,0.000000,0.000000,0.000000,0.000000,0.000000,0.000000,0.000000,0.000000,0.000000,0.000000,0.000000,0.000000,0.007542,3,0
1160000,0.005175,29.925709,-0.001905,0.018303,25.843018,0.002681,-0.000384,0.027797,1.572017,-0.060167,-0.001671,0.001515,0.000255,-0.007610,-0.000025,0.000899,-0.005356,0.074064,0.008314,0.201597,0.201587,0.168163,0.469991,0.000000,0.000000,0.000000,0.000000,0.000000,0.000000,0.000000,0.000000,0.000000,0.000000,0.000000,0.000000,0.071764,3,0
1170000,0.005180,30.183908,-0.001810,0.018190,25.846321,0.002628,-0.000396,0.027845,1.572026,-0.060114,-0.001707,0.001495,0.000263,-0.007598,-0.000025,0.000016,-0.005361,-0.007982,0.002464,0.201783,0.201772,0.167850,0.465617,0.000000,0.000000,0.000000,0.000000,0.000000,0.000000,0.000000,0.000000,0.000000,0.000000,0.000000,0.000000,0.009291,3,0
1180000,0.005184,30.447500,-0.001783,0.018079,25.858994,0.002496,-0.000408,0.028516,1.572038,-0.061113,-0.001741,0.001481,0.000271,-0.007830,-0.000026,0.003689,-0.005364,0.151243,0.000489,0.201965,0.201953,0.167532,0.461340,0.000000,0.000000,0.000000,0.000000,0.000000,0.000000,0.000000,0.000000,0.000000,0.000000,0.000000,0.000000,0.146244,3,0
1190000,0.005186,30.706352,-0.000380,0.018080,25.863073,0.004333,-0.000422,0.028611,1.572038,-0.061157,-0.001777,0.001061,0.000280,-0.007839,-0.000026,0.000408,-0.005368,0.006800,0.049441,0.202143,0.202131,0.167208,0.457160,0.000000,0.000000,0.000000,0.000000,0.000000,0.000000,0.000000,0.000000,0.000000,0.000000,0.000000,0.000000,0.008374,3,0
1200000,0.005188,30.967245,0.000062,0.017983,25.870853,0.004840,-0.000437,0.028962,1.572049,-0.061592,-0.001812,0.000933,0.000288,-0.007942,-0.000026,0.000740,-0.005369,0.065968,0.014545,0.202318,0.202306,0.166880,0.453077,0.000000,0.000000,0.000000,0.000000,0.000000,0.000000,0.000000,0.000000,0.000000,0.000000,0.000000,0.000000,0.063954,3,0
1210000,0.005190,31.225451,-0.000411,0.017972,25.873678,0.004046,-0.000461,0.028976,1.572055,-0.061486,-0.001847,0.001095,0.000297,-0.007917,-0.000026,0.000104,-0.005370,-0.016094,-0.018802,0.202491,0.202478,0.166548,0.449088,0.000000,0.000000,0.000000,0.000000,0.000000,0.000000,0.000000,0.000000,0.000000,0.000000,0.000000,0.000000,0.016395,3,0
1220000,0.005189,31.488384,0.000988,0.017834,25.884882,0.005801,-0.000484,0.029558,1.572063,-0.062297,-0.001882,0.000659,0.000306,-0.008116,-0.000027,0.002847,-0.005371,0.123251,0.049416,0.202661,0.202647,0.166212,0.445192,0.000000,0.000000,0.000000,0.000000,0.000000,0.000000,0.000000,0.000000,0.000000,0.000000,0.000000,0.000000,0.119206,3,0
1230000,0.005187,31.751284,0.000705,0.017671,25.895885,0.005180,-0.000500,0.030142,1.572069,-0.063078,-0.001917,0.000753,0.000314,-0.008311,-0.000028,0.002294,-0.005369,0.118631,-0.011866,0.202830,0.202815,0.165872,0.441389,0.000000,0.000000,0.000000,0.000000,0.000000,0.000000,0.000000,0.000000,0.000000,0.000000,0.000000,0.000000,0.114738,3,0
1240000,0.005185,32.012119,0.001848,0.017662,25.903168,0.006615,-0.000512,0.030461,1.572084,-0.063434,-0.001952,0.000401,0.000324,-0.008400,-0.000028,0.000737,-0.005367,0.054409,0.039709,0.202996,0.202981,0.165529,0.437678,0.000000,0.000000,0.000000,0.000000,0.000000,0.000000,0.000000,0.000000,0.000000,0.000000,0.000000,0.000000,0.052829,3,0
1250000,0.005181,32.272949,0.001731,0.017481,25.910362,0.006519,-0.000541,0.030773,1.572105,-0.063776,-0.001987,0.000454,0.000333,-0.008488,-0.000028,0.000446,-0.005363,0.051926,-0.006506,0.203162,0.203146,0.165183,0.434056,0.000000,0.000000,0.000000,0.000000,0.000000,0.000000,0.000000,0.000000,0.000000,0.000000,0.000000,0.000000,0.050434,3,0
1260000,0.005176,32.532417,0.002895,0.017432,25.914917,0.007881,-0.000563,0.030902,1.572113,-0.063838,-0.002022,0.000099,0.000342,-0.008503,-0.000029,0.000279,-0.005359,0.009693,0.040019,0.203326,0.203310,0.164834,0.430522,0.000000,0.000000,0.000000,0.000000,0.000000,0.000000,0.000000,0.000000,0.000000,0.000000,0.000000,0.000000,0.010704,3,0
1270000,0.005172,32.790550,0.003019,0.017408,25.917118,0.008029,-0.000591,0.030846,1.572117,-0.063634,-0.002057,0.000089,0.000351,-0.008449,-0.000028,0.000161,-0.005354,-0.031155,0.001501,0.203490,0.203473,0.164484,0.427075,0.000000,0.000000,0.000000,0.000000,0.000000,0.000000,0.000000,0.000000,0.000000,0.000000,0.000000,0.000000,0.030539,3,0
1280000,0.005166,33.054108,0.003897,0.017246,25.928940,0.009197,-0.000612,0.031494,1.572124,-0.064469,-0.002091,-0.000187,0.000361,-0.008672,-0.000029,0.002791,-0.005348,0.128147,0.029586,0.203653,0.203636,0.164131,0.423713,0.000000,0.000000,0.000000,0.000000,0.000000,0.000000,0.000000,0.000000,0.000000,0.000000,0.000000,0.000000,0.123910,3,0
1290000,0.005160,33.316269,0.002551,0.017196,25.938034,0.007389,-0.000624,0.031961,1.572126,-0.065012,-0.002126,0.000275,0.000370,-0.008821,-0.000030,0.001561,-0.005341,0.083141,-0.052337,0.203817,0.203798,0.163777,0.420436,0.000000,0.000000,0.000000,0.000000,0.000000,0.000000,0.000000,0.000000,0.000000,0.000000,0.000000,0.000000,0.080476,3,0
1300000,0.005153,33.575008,0.002724,0.017075,25.941072,0.007400,-0.000647,0.031962,1.572142,-0.064882,-0.002160,0.000245,0.000379,-0.008785,-0.000030,0.000072,-0.005334,-0.020081,0.003599,0.203980,0.203961,0.163421,0.417241,0.000000,0.000000,0.000000,0.000000,0.000000,0.000000,0.000000,0.000000,0.000000,0.000000,0.000000,0.000000,0.020071,3,0
1310000,0.005145,33.834438,0.003360,0.017059,25.945179,0.008201,-0.000671,0.032046,1.572159,-0.064878,-0.002195,0.000057,0.000389,-0.008783,-0.000030,0.000074,-0.005327,-0.000546,0.020638,0.204144,0.204123,0.163064,0.414128,0.000000,0.000000,0.000000,0.000000,0.000000,0.000000,0.000000,0.000000,0.000000,0.000000,0.000000,0.000000,0.005172,3,0
1320000,0.005137,34.095234,0.003558,0.016934,25.951670,0.008338,-0.000695,0.032310,1.572174,-0.065124,-0.002229,0.000013,0.000399,-0.008853,-0.000030,0.000242,-0.005318,0.038166,0.004431,0.204308,0.204287,0.162707,0.411094,0.000000,0.000000,0.000000,0.000000,0.000000,0.000000,0.000000,0.000000,0.000000,0.000000,0.000000,0.000000,0.037221,3,0
1330000,0.005126,34.355328,0.004705,0.016824,25.956858,0.009528,-0.000711,0.032475,1.572179,-0.065224,-0.002263,-0.000352,0.000409,-0.008881,-0.000030,0.000297,-0.005308,0.015854,0.039456,0.204473,0.204451,0.162349,0.408139,0.000000,0.000000,0.000000,0.000000,0.000000,0.000000,0.000000,0.000000,0.000000,0.000000,0.000000,0.000000,0.016155,3,0
1340000,0.005116,34.615421,0.004751,0.016700,25.962006,0.009477,-0.000742,0.032640,1.572190,-0.065315,-0.002297,-0.000337,0.000419,-0.008907,-0.000030,0.000037,-0.005297,0.014130,-0.001789,0.204638,0.204615,0.161990,0.405261,0.000000,0.000000,0.000000,0.000000,0.000000,0.000000,0.000000,0.000000,0.000000,0.000000,0.000000,0.000000,0.014576,3,0
1350000,0.005106,34.875515,0.003486,0.016581,25.967012,0.007918,-0.000769,0.032787,1.572195,-0.065397,-0.002331,0.000131,0.000429,-0.008933,-0.000031,0.000442,-0.005285,0.012413,-0.050478,0.204805,0.204781,0.161632,0.402457,0.000000,0.000000,0.000000,0.000000,0.000000,0.000000,0.000000,0.000000,0.000000,0.000000,0.000000,0.000000,0.013024,3,0
1360000,0.005094,35.136269,0.004034,0.016550,25.973045,0.008649,-0.000792,0.033025,1.572195,-0.065591,-0.002364,-0.000036,0.000439,-0.008991,-0.000031,0.000205,-0.005274,0.030575,0.017543,0.204973,0.204948,0.161274,0.399728,0.000000,0.000000,0.000000,0.000000,0.000000,0.000000,0.000000,0.000000,0.000000,0.000000,0.000000,0.000000,0.029969,3,0
1370000,0.005081,35.397686,0.003972,0.016431,25.980221,0.008640,-0.000820,0.033347,1.572211,-0.065896,-0.002397,0.000008,0.000449,-0.009084,-0.000031,0.000381,-0.005261,0.048065,-0.005345,0.205142,0.205116,0.160916,0.397071,0.000000,0.000000,0.000000,0.000000,0.000000,0.000000,0.000000,0.000000,0.000000,0.000000,0.000000,0.000000,0.046698,3,0
1380000,0.005069,35.658390,0.004179,0.016351,25.986017,0.008862,-0.000839,0.033561,1.572230,-0.066054,-0.002430,-0.000038,0.000459,-0.009133,-0.000032,0.000109,-0.005248,0.025124,0.004600,0.205313,0.205286,0.160559,0.394485,0.000000,0.000000,0.000000,0.000000,0.000000,0.000000,0.000000,0.000000,0.000000,0.000000,0.000000,0.000000,0.024789,3,0
1390000,0.005055,35.917717,0.003267,0.016187,25.989367,0.007805,-0.000868,0.033575,1.572242,-0.065949,-0.002464,0.000321,0.000469,-0.009101,-0.000032,0.000281,-0.005234,-0.016972,-0.037645,0.205486,0.205458,0.160202,0.391969,0.000000,0.000000,0.000000,0.000000,0.000000,0.000000,0.000000,0.000000,0.000000,0.000000,0.000000,0.000000,0.017157,3,0
1400000,0.005040,36.177040,0.003581,0.016073,25.992567,0.008028,-0.000898,0.033575,1.572256,-0.065837,-0.002496,0.000240,0.000480,-0.009065,-0.000032,0.000068,-0.005219,-0.017906,0.008780,0.205660,0.205631,0.159847,0.389521,0.000000,0.000000,0.000000,0.000000,0.000000,0.000000,0.000000,0.000000,0.000000,0.000000,0.000000,0.000000,0.018012,3,0
1410000,0.005023,36.437042,0.004219,0.015879,25.996906,0.008566,-0.000922,0.033660,1.572259,-0.065842,-0.002529,0.000038,0.000490,-0.009066,-0.000032,0.000076,-0.005202,0.001045,0.021049,0.205836,0.205806,0.159493,0.387139,0.000000,0.000000,0.000000,0.000000,0.000000,0.000000,0.000000,0.000000,0.000000,0.000000,0.000000,0.000000,0.005124,3,0
1420000,0.005004,36.699757,0.005003,0.015681,26.006010,0.009467,-0.000945,0.034145,1.572271,-0.066331,-0.002560,-0.000230,0.000501,-0.009225,-0.000032,0.001124,-0.005183,0.078945,0.026754,0.206013,0.205982,0.159141,0.384822,0.000000,0.000000,0.000000,0.000000,0.000000,0.000000,0.000000,0.000000,0.000000,0.000000,0.000000,0.000000,0.076405,3,0
1430000,0.004986,36.958332,0.004088,0.015482,26.007612,0.008481,-0.000974,0.034027,1.572276,-0.066057,-0.002593,0.000149,0.000511,-0.009136,-0.000032,0.000567,-0.005162,-0.044716,-0.038523,0.206193,0.206160,0.158790,0.382569,0.000000,0.000000,0.000000,0.000000,0.000000,0.000000,0.000000,0.000000,0.000000,0.000000,0.000000,0.000000,0.043473,3,0
1440000,0.004966,37.216904,0.005073,0.015403,26.009094,0.009711,-0.000993,0.033886,1.572275,-0.065780,-0.002624,-0.000173,0.000522,-0.009041,-0.000032,0.000513,-0.005143,-0.044880,0.033747,0.206374,0.206341,0.158440,0.380378,0.000000,0.000000,0.000000,0.000000,0.000000,0.000000,0.000000,0.000000,0.000000,0.000000,0.000000,0.000000,0.043615,3,0
1450000,0.004945,37.475491,0.005131,0.015206,26.010759,0.009890,-0.001026,0.033743,1.572274,-0.065505,-0.002656,-0.000148,0.000533,-0.008947,-0.000032,0.000331,-0.005121,-0.045040,-0.001865,0.206557,0.206523,0.158093,0.378250,0.000000,0.000000,0.000000,0.000000,0.000000,0.000000,0.000000,0.000000,0.000000,0.000000,0.000000,0.000000,0.043772,3,0
1460000,0.004922,37.734077,0.005877,0.014994,26.012363,0.010680,-0.001053,0.033606,1.572284,-0.065229,-0.002686,-0.000380,0.000544,-0.008850,-0.000031,0.000429,-0.005098,-0.045216,0.024319,0.206743,0.206707,0.157748,0.376180,0.000000,0.000000,0.000000,0.000000,0.000000,0.000000,0.000000,0.000000,0.000000,0.000000,0.000000,0.000000,0.043928,3,0
1470000,0.004899,37.995426,0.005161,0.014867,26.018763,0.009673,-0.001084,0.033871,1.572293,-0.065437,-0.002717,-0.000078,0.000555,-0.008924,-0.000032,0.000349,-0.005073,0.034122,-0.031139,0.206930,0.206893,0.157405,0.374168,0.000000,0.000000,0.000000,0.000000,0.000000,0.000000,0.000000,0.000000,0.000000,0.000000,0.000000,0.000000,0.033302,3,0
1480000,0.004874,38.256725,0.006209,0.014734,26.024967,0.010926,-0.001114,0.034110,1.572293,-0.065622,-0.002747,-0.000445,0.000566,-0.008989,-0.000032,0.000377,-0.005050,0.031136,0.036534,0.207119,0.207081,0.157064,0.372212,0.000000,0.000000,0.000000,0.000000,0.000000,0.000000,0.000000,0.000000,0.000000,0.000000,0.000000,0.000000,0.030460,3,0
1490000,0.004851,38.519375,0.005234,0.014582,26.033556,0.009786,-0.001138,0.034557,1.572298,-0.066029,-0.002777,-0.000047,0.000576,-0.009139,-0.000033,0.001021,-0.005023,0.067959,-0.041102,0.207310,0.207271,0.156726,0.370312,0.000000,0.000000,0.000000,0.000000,0.000000,0.000000,0.000000,0.000000,0.000000,0.000000,0.000000,0.000000,0.065780,3,0
1500000,0.004825,38.779892,0.005436,0.014438,26.038307,0.009885,-0.001156,0.034674,1.572301,-0.066052,-0.002806,-0.000087,0.000587,-0.009147,-0.000033,0.000009,-0.004998,0.004009,0.004027,0.207503,0.207463,0.156390,0.368467,0.000000,0.000000,0.000000,0.000000,0.000000,0.000000,0.000000,0.000000,0.000000,0.000000,0.000000,0.000000,0.006187,3,0
1510000,0.004801,39.040394,0.004493,0.014358,26.042980,0.008492,-0.001188,0.034779,1.572313,-0.066065,-0.002836,0.000314,0.000598,-0.009154,-0.000033,0.000264,-0.004972,0.001869,-0.039976,0.207698,0.207656,0.156058,0.366675,0.000000,0.000000,0.000000,0.000000,0.000000,0.000000,0.000000,0.000000,0.000000,0.000000,0.000000,0.000000,0.005126,3,0
1520000,0.004774,39.301540,0.005547,0.014201,26.048542,0.009803,-0.001206,0.034977,1.572323,-0.066178,-0.002865,-0.000067,0.000609,-0.009195,-0.000033,0.000293,-0.004946,0.019627,0.037414,0.207894,0.207852,0.155728,0.364933,0.000000,0.000000,0.000000,0.000000,0.000000,0.000000,0.000000,0.000000,0.000000,0.000000,0.000000,0.000000,0.019547,3,0
1530000,0.004747,39.562660,0.004719,0.014035,26.054039,0.008614,-0.001235,0.035176,1.572337,-0.066277,-0.002893,0.000291,0.000620,-0.009235,-0.000033,0.000255,-0.004917,0.016853,-0.035580,0.208093,0.208048,0.155401,0.363242,0.000000,0.000000,0.000000,0.000000,0.000000,0.000000,0.000000,0.000000,0.000000,0.000000,0.000000,0.000000,0.016941,3,0
1540000,0.004719,39.822353,0.005154,0.013821,26.056887,0.009064,-0.001253,0.035120,1.572351,-0.066129,-0.002921,0.000161,0.000631,-0.009176,-0.000033,0.000138,-0.004889,-0.025654,0.013249,0.208292,0.208247,0.155077,0.361600,0.000000,0.000000,0.000000,0.000000,0.000000,0.000000,0.000000,0.000000,0.000000,0.000000,0.000000,0.000000,0.025207,3,0
1550000,0.004689,40.084789,0.005512,0.013619,26.064600,0.009442,-0.001291,0.035494,1.572356,-0.066429,-0.002949,0.000041,0.000642,-0.009295,-0.000034,0.000467,-0.004858,0.052567,0.010808,0.208494,0.208447,0.154756,0.360004,0.000000,0.000000,0.000000,0.000000,0.000000,0.000000,0.000000,0.000000,0.000000,0.000000,0.000000,0.000000,0.050959,3,0
1560000,0.004659,40.344395,0.006625,0.013546,26.067120,0.010885,-0.001320,0.035407,1.572357,-0.066251,-0.002976,-0.000356,0.000653,-0.009221,-0.000034,0.000408,-0.004827,-0.031040,0.039188,0.208696,0.208649,0.154439,0.358456,0.000000,0.000000,0.000000,0.000000,0.000000,0.000000,0.000000,0.000000,0.000000,0.000000,0.000000,0.000000,0.030313,3,0
1570000,0.004628,40.603302,0.006073,0.013291,26.068401,0.010155,-0.001345,0.035210,1.572373,-0.065960,-0.003003,-0.000076,0.000664,-0.009103,-0.000034,0.000552,-0.004794,-0.052120,-0.026194,0.208901,0.208852,0.154125,0.356954,0.000000,0.000000,0.000000,0.000000,0.000000,0.000000,0.000000,0.000000,0.000000,0.000000,0.000000,0.000000,0.050524,3,0
1580000,0.004598,40.864281,0.005707,0.013220,26.073450,0.009808,-0.001368,0.035342,1.572392,-0.065999,-0.003030,0.000112,0.000675,-0.009121,-0.000034,0.000066,-0.004763,0.007019,-0.018287,0.209106,0.209056,0.153814,0.355495,0.000000,0.000000,0.000000,0.000000,0.000000,0.000000,0.000000,0.000000,0.000000,0.000000,0.000000,0.000000,0.008185,3,0
1590000,0.004567,41.125225,0.004873,0.013017,26.078348,0.008740,-0.001388,0.035459,1.572402,-0.066025,-0.003057,0.000490,0.000686,-0.009134,-0.000034,0.000222,-0.004731,0.004417,-0.036420,0.209313,0.209261,0.153507,0.354079,0.000000,0.000000,0.000000,0.000000,0.000000,0.000000,0.000000,0.000000,0.000000,0.000000,0.000000,0.000000,0.006241,3,0
1600000,0.004535,41.384735,0.004492,0.012811,26.080528,0.008253,-0.001409,0.035348,1.572401,-0.065818,-0.003083,0.000694,0.000697,-0.009046,-0.000034,0.000292,-0.004698,-0.037910,-0.018722,0.209521,0.209468,0.153203,0.352704,0.000000,0.000000,0.000000,0.000000,0.000000,0.000000,0.000000,0.000000,0.000000,0.000000,0.000000,0.000000,0.036870,3,0
1610000,0.004501,41.644909,0.005501,0.012712,26.083839,0.009214,-0.001439,0.035334,1.572405,-0.065713,-0.003108,0.000318,0.000708,-0.008998,-0.000034,0.000276,-0.004665,-0.019138,0.036238,0.209730,0.209675,0.152903,0.351369,0.000000,0.000000,0.000000,0.000000,0.000000,0.000000,0.000000,0.000000,0.000000,0.000000,0.000000,0.000000,0.019000,3,0
1620000,0.004468,41.902294,0.004328,0.012473,26.081871,0.007949,-0.001467,0.034863,1.572410,-0.065175,-0.003134,0.000874,0.000719,-0.008763,-0.000033,0.002046,-0.004628,-0.100430,-0.050846,0.209939,0.209884,0.152607,0.350072,0.000000,0.000000,0.000000,0.000000,0.000000,0.000000,0.000000,0.000000,0.000000,0.000000,0.000000,0.000000,0.097034,3,0
1630000,0.004435,42.160389,0.003160,0.012334,26.081303,0.006462,-0.001496,0.034505,1.572414,-0.064753,-0.003160,0.001419,0.000730,-0.008577,-0.000033,0.001425,-0.004594,-0.079491,-0.049945,0.210150,0.210092,0.152314,0.348814,0.000000,0.000000,0.000000,0.000000,0.000000,0.000000,0.000000,0.000000,0.000000,0.000000,0.000000,0.000000,0.076849,3,0
1640000,0.004399,42.417767,0.003819,0.012224,26.079250,0.007404,-0.001523,0.034025,1.572418,-0.064231,-0.003184,0.001204,0.000741,-0.008337,-0.000032,0.001662,-0.004560,-0.099033,0.022346,0.210360,0.210302,0.152025,0.347591,0.000000,0.000000,0.000000,0.000000,0.000000,0.000000,0.000000,0.000000,0.000000,0.000000,0.000000,0.000000,0.095656,3,0
1650000,0.004366,42.677273,0.002661,0.012114,26.081240,0.005805,-0.001560,0.033890,1.572430,-0.064032,-0.003209,0.001735,0.000752,-0.008248,-0.000032,0.000631,-0.004523,-0.038326,-0.049058,0.210571,0.210511,0.151740,0.346404,0.000000,0.000000,0.000000,0.000000,0.000000,0.000000,0.000000,0.000000,0.000000,0.000000,0.000000,0.000000,0.037252,3,0
1660000,0.004332,42.934662,0.001854,0.011984,26.079277,0.004877,-0.001582,0.033399,1.572432,-0.063522,-0.003233,0.002136,0.000763,-0.008010,-0.000031,0.001785,-0.004489,-0.099064,-0.035384,0.210782,0.210721,0.151459,0.345252,0.000000,0.000000,0.000000,0.000000,0.000000,0.000000,0.000000,0.000000,0.000000,0.000000,0.000000,0.000000,0.095694,3,0
1670000,0.004297,43.196247,0.001570,0.011815,26.084906,0.004423,-0.001607,0.033601,1.572434,-0.063631,-0.003256,0.002270,0.000773,-0.008063,-0.000032,0.000103,-0.004453,0.021267,-0.012944,0.210994,0.210931,0.151182,0.344132,0.000000,0.000000,0.000000,0.000000,0.000000,0.000000,0.000000,0.000000,0.000000,0.000000,0.000000,0.000000,0.020961,3,0
1680000,0.004261,43.457077,0.001399,0.011689,26.089159,0.004053,-0.001633,0.033673,1.572435,-0.063622,-0.003278,0.002363,0.000784,-0.008060,-0.000032,0.000016,-0.004417,-0.001827,-0.008573,0.211205,0.211141,0.150909,0.343045,0.000000,0.000000,0.000000,0.000000,0.000000,0.000000,0.000000,0.000000,0.000000,0.000000,0.000000,0.000000,0.004613,3,0
1690000,0.004226,43.715778,0.000214,0.011489,26.089373,0.002752,-0.001668,0.033384,1.572439,-0.063304,-0.003301,0.002915,0.000795,-0.007906,-0.000031,0.001060,-0.004379,-0.063911,-0.049574,0.211416,0.211350,0.150639,0.341989,0.000000,0.000000,0.000000,0.000000,0.000000,0.000000,0.000000,0.000000,0.000000,0.000000,0.000000,0.000000,0.061821,3,0
1700000,0.004189,43.974453,0.000266,0.011293,26.089518,0.002732,-0.001698,0.033079,1.572439,-0.062986,-0.003323,0.002928,0.000806,-0.007747,-0.000031,0.000666,-0.004342,-0.064190,0.000231,0.211626,0.211559,0.150374,0.340964,0.000000,0.000000,0.000000,0.000000,0.000000,0.000000,0.000000,0.000000,0.000000,0.000000,0.000000,0.000000,0.062069,3,0
1710000,0.004150,44.235222,0.000133,0.011054,26.093548,0.002606,-0.001718,0.033131,1.572445,-0.062963,-0.003344,0.002999,0.000816,-0.007735,-0.000031,0.000014,-0.004302,-0.004803,-0.006475,0.211836,0.211768,0.150112,0.339968,0.000000,0.000000,0.000000,0.000000,0.000000,0.000000,0.000000,0.000000,0.000000,0.000000,0.000000,0.000000,0.006222,3,0
1720000,0.004112,44.492443,-0.000449,0.010855,26.090885,0.001908,-0.001744,0.032566,1.572457,-0.062449,-0.003366,0.003306,0.000827,-0.007470,-0.000030,0.001936,-0.004262,-0.106579,-0.025633,0.212045,0.211975,0.149855,0.339000,0.000000,0.000000,0.000000,0.000000,0.000000,0.000000,0.000000,0.000000,0.000000,0.000000,0.000000,0.000000,0.102904,3,0
