time_us,pos_x,pos_y,pos_z,vel_x,vel_y,vel_z,roll,pitch,yaw,bias_ax,bias_ay,bias_az,bias_gx,bias_gy,bias_gz,nis,innov_x,innov_y,innov_z,cov_pos_x,cov_pos_y,cov_pos_z,cov_yaw,des_speed,des_heading,des_climb,pid_speed,pid_yaw,pid_alt,speed_meas,yaw_meas,climb_meas,fwd_accel,yaw_rate,vert_accel,drift_m,nav_mode,mission_state
0,0.000002,0.149999,0.000000,0.000289,24.999796,0.000024,0.000019,0.000004,1.570803,0.000000,0.000000,0.000000,0.000000,0.000000,0.000000,0.006250,-0.000003,-0.250000,-0.000000,2.400038,2.400038,3.600017,1.000518,0.000000,0.000000,0.000000,0.000000,0.000000,0.000000,0.000000,0.000000,0.000000,0.000000,0.000000,0.000000,0.149999,1,0
10000,0.000005,0.393626,0.021217,0.000498,24.999891,0.000194,0.000031,0.000011,1.570810,0.000000,-0.000000,-0.000000,0.000000,0.000000,0.000000,0.000393,-0.000007,-0.022299,0.056573,1.714420,1.714420,2.250079,1.001073,0.000000,0.000000,0.000000,0.000000,0.000000,0.000000,0.000000,0.000000,0.000000,0.000000,0.000000,0.000000,0.015927,3,0
20000,0.000009,0.646378,0.036703,0.000682,25.000097,0.000687,0.000036,0.000004,1.570800,-0.000000,-0.000000,-0.000001,0.000000,-0.000000,-0.000000,0.000410,-0.000012,0.012377,0.056758,1.333616,1.333616,1.636554,1.001655,0.000000,0.000000,0.000000,0.000000,0.000000,0.000000,0.000000,0.000000,0.000000,0.000000,0.000000,0.000000,0.009626,3,0
30000,0.000016,0.896048,0.041232,0.001033,25.000259,0.000977,0.000049,-0.000005,1.570790,-0.000000,-0.000000,-0.000001,0.000000,-0.000000,-0.000000,0.000059,-0.000019,-0.001830,0.021084,1.091392,1.091392,1.286065,1.002257,0.000000,0.000000,0.000000,0.000000,0.000000,0.000000,0.000000,0.000000,0.000000,0.000000,0.000000,0.000000,0.001497,3,0
40000,0.000025,1.147118,0.044432,0.001356,25.000412,0.001430,0.000066,-0.000006,1.570789,-0.000000,-0.000000,-0.000001,0.000000,-0.000000,-0.000000,0.000051,-0.000029,0.006925,0.018050,0.923811,0.923811,1.059385,1.002869,0.000000,0.000000,0.000000,0.000000,0.000000,0.000000,0.000000,0.000000,0.000000,0.000000,0.000000,0.000000,0.005859,3,0
50000,0.000035,1.388415,0.041178,0.001539,25.000250,0.001478,0.000070,-0.000003,1.570790,0.000003,-0.000000,-0.000001,0.000000,0.000000,0.000000,0.000682,-0.000040,-0.065237,-0.021778,0.801036,0.801036,0.900822,1.003484,0.000000,0.000000,0.000000,0.000000,0.000000,0.000000,0.000000,0.000000,0.000000,0.000000,0.000000,0.000000,0.056527,3,0
60000,0.000046,1.644464,0.040697,0.001711,25.000694,0.001858,0.000079,-0.000007,1.570795,-0.000000,-0.000000,-0.000000,0.000000,-0.000000,-0.000000,0.000389,-0.000052,0.051289,-0.003829,0.707270,0.707270,0.783741,1.004094,0.000000,0.000000,0.000000,0.000000,0.000000,0.000000,0.000000,0.000000,0.000000,0.000000,0.000000,0.000000,0.045243,3,0
70000,0.000059,1.898038,0.041735,0.002059,25.000988,0.002217,0.000089,-0.000006,1.570801,-0.000003,-0.000000,-0.000001,0.000000,-0.000000,-0.000000,0.000182,-0.000066,0.033783,0.008785,0.633370,0.633370,0.693801,1.004688,0.000000,0.000000,0.000000,0.000000,0.000000,0.000000,0.000000,0.000000,0.000000,0.000000,0.000000,0.000000,0.030217,3,0
80000,0.000074,2.151742,0.038281,0.002261,25.001354,0.002134,0.000093,0.000005,1.570796,-0.000007,-0.000000,0.000002,0.000000,-0.000000,-0.000000,0.000393,-0.000082,0.038632,-0.033515,0.573673,0.573673,0.622594,1.005260,0.000000,0.000000,0.000000,0.000000,0.000000,0.000000,0.000000,0.000000,0.000000,0.000000,0.000000,0.000000,0.034938,3,0
90000,0.000091,2.398596,0.034657,0.002500,25.001181,0.002024,0.000107,0.000004,1.570788,-0.000003,-0.000000,0.000007,0.000000,-0.000000,-0.000000,0.000426,-0.000099,-0.036166,-0.038739,0.524488,0.524488,0.564865,1.005801,0.000000,0.000000,0.000000,0.000000,0.000000,0.000000,0.000000,0.000000,0.000000,0.000000,0.000000,0.000000,0.033005,3,0
100000,0.000110,2.656235,0.037191,0.002852,25.002148,0.002625,0.000129,0.000005,1.570790,-0.000017,-0.000000,0.000003,0.000000,-0.000000,-0.000000,0.001503,-0.000119,0.094682,0.029129,0.483303,0.483303,0.517162,1.006301,0.000000,0.000000,0.000000,0.000000,0.000000,0.000000,0.000000,0.000000,0.000000,0.000000,0.000000,0.000000,0.087055,3,0
110000,0.000131,2.905964,0.041086,0.003212,25.002287,0.003493,0.000137,0.000003,1.570793,-0.000017,-0.000000,-0.000006,0.000000,-0.000000,-0.000000,0.000365,-0.000142,-0.003937,0.048592,0.448354,0.448354,0.477121,1.006754,0.000000,0.000000,0.000000,0.000000,0.000000,0.000000,0.000000,0.000000,0.000000,0.000000,0.000000,0.000000,0.003645,3,0
120000,0.000154,3.154934,0.044451,0.003400,25.002205,0.004252,0.000157,0.000011,1.570799,-0.000013,-0.000000,-0.000016,0.000000,-0.000000,-0.000000,0.000349,-0.000165,-0.015120,0.045056,0.418359,0.418359,0.443071,1.007150,0.000000,0.000000,0.000000,0.000000,0.000000,0.000000,0.000000,0.000000,0.000000,0.000000,0.000000,0.000000,0.014066,3,0
130000,0.000178,3.407186,0.041833,0.003721,25.002630,0.004076,0.000168,0.000019,1.570794,-0.000022,-0.000000,-0.000006,0.000000,-0.000000,-0.000000,0.000412,-0.000191,0.034096,-0.038604,0.392369,0.392369,0.413797,1.007481,0.000000,0.000000,0.000000,0.000000,0.000000,0.000000,0.000000,0.000000,0.000000,0.000000,0.000000,0.000000,0.031867,3,0
140000,0.000205,3.664593,0.043976,0.004043,25.004278,0.004556,0.000183,0.000039,1.570789,-0.000057,-0.000000,-0.000015,0.000000,-0.000001,-0.000000,0.002408,-0.000219,0.119781,0.032458,0.369667,0.369667,0.388393,1.007739,0.000000,0.000000,0.000000,0.000000,0.000000,0.000000,0.000000,0.000000,0.000000,0.000000,0.000000,0.000000,0.112402,3,0
150000,0.000235,3.914724,0.042897,0.004369,25.004328,0.004536,0.000195,0.000033,1.570783,-0.000058,-0.000000,-0.000009,0.000000,-0.000001,-0.000000,0.000054,-0.000249,0.001511,-0.018458,0.349695,0.349695,0.366172,1.007915,0.000000,0.000000,0.000000,0.000000,0.000000,0.000000,0.000000,0.000000,0.000000,0.000000,0.000000,0.000000,0.001442,3,0
160000,0.000265,4.168612,0.045386,0.004641,25.005524,0.005185,0.000209,0.000045,1.570788,-0.000084,-0.000000,-0.000025,0.000000,-0.000002,-0.000000,0.001040,-0.000281,0.069441,0.042288,0.332021,0.332021,0.346600,1.008002,0.000000,0.000000,0.000000,0.000000,0.000000,0.000000,0.000000,0.000000,0.000000,0.000000,0.000000,0.000000,0.065599,3,0
170000,0.000298,4.417327,0.042929,0.004910,25.005213,0.004673,0.000213,0.000041,1.570777,-0.000073,-0.000001,-0.000006,0.000000,-0.000001,-0.000000,0.000432,-0.000315,-0.025427,-0.045748,0.316298,0.316298,0.329260,1.007991,0.000000,0.000000,0.000000,0.000000,0.000000,0.000000,0.000000,0.000000,0.000000,0.000000,0.000000,0.000000,0.024089,3,0
180000,0.000333,4.669594,0.043280,0.005275,25.006117,0.005128,0.000226,0.000042,1.570773,-0.000094,-0.000001,-0.000009,0.000000,-0.000002,-0.000000,0.000311,-0.000351,0.043922,0.005741,0.302247,0.302247,0.313817,1.007875,0.000000,0.000000,0.000000,0.000000,0.000000,0.000000,0.000000,0.000000,0.000000,0.000000,0.000000,0.000000,0.041711,3,0
190000,0.000370,4.920154,0.041099,0.005605,25.006365,0.004591,0.000240,0.000039,1.570763,-0.000100,-0.000001,0.000015,0.000000,-0.000002,-0.000000,0.000333,-0.000389,0.010315,-0.044681,0.289642,0.289642,0.300003,1.007645,0.000000,0.000000,0.000000,0.000000,0.000000,0.000000,0.000000,0.000000,0.000000,0.000000,0.000000,0.000000,0.009825,3,0
200000,0.000409,5.174749,0.040958,0.005887,25.008179,0.004601,0.000258,0.000058,1.570755,-0.000157,-0.000001,0.000017,0.000000,-0.000004,-0.000000,0.001519,-0.000429,0.097695,-0.003906,0.278296,0.278296,0.287598,1.007295,0.000000,0.000000,0.000000,0.000000,0.000000,0.000000,0.000000,0.000000,0.000000,0.000000,0.000000,0.000000,0.093165,3,0
210000,0.000450,5.424926,0.041762,0.006107,25.008278,0.005212,0.000278,0.000053,1.570746,-0.000158,-0.000001,0.000006,0.000000,-0.000004,-0.000000,0.000043,-0.000471,0.002113,0.016384,0.268055,0.268055,0.276421,1.006816,0.000000,0.000000,0.000000,0.000000,0.000000,0.000000,0.000000,0.000000,0.000000,0.000000,0.000000,0.000000,0.002068,3,0
220000,0.000492,5.678885,0.040387,0.006465,25.010073,0.004766,0.000298,0.000070,1.570754,-0.000221,-0.000002,0.000029,0.000000,-0.000006,-0.000000,0.001453,-0.000514,0.089877,-0.032194,0.258789,0.258789,0.266321,1.006202,0.000000,0.000000,0.000000,0.000000,0.000000,0.000000,0.000000,0.000000,0.000000,0.000000,0.000000,0.000000,0.086001,3,0
230000,0.000536,5.930434,0.042606,0.006710,25.010815,0.005973,0.000312,0.000070,1.570754,-0.000247,-0.000002,-0.000009,0.000000,-0.000006,-0.000000,0.000601,-0.000559,0.034688,0.050601,0.250387,0.250387,0.257172,1.005446,0.000000,0.000000,0.000000,0.000000,0.000000,0.000000,0.000000,0.000000,0.000000,0.000000,0.000000,0.000000,0.033245,3,0
240000,0.000581,6.184637,0.042036,0.006901,25.013077,0.005751,0.000318,0.000103,1.570754,-0.000331,-0.000003,0.000003,0.000000,-0.000009,-0.000000,0.001675,-0.000605,0.101194,-0.015192,0.242758,0.242758,0.248866,1.004541,0.000000,0.000000,0.000000,0.000000,0.000000,0.000000,0.000000,0.000000,0.000000,0.000000,0.000000,0.000000,0.097102,3,0
250000,0.000626,6.438130,0.043040,0.007113,25.015142,0.006487,0.000336,0.000135,1.570758,-0.000407,-0.000003,-0.000018,0.000000,-0.000012,-0.000000,0.001259,-0.000652,0.085515,0.023460,0.235821,0.235821,0.241314,1.003481,0.000000,0.000000,0.000000,0.000000,0.000000,0.000000,0.000000,0.000000,0.000000,0.000000,0.000000,0.000000,0.082157,3,0
260000,0.000673,6.693263,0.043505,0.007323,25.018282,0.006777,0.000356,0.000177,1.570756,-0.000532,-0.000004,-0.000027,0.000000,-0.000017,-0.000000,0.002734,-0.000700,0.130186,0.010236,0.229507,0.229507,0.234436,1.002258,0.000000,0.000000,0.000000,0.000000,0.000000,0.000000,0.000000,0.000000,0.000000,0.000000,0.000000,0.000000,0.125208,3,0
270000,0.000721,6.950647,0.041840,0.007537,25.023094,0.005859,0.000360,0.000246,1.570764,-0.000731,-0.000005,0.000019,0.000000,-0.000024,-0.000000,0.006315,-0.000749,0.193085,-0.045593,0.223758,0.223758,0.228165,1.000869,0.000000,0.000000,0.000000,0.000000,0.000000,0.000000,0.000000,0.000000,0.000000,0.000000,0.000000,0.000000,0.185885,3,0
280000,0.000771,7.206501,0.041049,0.007884,25.027189,0.005368,0.000380,0.000292,1.570769,-0.000901,-0.000006,0.000044,0.000000,-0.000031,-0.000000,0.003909,-0.000800,0.154318,-0.022928,0.218520,0.218520,0.222443,0.999307,0.000000,0.000000,0.000000,0.000000,0.000000,0.000000,0.000000,0.000000,0.000000,0.000000,0.000000,0.000000,0.148700,3,0
290000,0.000823,7.463071,0.042469,0.008241,25.031954,0.006425,0.000401,0.000356,1.570762,-0.001110,-0.000007,0.000000,0.000000,-0.000040,-0.000000,0.005248,-0.000853,0.176730,0.037691,0.213749,0.213749,0.217219,0.997567,0.000000,0.000000,0.000000,0.000000,0.000000,0.000000,0.000000,0.000000,0.000000,0.000000,0.000000,0.000000,0.170436,3,0
300000,0.000876,7.716848,0.041508,0.008448,25.034758,0.005714,0.000405,0.000390,1.570751,-0.001234,-0.000008,0.000036,0.000000,-0.000045,-0.000000,0.001712,-0.000907,0.099022,-0.028949,0.209404,0.209404,0.212446,0.995645,0.000000,0.000000,0.000000,0.000000,0.000000,0.000000,0.000000,0.000000,0.000000,0.000000,0.000000,0.000000,0.095570,3,0
310000,0.000931,7.970064,0.041407,0.008812,25.037142,0.005603,0.000425,0.000433,1.570753,-0.001346,-0.000009,0.000042,0.000000,-0.000050,-0.000000,0.001133,-0.000964,0.083766,-0.004569,0.205450,0.205450,0.208087,0.993536,0.000000,0.000000,0.000000,0.000000,0.000000,0.000000,0.000000,0.000000,0.000000,0.000000,0.000000,0.000000,0.080903,3,0
320000,0.000988,8.224099,0.042739,0.009076,25.040489,0.006662,0.000446,0.000489,1.570760,-0.001500,-0.000011,-0.000010,0.000000,-0.000057,-0.000000,0.002134,-0.001022,0.108828,0.037503,0.201854,0.201854,0.204105,0.991236,0.000000,0.000000,0.000000,0.000000,0.000000,0.000000,0.000000,0.000000,0.000000,0.000000,0.000000,0.000000,0.105171,3,0
330000,0.001046,8.481541,0.043578,0.009368,25.046789,0.007433,0.000460,0.000593,1.570759,-0.001818,-0.000012,-0.000045,0.000000,-0.000072,-0.000000,0.007368,-0.001082,0.212582,0.023069,0.198590,0.198590,0.200469,0.988743,0.000000,0.000000,0.000000,0.000000,0.000000,0.000000,0.000000,0.000000,0.000000,0.000000,0.000000,0.000000,0.205548,3,0
340000,0.001105,8.736380,0.044033,0.009625,25.051073,0.007855,0.000462,0.000657,1.570751,-0.002030,-0.000014,-0.000063,0.000001,-0.000083,-0.000000,0.002916,-0.001143,0.133986,0.011554,0.195630,0.195630,0.197151,0.986053,0.000000,0.000000,0.000000,0.000000,0.000000,0.000000,0.000000,0.000000,0.000000,0.000000,0.000000,0.000000,0.129621,3,0
350000,0.001167,8.993233,0.045580,0.009971,25.057333,0.009338,0.000473,0.000770,1.570754,-0.002359,-0.000016,-0.000138,0.000001,-0.000099,-0.000000,0.006602,-0.001205,0.197167,0.045322,0.192953,0.192953,0.194125,0.983163,0.000000,0.000000,0.000000,0.000000,0.000000,0.000000,0.000000,0.000000,0.000000,0.000000,0.000000,0.000000,0.190830,3,0
360000,0.001230,9.250118,0.044129,0.010308,25.063932,0.008138,0.000494,0.000885,1.570748,-0.002708,-0.000018,-0.000053,0.000001,-0.000117,-0.000000,0.006749,-0.001270,0.198676,-0.048493,0.190538,0.190538,0.191370,0.980072,0.000000,0.000000,0.000000,0.000000,0.000000,0.000000,0.000000,0.000000,0.000000,0.000000,0.000000,0.000000,0.192371,3,0
370000,0.001294,9.506420,0.044931,0.010579,25.070122,0.008954,0.000513,0.001001,1.570742,-0.003040,-0.000021,-0.000095,0.000001,-0.000135,-0.000000,0.005331,-0.001336,0.180271,0.022867,0.188365,0.188365,0.188863,0.976779,0.000000,0.000000,0.000000,0.000000,0.000000,0.000000,0.000000,0.000000,0.000000,0.000000,0.000000,0.000000,0.174617,3,0
380000,0.001358,9.761554,0.046325,0.010748,25.075109,0.010389,0.000523,0.001094,1.570734,-0.003316,-0.000023,-0.000176,0.000001,-0.000150,-0.000000,0.003566,-0.001402,0.142576,0.041891,0.186417,0.186417,0.186586,0.973281,0.000000,0.000000,0.000000,0.000000,0.000000,0.000000,0.000000,0.000000,0.000000,0.000000,0.000000,0.000000,0.138153,3,0
390000,0.001424,10.016796,0.047121,0.011043,25.080406,0.011136,0.000544,0.001185,1.570732,-0.003611,-0.000026,-0.000221,0.000001,-0.000167,-0.000000,0.003517,-0.001469,0.145819,0.022508,0.184679,0.184679,0.184522,0.969580,0.000000,0.000000,0.000000,0.000000,0.000000,0.000000,0.000000,0.000000,0.000000,0.000000,0.000000,0.000000,0.141338,3,0
400000,0.001491,10.272149,0.046800,0.011326,25.085875,0.010739,0.000546,0.001299,1.570732,-0.003926,-0.000030,-0.000191,0.000001,-0.000186,-0.000001,0.003618,-0.001538,0.148950,-0.014229,0.183135,0.183135,0.182655,0.965674,0.000000,0.000000,0.000000,0.000000,0.000000,0.000000,0.000000,0.000000,0.000000,0.000000,0.000000,0.000000,0.144411,3,0
410000,0.001560,10.525807,0.046636,0.011676,25.089388,0.010624,0.000563,0.001360,1.570737,-0.004130,-0.000033,-0.000171,0.000002,-0.000198,-0.000001,0.001391,-0.001608,0.092331,-0.009040,0.181774,0.181774,0.180971,0.961565,0.000000,0.000000,0.000000,0.000000,0.000000,0.000000,0.000000,0.000000,0.000000,0.000000,0.000000,0.000000,0.089547,3,0
420000,0.001630,10.783215,0.047325,0.012028,25.097519,0.011441,0.000571,0.001518,1.570746,-0.004629,-0.000037,-0.000216,0.000002,-0.000228,-0.000001,0.007627,-0.001681,0.216337,0.019402,0.180581,0.180581,0.179456,0.957254,0.000000,0.000000,0.000000,0.000000,0.000000,0.000000,0.000000,0.000000,0.000000,0.000000,0.000000,0.000000,0.209833,3,0
430000,0.001701,11.040099,0.048689,0.012254,25.105110,0.012946,0.000577,0.001687,1.570749,-0.005102,-0.000041,-0.000317,0.000002,-0.000258,-0.000001,0.006587,-0.001753,0.197396,0.042104,0.179545,0.179545,0.178097,0.952742,0.000000,0.000000,0.000000,0.000000,0.000000,0.000000,0.000000,0.000000,0.000000,0.000000,0.000000,0.000000,0.191497,3,0
440000,0.001772,11.294115,0.047146,0.012521,25.109129,0.011110,0.000578,0.001767,1.570758,-0.005350,-0.000046,-0.000176,0.000002,-0.000274,-0.000001,0.002122,-0.001827,0.099466,-0.056772,0.178656,0.178656,0.176883,0.948032,0.000000,0.000000,0.000000,0.000000,0.000000,0.000000,0.000000,0.000000,0.000000,0.000000,0.000000,0.000000,0.096520,3,0
450000,0.001845,11.550056,0.046708,0.012807,25.115833,0.010644,0.000583,0.001910,1.570752,-0.005774,-0.000051,-0.000127,0.000003,-0.000302,-0.000001,0.004380,-0.001901,0.163471,-0.018815,0.177904,0.177904,0.175803,0.943126,0.000000,0.000000,0.000000,0.000000,0.000000,0.000000,0.000000,0.000000,0.000000,0.000000,0.000000,0.000000,0.158635,3,0
460000,0.001918,11.806121,0.045602,0.013132,25.122824,0.009336,0.000587,0.002059,1.570747,-0.006219,-0.000056,-0.000015,0.000003,-0.000332,-0.000001,0.004733,-0.001977,0.165888,-0.041667,0.177279,0.177279,0.174847,0.938027,0.000000,0.000000,0.000000,0.000000,0.000000,0.000000,0.000000,0.000000,0.000000,0.000000,0.000000,0.000000,0.160997,3,0
470000,0.001992,12.061722,0.045909,0.013288,25.129208,0.009978,0.000597,0.002201,1.570740,-0.006632,-0.000062,-0.000035,0.000004,-0.000361,-0.000001,0.003567,-0.002052,0.148301,0.007246,0.176772,0.176772,0.174006,0.932738,0.000000,0.000000,0.000000,0.000000,0.000000,0.000000,0.000000,0.000000,0.000000,0.000000,0.000000,0.000000,0.143946,3,0
480000,0.002065,12.318043,0.045773,0.013510,25.136625,0.010049,0.000617,0.002375,1.570742,-0.007125,-0.000068,-0.000011,0.000004,-0.000396,-0.000001,0.004739,-0.002128,0.170942,-0.008300,0.176374,0.176374,0.173271,0.927265,0.000000,0.000000,0.000000,0.000000,0.000000,0.000000,0.000000,0.000000,0.000000,0.000000,0.000000,0.000000,0.165930,3,0
490000,0.002138,12.576241,0.045984,0.013676,25.146801,0.010524,0.000619,0.002611,1.570734,-0.007817,-0.000075,-0.000023,0.000004,-0.000446,-0.000001,0.008756,-0.002203,0.232609,0.003744,0.176079,0.176079,0.172634,0.921611,0.000000,0.000000,0.000000,0.000000,0.000000,0.000000,0.000000,0.000000,0.000000,0.000000,0.000000,0.000000,0.225793,3,0
500000,0.002212,12.833370,0.046772,0.013939,25.155390,0.011599,0.000631,0.002817,1.570728,-0.008411,-0.000082,-0.000096,0.000005,-0.000491,-0.000001,0.006117,-0.002278,0.192978,0.023726,0.175878,0.175878,0.172087,0.915782,0.000000,0.000000,0.000000,0.000000,0.000000,0.000000,0.000000,0.000000,0.000000,0.000000,0.000000,0.000000,0.187334,3,0
510000,0.002284,13.090035,0.047480,0.014079,25.163383,0.012713,0.000634,0.003009,1.570729,-0.008963,-0.000089,-0.000162,0.000006,-0.000533,-0.000002,0.004985,-0.002353,0.174308,0.020614,0.175765,0.175765,0.171622,0.909783,0.000000,0.000000,0.000000,0.000000,0.000000,0.000000,0.000000,0.000000,0.000000,0.000000,0.000000,0.000000,0.169217,3,0
520000,0.002357,13.345664,0.048085,0.014228,25.169748,0.013728,0.000645,0.003174,1.570726,-0.009409,-0.000097,-0.000217,0.000006,-0.000567,-0.000002,0.003048,-0.002428,0.136231,0.016591,0.175732,0.175732,0.171234,0.903620,0.000000,0.000000,0.000000,0.000000,0.000000,0.000000,0.000000,0.000000,0.000000,0.000000,0.000000,0.000000,0.132262,3,0
530000,0.002428,13.602019,0.048504,0.014359,25.177279,0.014130,0.000650,0.003369,1.570722,-0.009943,-0.000105,-0.000251,0.000007,-0.000610,-0.000002,0.004099,-0.002501,0.158843,0.009908,0.175774,0.175774,0.170914,0.897298,0.000000,0.000000,0.000000,0.000000,0.000000,0.000000,0.000000,0.000000,0.000000,0.000000,0.000000,0.000000,0.154209,3,0
540000,0.002500,13.858513,0.047179,0.014636,25.185028,0.012392,0.000667,0.003567,1.570722,-0.010500,-0.000114,-0.000070,0.000008,-0.000655,-0.000002,0.004618,-0.002576,0.160837,-0.051639,0.175884,0.175884,0.170658,0.890824,0.000000,0.000000,0.000000,0.000000,0.000000,0.000000,0.000000,0.000000,0.000000,0.000000,0.000000,0.000000,0.156142,3,0
550000,0.002573,14.115726,0.048177,0.014904,25.193918,0.013894,0.000670,0.003805,1.570714,-0.011149,-0.000124,-0.000181,0.000008,-0.000708,-0.000002,0.005546,-0.002650,0.182571,0.030661,0.176057,0.176057,0.170460,0.884205,0.000000,0.000000,0.000000,0.000000,0.000000,0.000000,0.000000,0.000000,0.000000,0.000000,0.000000,0.000000,0.177233,3,0
560000,0.002645,14.374820,0.049523,0.015184,25.205648,0.015956,0.000685,0.004131,1.570725,-0.012038,-0.000134,-0.000338,0.000009,-0.000783,-0.000002,0.009871,-0.002726,0.243333,0.042399,0.176287,0.176287,0.170314,0.877448,0.000000,0.000000,0.000000,0.000000,0.000000,0.000000,0.000000,0.000000,0.000000,0.000000,0.000000,0.000000,0.236198,3,0
570000,0.002719,14.634020,0.049461,0.015423,25.217489,0.015944,0.000689,0.004465,1.570724,-0.012947,-0.000144,-0.000308,0.000010,-0.000862,-0.000003,0.009528,-0.002801,0.242548,-0.007893,0.176570,0.176570,0.170214,0.870560,0.000000,0.000000,0.000000,0.000000,0.000000,0.000000,0.000000,0.000000,0.000000,0.000000,0.000000,0.000000,0.235425,3,0
580000,0.002792,14.889810,0.049675,0.015695,25.224010,0.016306,0.000691,0.004651,1.570725,-0.013417,-0.000155,-0.000316,0.000011,-0.000903,-0.000003,0.002424,-0.002877,0.122379,0.001824,0.176900,0.176900,0.170157,0.863549,0.000000,0.000000,0.000000,0.000000,0.000000,0.000000,0.000000,0.000000,0.000000,0.000000,0.000000,0.000000,0.118804,3,0
590000,0.002866,15.146337,0.048279,0.015969,25.231642,0.014280,0.000698,0.004871,1.570718,-0.013987,-0.000167,-0.000096,0.000012,-0.000954,-0.000003,0.003885,-0.002953,0.144829,-0.055064,0.177273,0.177273,0.170138,0.856422,0.000000,0.000000,0.000000,0.000000,0.000000,0.000000,0.000000,0.000000,0.000000,0.000000,0.000000,0.000000,0.140579,3,0
600000,0.002939,15.406536,0.048858,0.016144,25.245264,0.014984,0.000696,0.005280,1.570713,-0.015057,-0.000179,-0.000159,0.000013,-0.001052,-0.000003,0.011477,-0.003029,0.265925,0.015374,0.177684,0.177684,0.170152,0.849187,0.000000,0.000000,0.000000,0.000000,0.000000,0.000000,0.000000,0.000000,0.000000,0.000000,0.000000,0.000000,0.258067,3,0
610000,0.003011,15.666244,0.047428,0.016264,25.257833,0.013065,0.000709,0.005654,1.570715,-0.016062,-0.000192,0.000074,0.000014,-0.001146,-0.000003,0.010144,-0.003103,0.244137,-0.055790,0.178130,0.178130,0.170195,0.841852,0.000000,0.000000,0.000000,0.000000,0.000000,0.000000,0.000000,0.000000,0.000000,0.000000,0.000000,0.000000,0.236908,3,0
620000,0.003083,15.922505,0.048244,0.016448,25.264784,0.014111,0.000707,0.005868,1.570709,-0.016581,-0.000205,-0.000030,0.000016,-0.001195,-0.000003,0.002560,-0.003178,0.123455,0.024123,0.178605,0.178606,0.170264,0.834425,0.000000,0.000000,0.000000,0.000000,0.000000,0.000000,0.000000,0.000000,0.000000,0.000000,0.000000,0.000000,0.119820,3,0
630000,0.003153,16.181282,0.047552,0.016572,25.275747,0.012959,0.000710,0.006213,1.570704,-0.017462,-0.000219,0.000099,0.000017,-0.001280,-0.000004,0.006940,-0.003250,0.205065,-0.029333,0.179108,0.179108,0.170355,0.826914,0.000000,0.000000,0.000000,0.000000,0.000000,0.000000,0.000000,0.000000,0.000000,0.000000,0.000000,0.000000,0.198969,3,0
640000,0.003224,16.440174,0.046821,0.016816,25.286879,0.011750,0.000707,0.006556,1.570702,-0.018358,-0.000234,0.000234,0.000018,-0.001368,-0.000004,0.006919,-0.003323,0.204605,-0.030309,0.179634,0.179634,0.170465,0.819328,0.000000,0.000000,0.000000,0.000000,0.000000,0.000000,0.000000,0.000000,0.000000,0.000000,0.000000,0.000000,0.198505,3,0
650000,0.003293,16.700373,0.046800,0.016924,25.300158,0.011683,0.000714,0.006980,1.570699,-0.019448,-0.000249,0.000256,0.000020,-0.001478,-0.000004,0.009614,-0.003395,0.243786,-0.004890,0.180179,0.180179,0.170591,0.811674,0.000000,0.000000,0.000000,0.000000,0.000000,0.000000,0.000000,0.000000,0.000000,0.000000,0.000000,0.000000,0.236488,3,0
660000,0.003360,16.960670,0.045528,0.016999,25.313478,0.009871,0.000717,0.007421,1.570697,-0.020549,-0.000265,0.000484,0.000021,-0.001591,-0.000005,0.009846,-0.003464,0.241879,-0.048866,0.180741,0.180741,0.170729,0.803960,0.000000,0.000000,0.000000,0.000000,0.000000,0.000000,0.000000,0.000000,0.000000,0.000000,0.000000,0.000000,0.234617,3,0
670000,0.003428,17.221064,0.046507,0.017246,25.326851,0.011547,0.000726,0.007851,1.570693,-0.021661,-0.000281,0.000335,0.000023,-0.001706,-0.000005,0.009456,-0.003535,0.239874,0.030803,0.181317,0.181317,0.170877,0.796195,0.000000,0.000000,0.000000,0.000000,0.000000,0.000000,0.000000,0.000000,0.000000,0.000000,0.000000,0.000000,0.232651,3,0
680000,0.003493,17.480949,0.047024,0.017327,25.339294,0.012366,0.000736,0.008260,1.570687,-0.022688,-0.000298,0.000266,0.000025,-0.001815,-0.000005,0.007707,-0.003603,0.217892,0.014039,0.181904,0.181904,0.171033,0.788387,0.000000,0.000000,0.000000,0.000000,0.000000,0.000000,0.000000,0.000000,0.000000,0.000000,0.000000,0.000000,0.211315,3,0
690000,0.003558,17.738516,0.046184,0.017408,25.347532,0.011105,0.000735,0.008541,1.570691,-0.023345,-0.000316,0.000433,0.000027,-0.001886,-0.000006,0.003211,-0.003669,0.136793,-0.033827,0.182500,0.182500,0.171193,0.780543,0.000000,0.000000,0.000000,0.000000,0.000000,0.000000,0.000000,0.000000,0.000000,0.000000,0.000000,0.000000,0.132679,3,0
700000,0.003621,17.998627,0.046775,0.017541,25.360132,0.011998,0.000749,0.008969,1.570702,-0.024403,-0.000334,0.000347,0.000029,-0.002002,-0.000006,0.007662,-0.003735,0.217085,0.016780,0.183102,0.183102,0.171357,0.772672,0.000000,0.000000,0.000000,0.000000,0.000000,0.000000,0.000000,0.000000,0.000000,0.000000,0.000000,0.000000,0.210492,3,0
710000,0.003684,18.256397,0.046158,0.017666,25.368608,0.011153,0.000747,0.009252,1.570699,-0.025075,-0.000353,0.000480,0.000031,-0.002078,-0.000006,0.003088,-0.003800,0.135757,-0.025854,0.183708,0.183708,0.171522,0.764781,0.000000,0.000000,0.000000,0.000000,0.000000,0.000000,0.000000,0.000000,0.000000,0.000000,0.000000,0.000000,0.131653,3,0
720000,0.003744,18.516115,0.047535,0.017727,25.380226,0.013266,0.000747,0.009667,1.570700,-0.026060,-0.000373,0.000247,0.000033,-0.002190,-0.000006,0.006522,-0.003863,0.195965,0.044192,0.184315,0.184316,0.171685,0.756877,0.000000,0.000000,0.000000,0.000000,0.000000,0.000000,0.000000,0.000000,0.000000,0.000000,0.000000,0.000000,0.189982,3,0
730000,0.003805,18.777151,0.046697,0.017908,25.393995,0.011989,0.000741,0.010163,1.570702,-0.027256,-0.000393,0.000426,0.000035,-0.002328,-0.000007,0.009057,-0.003925,0.234314,-0.033918,0.184923,0.184923,0.171846,0.748968,0.000000,0.000000,0.000000,0.000000,0.000000,0.000000,0.000000,0.000000,0.000000,0.000000,0.000000,0.000000,0.227125,3,0
740000,0.003863,19.036421,0.047367,0.018020,25.404541,0.012954,0.000743,0.010551,1.570708,-0.028145,-0.000413,0.000321,0.000038,-0.002433,-0.000007,0.004836,-0.003987,0.171928,0.019179,0.185529,0.185529,0.172003,0.741061,0.000000,0.000000,0.000000,0.000000,0.000000,0.000000,0.000000,0.000000,0.000000,0.000000,0.000000,0.000000,0.166657,3,0
750000,0.003922,19.295170,0.046508,0.018139,25.414196,0.011585,0.000752,0.010895,1.570719,-0.028937,-0.000434,0.000510,0.000040,-0.002528,-0.000008,0.003882,-0.004047,0.151100,-0.034451,0.186132,0.186132,0.172154,0.733163,0.000000,0.000000,0.000000,0.000000,0.000000,0.000000,0.000000,0.000000,0.000000,0.000000,0.000000,0.000000,0.146464,3,0
760000,0.003979,19.553396,0.047466,0.018274,25.422758,0.013120,0.000751,0.011208,1.570720,-0.029632,-0.000456,0.000345,0.000043,-0.002612,-0.000008,0.002904,-0.004107,0.130802,0.029245,0.186730,0.186730,0.172299,0.725280,0.000000,0.000000,0.000000,0.000000,0.000000,0.000000,0.000000,0.000000,0.000000,0.000000,0.000000,0.000000,0.126794,3,0
770000,0.004035,19.812347,0.048452,0.018443,25.432520,0.014400,0.000751,0.011559,1.570726,-0.030443,-0.000479,0.000175,0.000046,-0.002713,-0.000008,0.003818,-0.004165,0.150793,0.029758,0.187322,0.187322,0.172435,0.717420,0.000000,0.000000,0.000000,0.000000,0.000000,0.000000,0.000000,0.000000,0.000000,0.000000,0.000000,0.000000,0.146141,3,0
780000,0.004092,20.070768,0.047726,0.018615,25.441195,0.013295,0.000747,0.011870,1.570732,-0.031152,-0.000502,0.000349,0.000049,-0.002802,-0.000008,0.002892,-0.004224,0.130291,-0.030286,0.187906,0.187907,0.172563,0.709588,0.000000,0.000000,0.000000,0.000000,0.000000,0.000000,0.000000,0.000000,0.000000,0.000000,0.000000,0.000000,0.126277,3,0
790000,0.004146,20.331783,0.048342,0.018692,25.454231,0.014368,0.000744,0.012380,1.570725,-0.032307,-0.000525,0.000249,0.000052,-0.002950,-0.000009,0.007149,-0.004281,0.209726,0.016721,0.188483,0.188483,0.172680,0.701790,0.000000,0.000000,0.000000,0.000000,0.000000,0.000000,0.000000,0.000000,0.000000,0.000000,0.000000,0.000000,0.203181,3,0
800000,0.004201,20.594118,0.047067,0.018859,25.469511,0.012325,0.000738,0.012977,1.570729,-0.033681,-0.000550,0.000538,0.000055,-0.003129,-0.000009,0.010224,-0.004337,0.246763,-0.049193,0.189050,0.189050,0.172786,0.694033,0.000000,0.000000,0.000000,0.000000,0.000000,0.000000,0.000000,0.000000,0.000000,0.000000,0.000000,0.000000,0.239024,3,0
810000,0.004253,20.853359,0.047780,0.018875,25.479206,0.013439,0.000742,0.013353,1.570725,-0.034487,-0.000574,0.000414,0.000058,-0.003235,-0.000010,0.003385,-0.004392,0.143305,0.020412,0.189607,0.189607,0.172881,0.686321,0.000000,0.000000,0.000000,0.000000,0.000000,0.000000,0.000000,0.000000,0.000000,0.000000,0.000000,0.000000,0.138842,3,0
820000,0.004303,21.115831,0.048146,0.018860,25.494425,0.013959,0.000736,0.013976,1.570726,-0.035861,-0.000600,0.000362,0.000062,-0.003420,-0.000010,0.009448,-0.004444,0.241787,0.008071,0.190153,0.190153,0.172964,0.678660,0.000000,0.000000,0.000000,0.000000,0.000000,0.000000,0.000000,0.000000,0.000000,0.000000,0.000000,0.000000,0.234165,3,0
830000,0.004352,21.373289,0.049028,0.018949,25.500561,0.015048,0.000732,0.014199,1.570717,-0.036311,-0.000626,0.000202,0.000065,-0.003482,-0.000010,0.001107,-0.004495,0.078558,0.025766,0.190687,0.190687,0.173035,0.671055,0.000000,0.000000,0.000000,0.000000,0.000000,0.000000,0.000000,0.000000,0.000000,0.000000,0.000000,0.000000,0.076186,3,0
840000,0.004399,21.634645,0.049733,0.018953,25.513580,0.015985,0.000727,0.014731,1.570719,-0.037462,-0.000652,0.000079,0.000069,-0.003642,-0.000011,0.006436,-0.004544,0.198738,0.019232,0.191210,0.191210,0.173092,0.663511,0.000000,0.000000,0.000000,0.000000,0.000000,0.000000,0.000000,0.000000,0.000000,0.000000,0.000000,0.000000,0.192456,3,0
850000,0.004444,21.895418,0.050902,0.018942,25.525423,0.017450,0.000734,0.015220,1.570722,-0.038489,-0.000679,-0.000145,0.000073,-0.003786,-0.000011,0.005189,-0.004591,0.175797,0.035067,0.191719,0.191719,0.173135,0.656032,0.000000,0.000000,0.000000,0.000000,0.000000,0.000000,0.000000,0.000000,0.000000,0.000000,0.000000,0.000000,0.170237,3,0
860000,0.004487,22.154972,0.051405,0.018917,25.535015,0.018184,0.000736,0.015613,1.570717,-0.039276,-0.000706,-0.000219,0.000077,-0.003899,-0.000012,0.002903,-0.004636,0.133572,0.011343,0.192217,0.192216,0.173165,0.648623,0.000000,0.000000,0.000000,0.000000,0.000000,0.000000,0.000000,0.000000,0.000000,0.000000,0.000000,0.000000,0.129371,3,0
870000,0.004530,22.413317,0.050777,0.018993,25.542334,0.017338,0.000738,0.015895,1.570710,-0.039827,-0.000734,-0.000038,0.000081,-0.003980,-0.000012,0.001515,-0.004680,0.092590,-0.028137,0.192701,0.192700,0.173181,0.641286,0.000000,0.000000,0.000000,0.000000,0.000000,0.000000,0.000000,0.000000,0.000000,0.000000,0.000000,0.000000,0.089731,3,0
880000,0.004571,22.674940,0.052052,0.019129,25.555325,0.018942,0.000730,0.016448,1.570709,-0.040976,-0.000762,-0.000292,0.000085,-0.004150,-0.000012,0.006187,-0.004724,0.191994,0.038279,0.193171,0.193171,0.173183,0.634027,0.000000,0.000000,0.000000,0.000000,0.000000,0.000000,0.000000,0.000000,0.000000,0.000000,0.000000,0.000000,0.185870,3,0
890000,0.004612,22.936604,0.052118,0.019140,25.568186,0.018789,0.000728,0.017000,1.570705,-0.042114,-0.000791,-0.000267,0.000089,-0.004321,-0.000013,0.005747,-0.004765,0.188663,-0.004219,0.193629,0.193628,0.173171,0.626848,0.000000,0.000000,0.000000,0.000000,0.000000,0.000000,0.000000,0.000000,0.000000,0.000000,0.000000,0.000000,0.182633,3,0
900000,0.004650,23.198944,0.052355,0.019145,25.582098,0.019022,0.000726,0.017607,1.570718,-0.043361,-0.000820,-0.000283,0.000094,-0.004511,-0.000014,0.006794,-0.004806,0.205177,0.001776,0.194073,0.194072,0.173144,0.619752,0.000000,0.000000,0.000000,0.000000,0.000000,0.000000,0.000000,0.000000,0.000000,0.000000,0.000000,0.000000,0.198596,3,0
910000,0.004688,23.458086,0.051062,0.019145,25.590162,0.016940,0.000730,0.017940,1.570709,-0.043984,-0.000850,0.000063,0.000098,-0.004608,-0.000014,0.002100,-0.004845,0.101728,-0.051403,0.194503,0.194502,0.173103,0.612743,0.000000,0.000000,0.000000,0.000000,0.000000,0.000000,0.000000,0.000000,0.000000,0.000000,0.000000,0.000000,0.098542,3,0
920000,0.004724,23.721165,0.050966,0.019156,25.605013,0.016872,0.000735,0.018614,1.570713,-0.045339,-0.000880,0.000121,0.000103,-0.004822,-0.000015,0.007836,-0.004882,0.220203,-0.009165,0.194920,0.194919,0.173048,0.605823,0.000000,0.000000,0.000000,0.000000,0.000000,0.000000,0.000000,0.000000,0.000000,0.000000,0.000000,0.000000,0.213101,3,0
930000,0.004759,23.982956,0.051677,0.019218,25.617393,0.017921,0.000725,0.019163,1.570719,-0.046427,-0.000911,-0.000013,0.000108,-0.004996,-0.000015,0.005036,-0.004919,0.175646,0.018833,0.195323,0.195322,0.172980,0.598995,0.000000,0.000000,0.000000,0.000000,0.000000,0.000000,0.000000,0.000000,0.000000,0.000000,0.000000,0.000000,0.169994,3,0
940000,0.004792,24.244122,0.051251,0.019191,25.628645,0.017377,0.000713,0.019652,1.570714,-0.047376,-0.000942,0.000130,0.000113,-0.005150,-0.000016,0.003814,-0.004953,0.152275,-0.021015,0.195714,0.195713,0.172897,0.592260,0.000000,0.000000,0.000000,0.000000,0.000000,0.000000,0.000000,0.000000,0.000000,0.000000,0.000000,0.000000,0.147386,3,0
950000,0.004824,24.502718,0.050664,0.019201,25.635225,0.016608,0.000718,0.019918,1.570705,-0.047814,-0.000973,0.000315,0.000118,-0.005223,-0.000016,0.000905,-0.004987,0.069908,-0.026471,0.196091,0.196090,0.172800,0.585621,0.000000,0.000000,0.000000,0.000000,0.000000,0.000000,0.000000,0.000000,0.000000,0.000000,0.000000,0.000000,0.067795,3,0
960000,0.004856,24.762030,0.049218,0.019302,25.642979,0.014271,0.000706,0.020247,1.570711,-0.048379,-0.001004,0.000710,0.000123,-0.005318,-0.000016,0.001803,-0.005020,0.089550,-0.055944,0.196456,0.196455,0.172690,0.579081,0.000000,0.000000,0.000000,0.000000,0.000000,0.000000,0.000000,0.000000,0.000000,0.000000,0.000000,0.000000,0.086753,3,0
970000,0.004887,25.024000,0.048007,0.019317,25.655245,0.012408,0.000700,0.020807,1.570704,-0.049443,-0.001036,0.001042,0.000128,-0.005499,-0.000017,0.004916,-0.005053,0.168104,-0.046954,0.196808,0.196807,0.172567,0.572638,0.000000,0.000000,0.000000,0.000000,0.000000,0.000000,0.000000,0.000000,0.000000,0.000000,0.000000,0.000000,0.162662,3,0
980000,0.004916,25.284676,0.048782,0.019300,25.665083,0.013441,0.000694,0.021252,1.570710,-0.050235,-0.001069,0.000875,0.000134,-0.005636,-0.000017,0.002593,-0.005083,0.124678,0.022709,0.197148,0.197147,0.172430,0.566297,0.000000,0.000000,0.000000,0.000000,0.000000,0.000000,0.000000,0.000000,0.000000,0.000000,0.000000,0.000000,0.120681,3,0
990000,0.004945,25.547342,0.048911,0.019413,25.678362,0.013720,0.000694,0.021879,1.570714,-0.051396,-0.001102,0.000870,0.000140,-0.005839,-0.000018,0.005341,-0.005113,0.181965,-0.000141,0.197476,0.197475,0.172281,0.560058,0.000000,0.000000,0.000000,0.000000,0.000000,0.000000,0.000000,0.000000,0.000000,0.000000,0.000000,0.000000,0.176045,3,0
1000000,0.004972,25.808697,0.050176,0.019386,25.689043,0.015454,0.000678,0.022368,1.570725,-0.052279,-0.001135,0.000576,0.000146,-0.005996,-0.000018,0.003318,-0.005142,0.137831,0.039408,0.197793,0.197791,0.172120,0.553921,0.000000,0.000000,0.000000,0.000000,0.000000,0.000000,0.000000,0.000000,0.000000,0.000000,0.000000,0.000000,0.133380,3,0
1010000,0.004998,26.068096,0.049643,0.019407,25.696154,0.014438,0.000679,0.022667,1.570723,-0.052762,-0.001168,0.000751,0.000152,-0.006084,-0.000018,0.001007,-0.005169,0.075161,-0.023917,0.198099,0.198097,0.171947,0.547887,0.000000,0.000000,0.000000,0.000000,0.000000,0.000000,0.000000,0.000000,0.000000,0.000000,0.000000,0.000000,0.072851,3,0
1020000,0.005023,26.329510,0.050095,0.019347,25.706795,0.014921,0.000679,0.023165,1.570717,-0.053625,-0.001201,0.000666,0.000158,-0.006242,-0.000019,0.002907,-0.005195,0.133753,0.010860,0.198394,0.198391,0.171762,0.541958,0.000000,0.000000,0.000000,0.000000,0.000000,0.000000,0.000000,0.000000,0.000000,0.000000,0.000000,0.000000,0.129427,3,0
1030000,0.005046,26.590935,0.049190,0.019282,25.717335,0.013753,0.000678,0.023663,1.570725,-0.054472,-0.001235,0.000939,0.000164,-0.006400,-0.000019,0.002975,-0.005219,0.130657,-0.036807,0.198678,0.198676,0.171565,0.536134,0.000000,0.000000,0.000000,0.000000,0.000000,0.000000,0.000000,0.000000,0.000000,0.000000,0.000000,0.000000,0.126430,3,0
1040000,0.005069,26.850393,0.047693,0.019262,25.724329,0.011667,0.000678,0.023962,1.570730,-0.054915,-0.001269,0.001373,0.000170,-0.006484,-0.000020,0.001278,-0.005242,0.067913,-0.057251,0.198953,0.198950,0.171358,0.530415,0.000000,0.000000,0.000000,0.000000,0.000000,0.000000,0.000000,0.000000,0.000000,0.000000,0.000000,0.000000,0.065854,3,0
1050000,0.005090,27.108564,0.048390,0.019280,25.728889,0.012679,0.000669,0.024124,1.570737,-0.055090,-0.001304,0.001216,0.000177,-0.006518,-0.000020,0.000189,-0.005265,0.027054,0.020328,0.199218,0.199215,0.171140,0.524801,0.000000,0.000000,0.000000,0.000000,0.000000,0.000000,0.000000,0.000000,0.000000,0.000000,0.000000,0.000000,0.026646,3,0
1060000,0.005109,27.369432,0.049468,0.019281,25.738224,0.014268,0.000655,0.024564,1.570745,-0.055786,-0.001338,0.000953,0.000184,-0.006653,-0.000020,0.002023,-0.005286,0.106777,0.033428,0.199474,0.199471,0.170912,0.519293,0.000000,0.000000,0.000000,0.000000,0.000000,0.000000,0.000000,0.000000,0.000000,0.000000,0.000000,0.000000,0.103356,3,0
1070000,0.005129,27.630978,0.048371,0.019208,25.748524,0.012497,0.000656,0.025072,1.570741,-0.056600,-0.001373,0.001286,0.000190,-0.006815,-0.000021,0.002792,-0.005305,0.124123,-0.043410,0.199722,0.199718,0.170674,0.513890,0.000000,0.000000,0.000000,0.000000,0.000000,0.000000,0.000000,0.000000,0.000000,0.000000,0.000000,0.000000,0.120099,3,0
1080000,0.005148,27.889874,0.047229,0.019291,25.753984,0.010709,0.000656,0.025292,1.570732,-0.056872,-0.001408,0.001634,0.000197,-0.006870,-0.000021,0.000601,-0.005325,0.041384,-0.044514,0.199961,0.199957,0.170427,0.508592,0.000000,0.000000,0.000000,0.000000,0.000000,0.000000,0.000000,0.000000,0.000000,0.000000,0.000000,0.000000,0.040333,3,0
1090000,0.005166,28.150133,0.048090,0.019355,25.761789,0.011672,0.000651,0.025657,1.570741,-0.057401,-0.001443,0.001419,0.000204,-0.006977,-0.000021,0.001167,-0.005345,0.080618,0.026710,0.200193,0.200189,0.170171,0.503399,0.000000,0.000000,0.000000,0.000000,0.000000,0.000000,0.000000,0.000000,0.000000,0.000000,0.000000,0.000000,0.078100,3,0
1100000,0.005184,28.411077,0.047884,0.019351,25.770798,0.011346,0.000634,0.026076,1.570737,-0.058049,-0.001478,0.001505,0.000212,-0.007111,-0.000022,0.001591,-0.005363,0.098583,-0.011287,0.200417,0.200413,0.169906,0.498310,0.000000,0.000000,0.000000,0.000000,0.000000,0.000000,0.000000,0.000000,0.000000,0.000000,0.000000,0.000000,0.095430,3,0
1110000,0.005200,28.672693,0.046864,0.019296,25.780811,0.009729,0.000632,0.026567,1.570746,-0.058814,-0.001514,0.001820,0.000219,-0.007272,-0.000022,0.002424,-0.005380,0.115852,-0.039893,0.200635,0.200630,0.169633,0.493326,0.000000,0.000000,0.000000,0.000000,0.000000,0.000000,0.000000,0.000000,0.000000,0.000000,0.000000,0.000000,0.112097,3,0
1120000,0.005217,28.934971,0.045417,0.019289,25.791990,0.007819,0.000632,0.027133,1.570745,-0.059688,-0.001549,0.002254,0.000226,-0.007459,-0.000023,0.003312,-0.005396,0.132442,-0.054528,0.200846,0.200841,0.169353,0.488445,0.000000,0.000000,0.000000,0.000000,0.000000,0.000000,0.000000,0.000000,0.000000,0.000000,0.000000,0.000000,0.128112,3,0
1130000,0.005232,29.193233,0.044900,0.019333,25.795975,0.007015,0.000623,0.027242,1.570737,-0.059750,-0.001585,0.002426,0.000234,-0.007472,-0.000023,0.000091,-0.005413,0.009203,-0.021127,0.201051,0.201046,0.169065,0.483666,0.000000,0.000000,0.000000,0.000000,0.000000,0.000000,0.000000,0.000000,0.000000,0.000000,0.000000,0.000000,0.010319,3,0
1140000,0.005246,29.454876,0.043687,0.019225,25.805862,0.005235,0.000612,0.027740,1.570733,-0.060469,-0.001621,0.002792,0.000242,-0.007631,-0.000023,0.002243,-0.005428,0.108723,-0.045404,0.201251,0.201245,0.168770,0.478990,0.000000,0.000000,0.000000,0.000000,0.000000,0.000000,0.000000,0.000000,0.000000,0.000000,0.000000,0.000000,0.105205,3,0
1150000,0.005259,29.715176,0.043057,0.019145,25.813276,0.004323,0.000609,0.028072,1.570740,-0.060904,-0.001657,0.002988,0.000249,-0.007727,-0.000024,0.000794,-0.005441,0.065647,-0.024170,0.201446,0.201440,0.168469,0.474415,0.000000,0.000000,0.000000,0.000000,0.000000,0.000000,0.000000,0.000000,0.000000,0.000000,0.000000,0.000000,0.063660,3,0
1160000,0.005271,29.973480,0.042638,0.019178,25.816919,0.003836,0.000606,0.028171,1.570740,-0.060931,-0.001693,0.003125,0.000257,-0.007734,-0.000024,0.000052,-0.005454,0.004063,-0.016526,0.201636,0.201629,0.168161,0.469939,0.000000,0.000000,0.000000,0.000000,0.000000,0.000000,0.000000,0.000000,0.000000,0.000000,0.000000,0.000000,0.006572,3,0
1170000,0.005282,30.237175,0.042181,0.019182,25.830137,0.003276,0.000593,0.028897,1.570751,-0.062010,-0.001729,0.003261,0.000266,-0.007981,-0.000024,0.004342,-0.005466,0.163177,-0.017404,0.201822,0.201815,0.167848,0.465564,0.000000,0.000000,0.000000,0.000000,0.000000,0.000000,0.000000,0.000000,0.000000,0.000000,0.000000,0.000000,0.157777,3,0
1180000,0.005294,30.498817,0.041283,0.019247,25.839590,0.002142,0.000582,0.029377,1.570758,-0.062660,-0.001766,0.003534,0.000274,-0.008132,-0.000025,0.001734,-0.005478,0.098141,-0.033169,0.202004,0.201997,0.167530,0.461286,0.000000,0.000000,0.000000,0.000000,0.000000,0.000000,0.000000,0.000000,0.000000,0.000000,0.000000,0.000000,0.094983,3,0
1190000,0.005304,30.761786,0.041180,0.019174,25.851210,0.002195,0.000579,0.030004,1.570756,-0.063549,-0.001802,0.003561,0.000282,-0.008342,-0.000026,0.002925,-0.005489,0.134586,-0.004215,0.202183,0.202175,0.167206,0.457105,0.000000,0.000000,0.000000,0.000000,0.000000,0.000000,0.000000,0.000000,0.000000,0.000000,0.000000,0.000000,0.130159,3,0
1200000,0.005313,31.024048,0.041323,0.019085,25.861521,0.002474,0.000573,0.030534,1.570753,-0.064275,-0.001838,0.003515,0.000291,-0.008516,-0.000026,0.001959,-0.005498,0.110048,0.004567,0.202359,0.202350,0.166878,0.453021,0.000000,0.000000,0.000000,0.000000,0.000000,0.000000,0.000000,0.000000,0.000000,0.000000,0.000000,0.000000,0.106469,3,0
1210000,0.005321,31.287624,0.041744,0.019157,25.874027,0.002979,0.000567,0.031220,1.570749,-0.065236,-0.001875,0.003380,0.000300,-0.008749,-0.000027,0.003466,-0.005508,0.145864,0.014611,0.202532,0.202523,0.166545,0.449031,0.000000,0.000000,0.000000,0.000000,0.000000,0.000000,0.000000,0.000000,0.000000,0.000000,0.000000,0.000000,0.141042,3,0
1220000,0.005330,31.547121,0.042368,0.019212,25.879061,0.003960,0.000548,0.031390,1.570743,-0.065376,-0.001911,0.003193,0.000309,-0.008782,-0.000027,0.000153,-0.005517,0.021318,0.021458,0.202703,0.202693,0.166209,0.445135,0.000000,0.000000,0.000000,0.000000,0.000000,0.000000,0.000000,0.000000,0.000000,0.000000,0.000000,0.000000,0.021278,3,0
1230000,0.005338,31.806629,0.043442,0.019182,25.884073,0.005284,0.000535,0.031557,1.570736,-0.065507,-0.001947,0.002866,0.000318,-0.008815,-0.000027,0.000298,-0.005525,0.020195,0.037459,0.202872,0.202862,0.165869,0.441331,0.000000,0.000000,0.000000,0.000000,0.000000,0.000000,0.000000,0.000000,0.000000,0.000000,0.000000,0.000000,0.020233,3,0
1240000,0.005346,32.066830,0.043280,0.019213,25.890341,0.005240,0.000519,0.031815,1.570728,-0.065763,-0.001984,0.002931,0.000328,-0.008880,-0.000027,0.000259,-0.005533,0.038940,-0.007759,0.203039,0.203029,0.165526,0.437619,0.000000,0.000000,0.000000,0.000000,0.000000,0.000000,0.000000,0.000000,0.000000,0.000000,0.000000,0.000000,0.037998,3,0
1250000,0.005352,32.327026,0.043755,0.019117,25.896437,0.005894,0.000499,0.032066,1.570732,-0.066006,-0.002020,0.002793,0.000337,-0.008942,-0.000028,0.000265,-0.005540,0.037106,0.015412,0.203206,0.203194,0.165180,0.433995,0.000000,0.000000,0.000000,0.000000,0.000000,0.000000,0.000000,0.000000,0.000000,0.000000,0.000000,0.000000,0.036248,3,0
1260000,0.005359,32.588570,0.044500,0.019155,25.904898,0.006643,0.000482,0.032487,1.570734,-0.066496,-0.002056,0.002564,0.000347,-0.009069,-0.000028,0.001015,-0.005547,0.075031,0.025228,0.203371,0.203359,0.164831,0.430461,0.000000,0.000000,0.000000,0.000000,0.000000,0.000000,0.000000,0.000000,0.000000,0.000000,0.000000,0.000000,0.072688,3,0
1270000,0.005365,32.847393,0.045293,0.019197,25.908363,0.007662,0.000468,0.032538,1.570729,-0.066445,-0.002092,0.002329,0.000356,-0.009055,-0.000028,0.000128,-0.005554,-0.007687,0.026435,0.203535,0.203523,0.164481,0.427013,0.000000,0.000000,0.000000,0.000000,0.000000,0.000000,0.000000,0.000000,0.000000,0.000000,0.000000,0.000000,0.009159,3,0
1280000,0.005373,33.106243,0.043941,0.019209,25.911789,0.005894,0.000458,0.032595,1.570733,-0.066394,-0.002129,0.002797,0.000366,-0.009043,-0.000028,0.000459,-0.005561,-0.008118,-0.052272,0.203699,0.203686,0.164128,0.423650,0.000000,0.000000,0.000000,0.000000,0.000000,0.000000,0.000000,0.000000,0.000000,0.000000,0.000000,0.000000,0.009510,3,0
1290000,0.005378,33.367134,0.044563,0.019186,25.918827,0.006848,0.000448,0.032913,1.570739,-0.066726,-0.002165,0.002607,0.000376,-0.009132,-0.000028,0.000494,-0.005568,0.051056,0.020707,0.203863,0.203849,0.163773,0.420371,0.000000,0.000000,0.000000,0.000000,0.000000,0.000000,0.000000,0.000000,0.000000,0.000000,0.000000,0.000000,0.049616,3,0
1300000,0.005384,33.630718,0.043819,0.019143,25.930532,0.006001,0.000432,0.033570,1.570747,-0.067558,-0.002201,0.002861,0.000386,-0.009363,-0.000029,0.002785,-0.005573,0.128040,-0.029447,0.204027,0.204012,0.163418,0.417175,0.000000,0.000000,0.000000,0.000000,0.000000,0.000000,0.000000,0.000000,0.000000,0.000000,0.000000,0.000000,0.123801,3,0
1310000,0.005388,33.892887,0.044090,0.019034,25.939611,0.006298,0.000407,0.034048,1.570745,-0.068095,-0.002238,0.002780,0.000396,-0.009513,-0.000030,0.001125,-0.005578,0.083004,0.008050,0.204191,0.204175,0.163061,0.414061,0.000000,0.000000,0.000000,0.000000,0.000000,0.000000,0.000000,0.000000,0.000000,0.000000,0.000000,0.000000,0.080362,3,0
1320000,0.005390,34.156372,0.045218,0.018918,25.950857,0.007558,0.000386,0.034680,1.570741,-0.068861,-0.002273,0.002405,0.000406,-0.009730,-0.000030,0.002539,-0.005581,0.118927,0.039766,0.204355,0.204339,0.162703,0.411026,0.000000,0.000000,0.000000,0.000000,0.000000,0.000000,0.000000,0.000000,0.000000,0.000000,0.000000,0.000000,0.115006,3,0
1330000,0.005391,34.417767,0.045964,0.018900,25.958284,0.008620,0.000378,0.035017,1.570734,-0.069208,-0.002309,0.002171,0.000417,-0.009829,-0.000031,0.000577,-0.005582,0.054119,0.024910,0.204521,0.204504,0.162345,0.408070,0.000000,0.000000,0.000000,0.000000,0.000000,0.000000,0.000000,0.000000,0.000000,0.000000,0.000000,0.000000,0.052554,3,0
1340000,0.005393,34.676422,0.045775,0.018867,25.960821,0.008466,0.000359,0.034976,1.570725,-0.069026,-0.002345,0.002270,0.000427,-0.009776,-0.000031,0.000153,-0.005583,-0.028439,-0.010396,0.204687,0.204669,0.161987,0.405191,0.000000,0.000000,0.000000,0.000000,0.000000,0.000000,0.000000,0.000000,0.000000,0.000000,0.000000,0.000000,0.027994,3,0
1350000,0.005394,34.935768,0.046708,0.018893,25.964533,0.009494,0.000348,0.035033,1.570717,-0.068968,-0.002381,0.001978,0.000438,-0.009758,-0.000031,0.000178,-0.005585,-0.008820,0.031460,0.204854,0.204835,0.161628,0.402388,0.000000,0.000000,0.000000,0.000000,0.000000,0.000000,0.000000,0.000000,0.000000,0.000000,0.000000,0.000000,0.010079,3,0
1360000,0.005396,35.195129,0.045553,0.018810,25.968184,0.008057,0.000328,0.035082,1.570722,-0.068908,-0.002416,0.002415,0.000448,-0.009741,-0.000031,0.000373,-0.005585,-0.009777,-0.046608,0.205022,0.205003,0.161270,0.399658,0.000000,0.000000,0.000000,0.000000,0.000000,0.000000,0.000000,0.000000,0.000000,0.000000,0.000000,0.000000,0.010881,3,0
1370000,0.005395,35.457878,0.046821,0.018784,25.977915,0.009379,0.000318,0.035603,1.570717,-0.069468,-0.002452,0.001985,0.000459,-0.009911,-0.000031,0.001595,-0.005587,0.088650,0.044759,0.205192,0.205172,0.160912,0.397002,0.000000,0.000000,0.000000,0.000000,0.000000,0.000000,0.000000,0.000000,0.000000,0.000000,0.000000,0.000000,0.085794,3,0
1380000,0.005395,35.719223,0.046645,0.018791,25.984987,0.009003,0.000292,0.035913,1.570720,-0.069750,-0.002487,0.002073,0.000470,-0.009999,-0.000032,0.000339,-0.005586,0.044468,-0.009885,0.205363,0.205342,0.160555,0.394416,0.000000,0.000000,0.000000,0.000000,0.000000,0.000000,0.000000,0.000000,0.000000,0.000000,0.000000,0.000000,0.043283,3,0
1390000,0.005396,35.979862,0.045405,0.018785,25.990580,0.007379,0.000268,0.036117,1.570725,-0.069888,-0.002522,0.002543,0.000481,-0.010044,-0.000032,0.000481,-0.005586,0.021603,-0.049738,0.205536,0.205513,0.160198,0.391900,0.000000,0.000000,0.000000,0.000000,0.000000,0.000000,0.000000,0.000000,0.000000,0.000000,0.000000,0.000000,0.021542,3,0
1400000,0.005395,36.241154,0.045473,0.018748,25.997320,0.007324,0.000251,0.036410,1.570727,-0.070133,-0.002557,0.002538,0.000492,-0.010122,-0.000032,0.000252,-0.005587,0.039211,-0.000001,0.205710,0.205686,0.159843,0.389452,0.000000,0.000000,0.000000,0.000000,0.000000,0.000000,0.000000,0.000000,0.000000,0.000000,0.000000,0.000000,0.038251,3,0
1410000,0.005393,36.503094,0.046218,0.018674,26.005112,0.008139,0.000230,0.036789,1.570719,-0.070482,-0.002592,0.002286,0.000504,-0.010234,-0.000033,0.000619,-0.005586,0.056156,0.025561,0.205885,0.205861,0.159489,0.387070,0.000000,0.000000,0.000000,0.000000,0.000000,0.000000,0.000000,0.000000,0.000000,0.000000,0.000000,0.000000,0.054501,3,0
1420000,0.005391,36.761574,0.046975,0.018640,26.006580,0.009161,0.000211,0.036664,1.570724,-0.070190,-0.002627,0.002049,0.000515,-0.010137,-0.000032,0.000461,-0.005583,-0.046829,0.025163,0.206063,0.206038,0.159136,0.384754,0.000000,0.000000,0.000000,0.000000,0.000000,0.000000,0.000000,0.000000,0.000000,0.000000,0.000000,0.000000,0.045536,3,0
1430000,0.005389,37.022808,0.046154,0.018584,26.013105,0.008132,0.000184,0.036930,1.570715,-0.070393,-0.002661,0.002378,0.000526,-0.010206,-0.000033,0.000368,-0.005580,0.032616,-0.034347,0.206242,0.206216,0.158785,0.382503,0.000000,0.000000,0.000000,0.000000,0.000000,0.000000,0.000000,0.000000,0.000000,0.000000,0.000000,0.000000,0.031948,3,0
1440000,0.005387,37.281960,0.045562,0.018590,26.015606,0.007546,0.000164,0.036882,1.570705,-0.070211,-0.002696,0.002633,0.000538,-0.010145,-0.000033,0.000257,-0.005578,-0.029892,-0.025766,0.206424,0.206396,0.158436,0.380312,0.000000,0.000000,0.000000,0.000000,0.000000,0.000000,0.000000,0.000000,0.000000,0.000000,0.000000,0.000000,0.029368,3,0
1450000,0.005383,37.539734,0.046253,0.018464,26.015596,0.008311,0.000141,0.036621,1.570701,-0.069780,-0.002729,0.002418,0.000550,-0.009997,-0.000032,0.000888,-0.005575,-0.070404,0.022921,0.206607,0.206578,0.158088,0.378183,0.000000,0.000000,0.000000,0.000000,0.000000,0.000000,0.000000,0.000000,0.000000,0.000000,0.000000,0.000000,0.068191,3,0
1460000,0.005380,37.798222,0.045715,0.018459,26.016926,0.007718,0.000127,0.036459,1.570690,-0.069479,-0.002763,0.002661,0.000561,-0.009893,-0.000032,0.000499,-0.005571,-0.049873,-0.023982,0.206792,0.206762,0.157743,0.376114,0.000000,0.000000,0.000000,0.000000,0.000000,0.000000,0.000000,0.000000,0.000000,0.000000,0.000000,0.000000,0.048460,3,0
1470000,0.005373,38.061504,0.046734,0.018280,26.026756,0.008837,0.000106,0.037015,1.570700,-0.070015,-0.002797,0.002289,0.000573,-0.010081,-0.000033,0.001501,-0.005566,0.089207,0.036450,0.206979,0.206948,0.157400,0.374102,0.000000,0.000000,0.000000,0.000000,0.000000,0.000000,0.000000,0.000000,0.000000,0.000000,0.000000,0.000000,0.086303,3,0
1480000,0.005365,38.322662,0.047547,0.018130,26.032812,0.009873,0.000080,0.037238,1.570698,-0.070161,-0.002830,0.002010,0.000585,-0.010132,-0.000033,0.000228,-0.005558,0.024616,0.027769,0.207168,0.207136,0.157059,0.372148,0.000000,0.000000,0.000000,0.000000,0.000000,0.000000,0.000000,0.000000,0.000000,0.000000,0.000000,0.000000,0.024367,3,0
1490000,0.005355,38.583099,0.048224,0.017933,26.037289,0.010787,0.000066,0.037350,1.570701,-0.070172,-0.002863,0.001789,0.000598,-0.010135,-0.000033,0.000085,-0.005548,0.001942,0.022085,0.207358,0.207325,0.156721,0.370248,0.000000,0.000000,0.000000,0.000000,0.000000,0.000000,0.000000,0.000000,0.000000,0.000000,0.000000,0.000000,0.005675,3,0
1500000,0.005347,38.845585,0.047064,0.017824,26.045515,0.009458,0.000044,0.037763,1.570708,-0.070526,-0.002896,0.002264,0.000609,-0.010268,-0.000033,0.000954,-0.005537,0.059521,-0.048347,0.207551,0.207517,0.156385,0.368403,0.000000,0.000000,0.000000,0.000000,0.000000,0.000000,0.000000,0.000000,0.000000,0.000000,0.000000,0.000000,0.057701,3,0
1510000,0.005337,39.108696,0.046814,0.017728,26.054832,0.009197,0.000022,0.038263,1.570711,-0.070969,-0.002929,0.002380,0.000621,-0.010434,-0.000034,0.000943,-0.005528,0.075256,-0.012774,0.207746,0.207710,0.156052,0.366612,0.000000,0.000000,0.000000,0.000000,0.000000,0.000000,0.000000,0.000000,0.000000,0.000000,0.000000,0.000000,0.072843,3,0
1520000,0.005323,39.366901,0.048035,0.017553,26.055138,0.010690,-0.000002,0.037985,1.570702,-0.070566,-0.002960,0.001958,0.000634,-0.010279,-0.000034,0.001063,-0.005516,-0.068672,0.042963,0.207942,0.207905,0.155722,0.364873,0.000000,0.000000,0.000000,0.000000,0.000000,0.000000,0.000000,0.000000,0.000000,0.000000,0.000000,0.000000,0.066498,3,0
1530000,0.005312,39.627205,0.046698,0.017420,26.059116,0.009190,-0.000025,0.038040,1.570698,-0.070518,-0.002993,0.002527,0.000646,-0.010263,-0.000034,0.000525,-0.005501,-0.008820,-0.055912,0.208140,0.208102,0.155396,0.363182,0.000000,0.000000,0.000000,0.000000,0.000000,0.000000,0.000000,0.000000,0.000000,0.000000,0.000000,0.000000,0.010045,3,0
1540000,0.005297,39.886086,0.047349,0.017274,26.060539,0.009901,-0.000047,0.037874,1.570690,-0.070227,-0.003024,0.002319,0.000658,-0.010148,-0.000033,0.000488,-0.005488,-0.050495,0.021223,0.208340,0.208301,0.155072,0.361542,0.000000,0.000000,0.000000,0.000000,0.000000,0.000000,0.000000,0.000000,0.000000,0.000000,0.000000,0.000000,0.049024,3,0
1550000,0.005282,40.144272,0.047703,0.017172,26.060507,0.010413,-0.000080,0.037583,1.570682,-0.069822,-0.003055,0.002237,0.000671,-0.009987,-0.000033,0.000826,-0.005472,-0.070843,0.009233,0.208541,0.208501,0.154751,0.359948,0.000000,0.000000,0.000000,0.000000,0.000000,0.000000,0.000000,0.000000,0.000000,0.000000,0.000000,0.000000,0.068582,3,0
1560000,0.005266,40.403847,0.048367,0.017145,26.063019,0.011267,-0.000111,0.037505,1.570672,-0.069646,-0.003086,0.002022,0.000684,-0.009915,-0.000033,0.000233,-0.005457,-0.030846,0.021454,0.208744,0.208702,0.154433,0.358400,0.000000,0.000000,0.000000,0.000000,0.000000,0.000000,0.000000,0.000000,0.000000,0.000000,0.000000,0.000000,0.030232,3,0
1570000,0.005250,40.661335,0.048031,0.016949,26.061726,0.010869,-0.000131,0.037104,1.570666,-0.069133,-0.003116,0.002228,0.000696,-0.009705,-0.000032,0.001411,-0.005439,-0.091656,-0.018302,0.208948,0.208905,0.154119,0.356897,0.000000,0.000000,0.000000,0.000000,0.000000,0.000000,0.000000,0.000000,0.000000,0.000000,0.000000,0.000000,0.088622,3,0
1580000,0.005233,40.920921,0.047201,0.016739,26.064240,0.009903,-0.000164,0.037031,1.570657,-0.068962,-0.003147,0.002617,0.000708,-0.009636,-0.000032,0.000382,-0.005421,-0.031067,-0.036940,0.209154,0.209109,0.153809,0.355438,0.000000,0.000000,0.000000,0.000000,0.000000,0.000000,0.000000,0.000000,0.000000,0.000000,0.000000,0.000000,0.030444,3,0
1590000,0.005214,41.179794,0.047172,0.016586,26.065432,0.010051,-0.000192,0.036838,1.570650,-0.068674,-0.003177,0.002684,0.000721,-0.009514,-0.000032,0.000447,-0.005402,-0.052132,-0.005556,0.209360,0.209315,0.153501,0.354021,0.000000,0.000000,0.000000,0.000000,0.000000,0.000000,0.000000,0.000000,0.000000,0.000000,0.000000,0.000000,0.050585,3,0
1600000,0.005194,41.440735,0.047775,0.016488,26.070309,0.010555,-0.000222,0.036972,1.570656,-0.068712,-0.003206,0.002477,0.000734,-0.009530,-0.000032,0.000076,-0.005383,0.007046,0.019780,0.209568,0.209521,0.153198,0.352646,0.000000,0.000000,0.000000,0.000000,0.000000,0.000000,0.000000,0.000000,0.000000,0.000000,0.000000,0.000000,0.008561,3,0
1610000,0.005173,41.703030,0.047549,0.016306,26.077524,0.010159,-0.000245,0.037323,1.570648,-0.068952,-0.003235,0.002600,0.000746,-0.009635,-0.000033,0.000345,-0.005360,0.044243,-0.012612,0.209777,0.209728,0.152898,0.351310,0.000000,0.000000,0.000000,0.000000,0.000000,0.000000,0.000000,0.000000,0.000000,0.000000,0.000000,0.000000,0.043006,3,0
1620000,0.005152,41.960400,0.046760,0.016136,26.075649,0.009291,-0.000260,0.036867,1.570650,-0.068423,-0.003264,0.003000,0.000759,-0.009403,-0.000032,0.001787,-0.005338,-0.098850,-0.036038,0.209986,0.209936,0.152601,0.350013,0.000000,0.000000,0.000000,0.000000,0.000000,0.000000,0.000000,0.000000,0.000000,0.000000,0.000000,0.000000,0.095541,3,0
1630000,0.005130,42.218472,0.047358,0.016083,26.075106,0.010136,-0.000281,0.036513,1.570653,-0.068008,-0.003292,0.002814,0.000772,-0.009215,-0.000032,0.001040,-0.005317,-0.077900,0.019093,0.210196,0.210145,0.152309,0.348756,0.000000,0.000000,0.000000,0.000000,0.000000,0.000000,0.000000,0.000000,0.000000,0.000000,0.000000,0.000000,0.075343,3,0
1640000,0.005107,42.480026,0.048260,0.016003,26.080904,0.011231,-0.000299,0.036737,1.570646,-0.068122,-0.003320,0.002473,0.000784,-0.009265,-0.000032,0.000245,-0.005293,0.021854,0.031731,0.210406,0.210354,0.152020,0.347534,0.000000,0.000000,0.000000,0.000000,0.000000,0.000000,0.000000,0.000000,0.000000,0.000000,0.000000,0.000000,0.021705,3,0
1650000,0.005084,42.738052,0.047908,0.015793,26.080132,0.010810,-0.000317,0.036355,1.570637,-0.067702,-0.003347,0.002695,0.000797,-0.009071,-0.000031,0.001113,-0.005268,-0.080727,-0.019213,0.210617,0.210563,0.151735,0.346348,0.000000,0.000000,0.000000,0.000000,0.000000,0.000000,0.000000,0.000000,0.000000,0.000000,0.000000,0.000000,0.078066,3,0
1660000,0.005059,42.997471,0.048171,0.015588,26.081921,0.011208,-0.000349,0.036206,1.570643,-0.067492,-0.003374,0.002644,0.000810,-0.008972,-0.000031,0.000274,-0.005243,-0.040562,0.005640,0.210828,0.210773,0.151453,0.345196,0.000000,0.000000,0.000000,0.000000,0.000000,0.000000,0.000000,0.000000,0.000000,0.000000,0.000000,0.000000,0.039461,3,0
1670000,0.005032,43.254761,0.049263,0.015417,26.079559,0.012723,-0.000374,0.035692,1.570631,-0.066974,-0.003401,0.002262,0.000823,-0.008722,-0.000030,0.001882,-0.005216,-0.101204,0.037684,0.211039,0.210983,0.151176,0.344076,0.000000,0.000000,0.000000,0.000000,0.000000,0.000000,0.000000,0.000000,0.000000,0.000000,0.000000,0.000000,0.097763,3,0
1680000,0.005006,43.514187,0.048518,0.015261,26.081301,0.011864,-0.000400,0.035539,1.570625,-0.066772,-0.003427,0.002650,0.000835,-0.008625,-0.000030,0.000468,-0.005188,-0.040405,-0.035175,0.211251,0.211193,0.150903,0.342990,0.000000,0.000000,0.000000,0.000000,0.000000,0.000000,0.000000,0.000000,0.000000,0.000000,0.000000,0.000000,0.039314,3,0
1690000,0.004980,43.771500,0.047264,0.015092,26.079058,0.010294,-0.000421,0.035033,1.570626,-0.066269,-0.003454,0.003277,0.000848,-0.008380,-0.000030,0.002153,-0.005161,-0.101063,-0.055787,0.211462,0.211402,0.150633,0.341935,0.000000,0.000000,0.000000,0.000000,0.000000,0.000000,0.000000,0.000000,0.000000,0.000000,0.000000,0.000000,0.097646,3,0
1700000,0.004952,44.031609,0.047898,0.014954,26.081911,0.011107,-0.000441,0.034992,1.570632,-0.066168,-0.003479,0.003055,0.000861,-0.008327,-0.000030,0.000142,-0.005133,-0.020412,0.020902,0.211672,0.211611,0.150368,0.340909,0.000000,0.000000,0.000000,0.000000,0.000000,0.000000,0.000000,0.000000,0.000000,0.000000,0.000000,0.000000,0.020301,3,0
1710000,0.004924,44.291000,0.046791,0.014718,26.083494,0.009949,-0.000461,0.034828,1.570624,-0.065965,-0.003504,0.003601,0.000873,-0.008227,-0.000029,0.000683,-0.005102,-0.042000,-0.049273,0.211882,0.211820,0.150106,0.339913,0.000000,0.000000,0.000000,0.000000,0.000000,0.000000,0.000000,0.000000,0.000000,0.000000,0.000000,0.000000,0.040829,3,0
1720000,0.004894,44.553169,0.046592,0.014646,26.090160,0.009812,-0.000480,0.035139,1.570634,-0.066141,-0.003529,0.003720,0.000886,-0.008319,-0.000030,0.000241,-0.005073,0.036533,-0.011638,0.212092,0.212028,0.149849,0.338945,0.000000,0.000000,0.000000,0.000000,0.000000,0.000000,0.000000,0.000000,0.000000,0.000000,0.000000,0.000000,0.035578,3,0
