time_us,pos_x,pos_y,pos_z,vel_x,vel_y,vel_z,roll,pitch,yaw,bias_ax,bias_ay,bias_az,bias_gx,bias_gy,bias_gz,nis,innov_x,innov_y,innov_z,cov_pos_x,cov_pos_y,cov_pos_z,cov_yaw,des_speed,des_heading,des_climb,pid_speed,pid_yaw,pid_alt,speed_meas,yaw_meas,climb_meas,fwd_accel,yaw_rate,vert_accel,drift_m,nav_mode,mission_state
0,-0.000002,0.149996,-0.000003,-0.000304,24.999319,-0.000805,-0.000001,-0.000028,1.570822,0.000000,0.000000,0.000000,0.000000,0.000000,0.000000,0.006250,0.000003,-0.249996,0.000008,2.400038,2.400038,3.600017,1.000518,0.000000,0.000000,0.000000,0.000000,0.000000,0.000000,0.000000,0.000000,0.000000,0.000000,0.000000,0.000000,0.149996,1,0
10000,-0.000007,0.365216,-0.006000,-0.000745,24.998665,-0.001749,-0.000005,-0.000054,1.570827,0.000000,0.000000,0.000000,0.000000,0.000000,0.000000,0.001789,0.000009,-0.121680,-0.015946,1.714420,1.714420,2.250079,1.001073,0.000000,0.000000,0.000000,0.000000,0.000000,0.000000,0.000000,0.000000,0.000000,0.000000,0.000000,0.000000,0.086912,3,0
20000,-0.000014,0.593339,0.013096,-0.001101,24.997961,-0.002533,-0.000012,-0.000074,1.570845,0.000001,0.000000,-0.000001,-0.000000,0.000000,-0.000000,0.001850,0.000018,-0.098347,0.070110,1.333616,1.333616,1.636554,1.001655,0.000000,0.000000,0.000000,0.000000,0.000000,0.000000,0.000000,0.000000,0.000000,0.000000,0.000000,0.000000,0.076487,3,0
30000,-0.000024,0.827323,0.020528,-0.001544,24.997181,-0.003349,-0.000016,-0.000101,1.570859,0.000003,0.000000,-0.000001,-0.000000,0.000000,-0.000000,0.001213,0.000029,-0.087915,0.034835,1.091392,1.091392,1.286065,1.002257,0.000000,0.000000,0.000000,0.000000,0.000000,0.000000,0.000000,0.000000,0.000000,0.000000,0.000000,0.000000,0.071924,3,0
40000,-0.000035,1.067518,0.023486,-0.001791,24.996410,-0.003884,-0.000017,-0.000119,1.570876,0.000005,0.000000,-0.000002,-0.000000,0.000000,-0.000000,0.000607,0.000042,-0.063465,0.016978,0.923811,0.923811,1.059385,1.002869,0.000000,0.000000,0.000000,0.000000,0.000000,0.000000,0.000000,0.000000,0.000000,0.000000,0.000000,0.000000,0.053693,3,0
50000,-0.000048,1.319401,0.022301,-0.002057,24.996002,-0.004661,-0.000028,-0.000145,1.570887,0.000004,0.000000,-0.000001,-0.000000,0.000000,-0.000000,0.000038,0.000056,0.014410,-0.007589,0.801036,0.801036,0.900822,1.003484,0.000000,0.000000,0.000000,0.000000,0.000000,0.000000,0.000000,0.000000,0.000000,0.000000,0.000000,0.000000,0.012486,3,0
60000,-0.000064,1.560111,0.028032,-0.002396,24.995125,-0.005255,-0.000037,-0.000162,1.570898,0.000009,0.000000,-0.000004,-0.000000,0.000000,-0.000000,0.001189,0.000072,-0.078438,0.044300,0.707270,0.707270,0.783741,1.004094,0.000000,0.000000,0.000000,0.000000,0.000000,0.000000,0.000000,0.000000,0.000000,0.000000,0.000000,0.000000,0.069192,3,0
70000,-0.000081,1.809944,0.029343,-0.002678,24.994667,-0.006099,-0.000043,-0.000184,1.570918,0.000009,0.000000,-0.000005,-0.000000,0.000000,-0.000000,0.000021,0.000091,-0.001076,0.011868,0.633370,0.633370,0.693801,1.004688,0.000000,0.000000,0.000000,0.000000,0.000000,0.000000,0.000000,0.000000,0.000000,0.000000,0.000000,0.000000,0.000966,3,0
80000,-0.000101,2.056803,0.029295,-0.003007,24.993858,-0.006957,-0.000047,-0.000218,1.570943,0.000012,0.000000,-0.000005,-0.000000,0.000000,-0.000000,0.000157,0.000111,-0.032236,0.000211,0.573673,0.573673,0.622594,1.005260,0.000000,0.000000,0.000000,0.000000,0.000000,0.000000,0.000000,0.000000,0.000000,0.000000,0.000000,0.000000,0.029154,3,0
90000,-0.000123,2.311882,0.029626,-0.003448,24.993851,-0.007716,-0.000059,-0.000234,1.570967,0.000005,0.000000,-0.000005,-0.000000,-0.000000,0.000000,0.000530,0.000135,0.058854,0.004334,0.524488,0.524488,0.564865,1.005801,0.000000,0.000000,0.000000,0.000000,0.000000,0.000000,0.000000,0.000000,0.000000,0.000000,0.000000,0.000000,0.053710,3,0
100000,-0.000149,2.558820,0.029381,-0.003896,24.993063,-0.008393,-0.000075,-0.000258,1.570977,0.000010,0.000000,-0.000005,-0.000000,0.000000,-0.000000,0.000213,0.000162,-0.037193,-0.001859,0.483303,0.483303,0.517162,1.006301,0.000000,0.000000,0.000000,0.000000,0.000000,0.000000,0.000000,0.000000,0.000000,0.000000,0.000000,0.000000,0.034198,3,0
110000,-0.000177,2.808310,0.029670,-0.004217,24.992441,-0.009037,-0.000084,-0.000275,1.570986,0.000011,0.000000,-0.000006,-0.000000,0.000000,-0.000000,0.000009,0.000191,-0.005818,0.004770,0.448353,0.448353,0.477121,1.006754,0.000000,0.000000,0.000000,0.000000,0.000000,0.000000,0.000000,0.000000,0.000000,0.000000,0.000000,0.000000,0.005386,3,0
120000,-0.000207,3.061220,0.031661,-0.004585,24.992449,-0.009577,-0.000092,-0.000303,1.571005,0.000002,0.000000,-0.000012,-0.000000,-0.000000,0.000000,0.000409,0.000223,0.042881,0.028296,0.418358,0.418358,0.443071,1.007150,0.000000,0.000000,0.000000,0.000000,0.000000,0.000000,0.000000,0.000000,0.000000,0.000000,0.000000,0.000000,0.039892,3,0
130000,-0.000241,3.309105,0.031763,-0.005023,24.991652,-0.010304,-0.000095,-0.000336,1.571024,0.000010,0.000000,-0.000013,-0.000000,0.000000,-0.000000,0.000152,0.000258,-0.031119,0.002980,0.392369,0.392369,0.413797,1.007481,0.000000,0.000000,0.000000,0.000000,0.000000,0.000000,0.000000,0.000000,0.000000,0.000000,0.000000,0.000000,0.029085,3,0
140000,-0.000277,3.562648,0.030367,-0.005399,24.991880,-0.011239,-0.000105,-0.000348,1.571037,-0.000007,0.000000,-0.000007,-0.000000,-0.000000,0.000000,0.000605,0.000295,0.058946,-0.019860,0.369666,0.369666,0.388393,1.007739,0.000000,0.000000,0.000000,0.000000,0.000000,0.000000,0.000000,0.000000,0.000000,0.000000,0.000000,0.000000,0.055315,3,0
150000,-0.000315,3.817440,0.028180,-0.005736,24.992496,-0.012402,-0.000120,-0.000369,1.571049,-0.000036,0.000000,0.000004,-0.000000,-0.000001,0.000000,0.001279,0.000334,0.083706,-0.033880,0.349694,0.349694,0.366172,1.007915,0.000000,0.000000,0.000000,0.000000,0.000000,0.000000,0.000000,0.000000,0.000000,0.000000,0.000000,0.000000,0.078828,3,0
160000,-0.000354,4.073293,0.025528,-0.006004,24.993557,-0.013822,-0.000131,-0.000386,1.571056,-0.000076,0.000001,0.000021,-0.000000,-0.000002,0.000000,0.002109,0.000375,0.107213,-0.043624,0.332020,0.332020,0.346600,1.008002,0.000000,0.000000,0.000000,0.000000,0.000000,0.000000,0.000000,0.000000,0.000000,0.000000,0.000000,0.000000,0.101280,3,0
170000,-0.000396,4.325867,0.025431,-0.006451,24.993935,-0.014436,-0.000147,-0.000396,1.571066,-0.000098,0.000001,0.000020,-0.000000,-0.000002,0.000000,0.000397,0.000419,0.050138,0.000869,0.316296,0.316296,0.329260,1.007991,0.000000,0.000000,0.000000,0.000000,0.000000,0.000000,0.000000,0.000000,0.000000,0.000000,0.000000,0.000000,0.047496,3,0
180000,-0.000441,4.573615,0.026977,-0.006778,24.992767,-0.014536,-0.000151,-0.000418,1.571087,-0.000077,0.000001,0.000005,-0.000000,-0.000002,0.000000,0.000464,0.000464,-0.043409,0.032429,0.302245,0.302245,0.313817,1.007875,0.000000,0.000000,0.000000,0.000000,0.000000,0.000000,0.000000,0.000000,0.000000,0.000000,0.000000,0.000000,0.041224,3,0
190000,-0.000488,4.822919,0.025752,-0.007125,24.992142,-0.015490,-0.000158,-0.000438,1.571094,-0.000070,0.000001,0.000016,-0.000000,-0.000002,0.000000,0.000099,0.000512,-0.012841,-0.021459,0.289639,0.289639,0.300003,1.007645,0.000000,0.000000,0.000000,0.000000,0.000000,0.000000,0.000000,0.000000,0.000000,0.000000,0.000000,0.000000,0.012231,3,0
200000,-0.000536,5.071740,0.026894,-0.007438,24.991148,-0.015978,-0.000163,-0.000466,1.571115,-0.000057,0.000002,0.000001,-0.000000,-0.000001,0.000000,0.000206,0.000562,-0.023590,0.027239,0.278293,0.278293,0.287598,1.007295,0.000000,0.000000,0.000000,0.000000,0.000000,0.000000,0.000000,0.000000,0.000000,0.000000,0.000000,0.000000,0.022502,3,0
210000,-0.000587,5.324575,0.026100,-0.007798,24.991934,-0.016879,-0.000161,-0.000480,1.571124,-0.000098,0.000002,0.000009,-0.000000,-0.000002,0.000000,0.000713,0.000614,0.065539,-0.013613,0.268051,0.268051,0.276421,1.006816,0.000000,0.000000,0.000000,0.000000,0.000000,0.000000,0.000000,0.000000,0.000000,0.000000,0.000000,0.000000,0.062614,3,0
220000,-0.000640,5.580130,0.027411,-0.008176,24.994127,-0.017129,-0.000164,-0.000477,1.571137,-0.000190,0.000002,-0.000014,-0.000000,-0.000005,0.000000,0.002906,0.000669,0.130759,0.033544,0.258784,0.258784,0.266321,1.006202,0.000000,0.000000,0.000000,0.000000,0.000000,0.000000,0.000000,0.000000,0.000000,0.000000,0.000000,0.000000,0.125121,3,0
230000,-0.000696,5.829835,0.027504,-0.008622,24.993532,-0.017753,-0.000169,-0.000509,1.571143,-0.000186,0.000003,-0.000019,-0.000000,-0.000005,0.000000,0.000011,0.000726,-0.005544,0.006320,0.250382,0.250382,0.257172,1.005446,0.000000,0.000000,0.000000,0.000000,0.000000,0.000000,0.000000,0.000000,0.000000,0.000000,0.000000,0.000000,0.005358,3,0
240000,-0.000753,6.079894,0.025245,-0.008873,24.993122,-0.019730,-0.000169,-0.000534,1.571160,-0.000188,0.000004,0.000022,-0.000000,-0.000005,0.000000,0.000400,0.000785,0.003183,-0.049953,0.242752,0.242752,0.248866,1.004541,0.000000,0.000000,0.000000,0.000000,0.000000,0.000000,0.000000,0.000000,0.000000,0.000000,0.000000,0.000000,0.003146,3,0
250000,-0.000812,6.331056,0.026339,-0.009211,24.993322,-0.019754,-0.000171,-0.000551,1.571166,-0.000216,0.000004,-0.000006,-0.000000,-0.000006,0.000000,0.000325,0.000845,0.031433,0.032298,0.235814,0.235814,0.241314,1.003481,0.000000,0.000000,0.000000,0.000000,0.000000,0.000000,0.000000,0.000000,0.000000,0.000000,0.000000,0.000000,0.030209,3,0
260000,-0.000874,6.583985,0.024109,-0.009606,24.994677,-0.021760,-0.000169,-0.000559,1.571175,-0.000292,0.000005,0.000043,-0.000000,-0.000009,0.000000,0.001416,0.000908,0.078453,-0.051793,0.229499,0.229499,0.234436,1.002258,0.000000,0.000000,0.000000,0.000000,0.000000,0.000000,0.000000,0.000000,0.000000,0.000000,0.000000,0.000000,0.075457,3,0
270000,-0.000936,6.834832,0.024347,-0.009886,24.994690,-0.022087,-0.000175,-0.000580,1.571194,-0.000317,0.000006,0.000030,-0.000000,-0.000010,0.000000,0.000119,0.000973,0.024300,0.012134,0.223748,0.223748,0.228165,1.000869,0.000000,0.000000,0.000000,0.000000,0.000000,0.000000,0.000000,0.000000,0.000000,0.000000,0.000000,0.000000,0.023413,3,0
280000,-0.001002,7.091727,0.023770,-0.010300,24.999058,-0.023153,-0.000191,-0.000547,1.571208,-0.000527,0.000007,0.000041,-0.000000,-0.000018,0.000000,0.005867,0.001040,0.190909,-0.009378,0.218509,0.218509,0.222443,0.999307,0.000000,0.000000,0.000000,0.000000,0.000000,0.000000,0.000000,0.000000,0.000000,0.000000,0.000000,0.000000,0.183959,3,0
290000,-0.001069,7.347858,0.023724,-0.010674,25.002991,-0.023697,-0.000202,-0.000513,1.571214,-0.000731,0.000009,0.000034,-0.000000,-0.000026,0.000000,0.004788,0.001109,0.172518,0.005299,0.213737,0.213737,0.217219,0.997567,0.000000,0.000000,0.000000,0.000000,0.000000,0.000000,0.000000,0.000000,0.000000,0.000000,0.000000,0.000000,0.166376,3,0
300000,-0.001139,7.601208,0.022071,-0.011076,25.005074,-0.025543,-0.000218,-0.000494,1.571224,-0.000850,0.000010,0.000084,-0.000000,-0.000032,0.000000,0.001714,0.001180,0.095257,-0.039742,0.209390,0.209390,0.212446,0.995645,0.000000,0.000000,0.000000,0.000000,0.000000,0.000000,0.000000,0.000000,0.000000,0.000000,0.000000,0.000000,0.091940,3,0
310000,-0.001211,7.858091,0.020087,-0.011457,25.010118,-0.027546,-0.000218,-0.000429,1.571234,-0.001117,0.000012,0.000150,-0.000000,-0.000043,0.000000,0.006816,0.001254,0.199708,-0.049643,0.205434,0.205434,0.208087,0.993537,0.000000,0.000000,0.000000,0.000000,0.000000,0.000000,0.000000,0.000000,0.000000,0.000000,0.000000,0.000000,0.192874,3,0
320000,-0.001285,8.110276,0.019831,-0.011856,25.011473,-0.028337,-0.000220,-0.000435,1.571251,-0.001205,0.000014,0.000149,-0.000001,-0.000047,0.000000,0.000620,0.001330,0.062046,0.000801,0.201837,0.201837,0.204105,0.991237,0.000000,0.000000,0.000000,0.000000,0.000000,0.000000,0.000000,0.000000,0.000000,0.000000,0.000000,0.000000,0.059972,3,0
330000,-0.001362,8.364619,0.018452,-0.012270,25.014717,-0.029879,-0.000235,-0.000397,1.571275,-0.001397,0.000016,0.000197,-0.000001,-0.000056,0.000000,0.002808,0.001408,0.127912,-0.032591,0.198570,0.198570,0.200469,0.988744,0.000000,0.000000,0.000000,0.000000,0.000000,0.000000,0.000000,0.000000,0.000000,0.000000,0.000000,0.000000,0.123686,3,0
340000,-0.001440,8.619713,0.018520,-0.012649,25.018862,-0.030199,-0.000236,-0.000355,1.571290,-0.001637,0.000018,0.000179,-0.000001,-0.000068,0.000000,0.003738,0.001489,0.151839,0.011347,0.195608,0.195608,0.197151,0.986054,0.000000,0.000000,0.000000,0.000000,0.000000,0.000000,0.000000,0.000000,0.000000,0.000000,0.000000,0.000000,0.146896,3,0
350000,-0.001520,8.876163,0.016575,-0.012988,25.024424,-0.032430,-0.000238,-0.000281,1.571301,-0.001962,0.000021,0.000263,-0.000001,-0.000084,0.000000,0.006539,0.001571,0.194889,-0.050532,0.192929,0.192929,0.194125,0.983165,0.000000,0.000000,0.000000,0.000000,0.000000,0.000000,0.000000,0.000000,0.000000,0.000000,0.000000,0.000000,0.188629,3,0
360000,-0.001600,9.132653,0.014876,-0.013210,25.030296,-0.034318,-0.000252,-0.000197,1.571321,-0.002307,0.000024,0.000338,-0.000001,-0.000102,0.000000,0.006548,0.001653,0.196808,-0.042934,0.190511,0.190511,0.191370,0.980074,0.000000,0.000000,0.000000,0.000000,0.000000,0.000000,0.000000,0.000000,0.000000,0.000000,0.000000,0.000000,0.190565,3,0
370000,-0.001681,9.386691,0.015524,-0.013480,25.033667,-0.033994,-0.000255,-0.000152,1.571332,-0.002527,0.000027,0.000280,-0.000001,-0.000114,0.000000,0.002455,0.001736,0.119171,0.031701,0.188335,0.188335,0.188863,0.976781,0.000000,0.000000,0.000000,0.000000,0.000000,0.000000,0.000000,0.000000,0.000000,0.000000,0.000000,0.000000,0.115443,3,0
380000,-0.001763,9.640862,0.014566,-0.013741,25.037374,-0.035551,-0.000267,-0.000107,1.571350,-0.002766,0.000031,0.000318,-0.000001,-0.000127,0.000000,0.002526,0.001819,0.123524,-0.019558,0.186384,0.186384,0.186586,0.973283,0.000000,0.000000,0.000000,0.000000,0.000000,0.000000,0.000000,0.000000,0.000000,0.000000,0.000000,0.000000,0.119699,3,0
390000,-0.001845,9.893326,0.015297,-0.014031,25.039186,-0.035243,-0.000267,-0.000087,1.571355,-0.002904,0.000035,0.000246,-0.000002,-0.000135,0.000000,0.000954,0.001904,0.068108,0.035584,0.184643,0.184643,0.184522,0.969582,0.000000,0.000000,0.000000,0.000000,0.000000,0.000000,0.000000,0.000000,0.000000,0.000000,0.000000,0.000000,0.066037,3,0
400000,-0.001929,10.147187,0.015283,-0.014396,25.042763,-0.035487,-0.000269,-0.000036,1.571379,-0.003145,0.000039,0.000222,-0.000002,-0.000148,0.000001,0.002114,0.001990,0.113807,0.011294,0.183097,0.183097,0.182656,0.965677,0.000000,0.000000,0.000000,0.000000,0.000000,0.000000,0.000000,0.000000,0.000000,0.000000,0.000000,0.000000,0.110350,3,0
410000,-0.002013,10.404808,0.015657,-0.014652,25.050917,-0.035529,-0.000276,0.000119,1.571385,-0.003670,0.000044,0.000169,-0.000002,-0.000180,0.000001,0.009222,0.002076,0.237608,0.024454,0.181731,0.181731,0.180971,0.961568,0.000000,0.000000,0.000000,0.000000,0.000000,0.000000,0.000000,0.000000,0.000000,0.000000,0.000000,0.000000,0.230420,3,0
420000,-0.002098,10.658297,0.014736,-0.014932,25.054098,-0.037138,-0.000287,0.000173,1.571404,-0.003898,0.000049,0.000211,-0.000002,-0.000193,0.000001,0.001647,0.002163,0.099181,-0.018593,0.180535,0.180535,0.179456,0.957257,0.000000,0.000000,0.000000,0.000000,0.000000,0.000000,0.000000,0.000000,0.000000,0.000000,0.000000,0.000000,0.096220,3,0
430000,-0.002184,10.912543,0.013595,-0.015223,25.058428,-0.038886,-0.000302,0.000241,1.571426,-0.004196,0.000054,0.000273,-0.000003,-0.000212,0.000001,0.002592,0.002251,0.123964,-0.025634,0.179495,0.179495,0.178097,0.952745,0.000000,0.000000,0.000000,0.000000,0.000000,0.000000,0.000000,0.000000,0.000000,0.000000,0.000000,0.000000,0.120275,3,0
440000,-0.002270,11.168713,0.013928,-0.015462,25.065187,-0.038860,-0.000314,0.000365,1.571447,-0.004664,0.000060,0.000211,-0.000003,-0.000242,0.000001,0.005799,0.002340,0.187737,0.024724,0.178603,0.178602,0.176883,0.948035,0.000000,0.000000,0.000000,0.000000,0.000000,0.000000,0.000000,0.000000,0.000000,0.000000,0.000000,0.000000,0.182163,3,0
450000,-0.002356,11.423223,0.013365,-0.015658,25.069941,-0.039866,-0.000318,0.000455,1.571456,-0.005001,0.000067,0.000226,-0.000004,-0.000264,0.000001,0.002751,0.002428,0.130289,-0.005665,0.177846,0.177846,0.175803,0.943129,0.000000,0.000000,0.000000,0.000000,0.000000,0.000000,0.000000,0.000000,0.000000,0.000000,0.000000,0.000000,0.126450,3,0
460000,-0.002442,11.680817,0.012448,-0.015919,25.078854,-0.041128,-0.000324,0.000651,1.571465,-0.005629,0.000074,0.000274,-0.000004,-0.000306,0.000001,0.008874,0.002516,0.233552,-0.017583,0.177216,0.177216,0.174847,0.938030,0.000000,0.000000,0.000000,0.000000,0.000000,0.000000,0.000000,0.000000,0.000000,0.000000,0.000000,0.000000,0.226667,3,0
470000,-0.002528,11.934404,0.010941,-0.016168,25.082388,-0.043393,-0.000326,0.000726,1.571471,-0.005894,0.000081,0.000378,-0.000004,-0.000324,0.000001,0.001693,0.002604,0.095142,-0.037504,0.176704,0.176704,0.174006,0.932741,0.000000,0.000000,0.000000,0.000000,0.000000,0.000000,0.000000,0.000000,0.000000,0.000000,0.000000,0.000000,0.092375,3,0
480000,-0.002614,12.192251,0.011236,-0.016472,25.091921,-0.043122,-0.000323,0.000940,1.571483,-0.006582,0.000089,0.000305,-0.000005,-0.000373,0.000001,0.009354,0.002693,0.239098,0.025469,0.176302,0.176302,0.173271,0.927268,0.000000,0.000000,0.000000,0.000000,0.000000,0.000000,0.000000,0.000000,0.000000,0.000000,0.000000,0.000000,0.232087,3,0
490000,-0.002702,12.450195,0.010360,-0.016777,25.101564,-0.044563,-0.000335,0.001163,1.571499,-0.007296,0.000097,0.000351,-0.000006,-0.000424,0.000002,0.009325,0.002783,0.239581,-0.015198,0.176002,0.176002,0.172634,0.921615,0.000000,0.000000,0.000000,0.000000,0.000000,0.000000,0.000000,0.000000,0.000000,0.000000,0.000000,0.000000,0.232569,3,0
500000,-0.002789,12.704162,0.009561,-0.017077,25.105534,-0.045800,-0.000333,0.001245,1.571512,-0.007606,0.000106,0.000388,-0.000006,-0.000447,0.000002,0.001669,0.002874,0.100815,-0.012054,0.175796,0.175795,0.172087,0.915786,0.000000,0.000000,0.000000,0.000000,0.000000,0.000000,0.000000,0.000000,0.000000,0.000000,0.000000,0.000000,0.097901,3,0
510000,-0.002878,12.962952,0.010338,-0.017393,25.116537,-0.045081,-0.000338,0.001510,1.571533,-0.008444,0.000116,0.000250,-0.000007,-0.000510,0.000002,0.011606,0.002965,0.264266,0.043490,0.175677,0.175677,0.171622,0.909786,0.000000,0.000000,0.000000,0.000000,0.000000,0.000000,0.000000,0.000000,0.000000,0.000000,0.000000,0.000000,0.256544,3,0
520000,-0.002966,13.217764,0.011080,-0.017640,25.121815,-0.044187,-0.000335,0.001626,1.571549,-0.008852,0.000126,0.000111,-0.000008,-0.000542,0.000002,0.002801,0.003055,0.124637,0.042036,0.175638,0.175638,0.171234,0.903623,0.000000,0.000000,0.000000,0.000000,0.000000,0.000000,0.000000,0.000000,0.000000,0.000000,0.000000,0.000000,0.121024,3,0
530000,-0.003054,13.474479,0.010613,-0.017919,25.129824,-0.044934,-0.000335,0.001833,1.571553,-0.009484,0.000137,0.000114,-0.000009,-0.000591,0.000002,0.005710,0.003146,0.187836,-0.000673,0.175674,0.175674,0.170914,0.897301,0.000000,0.000000,0.000000,0.000000,0.000000,0.000000,0.000000,0.000000,0.000000,0.000000,0.000000,0.000000,0.182361,3,0
540000,-0.003142,13.730744,0.010312,-0.018112,25.137262,-0.045437,-0.000337,0.002015,1.571570,-0.010071,0.000148,0.000095,-0.000010,-0.000638,0.000002,0.004659,0.003237,0.169587,0.005447,0.175778,0.175778,0.170658,0.890827,0.000000,0.000000,0.000000,0.000000,0.000000,0.000000,0.000000,0.000000,0.000000,0.000000,0.000000,0.000000,0.164648,3,0
550000,-0.003230,13.989481,0.009177,-0.018410,25.148460,-0.047199,-0.000344,0.002313,1.571581,-0.010965,0.000160,0.000181,-0.000011,-0.000712,0.000003,0.010300,0.003328,0.251189,-0.023700,0.175945,0.175945,0.170460,0.884208,0.000000,0.000000,0.000000,0.000000,0.000000,0.000000,0.000000,0.000000,0.000000,0.000000,0.000000,0.000000,0.243844,3,0
560000,-0.003318,14.245994,0.009693,-0.018647,25.156265,-0.046424,-0.000347,0.002516,1.571599,-0.011591,0.000173,0.000051,-0.000012,-0.000764,0.000003,0.004944,0.003418,0.171249,0.035002,0.176169,0.176169,0.170314,0.877451,0.000000,0.000000,0.000000,0.000000,0.000000,0.000000,0.000000,0.000000,0.000000,0.000000,0.000000,0.000000,0.166254,3,0
570000,-0.003405,14.503815,0.010220,-0.018852,25.166061,-0.045951,-0.000347,0.002782,1.571612,-0.012388,0.000187,-0.000082,-0.000013,-0.000832,0.000003,0.007531,0.003508,0.212842,0.035238,0.176445,0.176445,0.170214,0.870562,0.000000,0.000000,0.000000,0.000000,0.000000,0.000000,0.000000,0.000000,0.000000,0.000000,0.000000,0.000000,0.206611,3,0
580000,-0.003490,14.761174,0.010693,-0.018972,25.175018,-0.045356,-0.000359,0.003034,1.571628,-0.013132,0.000201,-0.000211,-0.000014,-0.000897,0.000003,0.006234,0.003596,0.193472,0.033110,0.176768,0.176768,0.170157,0.863551,0.000000,0.000000,0.000000,0.000000,0.000000,0.000000,0.000000,0.000000,0.000000,0.000000,0.000000,0.000000,0.187804,3,0
590000,-0.003575,15.018664,0.011181,-0.019169,25.184174,-0.044594,-0.000351,0.003288,1.571646,-0.013897,0.000215,-0.000344,-0.000015,-0.000965,0.000004,0.006298,0.003683,0.194448,0.033371,0.177134,0.177134,0.170138,0.856424,0.000000,0.000000,0.000000,0.000000,0.000000,0.000000,0.000000,0.000000,0.000000,0.000000,0.000000,0.000000,0.188741,3,0
600000,-0.003658,15.275109,0.010370,-0.019294,25.191723,-0.045947,-0.000363,0.003496,1.571666,-0.014523,0.000231,-0.000292,-0.000017,-0.001021,0.000004,0.003940,0.003769,0.155532,-0.012602,0.177539,0.177538,0.170152,0.849188,0.000000,0.000000,0.000000,0.000000,0.000000,0.000000,0.000000,0.000000,0.000000,0.000000,0.000000,0.000000,0.150974,3,0
610000,-0.003741,15.531108,0.010207,-0.019584,25.198486,-0.046429,-0.000362,0.003688,1.571683,-0.015089,0.000247,-0.000337,-0.000018,-0.001074,0.000004,0.003081,0.003856,0.137559,0.010733,0.177977,0.177977,0.170195,0.841853,0.000000,0.000000,0.000000,0.000000,0.000000,0.000000,0.000000,0.000000,0.000000,0.000000,0.000000,0.000000,0.133531,3,0
620000,-0.003824,15.790803,0.010521,-0.019793,25.211317,-0.045930,-0.000372,0.004072,1.571695,-0.016180,0.000264,-0.000456,-0.000020,-0.001176,0.000004,0.010990,0.003941,0.259192,0.027604,0.178445,0.178445,0.170264,0.834426,0.000000,0.000000,0.000000,0.000000,0.000000,0.000000,0.000000,0.000000,0.000000,0.000000,0.000000,0.000000,0.251512,3,0
630000,-0.003905,16.047642,0.010007,-0.019976,25.219286,-0.046630,-0.000366,0.004304,1.571704,-0.016860,0.000281,-0.000448,-0.000022,-0.001242,0.000005,0.004060,0.004025,0.158400,-0.001740,0.178941,0.178940,0.170356,0.826915,0.000000,0.000000,0.000000,0.000000,0.000000,0.000000,0.000000,0.000000,0.000000,0.000000,0.000000,0.000000,0.153725,3,0
640000,-0.003986,16.304621,0.009625,-0.020150,25.227495,-0.047443,-0.000369,0.004560,1.571714,-0.017561,0.000300,-0.000462,-0.000023,-0.001310,0.000005,0.004139,0.004109,0.159906,0.003255,0.179459,0.179458,0.170465,0.819328,0.000000,0.000000,0.000000,0.000000,0.000000,0.000000,0.000000,0.000000,0.000000,0.000000,0.000000,0.000000,0.155174,3,0
650000,-0.004065,16.564119,0.010362,-0.020229,25.239719,-0.046342,-0.000375,0.004956,1.571723,-0.018638,0.000319,-0.000659,-0.000025,-0.001417,0.000005,0.009673,0.004190,0.240788,0.042828,0.179996,0.179996,0.170591,0.811674,0.000000,0.000000,0.000000,0.000000,0.000000,0.000000,0.000000,0.000000,0.000000,0.000000,0.000000,0.000000,0.233600,3,0
660000,-0.004142,16.821337,0.009679,-0.020329,25.248171,-0.047525,-0.000381,0.005223,1.571737,-0.019367,0.000339,-0.000624,-0.000027,-0.001491,0.000005,0.004154,0.004270,0.160074,-0.007478,0.180551,0.180551,0.170729,0.803960,0.000000,0.000000,0.000000,0.000000,0.000000,0.000000,0.000000,0.000000,0.000000,0.000000,0.000000,0.000000,0.155313,3,0
670000,-0.004218,17.081087,0.010148,-0.020541,25.260674,-0.046995,-0.000380,0.005639,1.571752,-0.020483,0.000359,-0.000783,-0.000030,-0.001606,0.000006,0.009550,0.004349,0.240715,0.033429,0.181119,0.181119,0.170877,0.796195,0.000000,0.000000,0.000000,0.000000,0.000000,0.000000,0.000000,0.000000,0.000000,0.000000,0.000000,0.000000,0.233486,3,0
680000,-0.004293,17.337330,0.009811,-0.020665,25.267162,-0.047548,-0.000382,0.005854,1.571763,-0.021049,0.000380,-0.000807,-0.000032,-0.001666,0.000006,0.002334,0.004427,0.119993,0.004899,0.181698,0.181698,0.171033,0.788386,0.000000,0.000000,0.000000,0.000000,0.000000,0.000000,0.000000,0.000000,0.000000,0.000000,0.000000,0.000000,0.116439,3,0
690000,-0.004366,17.598545,0.009494,-0.020813,25.282007,-0.048085,-0.000383,0.006369,1.571771,-0.022399,0.000402,-0.000835,-0.000034,-0.001810,0.000007,0.012782,0.004503,0.281143,0.005735,0.182286,0.182286,0.171194,0.780541,0.000000,0.000000,0.000000,0.000000,0.000000,0.000000,0.000000,0.000000,0.000000,0.000000,0.000000,0.000000,0.272637,3,0
700000,-0.004439,17.857424,0.010366,-0.021005,25.292719,-0.046741,-0.000372,0.006743,1.571789,-0.023368,0.000425,-0.001076,-0.000037,-0.001915,0.000007,0.006749,0.004579,0.198689,0.047560,0.182880,0.182880,0.171357,0.772670,0.000000,0.000000,0.000000,0.000000,0.000000,0.000000,0.000000,0.000000,0.000000,0.000000,0.000000,0.000000,0.192684,3,0
710000,-0.004511,18.114590,0.010348,-0.021224,25.300467,-0.046931,-0.000379,0.007013,1.571806,-0.024055,0.000449,-0.001158,-0.000039,-0.001991,0.000007,0.003144,0.004653,0.138489,0.015984,0.183478,0.183478,0.171522,0.764778,0.000000,0.000000,0.000000,0.000000,0.000000,0.000000,0.000000,0.000000,0.000000,0.000000,0.000000,0.000000,0.134330,3,0
720000,-0.004581,18.374325,0.010063,-0.021290,25.312620,-0.047413,-0.000381,0.007430,1.571813,-0.025157,0.000473,-0.001193,-0.000042,-0.002116,0.000008,0.007772,0.004726,0.219187,0.006650,0.184078,0.184077,0.171685,0.756873,0.000000,0.000000,0.000000,0.000000,0.000000,0.000000,0.000000,0.000000,0.000000,0.000000,0.000000,0.000000,0.212511,3,0
730000,-0.004650,18.633547,0.008697,-0.021375,25.323694,-0.049430,-0.000382,0.007813,1.571827,-0.026168,0.000498,-0.001028,-0.000045,-0.002231,0.000008,0.006484,0.004798,0.197876,-0.030934,0.184677,0.184677,0.171846,0.748963,0.000000,0.000000,0.000000,0.000000,0.000000,0.000000,0.000000,0.000000,0.000000,0.000000,0.000000,0.000000,0.191842,3,0
740000,-0.004718,18.890417,0.008646,-0.021518,25.330490,-0.049366,-0.000377,0.008050,1.571848,-0.026776,0.000523,-0.001113,-0.000048,-0.002302,0.000008,0.002272,0.004868,0.117455,0.015617,0.185275,0.185275,0.172003,0.741055,0.000000,0.000000,0.000000,0.000000,0.000000,0.000000,0.000000,0.000000,0.000000,0.000000,0.000000,0.000000,0.113924,3,0
750000,-0.004783,19.147413,0.007103,-0.021540,25.337503,-0.051580,-0.000374,0.008305,1.571856,-0.027400,0.000549,-0.000913,-0.000051,-0.002376,0.000009,0.002503,0.004936,0.118942,-0.036385,0.185870,0.185870,0.172155,0.733156,0.000000,0.000000,0.000000,0.000000,0.000000,0.000000,0.000000,0.000000,0.000000,0.000000,0.000000,0.000000,0.115356,3,0
760000,-0.004847,19.406387,0.006244,-0.021640,25.347868,-0.052717,-0.000374,0.008690,1.571860,-0.028357,0.000576,-0.000847,-0.000054,-0.002491,0.000009,0.005255,0.005002,0.179937,-0.011775,0.186460,0.186460,0.172299,0.725272,0.000000,0.000000,0.000000,0.000000,0.000000,0.000000,0.000000,0.000000,0.000000,0.000000,0.000000,0.000000,0.174412,3,0
770000,-0.004909,19.666702,0.007262,-0.021792,25.360477,-0.051121,-0.000372,0.009158,1.571861,-0.029536,0.000604,-0.001154,-0.000058,-0.002636,0.000010,0.008223,0.005068,0.219042,0.053971,0.187044,0.187044,0.172435,0.717411,0.000000,0.000000,0.000000,0.000000,0.000000,0.000000,0.000000,0.000000,0.000000,0.000000,0.000000,0.000000,0.212270,3,0
780000,-0.004971,19.927723,0.005889,-0.021915,25.374142,-0.053360,-0.000365,0.009690,1.571880,-0.030826,0.000633,-0.000983,-0.000061,-0.002797,0.000010,0.009209,0.005131,0.236906,-0.029732,0.187621,0.187620,0.172563,0.709578,0.000000,0.000000,0.000000,0.000000,0.000000,0.000000,0.000000,0.000000,0.000000,0.000000,0.000000,0.000000,0.229552,3,0
790000,-0.005031,20.185699,0.005555,-0.022031,25.382364,-0.053991,-0.000362,0.010002,1.571901,-0.031569,0.000662,-0.001025,-0.000065,-0.002891,0.000011,0.002945,0.005194,0.134781,0.007230,0.188189,0.188189,0.172680,0.701779,0.000000,0.000000,0.000000,0.000000,0.000000,0.000000,0.000000,0.000000,0.000000,0.000000,0.000000,0.000000,0.130651,3,0
800000,-0.005091,20.447535,0.004358,-0.022158,25.397175,-0.055766,-0.000353,0.010590,1.571911,-0.032987,0.000692,-0.000892,-0.000068,-0.003074,0.000011,0.010536,0.005256,0.254421,-0.022602,0.188748,0.188748,0.172786,0.694021,0.000000,0.000000,0.000000,0.000000,0.000000,0.000000,0.000000,0.000000,0.000000,0.000000,0.000000,0.000000,0.246471,3,0
810000,-0.005148,20.707548,0.003426,-0.022162,25.408562,-0.057085,-0.000343,0.011036,1.571926,-0.034064,0.000722,-0.000816,-0.000072,-0.003215,0.000012,0.005933,0.005315,0.191227,-0.012773,0.189297,0.189296,0.172881,0.686307,0.000000,0.000000,0.000000,0.000000,0.000000,0.000000,0.000000,0.000000,0.000000,0.000000,0.000000,0.000000,0.185266,3,0
820000,-0.005204,20.965754,0.002480,-0.022317,25.416676,-0.058230,-0.000343,0.011344,1.571933,-0.034804,0.000753,-0.000738,-0.000076,-0.003313,0.000012,0.002754,0.005374,0.129887,-0.012879,0.189835,0.189835,0.172964,0.678645,0.000000,0.000000,0.000000,0.000000,0.000000,0.000000,0.000000,0.000000,0.000000,0.000000,0.000000,0.000000,0.125884,3,0
830000,-0.005259,21.225948,0.002956,-0.022458,25.428179,-0.057561,-0.000333,0.011822,1.571944,-0.035893,0.000785,-0.000967,-0.000081,-0.003461,0.000013,0.006031,0.005432,0.189663,0.036982,0.190362,0.190361,0.173035,0.671039,0.000000,0.000000,0.000000,0.000000,0.000000,0.000000,0.000000,0.000000,0.000000,0.000000,0.000000,0.000000,0.183721,3,0
840000,-0.005313,21.484316,0.002256,-0.022608,25.436398,-0.058473,-0.000330,0.012155,1.571960,-0.036636,0.000817,-0.000942,-0.000085,-0.003563,0.000013,0.002657,0.005488,0.128141,-0.004099,0.190876,0.190876,0.173092,0.663493,0.000000,0.000000,0.000000,0.000000,0.000000,0.000000,0.000000,0.000000,0.000000,0.000000,0.000000,0.000000,0.124179,3,0
850000,-0.005367,21.745949,0.003488,-0.022754,25.450195,-0.056410,-0.000315,0.012729,1.571967,-0.037967,0.000850,-0.001341,-0.000090,-0.003749,0.000014,0.009001,0.005544,0.227510,0.063088,0.191379,0.191378,0.173135,0.656013,0.000000,0.000000,0.000000,0.000000,0.000000,0.000000,0.000000,0.000000,0.000000,0.000000,0.000000,0.000000,0.220318,3,0
860000,-0.005418,22.005726,0.003620,-0.022742,25.460690,-0.056156,-0.000316,0.013159,1.571979,-0.038938,0.000884,-0.001498,-0.000095,-0.003887,0.000014,0.004468,0.005597,0.164528,0.024366,0.191868,0.191868,0.173165,0.648601,0.000000,0.000000,0.000000,0.000000,0.000000,0.000000,0.000000,0.000000,0.000000,0.000000,0.000000,0.000000,0.159358,3,0
870000,-0.005468,22.266848,0.003220,-0.022758,25.473310,-0.056514,-0.000312,0.013700,1.571980,-0.040145,0.000918,-0.001536,-0.000100,-0.004061,0.000015,0.006647,0.005649,0.202831,0.005740,0.192345,0.192344,0.173181,0.641263,0.000000,0.000000,0.000000,0.000000,0.000000,0.000000,0.000000,0.000000,0.000000,0.000000,0.000000,0.000000,0.196405,3,0
880000,-0.005516,22.528021,0.002751,-0.022831,25.485870,-0.057059,-0.000301,0.014236,1.571996,-0.041345,0.000953,-0.001561,-0.000105,-0.004237,0.000015,0.006460,0.005699,0.200008,0.003506,0.192808,0.192807,0.173183,0.634002,0.000000,0.000000,0.000000,0.000000,0.000000,0.000000,0.000000,0.000000,0.000000,0.000000,0.000000,0.000000,0.193659,3,0
890000,-0.005562,22.786039,0.001213,-0.022780,25.492687,-0.059103,-0.000293,0.014511,1.572011,-0.041936,0.000988,-0.001341,-0.000110,-0.004325,0.000016,0.001726,0.005747,0.097740,-0.033330,0.193258,0.193257,0.173171,0.626820,0.000000,0.000000,0.000000,0.000000,0.000000,0.000000,0.000000,0.000000,0.000000,0.000000,0.000000,0.000000,0.094756,3,0
900000,-0.005607,23.044788,0.001926,-0.022872,25.500784,-0.058003,-0.000274,0.014861,1.572013,-0.042654,0.001024,-0.001645,-0.000115,-0.004433,0.000016,0.002584,0.005794,0.117958,0.045429,0.193695,0.193694,0.173144,0.619723,0.000000,0.000000,0.000000,0.000000,0.000000,0.000000,0.000000,0.000000,0.000000,0.000000,0.000000,0.000000,0.114287,3,0
910000,-0.005649,23.308117,0.001356,-0.022817,25.516899,-0.058737,-0.000274,0.015600,1.572019,-0.044227,0.001060,-0.001651,-0.000121,-0.004675,0.000017,0.010633,0.005838,0.256704,0.000546,0.194118,0.194117,0.173103,0.612711,0.000000,0.000000,0.000000,0.000000,0.000000,0.000000,0.000000,0.000000,0.000000,0.000000,0.000000,0.000000,0.248464,3,0
920000,-0.005690,23.569527,0.000781,-0.022763,25.529442,-0.059640,-0.000269,0.016160,1.572019,-0.045411,0.001097,-0.001658,-0.000127,-0.004860,0.000018,0.005951,0.005880,0.192003,0.000708,0.194528,0.194527,0.173048,0.605789,0.000000,0.000000,0.000000,0.000000,0.000000,0.000000,0.000000,0.000000,0.000000,0.000000,0.000000,0.000000,0.185865,3,0
930000,-0.005727,23.831619,0.001037,-0.022708,25.542994,-0.059080,-0.000250,0.016788,1.572036,-0.046706,0.001135,-0.001865,-0.000133,-0.005065,0.000018,0.007178,0.005920,0.208775,0.029770,0.194924,0.194924,0.172979,0.598958,0.000000,0.000000,0.000000,0.000000,0.000000,0.000000,0.000000,0.000000,0.000000,0.000000,0.000000,0.000000,0.202073,3,0
940000,-0.005764,24.093739,-0.000059,-0.022669,25.556469,-0.060566,-0.000248,0.017413,1.572045,-0.047986,0.001173,-0.001746,-0.000139,-0.005271,0.000019,0.006828,0.005958,0.204967,-0.017317,0.195308,0.195307,0.172896,0.592221,0.000000,0.000000,0.000000,0.000000,0.000000,0.000000,0.000000,0.000000,0.000000,0.000000,0.000000,0.000000,0.198379,3,0
950000,-0.005799,24.353289,-0.000444,-0.022761,25.565231,-0.061008,-0.000232,0.017801,1.572062,-0.048749,0.001211,-0.001803,-0.000145,-0.005395,0.000020,0.002401,0.005995,0.121626,0.007899,0.195678,0.195678,0.172799,0.585580,0.000000,0.000000,0.000000,0.000000,0.000000,0.000000,0.000000,0.000000,0.000000,0.000000,0.000000,0.000000,0.117801,3,0
960000,-0.005834,24.612242,-0.001823,-0.022836,25.572693,-0.062865,-0.000223,0.018122,1.572065,-0.049384,0.001249,-0.001616,-0.000151,-0.005501,0.000020,0.001749,0.006031,0.100534,-0.026466,0.196036,0.196035,0.172689,0.579036,0.000000,0.000000,0.000000,0.000000,0.000000,0.000000,0.000000,0.000000,0.000000,0.000000,0.000000,0.000000,0.097425,3,0
970000,-0.005868,24.871258,-0.002471,-0.022864,25.580309,-0.063528,-0.000201,0.018446,1.572075,-0.050017,0.001288,-0.001614,-0.000158,-0.005607,0.000020,0.001616,0.006067,0.099934,-0.000481,0.196382,0.196381,0.172566,0.572592,0.000000,0.000000,0.000000,0.000000,0.000000,0.000000,0.000000,0.000000,0.000000,0.000000,0.000000,0.000000,0.096840,3,0
980000,-0.005900,25.131638,-0.002905,-0.022849,25.590099,-0.064059,-0.000182,0.018901,1.572088,-0.050903,0.001328,-0.001669,-0.000165,-0.005759,0.000021,0.003130,0.006100,0.139023,0.007266,0.196715,0.196714,0.172430,0.566248,0.000000,0.000000,0.000000,0.000000,0.000000,0.000000,0.000000,0.000000,0.000000,0.000000,0.000000,0.000000,0.134594,3,0
990000,-0.005931,25.394012,-0.003810,-0.022838,25.603262,-0.065212,-0.000163,0.019543,1.572090,-0.052161,0.001368,-0.001606,-0.000171,-0.005977,0.000022,0.006250,0.006132,0.196609,-0.008931,0.197037,0.197036,0.172280,0.560005,0.000000,0.000000,0.000000,0.000000,0.000000,0.000000,0.000000,0.000000,0.000000,0.000000,0.000000,0.000000,0.190246,3,0
1000000,-0.005959,25.655088,-0.002823,-0.022786,25.614067,-0.063803,-0.000157,0.020069,1.572101,-0.053141,0.001408,-0.002031,-0.000179,-0.006150,0.000022,0.004302,0.006162,0.152769,0.057419,0.197347,0.197346,0.172119,0.553865,0.000000,0.000000,0.000000,0.000000,0.000000,0.000000,0.000000,0.000000,0.000000,0.000000,0.000000,0.000000,0.147865,3,0
1010000,-0.005985,25.918156,-0.002765,-0.022735,25.628176,-0.063648,-0.000147,0.020784,1.572114,-0.054492,0.001449,-0.002217,-0.000186,-0.006392,0.000023,0.007188,0.006190,0.209648,0.024566,0.197646,0.197645,0.171945,0.547829,0.000000,0.000000,0.000000,0.000000,0.000000,0.000000,0.000000,0.000000,0.000000,0.000000,0.000000,0.000000,0.202830,3,0
1020000,-0.006011,26.181873,-0.004147,-0.022718,25.643389,-0.065674,-0.000127,0.021543,1.572124,-0.055947,0.001490,-0.002029,-0.000193,-0.006656,0.000024,0.008253,0.006216,0.224741,-0.025687,0.197935,0.197934,0.171760,0.541897,0.000000,0.000000,0.000000,0.000000,0.000000,0.000000,0.000000,0.000000,0.000000,0.000000,0.000000,0.000000,0.217410,3,0
1030000,-0.006036,26.444918,-0.005516,-0.022696,25.657129,-0.067624,-0.000118,0.022233,1.572126,-0.057242,0.001531,-0.001847,-0.000201,-0.006895,0.000025,0.006513,0.006242,0.199419,-0.024566,0.198213,0.198212,0.171564,0.536070,0.000000,0.000000,0.000000,0.000000,0.000000,0.000000,0.000000,0.000000,0.000000,0.000000,0.000000,0.000000,0.192925,3,0
1040000,-0.006061,26.707293,-0.006777,-0.022773,25.669502,-0.069056,-0.000098,0.022850,1.572136,-0.058381,0.001573,-0.001696,-0.000208,-0.007108,0.000026,0.004996,0.006268,0.174786,-0.020263,0.198481,0.198480,0.171356,0.530347,0.000000,0.000000,0.000000,0.000000,0.000000,0.000000,0.000000,0.000000,0.000000,0.000000,0.000000,0.000000,0.169113,3,0
1050000,-0.006083,26.967031,-0.005934,-0.022835,25.677084,-0.067681,-0.000073,0.023198,1.572148,-0.058975,0.001614,-0.002112,-0.000217,-0.007221,0.000026,0.001819,0.006293,0.091196,0.054029,0.198740,0.198739,0.171138,0.524730,0.000000,0.000000,0.000000,0.000000,0.000000,0.000000,0.000000,0.000000,0.000000,0.000000,0.000000,0.000000,0.088384,3,0
1060000,-0.006106,27.227463,-0.006530,-0.022834,25.685774,-0.068375,-0.000065,0.023616,1.572156,-0.059693,0.001656,-0.002139,-0.000225,-0.007359,0.000027,0.001947,0.006315,0.109684,0.003119,0.198990,0.198989,0.170910,0.519218,0.000000,0.000000,0.000000,0.000000,0.000000,0.000000,0.000000,0.000000,0.000000,0.000000,0.000000,0.000000,0.106222,3,0
1070000,-0.006126,27.489897,-0.005721,-0.022830,25.697998,-0.067104,-0.000057,0.024248,1.572157,-0.060789,0.001699,-0.002554,-0.000233,-0.007574,0.000028,0.004964,0.006338,0.167229,0.052771,0.199232,0.199231,0.170672,0.513812,0.000000,0.000000,0.000000,0.000000,0.000000,0.000000,0.000000,0.000000,0.000000,0.000000,0.000000,0.000000,0.161792,3,0
1080000,-0.006147,27.749018,-0.006335,-0.022869,25.704159,-0.067844,-0.000033,0.024529,1.572177,-0.061208,0.001741,-0.002574,-0.000241,-0.007657,0.000028,0.000661,0.006359,0.063705,0.002316,0.199466,0.199464,0.170425,0.508510,0.000000,0.000000,0.000000,0.000000,0.000000,0.000000,0.000000,0.000000,0.000000,0.000000,0.000000,0.000000,0.061894,3,0
1090000,-0.006167,28.008841,-0.007237,-0.022827,25.711582,-0.069126,-0.000012,0.024867,1.572182,-0.061754,0.001783,-0.002516,-0.000250,-0.007767,0.000028,0.001121,0.006379,0.082825,-0.007531,0.199692,0.199690,0.170169,0.503314,0.000000,0.000000,0.000000,0.000000,0.000000,0.000000,0.000000,0.000000,0.000000,0.000000,0.000000,0.000000,0.080306,3,0
1100000,-0.006184,28.268030,-0.006045,-0.022781,25.717720,-0.067451,-0.000001,0.025136,1.572188,-0.062158,0.001825,-0.003051,-0.000259,-0.007849,0.000029,0.001339,0.006399,0.061476,0.066845,0.199910,0.199909,0.169904,0.498222,0.000000,0.000000,0.000000,0.000000,0.000000,0.000000,0.000000,0.000000,0.000000,0.000000,0.000000,0.000000,0.059748,3,0
1110000,-0.006200,28.531898,-0.005900,-0.022652,25.732105,-0.067017,0.000018,0.025905,1.572204,-0.063477,0.001869,-0.003292,-0.000268,-0.008123,0.000030,0.006577,0.006415,0.199800,0.029307,0.200122,0.200121,0.169631,0.493234,0.000000,0.000000,0.000000,0.000000,0.000000,0.000000,0.000000,0.000000,0.000000,0.000000,0.000000,0.000000,0.193236,3,0
1120000,-0.006215,28.792414,-0.006568,-0.022576,25.740437,-0.067732,0.000028,0.026318,1.572207,-0.064105,0.001912,-0.003297,-0.000277,-0.008255,0.000030,0.001455,0.006430,0.094816,0.000358,0.200328,0.200326,0.169350,0.488349,0.000000,0.000000,0.000000,0.000000,0.000000,0.000000,0.000000,0.000000,0.000000,0.000000,0.000000,0.000000,0.091860,3,0
1130000,-0.006228,29.050949,-0.005911,-0.022516,25.745152,-0.066601,0.000039,0.026494,1.572222,-0.064322,0.001954,-0.003686,-0.000286,-0.008301,0.000030,0.000549,0.006444,0.033007,0.047607,0.200528,0.200526,0.169062,0.483567,0.000000,0.000000,0.000000,0.000000,0.000000,0.000000,0.000000,0.000000,0.000000,0.000000,0.000000,0.000000,0.032506,3,0
1140000,-0.006240,29.310194,-0.006148,-0.022453,25.751072,-0.066684,0.000060,0.026753,1.572232,-0.064671,0.001997,-0.003815,-0.000296,-0.008377,0.000030,0.000494,0.006456,0.052731,0.015506,0.200723,0.200721,0.168767,0.478887,0.000000,0.000000,0.000000,0.000000,0.000000,0.000000,0.000000,0.000000,0.000000,0.000000,0.000000,0.000000,0.051347,3,0
1150000,-0.006250,29.572130,-0.004770,-0.022443,25.761595,-0.064628,0.000076,0.027311,1.572240,-0.065539,0.002041,-0.004423,-0.000306,-0.008568,0.000031,0.003653,0.006468,0.131367,0.073126,0.200913,0.200911,0.168466,0.474307,0.000000,0.000000,0.000000,0.000000,0.000000,0.000000,0.000000,0.000000,0.000000,0.000000,0.000000,0.000000,0.127122,3,0
1160000,-0.006259,29.833389,-0.004070,-0.022312,25.770830,-0.063693,0.000090,0.027792,1.572252,-0.066253,0.002084,-0.004829,-0.000316,-0.008727,0.000032,0.002261,0.006477,0.107872,0.048418,0.201099,0.201096,0.168158,0.469828,0.000000,0.000000,0.000000,0.000000,0.000000,0.000000,0.000000,0.000000,0.000000,0.000000,0.000000,0.000000,0.104445,3,0
1170000,-0.006268,30.095980,-0.005385,-0.022238,25.782219,-0.065270,0.000104,0.028423,1.572272,-0.067214,0.002128,-0.004635,-0.000325,-0.008945,0.000033,0.003472,0.006485,0.144705,-0.023922,0.201280,0.201277,0.167845,0.465448,0.000000,0.000000,0.000000,0.000000,0.000000,0.000000,0.000000,0.000000,0.000000,0.000000,0.000000,0.000000,0.139991,3,0
1180000,-0.006275,30.355877,-0.004442,-0.022220,25.788778,-0.063816,0.000116,0.028731,1.572276,-0.067616,0.002171,-0.005120,-0.000336,-0.009037,0.000033,0.001138,0.006494,0.060911,0.057412,0.201458,0.201455,0.167526,0.461167,0.000000,0.000000,0.000000,0.000000,0.000000,0.000000,0.000000,0.000000,0.000000,0.000000,0.000000,0.000000,0.059200,3,0
1190000,-0.006282,30.616459,-0.005516,-0.022191,25.796461,-0.065240,0.000147,0.029113,1.572291,-0.068142,0.002215,-0.004994,-0.000346,-0.009159,0.000033,0.001056,0.006500,0.079252,-0.015248,0.201632,0.201629,0.167202,0.456982,0.000000,0.000000,0.000000,0.000000,0.000000,0.000000,0.000000,0.000000,0.000000,0.000000,0.000000,0.000000,0.076845,3,0
1200000,-0.006287,30.875038,-0.004831,-0.022092,25.800529,-0.064265,0.000176,0.029240,1.572306,-0.068256,0.002258,-0.005407,-0.000356,-0.009186,0.000033,0.000434,0.006507,0.017382,0.048355,0.201804,0.201800,0.166874,0.452893,0.000000,0.000000,0.000000,0.000000,0.000000,0.000000,0.000000,0.000000,0.000000,0.000000,0.000000,0.000000,0.017936,3,0
1210000,-0.006291,31.134321,-0.003847,-0.022066,25.805868,-0.062902,0.000203,0.029459,1.572319,-0.068499,0.002301,-0.005915,-0.000367,-0.009244,0.000034,0.000791,0.006512,0.037064,0.058939,0.201973,0.201969,0.166541,0.448899,0.000000,0.000000,0.000000,0.000000,0.000000,0.000000,0.000000,0.000000,0.000000,0.000000,0.000000,0.000000,0.036366,3,0
1220000,-0.006294,31.393627,-0.003605,-0.021892,25.811117,-0.062478,0.000235,0.029678,1.572330,-0.068737,0.002344,-0.006190,-0.000378,-0.009302,0.000034,0.000381,0.006514,0.036156,0.031740,0.202140,0.202136,0.166204,0.444998,0.000000,0.000000,0.000000,0.000000,0.000000,0.000000,0.000000,0.000000,0.000000,0.000000,0.000000,0.000000,0.035501,3,0
1230000,-0.006296,31.652287,-0.003625,-0.021895,25.815231,-0.062540,0.000253,0.029805,1.572351,-0.068837,0.002387,-0.006384,-0.000388,-0.009327,0.000034,0.000124,0.006517,0.015345,0.022174,0.202305,0.202300,0.165864,0.441190,0.000000,0.000000,0.000000,0.000000,0.000000,0.000000,0.000000,0.000000,0.000000,0.000000,0.000000,0.000000,0.016109,3,0
1240000,-0.006299,31.915674,-0.004134,-0.021841,25.827612,-0.063160,0.000274,0.030511,1.572354,-0.069855,0.002431,-0.006432,-0.000399,-0.009582,0.000035,0.003841,0.006519,0.154222,0.004675,0.202468,0.202464,0.165521,0.437473,0.000000,0.000000,0.000000,0.000000,0.000000,0.000000,0.000000,0.000000,0.000000,0.000000,0.000000,0.000000,0.149152,3,0
1250000,-0.006300,32.179691,-0.004387,-0.021816,25.840963,-0.063558,0.000296,0.031293,1.572358,-0.070969,0.002475,-0.006567,-0.000411,-0.009865,0.000036,0.004640,0.006521,0.169010,0.014297,0.202631,0.202626,0.165175,0.433846,0.000000,0.000000,0.000000,0.000000,0.000000,0.000000,0.000000,0.000000,0.000000,0.000000,0.000000,0.000000,0.163425,3,0
1260000,-0.006299,32.438946,-0.003362,-0.021644,25.845699,-0.062390,0.000323,0.031463,1.572383,-0.071125,0.002518,-0.007106,-0.000422,-0.009904,0.000036,0.000701,0.006521,0.024136,0.060840,0.202792,0.202787,0.164826,0.430306,0.000000,0.000000,0.000000,0.000000,0.000000,0.000000,0.000000,0.000000,0.000000,0.000000,0.000000,0.000000,0.024159,3,0
1270000,-0.006296,32.700909,-0.002069,-0.021527,25.855194,-0.060902,0.000350,0.031983,1.572403,-0.071797,0.002561,-0.007738,-0.000434,-0.010080,0.000037,0.002512,0.006518,0.102776,0.070437,0.202953,0.202947,0.164475,0.426854,0.000000,0.000000,0.000000,0.000000,0.000000,0.000000,0.000000,0.000000,0.000000,0.000000,0.000000,0.000000,0.099504,3,0
1280000,-0.006293,32.963524,-0.003097,-0.021372,25.865797,-0.062337,0.000380,0.032580,1.572421,-0.072579,0.002604,-0.007613,-0.000445,-0.010287,0.000037,0.002323,0.006513,0.119022,-0.014811,0.203113,0.203107,0.164122,0.423488,0.000000,0.000000,0.000000,0.000000,0.000000,0.000000,0.000000,0.000000,0.000000,0.000000,0.000000,0.000000,0.115166,3,0
1290000,-0.006288,33.224754,-0.002335,-0.021278,25.873686,-0.061325,0.000403,0.032988,1.572423,-0.073067,0.002647,-0.008078,-0.000457,-0.010418,0.000038,0.001336,0.006510,0.074966,0.051164,0.203273,0.203267,0.163767,0.420205,0.000000,0.000000,0.000000,0.000000,0.000000,0.000000,0.000000,0.000000,0.000000,0.000000,0.000000,0.000000,0.072702,3,0
1300000,-0.006283,33.486649,-0.003325,-0.021146,25.882771,-0.062423,0.000431,0.033483,1.572432,-0.073668,0.002690,-0.007962,-0.000469,-0.010582,0.000039,0.001398,0.006503,0.091961,-0.013450,0.203434,0.203426,0.163411,0.417005,0.000000,0.000000,0.000000,0.000000,0.000000,0.000000,0.000000,0.000000,0.000000,0.000000,0.000000,0.000000,0.089062,3,0
1310000,-0.006275,33.747833,-0.002290,-0.021014,25.890419,-0.061250,0.000451,0.033863,1.572439,-0.074111,0.002732,-0.008526,-0.000481,-0.010704,0.000039,0.001376,0.006497,0.068527,0.061490,0.203594,0.203587,0.163054,0.413887,0.000000,0.000000,0.000000,0.000000,0.000000,0.000000,0.000000,0.000000,0.000000,0.000000,0.000000,0.000000,0.066501,3,0
1320000,-0.006268,34.007652,-0.001805,-0.020980,25.895590,-0.060462,0.000484,0.034063,1.572443,-0.074277,0.002774,-0.008900,-0.000493,-0.010751,0.000039,0.000385,0.006489,0.025928,0.040774,0.203756,0.203748,0.162696,0.410848,0.000000,0.000000,0.000000,0.000000,0.000000,0.000000,0.000000,0.000000,0.000000,0.000000,0.000000,0.000000,0.025823,3,0
1330000,-0.006261,34.268150,-0.002531,-0.020946,25.901836,-0.061245,0.000518,0.034343,1.572448,-0.074564,0.002816,-0.008865,-0.000505,-0.010833,0.000039,0.000326,0.006481,0.044365,-0.004164,0.203918,0.203909,0.162338,0.407888,0.000000,0.000000,0.000000,0.000000,0.000000,0.000000,0.000000,0.000000,0.000000,0.000000,0.000000,0.000000,0.043313,3,0
1340000,-0.006253,34.530670,-0.002791,-0.020843,25.911686,-0.061480,0.000548,0.034889,1.572459,-0.075221,0.002859,-0.008997,-0.000517,-0.011022,0.000040,0.001707,0.006473,0.101864,0.013493,0.204081,0.204072,0.161979,0.405005,0.000000,0.000000,0.000000,0.000000,0.000000,0.000000,0.000000,0.000000,0.000000,0.000000,0.000000,0.000000,0.098599,3,0
1350000,-0.006244,34.793148,-0.003123,-0.020804,25.921375,-0.061898,0.000577,0.035424,1.572476,-0.075848,0.002901,-0.009107,-0.000530,-0.011206,0.000041,0.001562,0.006465,0.097672,0.011027,0.204246,0.204236,0.161620,0.402198,0.000000,0.000000,0.000000,0.000000,0.000000,0.000000,0.000000,0.000000,0.000000,0.000000,0.000000,0.000000,0.094555,3,0
1360000,-0.006235,35.051521,-0.003665,-0.020703,25.923586,-0.062602,0.000596,0.035396,1.572502,-0.075683,0.002942,-0.009134,-0.000542,-0.011157,0.000041,0.000115,0.006455,-0.025749,0.003113,0.204411,0.204401,0.161262,0.399464,0.000000,0.000000,0.000000,0.000000,0.000000,0.000000,0.000000,0.000000,0.000000,0.000000,0.000000,0.000000,0.025641,3,0
1370000,-0.006224,35.314659,-0.003216,-0.020555,25.934155,-0.062153,0.000626,0.036016,1.572516,-0.076404,0.002984,-0.009525,-0.000555,-0.011374,0.000041,0.002347,0.006445,0.113434,0.040676,0.204578,0.204568,0.160904,0.396803,0.000000,0.000000,0.000000,0.000000,0.000000,0.000000,0.000000,0.000000,0.000000,0.000000,0.000000,0.000000,0.109746,3,0
1380000,-0.006213,35.576389,-0.004425,-0.020465,25.942108,-0.063864,0.000656,0.036438,1.572520,-0.076843,0.003025,-0.009329,-0.000567,-0.011509,0.000042,0.000844,0.006432,0.068859,-0.021402,0.204747,0.204736,0.160546,0.394213,0.000000,0.000000,0.000000,0.000000,0.000000,0.000000,0.000000,0.000000,0.000000,0.000000,0.000000,0.000000,0.066799,3,0
1390000,-0.006201,35.836727,-0.005398,-0.020233,25.947464,-0.065082,0.000693,0.036656,1.572540,-0.077007,0.003066,-0.009216,-0.000580,-0.011560,0.000042,0.000137,0.006420,0.025715,-0.012136,0.204917,0.204906,0.160189,0.391692,0.000000,0.000000,0.000000,0.000000,0.000000,0.000000,0.000000,0.000000,0.000000,0.000000,0.000000,0.000000,0.025600,3,0
1400000,-0.006186,36.095013,-0.005654,-0.020085,25.949247,-0.065227,0.000715,0.036574,1.572563,-0.076780,0.003106,-0.009355,-0.000592,-0.011488,0.000042,0.000250,0.006406,-0.035885,0.014935,0.205089,0.205077,0.159834,0.389241,0.000000,0.000000,0.000000,0.000000,0.000000,0.000000,0.000000,0.000000,0.000000,0.000000,0.000000,0.000000,0.035204,3,0
1410000,-0.006170,36.357399,-0.005291,-0.019903,25.958210,-0.064947,0.000738,0.037073,1.572570,-0.077301,0.003146,-0.009735,-0.000606,-0.011654,0.000043,0.001374,0.006389,0.083508,0.038844,0.205263,0.205250,0.159479,0.386856,0.000000,0.000000,0.000000,0.000000,0.000000,0.000000,0.000000,0.000000,0.000000,0.000000,0.000000,0.000000,0.080890,3,0
1420000,-0.006153,36.620422,-0.006633,-0.019709,25.968214,-0.066490,0.000763,0.037663,1.572590,-0.077923,0.003187,-0.009498,-0.000618,-0.011857,0.000043,0.001701,0.006370,0.099339,-0.025567,0.205439,0.205425,0.159126,0.384536,0.000000,0.000000,0.000000,0.000000,0.000000,0.000000,0.000000,0.000000,0.000000,0.000000,0.000000,0.000000,0.096133,3,0
1430000,-0.006136,36.880665,-0.007968,-0.019634,25.973179,-0.068108,0.000786,0.037839,1.572610,-0.078019,0.003227,-0.009258,-0.000631,-0.011888,0.000043,0.000144,0.006353,0.015125,-0.024968,0.205616,0.205602,0.158775,0.382280,0.000000,0.000000,0.000000,0.000000,0.000000,0.000000,0.000000,0.000000,0.000000,0.000000,0.000000,0.000000,0.015843,3,0
1440000,-0.006118,37.143623,-0.009180,-0.019477,25.982906,-0.069704,0.000813,0.038398,1.572624,-0.078593,0.003267,-0.009078,-0.000644,-0.012081,0.000044,0.001453,0.006335,0.092770,-0.019426,0.205796,0.205781,0.158425,0.380087,0.000000,0.000000,0.000000,0.000000,0.000000,0.000000,0.000000,0.000000,0.000000,0.000000,0.000000,0.000000,0.089793,3,0
1450000,-0.006099,37.403790,-0.009859,-0.019327,25.987463,-0.070385,0.000837,0.038534,1.572646,-0.078646,0.003306,-0.009089,-0.000658,-0.012098,0.000044,0.000019,0.006315,0.008629,0.000998,0.205977,0.205962,0.158077,0.377955,0.000000,0.000000,0.000000,0.000000,0.000000,0.000000,0.000000,0.000000,0.000000,0.000000,0.000000,0.000000,0.010325,3,0
1460000,-0.006079,37.662575,-0.010812,-0.019241,25.989511,-0.071456,0.000862,0.038463,1.572657,-0.078446,0.003344,-0.008993,-0.000671,-0.012030,0.000044,0.000195,0.006295,-0.032913,-0.009322,0.206161,0.206144,0.157732,0.375883,0.000000,0.000000,0.000000,0.000000,0.000000,0.000000,0.000000,0.000000,0.000000,0.000000,0.000000,0.000000,0.032360,3,0
1470000,-0.006056,37.921360,-0.010147,-0.019108,25.991486,-0.070577,0.000892,0.038384,1.572681,-0.078240,0.003381,-0.009510,-0.000684,-0.011957,0.000044,0.000637,0.006274,-0.033298,0.052773,0.206347,0.206329,0.157388,0.373869,0.000000,0.000000,0.000000,0.000000,0.000000,0.000000,0.000000,0.000000,0.000000,0.000000,0.000000,0.000000,0.032712,3,0
1480000,-0.006033,38.182201,-0.009151,-0.018951,25.997192,-0.069308,0.000916,0.038598,1.572692,-0.078392,0.003418,-0.010162,-0.000698,-0.012010,0.000044,0.000809,0.006250,0.025959,0.065419,0.206534,0.206516,0.157047,0.371912,0.000000,0.000000,0.000000,0.000000,0.000000,0.000000,0.000000,0.000000,0.000000,0.000000,0.000000,0.000000,0.025790,3,0
1490000,-0.006010,38.440971,-0.010409,-0.018722,25.999004,-0.070713,0.000950,0.038511,1.572705,-0.078177,0.003456,-0.009943,-0.000711,-0.011933,0.000044,0.000292,0.006224,-0.036148,-0.021530,0.206724,0.206705,0.156709,0.370010,0.000000,0.000000,0.000000,0.000000,0.000000,0.000000,0.000000,0.000000,0.000000,0.000000,0.000000,0.000000,0.035418,3,0
1500000,-0.005984,38.703167,-0.010139,-0.018458,26.007011,-0.070350,0.000989,0.038937,1.572715,-0.078549,0.003493,-0.010332,-0.000725,-0.012068,0.000044,0.000878,0.006199,0.062885,0.038105,0.206915,0.206895,0.156373,0.368163,0.000000,0.000000,0.000000,0.000000,0.000000,0.000000,0.000000,0.000000,0.000000,0.000000,0.000000,0.000000,0.061016,3,0
1510000,-0.005958,38.963257,-0.010758,-0.018390,26.011059,-0.070913,0.001024,0.039033,1.572730,-0.078545,0.003529,-0.010367,-0.000739,-0.012066,0.000044,0.000008,0.006171,-0.000603,0.003495,0.207109,0.207088,0.156039,0.366368,0.000000,0.000000,0.000000,0.000000,0.000000,0.000000,0.000000,0.000000,0.000000,0.000000,0.000000,0.000000,0.005986,3,0
1520000,-0.005930,39.221943,-0.009489,-0.018267,26.012592,-0.069279,0.001065,0.038903,1.572753,-0.078293,0.003564,-0.011132,-0.000753,-0.011970,0.000044,0.001236,0.006145,-0.042065,0.076323,0.207304,0.207283,0.155709,0.364625,0.000000,0.000000,0.000000,0.000000,0.000000,0.000000,0.000000,0.000000,0.000000,0.000000,0.000000,0.000000,0.041031,3,0
1530000,-0.005902,39.480637,-0.008266,-0.018109,26.014032,-0.067625,0.001094,0.038755,1.572769,-0.078040,0.003599,-0.011877,-0.000767,-0.011872,0.000044,0.001183,0.006115,-0.042339,0.074001,0.207501,0.207479,0.155382,0.362933,0.000000,0.000000,0.000000,0.000000,0.000000,0.000000,0.000000,0.000000,0.000000,0.000000,0.000000,0.000000,0.041291,3,0
1540000,-0.005874,39.740715,-0.008508,-0.018000,26.018059,-0.067847,0.001124,0.038831,1.572785,-0.078022,0.003634,-0.012051,-0.000781,-0.011865,0.000043,0.000055,0.006085,-0.002865,0.017073,0.207700,0.207677,0.155058,0.361289,0.000000,0.000000,0.000000,0.000000,0.000000,0.000000,0.000000,0.000000,0.000000,0.000000,0.000000,0.000000,0.006491,3,0
1550000,-0.005845,40.000771,-0.007599,-0.017911,26.021957,-0.066595,0.001149,0.038889,1.572800,-0.077992,0.003668,-0.012682,-0.000795,-0.011852,0.000043,0.000629,0.006057,-0.004559,0.061786,0.207901,0.207877,0.154737,0.359694,0.000000,0.000000,0.000000,0.000000,0.000000,0.000000,0.000000,0.000000,0.000000,0.000000,0.000000,0.000000,0.007311,3,0
1560000,-0.005817,40.262196,-0.008521,-0.017700,26.028116,-0.067855,0.001175,0.039177,1.572817,-0.078184,0.003702,-0.012590,-0.000809,-0.011928,0.000044,0.000201,0.006026,0.033531,-0.009418,0.208103,0.208078,0.154419,0.358143,0.000000,0.000000,0.000000,0.000000,0.000000,0.000000,0.000000,0.000000,0.000000,0.000000,0.000000,0.000000,0.032886,3,0
1570000,-0.005788,40.522881,-0.008542,-0.017584,26.032927,-0.067959,0.001204,0.039326,1.572840,-0.078242,0.003736,-0.012860,-0.000823,-0.011951,0.000044,0.000134,0.005997,0.010593,0.026025,0.208307,0.208281,0.154104,0.356638,0.000000,0.000000,0.000000,0.000000,0.000000,0.000000,0.000000,0.000000,0.000000,0.000000,0.000000,0.000000,0.011755,3,0
1580000,-0.005758,40.782845,-0.008414,-0.017467,26.036310,-0.067702,0.001247,0.039343,1.572852,-0.078175,0.003769,-0.013187,-0.000837,-0.011923,0.000044,0.000191,0.005967,-0.011597,0.031702,0.208512,0.208484,0.153793,0.355177,0.000000,0.000000,0.000000,0.000000,0.000000,0.000000,0.000000,0.000000,0.000000,0.000000,0.000000,0.000000,0.012583,3,0
1590000,-0.005727,41.045555,-0.008604,-0.017186,26.044678,-0.068053,0.001282,0.039813,1.572860,-0.078543,0.003802,-0.013403,-0.000851,-0.012076,0.000044,0.000778,0.005934,0.066349,0.019812,0.208718,0.208690,0.153486,0.353759,0.000000,0.000000,0.000000,0.000000,0.000000,0.000000,0.000000,0.000000,0.000000,0.000000,0.000000,0.000000,0.064300,3,0
1600000,-0.005695,41.306129,-0.009500,-0.016980,26.049074,-0.068992,0.001323,0.039930,1.572882,-0.078557,0.003835,-0.013318,-0.000865,-0.012082,0.000044,0.000017,0.005900,0.002342,-0.008147,0.208926,0.208896,0.153182,0.352382,0.000000,0.000000,0.000000,0.000000,0.000000,0.000000,0.000000,0.000000,0.000000,0.000000,0.000000,0.000000,0.006127,3,0
1610000,-0.005661,41.566658,-0.009013,-0.016796,26.053293,-0.068405,0.001369,0.040026,1.572903,-0.078554,0.003866,-0.013805,-0.000879,-0.012080,0.000045,0.000357,0.005867,0.000153,0.046498,0.209134,0.209103,0.152881,0.351046,0.000000,0.000000,0.000000,0.000000,0.000000,0.000000,0.000000,0.000000,0.000000,0.000000,0.000000,0.000000,0.005663,3,0
1620000,-0.005627,41.829247,-0.010210,-0.016515,26.061256,-0.069646,0.001406,0.040454,1.572907,-0.078868,0.003899,-0.013609,-0.000892,-0.012217,0.000045,0.000602,0.005830,0.057644,-0.019555,0.209343,0.209312,0.152585,0.349749,0.000000,0.000000,0.000000,0.000000,0.000000,0.000000,0.000000,0.000000,0.000000,0.000000,0.000000,0.000000,0.055914,3,0
1630000,-0.005590,42.088284,-0.009511,-0.016309,26.062542,-0.068655,0.001434,0.040277,1.572922,-0.078617,0.003928,-0.014182,-0.000907,-0.012105,0.000045,0.000835,0.005794,-0.045994,0.054910,0.209553,0.209521,0.152292,0.348491,0.000000,0.000000,0.000000,0.000000,0.000000,0.000000,0.000000,0.000000,0.000000,0.000000,0.000000,0.000000,0.044727,3,0
1640000,-0.005552,42.350784,-0.008509,-0.016199,26.070257,-0.067324,0.001469,0.040668,1.572927,-0.078894,0.003958,-0.014905,-0.000921,-0.012227,0.000045,0.001189,0.005755,0.052776,0.067289,0.209764,0.209730,0.152003,0.347270,0.000000,0.000000,0.000000,0.000000,0.000000,0.000000,0.000000,0.000000,0.000000,0.000000,0.000000,0.000000,0.051247,3,0
1650000,-0.005516,42.611149,-0.009690,-0.015925,26.073847,-0.068616,0.001510,0.040702,1.572939,-0.078837,0.003989,-0.014691,-0.000935,-0.012202,0.000045,0.000089,0.005715,-0.011013,-0.019874,0.209976,0.209941,0.151717,0.346084,0.000000,0.000000,0.000000,0.000000,0.000000,0.000000,0.000000,0.000000,0.000000,0.000000,0.000000,0.000000,0.011977,3,0
1660000,-0.005475,42.872162,-0.008688,-0.015711,26.078625,-0.067342,0.001555,0.040822,1.572962,-0.078868,0.004017,-0.015411,-0.000949,-0.012214,0.000045,0.000747,0.005676,0.006889,0.067219,0.210187,0.210151,0.151436,0.344933,0.000000,0.000000,0.000000,0.000000,0.000000,0.000000,0.000000,0.000000,0.000000,0.000000,0.000000,0.000000,0.008622,3,0
1670000,-0.005437,43.131748,-0.009591,-0.015503,26.080685,-0.068164,0.001588,0.040706,1.572974,-0.078686,0.004046,-0.015306,-0.000963,-0.012128,0.000045,0.000221,0.005634,-0.035503,-0.009160,0.210399,0.210362,0.151158,0.343816,0.000000,0.000000,0.000000,0.000000,0.000000,0.000000,0.000000,0.000000,0.000000,0.000000,0.000000,0.000000,0.034688,3,0
1680000,-0.005398,43.393406,-0.010823,-0.015302,26.086411,-0.069524,0.001624,0.040944,1.572985,-0.078804,0.004075,-0.015079,-0.000976,-0.012186,0.000045,0.000164,0.005593,0.022957,-0.021431,0.210612,0.210573,0.150884,0.342730,0.000000,0.000000,0.000000,0.000000,0.000000,0.000000,0.000000,0.000000,0.000000,0.000000,0.000000,0.000000,0.022796,3,0
1690000,-0.005355,43.651501,-0.010128,-0.015076,26.085520,-0.068533,0.001655,0.040563,1.573009,-0.078398,0.004102,-0.015659,-0.000990,-0.011986,0.000044,0.001518,0.005552,-0.079727,0.054978,0.210824,0.210784,0.150615,0.341677,0.000000,0.000000,0.000000,0.000000,0.000000,0.000000,0.000000,0.000000,0.000000,0.000000,0.000000,0.000000,0.077102,3,0
1700000,-0.005312,43.913094,-0.009901,-0.014833,26.091099,-0.068242,0.001693,0.040774,1.573031,-0.078496,0.004129,-0.016063,-0.001004,-0.012033,0.000045,0.000290,0.005507,0.020004,0.036885,0.211036,0.210995,0.150349,0.340653,0.000000,0.000000,0.000000,0.000000,0.000000,0.000000,0.000000,0.000000,0.000000,0.000000,0.000000,0.000000,0.020027,3,0
1710000,-0.005269,44.173943,-0.010897,-0.014548,26.095203,-0.069194,0.001723,0.040859,1.573056,-0.078481,0.004156,-0.015928,-0.001018,-0.012026,0.000045,0.000031,0.005461,-0.003098,-0.012345,0.211247,0.211205,0.150087,0.339660,0.000000,0.000000,0.000000,0.000000,0.000000,0.000000,0.000000,0.000000,0.000000,0.000000,0.000000,0.000000,0.006059,3,0
