time_us,pos_x,pos_y,pos_z,vel_x,vel_y,vel_z,roll,pitch,yaw,bias_ax,bias_ay,bias_az,bias_gx,bias_gy,bias_gz,nis,innov_x,innov_y,innov_z,cov_pos_x,cov_pos_y,cov_pos_z,cov_yaw,des_speed,des_heading,des_climb,pid_speed,pid_yaw,pid_alt,speed_meas,yaw_meas,climb_meas,fwd_accel,yaw_rate,vert_accel,drift_m,nav_mode,mission_state
0,0.000004,0.150000,-0.000002,0.000623,25.000053,-0.000401,-0.000019,-0.000012,1.570812,0.000000,0.000000,0.000000,0.000000,0.000000,0.000000,0.006250,-0.000006,-0.250003,0.000004,2.400038,2.400038,3.600017,1.000518,0.000000,0.000000,0.000000,0.000000,0.000000,0.000000,0.000000,0.000000,0.000000,0.000000,0.000000,0.000000,0.150000,1,0
10000,0.000011,0.353870,-0.009343,0.001140,25.000139,-0.000829,-0.000028,-0.000036,1.570820,0.000000,-0.000000,0.000000,0.000000,0.000000,0.000000,0.003168,-0.000015,-0.161458,-0.024889,1.714420,1.714420,2.250079,1.001073,0.000000,0.000000,0.000000,0.000000,0.000000,0.000000,0.000000,0.000000,0.000000,0.000000,0.000000,0.000000,0.115323,3,0
20000,0.000021,0.575696,-0.014483,0.001650,25.000166,-0.001428,-0.000037,-0.000047,1.570836,0.000002,-0.000000,0.000000,-0.000000,0.000000,0.000000,0.002126,-0.000027,-0.126781,-0.018792,1.333616,1.333616,1.636554,1.001655,0.000000,0.000000,0.000000,0.000000,0.000000,0.000000,0.000000,0.000000,0.000000,0.000000,0.000000,0.000000,0.098602,3,0
30000,0.000036,0.816529,-0.031666,0.002300,25.000307,-0.002069,-0.000053,-0.000070,1.570836,0.000002,-0.000000,0.000002,-0.000000,0.000000,0.000000,0.001186,-0.000044,-0.050423,-0.080084,1.091392,1.091392,1.286065,1.002257,0.000000,0.000000,0.000000,0.000000,0.000000,0.000000,0.000000,0.000000,0.000000,0.000000,0.000000,0.000000,0.041251,3,0
40000,0.000055,1.064542,-0.041054,0.002922,25.000694,-0.002573,-0.000072,-0.000077,1.570845,0.000003,-0.000000,0.000003,-0.000000,0.000000,0.000000,0.000410,-0.000065,-0.012954,-0.053033,0.923811,0.923811,1.059385,1.002869,0.000000,0.000000,0.000000,0.000000,0.000000,0.000000,0.000000,0.000000,0.000000,0.000000,0.000000,0.000000,0.010960,3,0
50000,0.000078,1.314213,-0.045870,0.003471,25.001022,-0.003340,-0.000091,-0.000086,1.570861,0.000003,-0.000000,0.000004,-0.000000,0.000000,0.000000,0.000145,-0.000090,-0.002544,-0.031871,0.801036,0.801036,0.900822,1.003484,0.000000,0.000000,0.000000,0.000000,0.000000,0.000000,0.000000,0.000000,0.000000,0.000000,0.000000,0.000000,0.002206,3,0
60000,0.000105,1.567301,-0.044350,0.004076,25.001482,-0.003916,-0.000096,-0.000099,1.570873,0.000001,-0.000000,0.000004,0.000000,-0.000000,-0.000000,0.000121,-0.000119,0.026087,0.011942,0.707270,0.707270,0.783741,1.004094,0.000000,0.000000,0.000000,0.000000,0.000000,0.000000,0.000000,0.000000,0.000000,0.000000,0.000000,0.000000,0.023013,3,0
70000,0.000135,1.812243,-0.049181,0.004634,25.001619,-0.004752,-0.000108,-0.000114,1.570889,0.000005,-0.000000,0.000007,-0.000000,0.000000,0.000000,0.000597,-0.000151,-0.048097,-0.041385,0.633370,0.633370,0.693801,1.004688,0.000000,0.000000,0.000000,0.000000,0.000000,0.000000,0.000000,0.000000,0.000000,0.000000,0.000000,0.000000,0.043020,3,0
80000,0.000170,2.062754,-0.048561,0.005267,25.001944,-0.005315,-0.000122,-0.000136,1.570897,0.000005,-0.000000,0.000006,0.000000,0.000000,0.000000,0.000010,-0.000188,0.005145,0.006487,0.573673,0.573673,0.622594,1.005260,0.000000,0.000000,0.000000,0.000000,0.000000,0.000000,0.000000,0.000000,0.000000,0.000000,0.000000,0.000000,0.004656,3,0
90000,0.000208,2.315656,-0.051085,0.005771,25.002621,-0.006061,-0.000135,-0.000149,1.570912,0.000001,-0.000000,0.000009,0.000000,-0.000000,-0.000000,0.000268,-0.000228,0.032934,-0.026183,0.524488,0.524488,0.564865,1.005801,0.000000,0.000000,0.000000,0.000000,0.000000,0.000000,0.000000,0.000000,0.000000,0.000000,0.000000,0.000000,0.030056,3,0
100000,0.000249,2.573588,-0.051700,0.006285,25.003971,-0.006613,-0.000152,-0.000152,1.570918,-0.000015,-0.000000,0.000010,0.000000,-0.000000,-0.000000,0.001481,-0.000271,0.098088,-0.006375,0.483303,0.483303,0.517162,1.006301,0.000000,0.000000,0.000000,0.000000,0.000000,0.000000,0.000000,0.000000,0.000000,0.000000,0.000000,0.000000,0.090187,3,0
110000,0.000294,2.826540,-0.054911,0.006887,25.004730,-0.007340,-0.000166,-0.000166,1.570934,-0.000022,-0.000000,0.000017,0.000000,-0.000000,-0.000000,0.000473,-0.000318,0.038933,-0.039507,0.448353,0.448353,0.477121,1.006754,0.000000,0.000000,0.000000,0.000000,0.000000,0.000000,0.000000,0.000000,0.000000,0.000000,0.000000,0.000000,0.036025,3,0
120000,0.000344,3.079686,-0.052183,0.007552,25.005545,-0.007619,-0.000185,-0.000184,1.570932,-0.000032,-0.000000,0.000009,0.000000,-0.000000,-0.000000,0.000529,-0.000370,0.044399,0.038027,0.418358,0.418358,0.443071,1.007150,0.000000,0.000000,0.000000,0.000000,0.000000,0.000000,0.000000,0.000000,0.000000,0.000000,0.000000,0.000000,0.041305,3,0
130000,0.000398,3.329094,-0.051658,0.008189,25.005836,-0.007921,-0.000192,-0.000203,1.570934,-0.000029,-0.000000,0.000007,0.000000,-0.000000,-0.000000,0.000027,-0.000426,-0.009967,0.008773,0.392369,0.392369,0.413797,1.007481,0.000000,0.000000,0.000000,0.000000,0.000000,0.000000,0.000000,0.000000,0.000000,0.000000,0.000000,0.000000,0.009324,3,0
140000,0.000456,3.579098,-0.048519,0.008833,25.006277,-0.007657,-0.000208,-0.000211,1.570935,-0.000029,-0.000001,-0.000007,0.000000,-0.000000,-0.000000,0.000386,-0.000486,-0.000952,0.049779,0.369666,0.369666,0.388393,1.007739,0.000000,0.000000,0.000000,0.000000,0.000000,0.000000,0.000000,0.000000,0.000000,0.000000,0.000000,0.000000,0.001003,3,0
150000,0.000518,3.830758,-0.047767,0.009337,25.006933,-0.007917,-0.000228,-0.000227,1.570943,-0.000038,-0.000001,-0.000012,0.000000,-0.000001,-0.000000,0.000147,-0.000550,0.027346,0.013642,0.349695,0.349695,0.366172,1.007915,0.000000,0.000000,0.000000,0.000000,0.000000,0.000000,0.000000,0.000000,0.000000,0.000000,0.000000,0.000000,0.025757,3,0
160000,0.000582,4.080517,-0.048136,0.009868,25.007126,-0.008574,-0.000251,-0.000242,1.570948,-0.000036,-0.000001,-0.000010,0.000000,-0.000001,-0.000000,0.000009,-0.000617,-0.005652,-0.004922,0.332020,0.332020,0.346600,1.008002,0.000000,0.000000,0.000000,0.000000,0.000000,0.000000,0.000000,0.000000,0.000000,0.000000,0.000000,0.000000,0.005371,3,0
170000,0.000650,4.335991,-0.050797,0.010388,25.009148,-0.009800,-0.000254,-0.000244,1.570959,-0.000080,-0.000001,0.000010,0.000000,-0.000002,-0.000000,0.002001,-0.000686,0.102406,-0.046818,0.316297,0.316297,0.329260,1.007991,0.000000,0.000000,0.000000,0.000000,0.000000,0.000000,0.000000,0.000000,0.000000,0.000000,0.000000,0.000000,0.097009,3,0
180000,0.000721,4.592393,-0.051153,0.010909,25.011564,-0.010375,-0.000260,-0.000244,1.570965,-0.000139,-0.000002,0.000012,0.000000,-0.000003,-0.000000,0.002485,-0.000759,0.125217,-0.004850,0.302245,0.302245,0.313817,1.007875,0.000000,0.000000,0.000000,0.000000,0.000000,0.000000,0.000000,0.000000,0.000000,0.000000,0.000000,0.000000,0.118912,3,0
190000,0.000796,4.845776,-0.053284,0.011556,25.013182,-0.011416,-0.000275,-0.000248,1.570964,-0.000175,-0.000002,0.000033,0.000000,-0.000004,-0.000000,0.000984,-0.000837,0.067579,-0.040464,0.289640,0.289640,0.300003,1.007645,0.000000,0.000000,0.000000,0.000000,0.000000,0.000000,0.000000,0.000000,0.000000,0.000000,0.000000,0.000000,0.064322,3,0
200000,0.000875,5.097435,-0.052686,0.012112,25.014248,-0.011755,-0.000296,-0.000257,1.570975,-0.000194,-0.000003,0.000024,0.000000,-0.000005,-0.000000,0.000207,-0.000918,0.032848,0.014989,0.278294,0.278294,0.287598,1.007295,0.000000,0.000000,0.000000,0.000000,0.000000,0.000000,0.000000,0.000000,0.000000,0.000000,0.000000,0.000000,0.031337,3,0
210000,0.000957,5.349352,-0.052799,0.012647,25.015453,-0.012182,-0.000299,-0.000260,1.570984,-0.000220,-0.000003,0.000024,0.000000,-0.000005,-0.000000,0.000250,-0.001002,0.039604,0.000190,0.268052,0.268052,0.276421,1.006817,0.000000,0.000000,0.000000,0.000000,0.000000,0.000000,0.000000,0.000000,0.000000,0.000000,0.000000,0.000000,0.037846,3,0
220000,0.001042,5.604927,-0.054000,0.013187,25.018244,-0.013126,-0.000303,-0.000241,1.570989,-0.000307,-0.000004,0.000041,0.000000,-0.000008,-0.000000,0.002610,-0.001089,0.125618,-0.024204,0.258785,0.258785,0.266321,1.006203,0.000000,0.000000,0.000000,0.000000,0.000000,0.000000,0.000000,0.000000,0.000000,0.000000,0.000000,0.000000,0.120205,3,0
230000,0.001131,5.860473,-0.053334,0.013772,25.021265,-0.013337,-0.000317,-0.000226,1.571005,-0.000405,-0.000005,0.000027,0.000000,-0.000011,-0.000000,0.002691,-0.001180,0.128440,0.018723,0.250384,0.250384,0.257172,1.005447,0.000000,0.000000,0.000000,0.000000,0.000000,0.000000,0.000000,0.000000,0.000000,0.000000,0.000000,0.000000,0.123085,3,0
240000,0.001222,6.111979,-0.051812,0.014256,25.022280,-0.012935,-0.000331,-0.000238,1.571006,-0.000431,-0.000006,-0.000006,0.000000,-0.000012,-0.000000,0.000419,-0.001274,0.031896,0.040014,0.242754,0.242754,0.248866,1.004542,0.000000,0.000000,0.000000,0.000000,0.000000,0.000000,0.000000,0.000000,0.000000,0.000000,0.000000,0.000000,0.030630,3,0
250000,0.001316,6.365293,-0.053675,0.014688,25.024363,-0.014473,-0.000350,-0.000228,1.571020,-0.000502,-0.000007,0.000032,0.000000,-0.000014,-0.000000,0.001283,-0.001369,0.078563,-0.042932,0.235816,0.235816,0.241314,1.003481,0.000000,0.000000,0.000000,0.000000,0.000000,0.000000,0.000000,0.000000,0.000000,0.000000,0.000000,0.000000,0.075487,3,0
260000,0.001413,6.617980,-0.054668,0.015302,25.026283,-0.015294,-0.000361,-0.000233,1.571023,-0.000563,-0.000009,0.000053,0.000000,-0.000017,-0.000000,0.000727,-0.001469,0.063775,-0.021625,0.229502,0.229502,0.234436,1.002259,0.000000,0.000000,0.000000,0.000000,0.000000,0.000000,0.000000,0.000000,0.000000,0.000000,0.000000,0.000000,0.061352,3,0
270000,0.001514,6.873805,-0.053111,0.015901,25.030371,-0.014691,-0.000378,-0.000199,1.571037,-0.000716,-0.000010,0.000007,0.000000,-0.000023,-0.000000,0.003889,-0.001572,0.149009,0.045064,0.223751,0.223751,0.228165,1.000870,0.000000,0.000000,0.000000,0.000000,0.000000,0.000000,0.000000,0.000000,0.000000,0.000000,0.000000,0.000000,0.143461,3,0
280000,0.001618,7.126737,-0.054748,0.016470,25.032637,-0.016156,-0.000382,-0.000188,1.571039,-0.000796,-0.000012,0.000050,0.000000,-0.000026,-0.000000,0.001092,-0.001679,0.072054,-0.040047,0.218513,0.218513,0.222443,0.999308,0.000000,0.000000,0.000000,0.000000,0.000000,0.000000,0.000000,0.000000,0.000000,0.000000,0.000000,0.000000,0.069449,3,0
290000,0.001724,7.379828,-0.054572,0.017020,25.034967,-0.016380,-0.000391,-0.000178,1.571053,-0.000887,-0.000014,0.000039,0.000000,-0.000030,-0.000000,0.000981,-0.001788,0.077527,0.009451,0.213740,0.213740,0.217219,0.997568,0.000000,0.000000,0.000000,0.000000,0.000000,0.000000,0.000000,0.000000,0.000000,0.000000,0.000000,0.000000,0.074785,3,0
300000,0.001833,7.634460,-0.053939,0.017443,25.038546,-0.016501,-0.000402,-0.000150,1.571063,-0.001041,-0.000016,0.000011,0.000001,-0.000036,-0.000000,0.002501,-0.001899,0.122596,0.022713,0.209394,0.209394,0.212446,0.995646,0.000000,0.000000,0.000000,0.000000,0.000000,0.000000,0.000000,0.000000,0.000000,0.000000,0.000000,0.000000,0.118332,3,0
310000,0.001943,7.891218,-0.054001,0.017874,25.044159,-0.016870,-0.000406,-0.000080,1.571077,-0.001290,-0.000019,0.000007,0.000001,-0.000047,-0.000000,0.005570,-0.002012,0.185990,0.003079,0.205439,0.205439,0.208087,0.993537,0.000000,0.000000,0.000000,0.000000,0.000000,0.000000,0.000000,0.000000,0.000000,0.000000,0.000000,0.000000,0.179632,3,0
320000,0.002056,8.144631,-0.054584,0.018344,25.047155,-0.017570,-0.000410,-0.000059,1.571091,-0.001414,-0.000022,0.000024,0.000001,-0.000053,-0.000000,0.001277,-0.002128,0.088207,-0.012068,0.201842,0.201842,0.204105,0.991238,0.000000,0.000000,0.000000,0.000000,0.000000,0.000000,0.000000,0.000000,0.000000,0.000000,0.000000,0.000000,0.085265,3,0
330000,0.002171,8.398849,-0.054783,0.018878,25.050817,-0.018146,-0.000423,-0.000026,1.571109,-0.001584,-0.000025,0.000025,0.000001,-0.000061,-0.000000,0.002061,-0.002245,0.113070,-0.000502,0.198576,0.198576,0.200469,0.988745,0.000000,0.000000,0.000000,0.000000,0.000000,0.000000,0.000000,0.000000,0.000000,0.000000,0.000000,0.000000,0.109349,3,0
340000,0.002288,8.655774,-0.053705,0.019344,25.057081,-0.017662,-0.000427,0.000050,1.571109,-0.001895,-0.000029,-0.000035,0.000001,-0.000076,-0.000000,0.006482,-0.002365,0.196758,0.038508,0.195615,0.195615,0.197151,0.986055,0.000000,0.000000,0.000000,0.000000,0.000000,0.000000,0.000000,0.000000,0.000000,0.000000,0.000000,0.000000,0.190358,3,0
350000,0.002407,8.910805,-0.053889,0.019787,25.061792,-0.018110,-0.000439,0.000109,1.571123,-0.002126,-0.000033,-0.000035,0.000001,-0.000087,-0.000001,0.003098,-0.002487,0.138557,-0.000083,0.192936,0.192936,0.194125,0.983166,0.000000,0.000000,0.000000,0.000000,0.000000,0.000000,0.000000,0.000000,0.000000,0.000000,0.000000,0.000000,0.134123,3,0
360000,0.002527,9.168457,-0.055366,0.020223,25.069258,-0.019894,-0.000460,0.000221,1.571138,-0.002515,-0.000038,0.000035,0.000002,-0.000108,-0.000001,0.008177,-0.002610,0.221421,-0.040460,0.190519,0.190519,0.191370,0.980075,0.000000,0.000000,0.000000,0.000000,0.000000,0.000000,0.000000,0.000000,0.000000,0.000000,0.000000,0.000000,0.214406,3,0
370000,0.002650,9.426126,-0.055370,0.020762,25.076914,-0.020153,-0.000467,0.000337,1.571142,-0.002924,-0.000043,0.000024,0.000002,-0.000129,-0.000001,0.007973,-0.002736,0.222120,0.006362,0.188344,0.188344,0.188863,0.976781,0.000000,0.000000,0.000000,0.000000,0.000000,0.000000,0.000000,0.000000,0.000000,0.000000,0.000000,0.000000,0.215164,3,0
380000,0.002774,9.683204,-0.055402,0.021253,25.084162,-0.020343,-0.000473,0.000447,1.571147,-0.003317,-0.000048,0.000013,0.000002,-0.000151,-0.000001,0.006656,-0.002863,0.202921,0.005554,0.186394,0.186394,0.186586,0.973284,0.000000,0.000000,0.000000,0.000000,0.000000,0.000000,0.000000,0.000000,0.000000,0.000000,0.000000,0.000000,0.196637,3,0
390000,0.002900,9.938499,-0.055153,0.021712,25.089584,-0.020569,-0.000489,0.000523,1.571165,-0.003609,-0.000054,-0.000017,0.000003,-0.000167,-0.000001,0.003413,-0.002992,0.144560,0.014961,0.184653,0.184654,0.184522,0.969583,0.000000,0.000000,0.000000,0.000000,0.000000,0.000000,0.000000,0.000000,0.000000,0.000000,0.000000,0.000000,0.140141,3,0
400000,0.003027,10.196332,-0.056645,0.022044,25.098021,-0.022526,-0.000513,0.000666,1.571179,-0.004090,-0.000061,0.000072,0.000003,-0.000195,-0.000001,0.008625,-0.003122,0.227153,-0.042062,0.183108,0.183108,0.182656,0.965678,0.000000,0.000000,0.000000,0.000000,0.000000,0.000000,0.000000,0.000000,0.000000,0.000000,0.000000,0.000000,0.220241,3,0
410000,0.003153,10.450601,-0.057684,0.022423,25.102411,-0.024018,-0.000534,0.000734,1.571190,-0.004330,-0.000068,0.000131,0.000003,-0.000210,-0.000001,0.002016,-0.003252,0.108388,-0.026761,0.181743,0.181744,0.180971,0.961569,0.000000,0.000000,0.000000,0.000000,0.000000,0.000000,0.000000,0.000000,0.000000,0.000000,0.000000,0.000000,0.105152,3,0
420000,0.003281,10.705015,-0.058856,0.022773,25.106976,-0.025410,-0.000551,0.000808,1.571193,-0.004589,-0.000076,0.000202,0.000004,-0.000225,-0.000001,0.002203,-0.003382,0.112501,-0.031025,0.180548,0.180548,0.179456,0.957258,0.000000,0.000000,0.000000,0.000000,0.000000,0.000000,0.000000,0.000000,0.000000,0.000000,0.000000,0.000000,0.109165,3,0
430000,0.003408,10.959576,-0.058152,0.023104,25.111908,-0.024776,-0.000565,0.000885,1.571206,-0.004868,-0.000084,0.000124,0.000004,-0.000243,-0.000001,0.002365,-0.003513,0.116466,0.032451,0.179510,0.179510,0.178097,0.952747,0.000000,0.000000,0.000000,0.000000,0.000000,0.000000,0.000000,0.000000,0.000000,0.000000,0.000000,0.000000,0.113032,3,0
440000,0.003535,11.215466,-0.058006,0.023412,25.118612,-0.024661,-0.000578,0.001003,1.571212,-0.005267,-0.000093,0.000091,0.000005,-0.000268,-0.000002,0.004173,-0.003643,0.160039,0.013474,0.178618,0.178618,0.176883,0.948036,0.000000,0.000000,0.000000,0.000000,0.000000,0.000000,0.000000,0.000000,0.000000,0.000000,0.000000,0.000000,0.155315,3,0
450000,0.003662,11.473243,-0.057492,0.023729,25.127825,-0.024162,-0.000591,0.001181,1.571220,-0.005843,-0.000103,0.000023,0.000006,-0.000306,-0.000002,0.008093,-0.003774,0.222145,0.026101,0.177863,0.177863,0.175803,0.943130,0.000000,0.000000,0.000000,0.000000,0.000000,0.000000,0.000000,0.000000,0.000000,0.000000,0.000000,0.000000,0.215591,3,0
460000,0.003790,11.727582,-0.057114,0.024201,25.132458,-0.023758,-0.000600,0.001263,1.571229,-0.006121,-0.000113,-0.000034,0.000006,-0.000325,-0.000002,0.001807,-0.003905,0.103429,0.021410,0.177234,0.177235,0.174847,0.938031,0.000000,0.000000,0.000000,0.000000,0.000000,0.000000,0.000000,0.000000,0.000000,0.000000,0.000000,0.000000,0.100445,3,0
470000,0.003919,11.985004,-0.057693,0.024653,25.141277,-0.024636,-0.000609,0.001443,1.571249,-0.006697,-0.000124,-0.000002,0.000007,-0.000365,-0.000002,0.006947,-0.004038,0.206865,-0.011611,0.176724,0.176724,0.174006,0.932743,0.000000,0.000000,0.000000,0.000000,0.000000,0.000000,0.000000,0.000000,0.000000,0.000000,0.000000,0.000000,0.200811,3,0
480000,0.004048,12.243114,-0.058896,0.025016,25.151257,-0.026304,-0.000635,0.001647,1.571252,-0.007352,-0.000136,0.000093,0.000008,-0.000411,-0.000002,0.008563,-0.004171,0.227656,-0.032950,0.176323,0.176323,0.173271,0.927271,0.000000,0.000000,0.000000,0.000000,0.000000,0.000000,0.000000,0.000000,0.000000,0.000000,0.000000,0.000000,0.221003,3,0
490000,0.004178,12.500736,-0.059921,0.025343,25.160627,-0.027809,-0.000647,0.001853,1.571263,-0.007972,-0.000149,0.000172,0.000009,-0.000456,-0.000003,0.007113,-0.004304,0.207994,-0.026272,0.176024,0.176025,0.172634,0.921617,0.000000,0.000000,0.000000,0.000000,0.000000,0.000000,0.000000,0.000000,0.000000,0.000000,0.000000,0.000000,0.201935,3,0
500000,0.004307,12.755551,-0.060148,0.025773,25.165817,-0.028360,-0.000658,0.001957,1.571276,-0.008308,-0.000163,0.000166,0.000010,-0.000481,-0.000003,0.001937,-0.004437,0.109311,0.002018,0.175820,0.175820,0.172087,0.915788,0.000000,0.000000,0.000000,0.000000,0.000000,0.000000,0.000000,0.000000,0.000000,0.000000,0.000000,0.000000,0.106195,3,0
510000,0.004437,13.012268,-0.061121,0.026185,25.173899,-0.029586,-0.000672,0.002136,1.571295,-0.008855,-0.000177,0.000242,0.000011,-0.000522,-0.000003,0.004911,-0.004571,0.172504,-0.023977,0.175702,0.175703,0.171622,0.909789,0.000000,0.000000,0.000000,0.000000,0.000000,0.000000,0.000000,0.000000,0.000000,0.000000,0.000000,0.000000,0.167512,3,0
520000,0.004565,13.270858,-0.059664,0.026402,25.184809,-0.027767,-0.000685,0.002378,1.571309,-0.009619,-0.000192,0.000039,0.000012,-0.000581,-0.000004,0.009460,-0.004703,0.233769,0.061617,0.175666,0.175666,0.171234,0.903626,0.000000,0.000000,0.000000,0.000000,0.000000,0.000000,0.000000,0.000000,0.000000,0.000000,0.000000,0.000000,0.226972,3,0
530000,0.004693,13.529551,-0.060176,0.026696,25.195831,-0.028531,-0.000700,0.002634,1.571322,-0.010405,-0.000208,0.000067,0.000013,-0.000643,-0.000004,0.008835,-0.004834,0.233497,-0.008054,0.175703,0.175704,0.170915,0.897304,0.000000,0.000000,0.000000,0.000000,0.000000,0.000000,0.000000,0.000000,0.000000,0.000000,0.000000,0.000000,0.226707,3,0
540000,0.004819,13.786599,-0.059695,0.026954,25.204279,-0.028078,-0.000721,0.002838,1.571336,-0.011006,-0.000225,-0.000028,0.000015,-0.000691,-0.000004,0.004993,-0.004965,0.173484,0.027200,0.175809,0.175810,0.170659,0.890830,0.000000,0.000000,0.000000,0.000000,0.000000,0.000000,0.000000,0.000000,0.000000,0.000000,0.000000,0.000000,0.168470,3,0
550000,0.004944,14.044942,-0.059105,0.027240,25.214750,-0.027549,-0.000732,0.003101,1.571345,-0.011769,-0.000243,-0.000140,0.000016,-0.000754,-0.000005,0.007605,-0.005094,0.214534,0.030925,0.175978,0.175978,0.170460,0.884212,0.000000,0.000000,0.000000,0.000000,0.000000,0.000000,0.000000,0.000000,0.000000,0.000000,0.000000,0.000000,0.208300,3,0
560000,0.005068,14.301063,-0.058441,0.027546,25.221834,-0.026725,-0.000751,0.003262,1.571349,-0.012262,-0.000262,-0.000263,0.000018,-0.000795,-0.000005,0.003132,-0.005222,0.134995,0.033297,0.176204,0.176204,0.170314,0.877455,0.000000,0.000000,0.000000,0.000000,0.000000,0.000000,0.000000,0.000000,0.000000,0.000000,0.000000,0.000000,0.131128,3,0
570000,0.005192,14.561418,-0.058107,0.027857,25.235470,-0.026417,-0.000780,0.003620,1.571365,-0.013298,-0.000282,-0.000344,0.000020,-0.000883,-0.000005,0.012436,-0.005349,0.276383,0.021421,0.176482,0.176482,0.170215,0.870567,0.000000,0.000000,0.000000,0.000000,0.000000,0.000000,0.000000,0.000000,0.000000,0.000000,0.000000,0.000000,0.268305,3,0
580000,0.005314,14.819521,-0.057940,0.028130,25.245518,-0.026424,-0.000810,0.003871,1.571380,-0.014047,-0.000303,-0.000404,0.000021,-0.000949,-0.000006,0.006182,-0.005476,0.194800,0.015458,0.176807,0.176808,0.170157,0.863556,0.000000,0.000000,0.000000,0.000000,0.000000,0.000000,0.000000,0.000000,0.000000,0.000000,0.000000,0.000000,0.189135,3,0
590000,0.005435,15.077156,-0.057048,0.028361,25.254705,-0.025288,-0.000827,0.004116,1.571393,-0.014736,-0.000325,-0.000568,0.000024,-0.001010,-0.000006,0.005238,-0.005601,0.175144,0.040968,0.177175,0.177175,0.170138,0.856429,0.000000,0.000000,0.000000,0.000000,0.000000,0.000000,0.000000,0.000000,0.000000,0.000000,0.000000,0.000000,0.170059,3,0
600000,0.005555,15.334916,-0.055747,0.028674,25.264061,-0.023677,-0.000853,0.004358,1.571400,-0.015444,-0.000347,-0.000794,0.000026,-0.001074,-0.000006,0.005497,-0.005724,0.175843,0.055072,0.177581,0.177582,0.170152,0.849195,0.000000,0.000000,0.000000,0.000000,0.000000,0.000000,0.000000,0.000000,0.000000,0.000000,0.000000,0.000000,0.170729,3,0
610000,0.005673,15.595160,-0.055555,0.028893,25.277477,-0.023738,-0.000869,0.004745,1.571409,-0.016497,-0.000371,-0.000859,0.000028,-0.001172,-0.000007,0.010637,-0.005846,0.255929,0.015415,0.178021,0.178022,0.170196,0.841860,0.000000,0.000000,0.000000,0.000000,0.000000,0.000000,0.000000,0.000000,0.000000,0.000000,0.000000,0.000000,0.248401,3,0
620000,0.005790,15.855501,-0.056453,0.029116,25.291027,-0.025057,-0.000885,0.005138,1.571432,-0.017566,-0.000396,-0.000760,0.000030,-0.001272,-0.000008,0.010523,-0.005967,0.253978,-0.023106,0.178492,0.178493,0.170265,0.834434,0.000000,0.000000,0.000000,0.000000,0.000000,0.000000,0.000000,0.000000,0.000000,0.000000,0.000000,0.000000,0.246490,3,0
630000,0.005905,16.112974,-0.056632,0.029404,25.299723,-0.025552,-0.000900,0.005378,1.571436,-0.018221,-0.000422,-0.000772,0.000033,-0.001335,-0.000008,0.003769,-0.006087,0.152529,0.002745,0.178989,0.178990,0.170356,0.826923,0.000000,0.000000,0.000000,0.000000,0.000000,0.000000,0.000000,0.000000,0.000000,0.000000,0.000000,0.000000,0.148096,3,0
640000,0.006018,16.372356,-0.055960,0.029599,25.311537,-0.024502,-0.000919,0.005716,1.571454,-0.019155,-0.000449,-0.000920,0.000035,-0.001427,-0.000009,0.007518,-0.006204,0.213032,0.032800,0.179509,0.179510,0.170466,0.819338,0.000000,0.000000,0.000000,0.000000,0.000000,0.000000,0.000000,0.000000,0.000000,0.000000,0.000000,0.000000,0.206747,3,0
650000,0.006130,16.632439,-0.056035,0.029814,25.324329,-0.024799,-0.000949,0.006091,1.571468,-0.020191,-0.000477,-0.000949,0.000038,-0.001530,-0.000009,0.008702,-0.006319,0.231838,0.006261,0.180049,0.180050,0.170591,0.811684,0.000000,0.000000,0.000000,0.000000,0.000000,0.000000,0.000000,0.000000,0.000000,0.000000,0.000000,0.000000,0.224966,3,0
660000,0.006238,16.893816,-0.056365,0.029882,25.339258,-0.025344,-0.000978,0.006555,1.571489,-0.021419,-0.000506,-0.000937,0.000041,-0.001655,-0.000010,0.011776,-0.006432,0.269810,-0.002696,0.180606,0.180606,0.170729,0.803971,0.000000,0.000000,0.000000,0.000000,0.000000,0.000000,0.000000,0.000000,0.000000,0.000000,0.000000,0.000000,0.261763,3,0
670000,0.006344,17.152273,-0.055611,0.030068,25.349091,-0.024305,-0.000998,0.006842,1.571508,-0.022195,-0.000536,-0.001107,0.000044,-0.001735,-0.000010,0.004737,-0.006542,0.167315,0.035583,0.181176,0.181177,0.170877,0.796206,0.000000,0.000000,0.000000,0.000000,0.000000,0.000000,0.000000,0.000000,0.000000,0.000000,0.000000,0.000000,0.162386,3,0
680000,0.006449,17.413248,-0.054775,0.030272,25.363010,-0.023251,-0.001029,0.007283,1.571517,-0.023359,-0.000567,-0.001294,0.000048,-0.001857,-0.000011,0.010079,-0.006651,0.246702,0.038132,0.181758,0.181758,0.171033,0.788399,0.000000,0.000000,0.000000,0.000000,0.000000,0.000000,0.000000,0.000000,0.000000,0.000000,0.000000,0.000000,0.239316,3,0
690000,0.006551,17.672495,-0.055038,0.030410,25.373955,-0.023628,-0.001055,0.007632,1.571530,-0.024244,-0.000599,-0.001290,0.000051,-0.001952,-0.000012,0.005501,-0.006756,0.184376,-0.000911,0.182348,0.182348,0.171194,0.780555,0.000000,0.000000,0.000000,0.000000,0.000000,0.000000,0.000000,0.000000,0.000000,0.000000,0.000000,0.000000,0.178892,3,0
700000,0.006650,17.929417,-0.053978,0.030533,25.380861,-0.021980,-0.001087,0.007840,1.571548,-0.024751,-0.000632,-0.001521,0.000055,-0.002007,-0.000012,0.002089,-0.006860,0.103930,0.045547,0.182944,0.182945,0.171357,0.772684,0.000000,0.000000,0.000000,0.000000,0.000000,0.000000,0.000000,0.000000,0.000000,0.000000,0.000000,0.000000,0.100981,3,0
710000,0.006748,18.187677,-0.052810,0.030718,25.389851,-0.020332,-0.001106,0.008131,1.571567,-0.025470,-0.000667,-0.001772,0.000059,-0.002087,-0.000013,0.003795,-0.006961,0.145123,0.048728,0.183544,0.183545,0.171522,0.764793,0.000000,0.000000,0.000000,0.000000,0.000000,0.000000,0.000000,0.000000,0.000000,0.000000,0.000000,0.000000,0.140846,3,0
720000,0.006843,18.448486,-0.053813,0.030768,25.403179,-0.022127,-0.001122,0.008582,1.571574,-0.026601,-0.000702,-0.001628,0.000063,-0.002215,-0.000013,0.008289,-0.007059,0.224712,-0.027648,0.184146,0.184147,0.171686,0.756890,0.000000,0.000000,0.000000,0.000000,0.000000,0.000000,0.000000,0.000000,0.000000,0.000000,0.000000,0.000000,0.217923,3,0
730000,0.006934,18.707537,-0.052949,0.030814,25.413275,-0.021079,-0.001143,0.008914,1.571581,-0.027430,-0.000738,-0.001832,0.000067,-0.002310,-0.000014,0.004513,-0.007155,0.162560,0.038147,0.184748,0.184749,0.171847,0.748981,0.000000,0.000000,0.000000,0.000000,0.000000,0.000000,0.000000,0.000000,0.000000,0.000000,0.000000,0.000000,0.157707,3,0
740000,0.007022,18.968525,-0.052280,0.030900,25.426592,-0.020078,-0.001161,0.009383,1.571602,-0.028576,-0.000775,-0.002000,0.000072,-0.002444,-0.000015,0.008085,-0.007247,0.221470,0.030878,0.185349,0.185349,0.172004,0.741075,0.000000,0.000000,0.000000,0.000000,0.000000,0.000000,0.000000,0.000000,0.000000,0.000000,0.000000,0.000000,0.214743,3,0
750000,0.007109,19.230204,-0.052963,0.030967,25.441105,-0.021220,-0.001190,0.009890,1.571615,-0.029829,-0.000813,-0.001911,0.000076,-0.002593,-0.000016,0.009251,-0.007336,0.238651,-0.016538,0.185946,0.185946,0.172155,0.733177,0.000000,0.000000,0.000000,0.000000,0.000000,0.000000,0.000000,0.000000,0.000000,0.000000,0.000000,0.000000,0.231364,3,0
760000,0.007193,19.491945,-0.052407,0.031116,25.455578,-0.020559,-0.001219,0.010402,1.571628,-0.031079,-0.000852,-0.002063,0.000081,-0.002744,-0.000016,0.009064,-0.007424,0.235252,0.026997,0.186538,0.186539,0.172299,0.725295,0.000000,0.000000,0.000000,0.000000,0.000000,0.000000,0.000000,0.000000,0.000000,0.000000,0.000000,0.000000,0.228053,3,0
770000,0.007273,19.750029,-0.051437,0.031106,25.463428,-0.019308,-0.001251,0.010660,1.571648,-0.031684,-0.000892,-0.002297,0.000086,-0.002818,-0.000017,0.002327,-0.007508,0.112518,0.041143,0.187124,0.187125,0.172436,0.717435,0.000000,0.000000,0.000000,0.000000,0.000000,0.000000,0.000000,0.000000,0.000000,0.000000,0.000000,0.000000,0.109251,3,0
780000,0.007351,20.010075,-0.050465,0.031145,25.474550,-0.018039,-0.001288,0.011054,1.571670,-0.032623,-0.000933,-0.002533,0.000091,-0.002936,-0.000018,0.005078,-0.007589,0.172419,0.040742,0.187703,0.187704,0.172563,0.709604,0.000000,0.000000,0.000000,0.000000,0.000000,0.000000,0.000000,0.000000,0.000000,0.000000,0.000000,0.000000,0.167186,3,0
790000,0.007426,20.272688,-0.049571,0.031211,25.490034,-0.016818,-0.001316,0.011641,1.571684,-0.034002,-0.000975,-0.002754,0.000097,-0.003111,-0.000019,0.010345,-0.007667,0.250204,0.037588,0.188274,0.188275,0.172681,0.701807,0.000000,0.000000,0.000000,0.000000,0.000000,0.000000,0.000000,0.000000,0.000000,0.000000,0.000000,0.000000,0.242467,3,0
800000,0.007499,20.530340,-0.049874,0.031282,25.496656,-0.017501,-0.001354,0.011863,1.571702,-0.034485,-0.001018,-0.002729,0.000102,-0.003173,-0.000019,0.001230,-0.007743,0.086828,-0.004466,0.188835,0.188836,0.172787,0.694050,0.000000,0.000000,0.000000,0.000000,0.000000,0.000000,0.000000,0.000000,0.000000,0.000000,0.000000,0.000000,0.084429,3,0
810000,0.007569,20.791853,-0.049197,0.031250,25.509939,-0.016686,-0.001385,0.012370,1.571715,-0.035650,-0.001061,-0.002910,0.000108,-0.003326,-0.000020,0.007057,-0.007816,0.206810,0.029822,0.189387,0.189387,0.172882,0.686339,0.000000,0.000000,0.000000,0.000000,0.000000,0.000000,0.000000,0.000000,0.000000,0.000000,0.000000,0.000000,0.200426,3,0
820000,0.007636,21.050270,-0.048880,0.031289,25.517700,-0.016572,-0.001418,0.012641,1.571721,-0.036242,-0.001106,-0.003014,0.000114,-0.003405,-0.000021,0.001809,-0.007886,0.104195,0.017052,0.189927,0.189928,0.172965,0.678679,0.000000,0.000000,0.000000,0.000000,0.000000,0.000000,0.000000,0.000000,0.000000,0.000000,0.000000,0.000000,0.101185,3,0
830000,0.007701,21.312557,-0.048250,0.031332,25.532059,-0.015751,-0.001450,0.013205,1.571746,-0.037525,-0.001151,-0.003188,0.000121,-0.003579,-0.000022,0.008190,-0.007954,0.223402,0.027878,0.190456,0.190457,0.173035,0.671075,0.000000,0.000000,0.000000,0.000000,0.000000,0.000000,0.000000,0.000000,0.000000,0.000000,0.000000,0.000000,0.216448,3,0
840000,0.007763,21.571087,-0.049765,0.031228,25.539820,-0.018224,-0.001484,0.013478,1.571761,-0.038106,-0.001197,-0.002897,0.000127,-0.003659,-0.000022,0.001983,-0.008018,0.100119,-0.046862,0.190973,0.190974,0.173092,0.663531,0.000000,0.000000,0.000000,0.000000,0.000000,0.000000,0.000000,0.000000,0.000000,0.000000,0.000000,0.000000,0.097242,3,0
850000,0.007823,21.830965,-0.051015,0.031266,25.549751,-0.020423,-0.001518,0.013860,1.571769,-0.038924,-0.001245,-0.002667,0.000133,-0.003774,-0.000023,0.003377,-0.008081,0.139696,-0.036675,0.191478,0.191478,0.173136,0.656053,0.000000,0.000000,0.000000,0.000000,0.000000,0.000000,0.000000,0.000000,0.000000,0.000000,0.000000,0.000000,0.135463,3,0
860000,0.007880,22.088995,-0.050914,0.031298,25.556259,-0.020408,-0.001557,0.014081,1.571777,-0.039387,-0.001292,-0.002737,0.000140,-0.003840,-0.000023,0.001024,-0.008141,0.078508,0.010753,0.191970,0.191970,0.173166,0.648644,0.000000,0.000000,0.000000,0.000000,0.000000,0.000000,0.000000,0.000000,0.000000,0.000000,0.000000,0.000000,0.076404,3,0
870000,0.007934,22.351568,-0.050073,0.031268,25.570658,-0.019231,-0.001597,0.014675,1.571792,-0.040683,-0.001340,-0.002976,0.000147,-0.004027,-0.000024,0.007893,-0.008198,0.217993,0.036513,0.192449,0.192449,0.173182,0.641308,0.000000,0.000000,0.000000,0.000000,0.000000,0.000000,0.000000,0.000000,0.000000,0.000000,0.000000,0.000000,0.211151,3,0
880000,0.007987,22.612251,-0.051408,0.031300,25.581581,-0.021450,-0.001628,0.015115,1.571813,-0.041607,-0.001390,-0.002721,0.000154,-0.004163,-0.000025,0.004090,-0.008252,0.154064,-0.039300,0.192915,0.192914,0.173184,0.634049,0.000000,0.000000,0.000000,0.000000,0.000000,0.000000,0.000000,0.000000,0.000000,0.000000,0.000000,0.000000,0.149323,3,0
890000,0.008036,22.872337,-0.051047,0.031254,25.591337,-0.021124,-0.001661,0.015492,1.571822,-0.042403,-0.001440,-0.002857,0.000162,-0.004282,-0.000026,0.002880,-0.008304,0.131817,0.020218,0.193367,0.193367,0.173172,0.626871,0.000000,0.000000,0.000000,0.000000,0.000000,0.000000,0.000000,0.000000,0.000000,0.000000,0.000000,0.000000,0.127822,3,0
900000,0.008082,23.135044,-0.050686,0.031095,25.605585,-0.020735,-0.001696,0.016085,1.571836,-0.043678,-0.001490,-0.002995,0.000170,-0.004475,-0.000027,0.007161,-0.008352,0.209574,0.020153,0.193806,0.193805,0.173145,0.619775,0.000000,0.000000,0.000000,0.000000,0.000000,0.000000,0.000000,0.000000,0.000000,0.000000,0.000000,0.000000,0.202966,3,0
910000,0.008124,23.395189,-0.050586,0.031008,25.615116,-0.020734,-0.001734,0.016471,1.571841,-0.044448,-0.001541,-0.003071,0.000177,-0.004594,-0.000028,0.002576,-0.008397,0.125635,0.010908,0.194231,0.194231,0.173104,0.612767,0.000000,0.000000,0.000000,0.000000,0.000000,0.000000,0.000000,0.000000,0.000000,0.000000,0.000000,0.000000,0.121840,3,0
920000,0.008164,23.656027,-0.050634,0.030864,25.625708,-0.020882,-0.001779,0.016907,1.571851,-0.045333,-0.001592,-0.003113,0.000186,-0.004732,-0.000029,0.003347,-0.008438,0.143698,0.005764,0.194643,0.194642,0.173050,0.605848,0.000000,0.000000,0.000000,0.000000,0.000000,0.000000,0.000000,0.000000,0.000000,0.000000,0.000000,0.000000,0.139276,3,0
930000,0.008202,23.917543,-0.051939,0.030799,25.637339,-0.023013,-0.001823,0.017409,1.571873,-0.046333,-0.001645,-0.002856,0.000194,-0.004891,-0.000030,0.004424,-0.008477,0.161058,-0.037672,0.195042,0.195041,0.172981,0.599020,0.000000,0.000000,0.000000,0.000000,0.000000,0.000000,0.000000,0.000000,0.000000,0.000000,0.000000,0.000000,0.156038,3,0
940000,0.008236,24.179733,-0.053088,0.030615,25.650051,-0.024723,-0.001854,0.017954,1.571884,-0.047442,-0.001698,-0.002639,0.000202,-0.005071,-0.000031,0.005266,-0.008513,0.177731,-0.031584,0.195428,0.195427,0.172898,0.592286,0.000000,0.000000,0.000000,0.000000,0.000000,0.000000,0.000000,0.000000,0.000000,0.000000,0.000000,0.000000,0.172137,3,0
950000,0.008266,24.439335,-0.052152,0.030429,25.657990,-0.023347,-0.001885,0.018264,1.571904,-0.048033,-0.001751,-0.002932,0.000211,-0.005167,-0.000031,0.001722,-0.008546,0.094324,0.041285,0.195800,0.195799,0.172801,0.585648,0.000000,0.000000,0.000000,0.000000,0.000000,0.000000,0.000000,0.000000,0.000000,0.000000,0.000000,0.000000,0.091621,3,0
960000,0.008294,24.700933,-0.052619,0.030396,25.669365,-0.024353,-0.001929,0.018766,1.571910,-0.048996,-0.001804,-0.002881,0.000220,-0.005327,-0.000032,0.003781,-0.008575,0.152706,-0.007713,0.196161,0.196159,0.172691,0.579107,0.000000,0.000000,0.000000,0.000000,0.000000,0.000000,0.000000,0.000000,0.000000,0.000000,0.000000,0.000000,0.147945,3,0
970000,0.008320,24.961246,-0.052709,0.030299,25.678392,-0.024538,-0.001969,0.019145,1.571928,-0.049691,-0.001859,-0.002923,0.000229,-0.005445,-0.000033,0.001956,-0.008602,0.109659,0.005585,0.196508,0.196507,0.172568,0.572666,0.000000,0.000000,0.000000,0.000000,0.000000,0.000000,0.000000,0.000000,0.000000,0.000000,0.000000,0.000000,0.106394,3,0
980000,0.008344,25.221588,-0.051496,0.030237,25.687380,-0.022914,-0.002018,0.019516,1.571949,-0.050375,-0.001913,-0.003296,0.000239,-0.005562,-0.000034,0.002303,-0.008628,0.107681,0.051036,0.196844,0.196842,0.172432,0.566325,0.000000,0.000000,0.000000,0.000000,0.000000,0.000000,0.000000,0.000000,0.000000,0.000000,0.000000,0.000000,0.104484,3,0
990000,0.008365,25.483921,-0.050410,0.030169,25.699760,-0.021662,-0.002053,0.020068,1.571974,-0.051432,-0.001967,-0.003637,0.000249,-0.005745,-0.000035,0.004763,-0.008650,0.165310,0.046208,0.197168,0.197166,0.172283,0.560086,0.000000,0.000000,0.000000,0.000000,0.000000,0.000000,0.000000,0.000000,0.000000,0.000000,0.000000,0.000000,0.160098,3,0
1000000,0.008385,25.744293,-0.050681,0.030044,25.708515,-0.022380,-0.002093,0.020437,1.571980,-0.052084,-0.002022,-0.003629,0.000258,-0.005861,-0.000035,0.001678,-0.008670,0.101643,-0.001554,0.197480,0.197478,0.172121,0.553950,0.000000,0.000000,0.000000,0.000000,0.000000,0.000000,0.000000,0.000000,0.000000,0.000000,0.000000,0.000000,0.098654,3,0
1010000,0.008402,26.004690,-0.050086,0.029873,25.717241,-0.021597,-0.002129,0.020792,1.571990,-0.052725,-0.002078,-0.003846,0.000269,-0.005975,-0.000036,0.001746,-0.008689,0.099609,0.028828,0.197781,0.197779,0.171948,0.547918,0.000000,0.000000,0.000000,0.000000,0.000000,0.000000,0.000000,0.000000,0.000000,0.000000,0.000000,0.000000,0.096693,3,0
1020000,0.008418,26.267082,-0.050792,0.029811,25.729261,-0.022988,-0.002176,0.021351,1.572000,-0.053742,-0.002134,-0.003726,0.000279,-0.006161,-0.000037,0.004039,-0.008705,0.157188,-0.016642,0.198072,0.198070,0.171763,0.541989,0.000000,0.000000,0.000000,0.000000,0.000000,0.000000,0.000000,0.000000,0.000000,0.000000,0.000000,0.000000,0.152231,3,0
1030000,0.008431,26.528152,-0.052108,0.029561,25.738846,-0.025124,-0.002227,0.021772,1.572010,-0.054478,-0.002190,-0.003446,0.000289,-0.006297,-0.000038,0.002312,-0.008718,0.113344,-0.037627,0.198352,0.198350,0.171567,0.536166,0.000000,0.000000,0.000000,0.000000,0.000000,0.000000,0.000000,0.000000,0.000000,0.000000,0.000000,0.000000,0.109920,3,0
1040000,0.008441,26.789232,-0.051888,0.029441,25.748423,-0.025060,-0.002280,0.022185,1.572024,-0.055197,-0.002247,-0.003578,0.000300,-0.006432,-0.000039,0.002030,-0.008731,0.110601,0.016865,0.198623,0.198620,0.171359,0.530448,0.000000,0.000000,0.000000,0.000000,0.000000,0.000000,0.000000,0.000000,0.000000,0.000000,0.000000,0.000000,0.107274,3,0
1050000,0.008448,27.050980,-0.051257,0.029191,25.758884,-0.024484,-0.002324,0.022659,1.572033,-0.056030,-0.002303,-0.003823,0.000311,-0.006590,-0.000040,0.002801,-0.008738,0.127731,0.031344,0.198884,0.198881,0.171141,0.524834,0.000000,0.000000,0.000000,0.000000,0.000000,0.000000,0.000000,0.000000,0.000000,0.000000,0.000000,0.000000,0.123787,3,0
1060000,0.008454,27.312067,-0.052580,0.029027,25.768145,-0.026356,-0.002373,0.023059,1.572038,-0.056714,-0.002360,-0.003536,0.000321,-0.006723,-0.000041,0.001998,-0.008743,0.104425,-0.037563,0.199136,0.199132,0.170913,0.519327,0.000000,0.000000,0.000000,0.000000,0.000000,0.000000,0.000000,0.000000,0.000000,0.000000,0.000000,0.000000,0.101311,3,0
1070000,0.008458,27.571838,-0.053232,0.028948,25.774883,-0.027422,-0.002412,0.023315,1.572058,-0.057120,-0.002417,-0.003434,0.000332,-0.006803,-0.000041,0.000659,-0.008748,0.061913,-0.013373,0.199379,0.199376,0.170676,0.513924,0.000000,0.000000,0.000000,0.000000,0.000000,0.000000,0.000000,0.000000,0.000000,0.000000,0.000000,0.000000,0.060449,3,0
1080000,0.008458,27.832293,-0.052591,0.028689,25.782871,-0.026597,-0.002463,0.023649,1.572075,-0.057648,-0.002474,-0.003693,0.000344,-0.006908,-0.000042,0.001225,-0.008750,0.080379,0.032516,0.199615,0.199611,0.170429,0.508627,0.000000,0.000000,0.000000,0.000000,0.000000,0.000000,0.000000,0.000000,0.000000,0.000000,0.000000,0.000000,0.078166,3,0
1090000,0.008456,28.092756,-0.051450,0.028570,25.790667,-0.025011,-0.002507,0.023980,1.572091,-0.058162,-0.002531,-0.004091,0.000356,-0.007011,-0.000043,0.001402,-0.008749,0.078272,0.049864,0.199843,0.199838,0.170172,0.503435,0.000000,0.000000,0.000000,0.000000,0.000000,0.000000,0.000000,0.000000,0.000000,0.000000,0.000000,0.000000,0.076139,3,0
1100000,0.008453,28.353237,-0.051988,0.028276,25.798466,-0.025897,-0.002550,0.024316,1.572106,-0.058664,-0.002588,-0.004016,0.000368,-0.007114,-0.000043,0.000962,-0.008744,0.076155,-0.009842,0.200064,0.200059,0.169908,0.498347,0.000000,0.000000,0.000000,0.000000,0.000000,0.000000,0.000000,0.000000,0.000000,0.000000,0.000000,0.000000,0.074098,3,0
1110000,0.008446,28.614389,-0.051671,0.028028,25.807320,-0.025459,-0.002589,0.024707,1.572123,-0.059284,-0.002645,-0.004186,0.000380,-0.007243,-0.000044,0.001502,-0.008738,0.093899,0.020646,0.200278,0.200273,0.169635,0.493363,0.000000,0.000000,0.000000,0.000000,0.000000,0.000000,0.000000,0.000000,0.000000,0.000000,0.000000,0.000000,0.091157,3,0
1120000,0.008438,28.877531,-0.051596,0.027891,25.819529,-0.025726,-0.002630,0.025319,1.572143,-0.060280,-0.002702,-0.004292,0.000392,-0.007453,-0.000045,0.003696,-0.008730,0.150723,0.012240,0.200486,0.200480,0.169355,0.488482,0.000000,0.000000,0.000000,0.000000,0.000000,0.000000,0.000000,0.000000,0.000000,0.000000,0.000000,0.000000,0.145931,3,0
1130000,0.008426,29.141304,-0.050858,0.027630,25.832674,-0.024766,-0.002679,0.026000,1.572149,-0.061376,-0.002759,-0.004592,0.000405,-0.007687,-0.000047,0.004646,-0.008719,0.165760,0.035802,0.200688,0.200682,0.169067,0.483704,0.000000,0.000000,0.000000,0.000000,0.000000,0.000000,0.000000,0.000000,0.000000,0.000000,0.000000,0.000000,0.160439,3,0
1140000,0.008416,29.403704,-0.052383,0.027438,25.843290,-0.026817,-0.002727,0.026521,1.572164,-0.062175,-0.002817,-0.004229,0.000417,-0.007862,-0.000048,0.002680,-0.008706,0.120523,-0.045027,0.200885,0.200878,0.168772,0.479028,0.000000,0.000000,0.000000,0.000000,0.000000,0.000000,0.000000,0.000000,0.000000,0.000000,0.000000,0.000000,0.116789,3,0
1150000,0.008403,29.662746,-0.053152,0.027265,25.847967,-0.027898,-0.002783,0.026640,1.572166,-0.062288,-0.002875,-0.004084,0.000429,-0.007887,-0.000048,0.000110,-0.008693,0.017048,-0.017661,0.201077,0.201070,0.168471,0.474454,0.000000,0.000000,0.000000,0.000000,0.000000,0.000000,0.000000,0.000000,0.000000,0.000000,0.000000,0.000000,0.018495,3,0
1160000,0.008389,29.923813,-0.054405,0.027132,25.856003,-0.029791,-0.002836,0.026997,1.572171,-0.062793,-0.002932,-0.003803,0.000442,-0.008001,-0.000049,0.001134,-0.008679,0.076025,-0.034351,0.201264,0.201257,0.168163,0.469979,0.000000,0.000000,0.000000,0.000000,0.000000,0.000000,0.000000,0.000000,0.000000,0.000000,0.000000,0.000000,0.073950,3,0
1170000,0.008371,30.185539,-0.055073,0.026805,25.865145,-0.030895,-0.002877,0.027430,1.572181,-0.063411,-0.002990,-0.003701,0.000455,-0.008141,-0.000050,0.001437,-0.008662,0.093180,-0.012784,0.201448,0.201440,0.167850,0.465604,0.000000,0.000000,0.000000,0.000000,0.000000,0.000000,0.000000,0.000000,0.000000,0.000000,0.000000,0.000000,0.090438,3,0
1180000,0.008350,30.447908,-0.054083,0.026530,25.875317,-0.029597,-0.002931,0.027925,1.572188,-0.064136,-0.003046,-0.004103,0.000468,-0.008307,-0.000051,0.002306,-0.008642,0.109667,0.046932,0.201627,0.201619,0.167532,0.461327,0.000000,0.000000,0.000000,0.000000,0.000000,0.000000,0.000000,0.000000,0.000000,0.000000,0.000000,0.000000,0.106314,3,0
1190000,0.008327,30.706907,-0.053533,0.026278,25.879534,-0.029024,-0.002976,0.028018,1.572205,-0.064176,-0.003102,-0.004362,0.000482,-0.008316,-0.000051,0.000170,-0.008618,0.006227,0.030577,0.201803,0.201794,0.167208,0.457147,0.000000,0.000000,0.000000,0.000000,0.000000,0.000000,0.000000,0.000000,0.000000,0.000000,0.000000,0.000000,0.010275,3,0
1200000,0.008302,30.970612,-0.053447,0.025984,25.891836,-0.029142,-0.003022,0.028656,1.572218,-0.065135,-0.003158,-0.004492,0.000495,-0.008543,-0.000052,0.003420,-0.008592,0.144764,0.014138,0.201977,0.201967,0.166880,0.453063,0.000000,0.000000,0.000000,0.000000,0.000000,0.000000,0.000000,0.000000,0.000000,0.000000,0.000000,0.000000,0.140139,3,0
1210000,0.008275,31.233593,-0.053201,0.025641,25.902695,-0.029165,-0.003075,0.029201,1.572231,-0.065925,-0.003214,-0.004672,0.000509,-0.008733,-0.000053,0.002376,-0.008564,0.119484,0.019977,0.202147,0.202137,0.166548,0.449074,0.000000,0.000000,0.000000,0.000000,0.000000,0.000000,0.000000,0.000000,0.000000,0.000000,0.000000,0.000000,0.115756,3,0
1220000,0.008245,31.491837,-0.052607,0.025344,25.905251,-0.028450,-0.003137,0.029165,1.572238,-0.065763,-0.003270,-0.004947,0.000523,-0.008693,-0.000053,0.000273,-0.008533,-0.024334,0.032030,0.202316,0.202305,0.166211,0.445179,0.000000,0.000000,0.000000,0.000000,0.000000,0.000000,0.000000,0.000000,0.000000,0.000000,0.000000,0.000000,0.024914,3,0
1230000,0.008213,31.752121,-0.051552,0.025145,25.911242,-0.027282,-0.003196,0.029370,1.572254,-0.065996,-0.003325,-0.005373,0.000537,-0.008749,-0.000054,0.000600,-0.008501,0.035460,0.048786,0.202483,0.202471,0.165871,0.441375,0.000000,0.000000,0.000000,0.000000,0.000000,0.000000,0.000000,0.000000,0.000000,0.000000,0.000000,0.000000,0.035238,3,0
1240000,0.008180,32.013077,-0.051728,0.024796,25.918411,-0.027818,-0.003244,0.029658,1.572259,-0.066348,-0.003380,-0.005411,0.000551,-0.008838,-0.000054,0.000474,-0.008466,0.053421,0.003882,0.202648,0.202635,0.165528,0.437663,0.000000,0.000000,0.000000,0.000000,0.000000,0.000000,0.000000,0.000000,0.000000,0.000000,0.000000,0.000000,0.052261,3,0
1250000,0.008144,32.274014,-0.050693,0.024572,25.925344,-0.026518,-0.003289,0.029937,1.572274,-0.066681,-0.003435,-0.005837,0.000566,-0.008921,-0.000055,0.000801,-0.008431,0.050816,0.048012,0.202811,0.202798,0.165182,0.434040,0.000000,0.000000,0.000000,0.000000,0.000000,0.000000,0.000000,0.000000,0.000000,0.000000,0.000000,0.000000,0.049774,3,0
1260000,0.008110,32.537632,-0.051927,0.024372,25.936962,-0.028381,-0.003334,0.030558,1.572296,-0.067522,-0.003490,-0.005541,0.000580,-0.009140,-0.000056,0.002833,-0.008393,0.127754,-0.034583,0.202974,0.202961,0.164834,0.430506,0.000000,0.000000,0.000000,0.000000,0.000000,0.000000,0.000000,0.000000,0.000000,0.000000,0.000000,0.000000,0.123694,3,0
1270000,0.008074,32.795807,-0.052768,0.024137,25.938910,-0.029702,-0.003386,0.030476,1.572304,-0.067282,-0.003545,-0.005358,0.000594,-0.009078,-0.000056,0.000293,-0.008356,-0.036591,-0.020266,0.203136,0.203122,0.164483,0.427059,0.000000,0.000000,0.000000,0.000000,0.000000,0.000000,0.000000,0.000000,0.000000,0.000000,0.000000,0.000000,0.036265,3,0
1280000,0.008037,33.058052,-0.054228,0.023861,25.947855,-0.031690,-0.003434,0.030907,1.572314,-0.067827,-0.003600,-0.004989,0.000608,-0.009224,-0.000057,0.001404,-0.008317,0.082916,-0.042005,0.203298,0.203283,0.164131,0.423696,0.000000,0.000000,0.000000,0.000000,0.000000,0.000000,0.000000,0.000000,0.000000,0.000000,0.000000,0.000000,0.080503,3,0
1290000,0.007996,33.316875,-0.054258,0.023495,25.950659,-0.031714,-0.003485,0.030888,1.572324,-0.067693,-0.003654,-0.005082,0.000623,-0.009187,-0.000057,0.000096,-0.008277,-0.020386,0.010563,0.203460,0.203444,0.163776,0.420418,0.000000,0.000000,0.000000,0.000000,0.000000,0.000000,0.000000,0.000000,0.000000,0.000000,0.000000,0.000000,0.021253,3,0
1300000,0.007953,33.578415,-0.054487,0.023209,25.958342,-0.032255,-0.003545,0.031216,1.572328,-0.068076,-0.003708,-0.005121,0.000637,-0.009292,-0.000057,0.000568,-0.008233,0.058704,0.003709,0.203622,0.203605,0.163421,0.417224,0.000000,0.000000,0.000000,0.000000,0.000000,0.000000,0.000000,0.000000,0.000000,0.000000,0.000000,0.000000,0.057268,3,0
1310000,0.007908,33.839245,-0.053711,0.022898,25.964525,-0.031301,-0.003598,0.031446,1.572340,-0.068306,-0.003760,-0.005495,0.000652,-0.009355,-0.000058,0.000484,-0.008187,0.035637,0.040711,0.203784,0.203766,0.163064,0.414109,0.000000,0.000000,0.000000,0.000000,0.000000,0.000000,0.000000,0.000000,0.000000,0.000000,0.000000,0.000000,0.035328,3,0
1320000,0.007864,34.102089,-0.055056,0.022692,25.974318,-0.033010,-0.003647,0.031951,1.572351,-0.068909,-0.003813,-0.005160,0.000667,-0.009526,-0.000059,0.001626,-0.008140,0.092804,-0.037534,0.203946,0.203928,0.162706,0.411075,0.000000,0.000000,0.000000,0.000000,0.000000,0.000000,0.000000,0.000000,0.000000,0.000000,0.000000,0.000000,0.089990,3,0
1330000,0.007817,34.360817,-0.054579,0.022371,25.976740,-0.032310,-0.003707,0.031882,1.572355,-0.068708,-0.003865,-0.005431,0.000682,-0.009467,-0.000059,0.000309,-0.008093,-0.030987,0.029814,0.204110,0.204091,0.162348,0.408120,0.000000,0.000000,0.000000,0.000000,0.000000,0.000000,0.000000,0.000000,0.000000,0.000000,0.000000,0.000000,0.030934,3,0
1340000,0.007768,34.621593,-0.054830,0.022044,25.982708,-0.032862,-0.003755,0.032087,1.572360,-0.068890,-0.003916,-0.005462,0.000697,-0.009520,-0.000059,0.000141,-0.008042,0.028324,0.003039,0.204275,0.204255,0.161990,0.405242,0.000000,0.000000,0.000000,0.000000,0.000000,0.000000,0.000000,0.000000,0.000000,0.000000,0.000000,0.000000,0.028440,3,0
1350000,0.007716,34.882343,-0.054525,0.021660,25.988468,-0.032696,-0.003820,0.032276,1.572378,-0.069056,-0.003967,-0.005687,0.000712,-0.009568,-0.000059,0.000211,-0.007989,0.025917,0.023868,0.204440,0.204419,0.161631,0.402438,0.000000,0.000000,0.000000,0.000000,0.000000,0.000000,0.000000,0.000000,0.000000,0.000000,0.000000,0.000000,0.026198,3,0
1360000,0.007665,35.145786,-0.055057,0.021441,25.999060,-0.033399,-0.003866,0.032835,1.572390,-0.069715,-0.004017,-0.005633,0.000727,-0.009765,-0.000061,0.001727,-0.007936,0.103046,-0.006991,0.204607,0.204585,0.161273,0.399710,0.000000,0.000000,0.000000,0.000000,0.000000,0.000000,0.000000,0.000000,0.000000,0.000000,0.000000,0.000000,0.099828,3,0
1370000,0.007612,35.407806,-0.055764,0.021071,26.006882,-0.034240,-0.003923,0.033201,1.572402,-0.070086,-0.004067,-0.005512,0.000742,-0.009878,-0.000061,0.000584,-0.007881,0.058167,-0.013487,0.204775,0.204752,0.160915,0.397053,0.000000,0.000000,0.000000,0.000000,0.000000,0.000000,0.000000,0.000000,0.000000,0.000000,0.000000,0.000000,0.056692,3,0
1380000,0.007557,35.668419,-0.055578,0.020826,26.012196,-0.034236,-0.003988,0.033356,1.572411,-0.070179,-0.004116,-0.005704,0.000758,-0.009906,-0.000062,0.000110,-0.007825,0.014736,0.020076,0.204945,0.204921,0.160558,0.394468,0.000000,0.000000,0.000000,0.000000,0.000000,0.000000,0.000000,0.000000,0.000000,0.000000,0.000000,0.000000,0.016118,3,0
1390000,0.007501,35.928326,-0.054525,0.020586,26.016022,-0.033110,-0.004041,0.033391,1.572411,-0.070130,-0.004164,-0.006200,0.000774,-0.009889,-0.000062,0.000464,-0.007768,-0.007381,0.052418,0.205116,0.205092,0.160202,0.391952,0.000000,0.000000,0.000000,0.000000,0.000000,0.000000,0.000000,0.000000,0.000000,0.000000,0.000000,0.000000,0.010343,3,0
1400000,0.007445,36.188229,-0.055162,0.020345,26.019814,-0.033919,-0.004093,0.033428,1.572414,-0.070075,-0.004213,-0.006091,0.000789,-0.009872,-0.000062,0.000043,-0.007709,-0.008904,-0.011375,0.205289,0.205264,0.159846,0.389504,0.000000,0.000000,0.000000,0.000000,0.000000,0.000000,0.000000,0.000000,0.000000,0.000000,0.000000,0.000000,0.011377,3,0
1410000,0.007387,36.448788,-0.054190,0.020065,26.024683,-0.032897,-0.004141,0.033556,1.572432,-0.070132,-0.004259,-0.006567,0.000805,-0.009888,-0.000062,0.000423,-0.007651,0.009460,0.049589,0.205464,0.205437,0.159492,0.387122,0.000000,0.000000,0.000000,0.000000,0.000000,0.000000,0.000000,0.000000,0.000000,0.000000,0.000000,0.000000,0.011755,3,0
1420000,0.007329,36.712051,-0.054372,0.019787,26.034479,-0.033369,-0.004194,0.034061,1.572435,-0.070673,-0.004306,-0.006639,0.000820,-0.010064,-0.000063,0.001228,-0.007590,0.086796,0.006313,0.205641,0.205613,0.159140,0.384807,0.000000,0.000000,0.000000,0.000000,0.000000,0.000000,0.000000,0.000000,0.000000,0.000000,0.000000,0.000000,0.084144,3,0
1430000,0.007268,36.971832,-0.053807,0.019357,26.037737,-0.032589,-0.004244,0.034048,1.572433,-0.070563,-0.004352,-0.006965,0.000836,-0.010026,-0.000063,0.000246,-0.007527,-0.017532,0.033965,0.205819,0.205790,0.158789,0.382554,0.000000,0.000000,0.000000,0.000000,0.000000,0.000000,0.000000,0.000000,0.000000,0.000000,0.000000,0.000000,0.018420,3,0
1440000,0.007205,37.230232,-0.052930,0.019011,26.038574,-0.031589,-0.004301,0.033828,1.572441,-0.070200,-0.004397,-0.007399,0.000852,-0.009903,-0.000062,0.000897,-0.007463,-0.058681,0.045343,0.206000,0.205970,0.158439,0.380365,0.000000,0.000000,0.000000,0.000000,0.000000,0.000000,0.000000,0.000000,0.000000,0.000000,0.000000,0.000000,0.057116,3,0
1450000,0.007142,37.493427,-0.053233,0.018683,26.047989,-0.032236,-0.004362,0.034317,1.572447,-0.070693,-0.004442,-0.007422,0.000867,-0.010070,-0.000063,0.001052,-0.007397,0.080490,0.001233,0.206182,0.206151,0.158092,0.378236,0.000000,0.000000,0.000000,0.000000,0.000000,0.000000,0.000000,0.000000,0.000000,0.000000,0.000000,0.000000,0.078052,3,0
1460000,0.007078,37.751766,-0.053446,0.018354,26.048479,-0.032657,-0.004418,0.034066,1.572459,-0.070306,-0.004487,-0.007452,0.000882,-0.009936,-0.000063,0.000661,-0.007330,-0.063526,0.003988,0.206367,0.206334,0.157747,0.376166,0.000000,0.000000,0.000000,0.000000,0.000000,0.000000,0.000000,0.000000,0.000000,0.000000,0.000000,0.000000,0.061747,3,0
1470000,0.007011,38.012154,-0.052374,0.018043,26.052706,-0.031527,-0.004480,0.034114,1.572465,-0.070281,-0.004529,-0.007979,0.000898,-0.009925,-0.000063,0.000475,-0.007263,-0.003807,0.053476,0.206553,0.206519,0.157404,0.374156,0.000000,0.000000,0.000000,0.000000,0.000000,0.000000,0.000000,0.000000,0.000000,0.000000,0.000000,0.000000,0.007912,3,0
1480000,0.006944,38.270462,-0.051493,0.017766,26.052990,-0.030622,-0.004542,0.033842,1.572480,-0.069885,-0.004571,-0.008420,0.000914,-0.009782,-0.000062,0.001033,-0.007193,-0.065449,0.045478,0.206741,0.206706,0.157063,0.372201,0.000000,0.000000,0.000000,0.000000,0.000000,0.000000,0.000000,0.000000,0.000000,0.000000,0.000000,0.000000,0.063567,3,0
1490000,0.006877,38.532894,-0.051634,0.017486,26.060844,-0.030920,-0.004607,0.034213,1.572484,-0.070208,-0.004614,-0.008497,0.000929,-0.009899,-0.000063,0.000484,-0.007123,0.053940,0.006875,0.206931,0.206895,0.156725,0.370302,0.000000,0.000000,0.000000,0.000000,0.000000,0.000000,0.000000,0.000000,0.000000,0.000000,0.000000,0.000000,0.052534,3,0
1500000,0.006809,38.794579,-0.051556,0.017105,26.067116,-0.031035,-0.004657,0.034458,1.572490,-0.070386,-0.004655,-0.008654,0.000945,-0.009963,-0.000064,0.000191,-0.007053,0.029976,0.015290,0.207123,0.207086,0.156389,0.368457,0.000000,0.000000,0.000000,0.000000,0.000000,0.000000,0.000000,0.000000,0.000000,0.000000,0.000000,0.000000,0.029736,3,0
1510000,0.006740,39.057594,-0.052495,0.016706,26.075819,-0.032535,-0.004714,0.034893,1.572497,-0.070779,-0.004696,-0.008430,0.000960,-0.010110,-0.000065,0.000806,-0.006980,0.066414,-0.023393,0.207317,0.207279,0.156057,0.366665,0.000000,0.000000,0.000000,0.000000,0.000000,0.000000,0.000000,0.000000,0.000000,0.000000,0.000000,0.000000,0.064467,3,0
1520000,0.006670,39.315041,-0.053685,0.016372,26.074274,-0.034156,-0.004775,0.034458,1.572492,-0.070209,-0.004739,-0.008072,0.000975,-0.009897,-0.000064,0.001717,-0.006908,-0.097298,-0.033861,0.207513,0.207473,0.155727,0.364925,0.000000,0.000000,0.000000,0.000000,0.000000,0.000000,0.000000,0.000000,0.000000,0.000000,0.000000,0.000000,0.094177,3,0
1530000,0.006596,39.574551,-0.052868,0.015931,26.076370,-0.033389,-0.004845,0.034342,1.572489,-0.069994,-0.004777,-0.008519,0.000991,-0.009812,-0.000063,0.000548,-0.006834,-0.036663,0.044679,0.207710,0.207669,0.155400,0.363234,0.000000,0.000000,0.000000,0.000000,0.000000,0.000000,0.000000,0.000000,0.000000,0.000000,0.000000,0.000000,0.035995,3,0
1540000,0.006519,39.835419,-0.051883,0.015487,26.080984,-0.032333,-0.004913,0.034430,1.572490,-0.070004,-0.004815,-0.009041,0.001006,-0.009814,-0.000063,0.000435,-0.006755,0.001987,0.051271,0.207909,0.207867,0.155076,0.361592,0.000000,0.000000,0.000000,0.000000,0.000000,0.000000,0.000000,0.000000,0.000000,0.000000,0.000000,0.000000,0.006799,3,0
1550000,0.006441,40.097626,-0.051337,0.015087,26.087816,-0.031879,-0.004967,0.034728,1.572490,-0.070228,-0.004851,-0.009398,0.001022,-0.009900,-0.000064,0.000445,-0.006674,0.039261,0.034226,0.208110,0.208066,0.154755,0.359997,0.000000,0.000000,0.000000,0.000000,0.000000,0.000000,0.000000,0.000000,0.000000,0.000000,0.000000,0.000000,0.038450,3,0
1560000,0.006366,40.360474,-0.052478,0.014789,26.095810,-0.033259,-0.005029,0.035111,1.572508,-0.070544,-0.004890,-0.009087,0.001036,-0.010028,-0.000065,0.000658,-0.006594,0.055290,-0.031308,0.208312,0.208267,0.154438,0.358448,0.000000,0.000000,0.000000,0.000000,0.000000,0.000000,0.000000,0.000000,0.000000,0.000000,0.000000,0.000000,0.053742,3,0
1570000,0.006285,40.618393,-0.051542,0.014365,26.094669,-0.031961,-0.005080,0.034688,1.572520,-0.070044,-0.004925,-0.009573,0.001052,-0.009822,-0.000064,0.001648,-0.006513,-0.088364,0.048686,0.208515,0.208469,0.154124,0.356945,0.000000,0.000000,0.000000,0.000000,0.000000,0.000000,0.000000,0.000000,0.000000,0.000000,0.000000,0.000000,0.085513,3,0
1580000,0.006205,40.876324,-0.051362,0.013982,26.093569,-0.031866,-0.005134,0.034274,1.572533,-0.069551,-0.004961,-0.009752,0.001067,-0.009618,-0.000063,0.001306,-0.006429,-0.087849,0.018894,0.208720,0.208673,0.153813,0.355486,0.000000,0.000000,0.000000,0.000000,0.000000,0.000000,0.000000,0.000000,0.000000,0.000000,0.000000,0.000000,0.085016,3,0
1590000,0.006124,41.134945,-0.050816,0.013667,26.093660,-0.031067,-0.005188,0.033976,1.572537,-0.069175,-0.004996,-0.010085,0.001082,-0.009458,-0.000062,0.000918,-0.006346,-0.067459,0.033287,0.208926,0.208878,0.153506,0.354068,0.000000,0.000000,0.000000,0.000000,0.000000,0.000000,0.000000,0.000000,0.000000,0.000000,0.000000,0.000000,0.065389,3,0
1600000,0.006041,41.397724,-0.050965,0.013207,26.101439,-0.031543,-0.005253,0.034345,1.572552,-0.069459,-0.005030,-0.010169,0.001097,-0.009579,-0.000063,0.000443,-0.006260,0.051613,0.007080,0.209134,0.209084,0.153202,0.352693,0.000000,0.000000,0.000000,0.000000,0.000000,0.000000,0.000000,0.000000,0.000000,0.000000,0.000000,0.000000,0.050181,3,0
1610000,0.005957,41.655571,-0.050814,0.012789,26.099901,-0.031348,-0.005306,0.033890,1.572550,-0.068957,-0.005063,-0.010335,0.001112,-0.009361,-0.000062,0.001417,-0.006173,-0.091969,0.017570,0.209342,0.209291,0.152902,0.351356,0.000000,0.000000,0.000000,0.000000,0.000000,0.000000,0.000000,0.000000,0.000000,0.000000,0.000000,0.000000,0.088956,3,0
1620000,0.005873,41.917599,-0.052021,0.012343,26.106117,-0.032946,-0.005356,0.034133,1.572557,-0.069108,-0.005097,-0.009976,0.001126,-0.009430,-0.000063,0.000326,-0.006085,0.027897,-0.034664,0.209552,0.209499,0.152606,0.350059,0.000000,0.000000,0.000000,0.000000,0.000000,0.000000,0.000000,0.000000,0.000000,0.000000,0.000000,0.000000,0.027546,3,0
1630000,0.005789,42.177475,-0.053287,0.012039,26.108358,-0.034401,-0.005407,0.034012,1.572560,-0.068920,-0.005131,-0.009576,0.001140,-0.009348,-0.000063,0.000431,-0.005998,-0.035400,-0.037105,0.209762,0.209707,0.152313,0.348801,0.000000,0.000000,0.000000,0.000000,0.000000,0.000000,0.000000,0.000000,0.000000,0.000000,0.000000,0.000000,0.034659,3,0
1640000,0.005705,42.437325,-0.054630,0.011742,26.110516,-0.036027,-0.005469,0.033877,1.572564,-0.068725,-0.005164,-0.009147,0.001154,-0.009262,-0.000062,0.000480,-0.005910,-0.036873,-0.039665,0.209972,0.209916,0.152024,0.347579,0.000000,0.000000,0.000000,0.000000,0.000000,0.000000,0.000000,0.000000,0.000000,0.000000,0.000000,0.000000,0.036049,3,0
1650000,0.005617,42.698513,-0.053909,0.011399,26.114939,-0.035201,-0.005519,0.033949,1.572579,-0.068732,-0.005193,-0.009605,0.001168,-0.009263,-0.000062,0.000306,-0.005823,0.001438,0.042967,0.210183,0.210126,0.151739,0.346392,0.000000,0.000000,0.000000,0.000000,0.000000,0.000000,0.000000,0.000000,0.000000,0.000000,0.000000,0.000000,0.005789,3,0
1660000,0.005530,42.961044,-0.053761,0.011042,26.121811,-0.035036,-0.005572,0.034255,1.572585,-0.068931,-0.005222,-0.009832,0.001182,-0.009354,-0.000063,0.000310,-0.005731,0.038391,0.020369,0.210395,0.210336,0.151458,0.345240,0.000000,0.000000,0.000000,0.000000,0.000000,0.000000,0.000000,0.000000,0.000000,0.000000,0.000000,0.000000,0.037463,3,0
1670000,0.005441,43.219311,-0.053053,0.010709,26.120609,-0.034127,-0.005634,0.033832,1.572600,-0.068493,-0.005250,-0.010255,0.001196,-0.009143,-0.000062,0.001444,-0.005640,-0.085056,0.041222,0.210607,0.210546,0.151181,0.344121,0.000000,0.000000,0.000000,0.000000,0.000000,0.000000,0.000000,0.000000,0.000000,0.000000,0.000000,0.000000,0.082242,3,0
1680000,0.005353,43.481079,-0.054168,0.010259,26.125978,-0.035623,-0.005688,0.033999,1.572605,-0.068567,-0.005279,-0.009931,0.001210,-0.009181,-0.000063,0.000189,-0.005547,0.014507,-0.030380,0.210818,0.210757,0.150907,0.343034,0.000000,0.000000,0.000000,0.000000,0.000000,0.000000,0.000000,0.000000,0.000000,0.000000,0.000000,0.000000,0.014978,3,0
1690000,0.005262,43.740669,-0.053981,0.009778,26.127174,-0.035487,-0.005750,0.033784,1.572610,-0.068323,-0.005306,-0.010150,0.001224,-0.009060,-0.000062,0.000457,-0.005455,-0.048527,0.021300,0.211030,0.210967,0.150638,0.341979,0.000000,0.000000,0.000000,0.000000,0.000000,0.000000,0.000000,0.000000,0.000000,0.000000,0.000000,0.000000,0.047109,3,0
1700000,0.005172,44.000938,-0.054797,0.009385,26.129576,-0.036660,-0.005803,0.033685,1.572614,-0.068174,-0.005334,-0.009942,0.001237,-0.008988,-0.000062,0.000203,-0.005360,-0.029819,-0.018513,0.211241,0.211177,0.150372,0.340954,0.000000,0.000000,0.000000,0.000000,0.000000,0.000000,0.000000,0.000000,0.000000,0.000000,0.000000,0.000000,0.029235,3,0
1710000,0.005078,44.261147,-0.053987,0.009013,26.131737,-0.035814,-0.005867,0.033562,1.572624,-0.068018,-0.005358,-0.010445,0.001250,-0.008905,-0.000062,0.000523,-0.005265,-0.031689,0.046885,0.211452,0.211386,0.150111,0.339957,0.000000,0.000000,0.000000,0.000000,0.000000,0.000000,0.000000,0.000000,0.000000,0.000000,0.000000,0.000000,0.030979,3,0
