time_us,pos_x,pos_y,pos_z,vel_x,vel_y,vel_z,roll,pitch,yaw,bias_ax,bias_ay,bias_az,bias_gx,bias_gy,bias_gz,nis,innov_x,innov_y,innov_z,cov_pos_x,cov_pos_y,cov_pos_z,cov_yaw,des_speed,des_heading,des_climb,pid_speed,pid_yaw,pid_alt,speed_meas,yaw_meas,climb_meas,fwd_accel,yaw_rate,vert_accel,drift_m,nav_mode,mission_state
0,0.000001,0.149999,0.000001,0.000119,24.999893,0.000295,-0.000007,0.000004,1.570780,0.000000,0.000000,0.000000,0.000000,0.000000,0.000000,0.006250,-0.000001,-0.250001,-0.000003,2.400038,2.400038,3.600017,1.000518,0.000000,0.000000,0.000000,0.000000,0.000000,0.000000,0.000000,0.000000,0.000000,0.000000,0.000000,0.000000,0.149999,1,0
10000,0.000002,0.325466,-0.010385,0.000234,24.999485,0.000817,-0.000018,-0.000001,1.570776,0.000001,0.000000,0.000000,0.000000,0.000000,0.000000,0.008180,-0.000003,-0.260847,-0.027718,1.714420,1.714420,2.250079,1.001073,0.000000,0.000000,0.000000,0.000000,0.000000,0.000000,0.000000,0.000000,0.000000,0.000000,0.000000,0.000000,0.186313,3,0
20000,0.000004,0.562435,-0.004607,0.000289,24.999537,0.001146,-0.000019,-0.000001,1.570767,0.000001,-0.000000,-0.000000,0.000000,0.000000,0.000000,0.000499,-0.000005,-0.058611,0.021141,1.333616,1.333616,1.636554,1.001655,0.000000,0.000000,0.000000,0.000000,0.000000,0.000000,0.000000,0.000000,0.000000,0.000000,0.000000,0.000000,0.045583,3,0
30000,0.000006,0.798442,-0.009125,0.000385,24.999449,0.001420,-0.000015,0.000003,1.570759,0.000003,-0.000000,0.000000,-0.000000,0.000000,0.000000,0.000865,-0.000008,-0.076913,-0.021145,1.091392,1.091392,1.286065,1.002257,0.000000,0.000000,0.000000,0.000000,0.000000,0.000000,0.000000,0.000000,0.000000,0.000000,0.000000,0.000000,0.062922,3,0
40000,0.000009,1.027806,-0.015467,0.000427,24.999037,0.001769,-0.000015,0.000003,1.570747,0.000006,-0.000000,0.000001,-0.000000,0.000000,0.000000,0.002710,-0.000011,-0.134008,-0.036030,0.923811,0.923811,1.059385,1.002869,0.000000,0.000000,0.000000,0.000000,0.000000,0.000000,0.000000,0.000000,0.000000,0.000000,0.000000,0.000000,0.113375,3,0
50000,0.000011,1.279712,-0.021367,0.000426,24.999346,0.001956,-0.000027,0.000014,1.570736,0.000006,-0.000000,0.000003,-0.000000,0.000000,0.000000,0.000250,-0.000013,0.014331,-0.039439,0.801036,0.801036,0.900822,1.003484,0.000000,0.000000,0.000000,0.000000,0.000000,0.000000,0.000000,0.000000,0.000000,0.000000,0.000000,0.000000,0.012418,3,0
60000,0.000014,1.520447,-0.024125,0.000486,24.998974,0.002265,-0.000022,0.000021,1.570719,0.000011,-0.000000,0.000004,-0.000000,0.000000,0.000000,0.000973,-0.000016,-0.078545,-0.021296,0.707270,0.707270,0.783741,1.004094,0.000000,0.000000,0.000000,0.000000,0.000000,0.000000,0.000000,0.000000,0.000000,0.000000,0.000000,0.000000,0.069287,3,0
70000,0.000018,1.757720,-0.021261,0.000619,24.998238,0.002790,-0.000033,0.000031,1.570709,0.000020,-0.000000,0.000002,0.000000,0.000000,0.000000,0.002253,-0.000021,-0.120488,0.024538,0.633370,0.633370,0.693801,1.004688,0.000000,0.000000,0.000000,0.000000,0.000000,0.000000,0.000000,0.000000,0.000000,0.000000,0.000000,0.000000,0.107769,3,0
80000,0.000022,2.000107,-0.020497,0.000623,24.997747,0.003077,-0.000037,0.000025,1.570692,0.000028,-0.000000,0.000001,0.000000,0.000000,0.000000,0.000959,-0.000025,-0.079448,0.007071,0.573673,0.573673,0.622594,1.005260,0.000000,0.000000,0.000000,0.000000,0.000000,0.000000,0.000000,0.000000,0.000000,0.000000,0.000000,0.000000,0.071852,3,0
90000,0.000026,2.253232,-0.019820,0.000642,24.998238,0.003707,-0.000044,0.000033,1.570689,0.000024,-0.000000,0.000001,0.000000,0.000000,0.000000,0.000204,-0.000029,0.035989,0.006809,0.524488,0.524488,0.564865,1.005801,0.000000,0.000000,0.000000,0.000000,0.000000,0.000000,0.000000,0.000000,0.000000,0.000000,0.000000,0.000000,0.032843,3,0
100000,0.000030,2.503339,-0.024247,0.000689,24.998360,0.003788,-0.000051,0.000041,1.570676,0.000024,-0.000000,0.000008,0.000000,0.000000,0.000000,0.000410,-0.000033,0.001528,-0.051854,0.483303,0.483303,0.517162,1.006301,0.000000,0.000000,0.000000,0.000000,0.000000,0.000000,0.000000,0.000000,0.000000,0.000000,0.000000,0.000000,0.001405,3,0
110000,0.000035,2.748117,-0.024807,0.000731,24.997751,0.003997,-0.000055,0.000047,1.570658,0.000036,-0.000000,0.000010,0.000000,0.000000,0.000000,0.000757,-0.000038,-0.069670,-0.007558,0.448354,0.448354,0.477121,1.006754,0.000000,0.000000,0.000000,0.000000,0.000000,0.000000,0.000000,0.000000,0.000000,0.000000,0.000000,0.000000,0.064464,3,0
120000,0.000040,3.001121,-0.025749,0.000799,24.998343,0.004317,-0.000057,0.000049,1.570653,0.000027,-0.000000,0.000013,0.000000,0.000000,0.000000,0.000319,-0.000043,0.043378,-0.013354,0.418359,0.418359,0.443071,1.007150,0.000000,0.000000,0.000000,0.000000,0.000000,0.000000,0.000000,0.000000,0.000000,0.000000,0.000000,0.000000,0.040354,3,0
130000,0.000046,3.247797,-0.022810,0.000929,24.997904,0.005384,-0.000066,0.000042,1.570636,0.000040,-0.000000,0.000002,0.000000,0.000000,0.000000,0.000671,-0.000049,-0.050600,0.041898,0.392369,0.392369,0.413797,1.007481,0.000000,0.000000,0.000000,0.000000,0.000000,0.000000,0.000000,0.000000,0.000000,0.000000,0.000000,0.000000,0.047291,3,0
140000,0.000053,3.496610,-0.022710,0.001074,24.997906,0.005767,-0.000065,0.000055,1.570625,0.000045,-0.000000,0.000002,0.000000,0.000001,0.000000,0.000056,-0.000057,-0.018968,0.000661,0.369667,0.369667,0.388393,1.007739,0.000000,0.000000,0.000000,0.000000,0.000000,0.000000,0.000000,0.000000,0.000000,0.000000,0.000000,0.000000,0.017799,3,0
150000,0.000062,3.744887,-0.024004,0.001240,24.997719,0.005782,-0.000071,0.000060,1.570619,0.000055,-0.000000,0.000009,0.000000,0.000001,0.000000,0.000211,-0.000066,-0.029233,-0.022211,0.349696,0.349696,0.366172,1.007915,0.000000,0.000000,0.000000,0.000000,0.000000,0.000000,0.000000,0.000000,0.000000,0.000000,0.000000,0.000000,0.027530,3,0
160000,0.000072,4.001511,-0.025847,0.001402,24.999704,0.005812,-0.000080,0.000085,1.570602,0.000010,-0.000000,0.000022,0.000000,-0.000000,-0.000000,0.002441,-0.000076,0.120070,-0.032988,0.332021,0.332021,0.346600,1.008002,0.000000,0.000000,0.000000,0.000000,0.000000,0.000000,0.000000,0.000000,0.000000,0.000000,0.000000,0.000000,0.113425,3,0
170000,0.000082,4.254789,-0.027332,0.001533,25.000834,0.005672,-0.000076,0.000092,1.570588,-0.000017,-0.000000,0.000033,0.000000,-0.000001,-0.000000,0.000736,-0.000087,0.062215,-0.028161,0.316298,0.316298,0.329260,1.007991,0.000000,0.000000,0.000000,0.000000,0.000000,0.000000,0.000000,0.000000,0.000000,0.000000,0.000000,0.000000,0.058936,3,0
180000,0.000093,4.510195,-0.028202,0.001545,25.002810,0.005832,-0.000087,0.000104,1.570567,-0.000068,-0.000000,0.000042,0.000000,-0.000002,-0.000000,0.001866,-0.000098,0.107110,-0.017804,0.302247,0.302247,0.313817,1.007875,0.000000,0.000000,0.000000,0.000000,0.000000,0.000000,0.000000,0.000000,0.000000,0.000000,0.000000,0.000000,0.101714,3,0
190000,0.000103,4.759783,-0.026072,0.001560,25.002884,0.007114,-0.000082,0.000100,1.570555,-0.000063,-0.000000,0.000020,0.000000,-0.000002,-0.000000,0.000284,-0.000109,-0.009164,0.041313,0.289642,0.289642,0.300003,1.007645,0.000000,0.000000,0.000000,0.000000,0.000000,0.000000,0.000000,0.000000,0.000000,0.000000,0.000000,0.000000,0.008722,3,0
200000,0.000114,5.017175,-0.027365,0.001607,25.006016,0.007236,-0.000083,0.000138,1.570535,-0.000156,-0.000000,0.000037,0.000000,-0.000005,-0.000000,0.004133,-0.000119,0.158704,-0.028598,0.278297,0.278297,0.287598,1.007295,0.000000,0.000000,0.000000,0.000000,0.000000,0.000000,0.000000,0.000000,0.000000,0.000000,0.000000,0.000000,0.151343,3,0
210000,0.000125,5.270819,-0.026242,0.001685,25.007702,0.008264,-0.000096,0.000165,1.570516,-0.000207,-0.000000,0.000022,0.000000,-0.000006,-0.000000,0.001106,-0.000131,0.080192,0.022682,0.268056,0.268056,0.276421,1.006816,0.000000,0.000000,0.000000,0.000000,0.000000,0.000000,0.000000,0.000000,0.000000,0.000000,0.000000,0.000000,0.076609,3,0
220000,0.000137,5.527992,-0.027103,0.001789,25.011215,0.008358,-0.000089,0.000210,1.570511,-0.000322,-0.000001,0.000037,0.000000,-0.000010,-0.000000,0.004387,-0.000143,0.164472,-0.021373,0.258789,0.258789,0.266321,1.006202,0.000000,0.000000,0.000000,0.000000,0.000000,0.000000,0.000000,0.000000,0.000000,0.000000,0.000000,0.000000,0.157378,3,0
230000,0.000149,5.781702,-0.027821,0.001857,25.013140,0.008613,-0.000092,0.000228,1.570496,-0.000388,-0.000001,0.000051,0.000000,-0.000012,-0.000000,0.001243,-0.000155,0.086174,-0.018843,0.250388,0.250388,0.257172,1.005446,0.000000,0.000000,0.000000,0.000000,0.000000,0.000000,0.000000,0.000000,0.000000,0.000000,0.000000,0.000000,0.082578,3,0
240000,0.000162,6.033903,-0.027679,0.002015,25.014399,0.008962,-0.000087,0.000238,1.570492,-0.000430,-0.000001,0.000050,0.000000,-0.000013,-0.000000,0.000418,-0.000169,0.051113,0.001256,0.242759,0.242759,0.248866,1.004541,0.000000,0.000000,0.000000,0.000000,0.000000,0.000000,0.000000,0.000000,0.000000,0.000000,0.000000,0.000000,0.049045,3,0
250000,0.000176,6.290209,-0.028932,0.002131,25.018158,0.008486,-0.000098,0.000280,1.570473,-0.000569,-0.000001,0.000080,0.000000,-0.000018,-0.000000,0.004111,-0.000184,0.156719,-0.033420,0.235822,0.235822,0.241314,1.003481,0.000000,0.000000,0.000000,0.000000,0.000000,0.000000,0.000000,0.000000,0.000000,0.000000,0.000000,0.000000,0.150560,3,0
260000,0.000190,6.545706,-0.027352,0.002157,25.021570,0.009615,-0.000099,0.000336,1.570456,-0.000703,-0.000001,0.000043,0.000000,-0.000023,-0.000000,0.003327,-0.000198,0.138924,0.038177,0.229509,0.229509,0.234436,1.002258,0.000000,0.000000,0.000000,0.000000,0.000000,0.000000,0.000000,0.000000,0.000000,0.000000,0.000000,0.000000,0.133610,3,0
270000,0.000205,6.801213,-0.026915,0.002268,25.025192,0.010112,-0.000099,0.000382,1.570454,-0.000849,-0.000001,0.000034,0.000000,-0.000029,-0.000000,0.003240,-0.000213,0.141818,0.008903,0.223760,0.223760,0.228165,1.000869,0.000000,0.000000,0.000000,0.000000,0.000000,0.000000,0.000000,0.000000,0.000000,0.000000,0.000000,0.000000,0.136529,3,0
280000,0.000221,7.053116,-0.026496,0.002416,25.026457,0.010840,-0.000097,0.000398,1.570442,-0.000899,-0.000002,0.000025,0.000000,-0.000031,-0.000000,0.000341,-0.000229,0.045307,0.008410,0.218522,0.218522,0.222443,0.999307,0.000000,0.000000,0.000000,0.000000,0.000000,0.000000,0.000000,0.000000,0.000000,0.000000,0.000000,0.000000,0.043657,3,0
290000,0.000237,7.308770,-0.025099,0.002511,25.030558,0.012231,-0.000109,0.000460,1.570442,-0.001077,-0.000002,-0.000016,0.000000,-0.000038,-0.000000,0.003877,-0.000246,0.151210,0.035462,0.213751,0.213751,0.217219,0.997567,0.000000,0.000000,0.000000,0.000000,0.000000,0.000000,0.000000,0.000000,0.000000,0.000000,0.000000,0.000000,0.145824,3,0
300000,0.000254,7.562368,-0.024397,0.002571,25.033216,0.012940,-0.000107,0.000504,1.570431,-0.001196,-0.000002,-0.000037,0.000000,-0.000043,-0.000000,0.001473,-0.000263,0.094306,0.016283,0.209407,0.209407,0.212446,0.995645,0.000000,0.000000,0.000000,0.000000,0.000000,0.000000,0.000000,0.000000,0.000000,0.000000,0.000000,0.000000,0.091015,3,0
310000,0.000271,7.814735,-0.026071,0.002694,25.035131,0.012173,-0.000114,0.000534,1.570430,-0.001275,-0.000003,0.000032,0.000000,-0.000047,-0.000000,0.001005,-0.000281,0.059348,-0.052175,0.205453,0.205453,0.208087,0.993536,0.000000,0.000000,0.000000,0.000000,0.000000,0.000000,0.000000,0.000000,0.000000,0.000000,0.000000,0.000000,0.057316,3,0
320000,0.000289,8.069295,-0.026665,0.002793,25.038858,0.011991,-0.000119,0.000589,1.570411,-0.001452,-0.000003,0.000062,0.000000,-0.000055,-0.000000,0.002590,-0.000299,0.125025,-0.021149,0.201858,0.201858,0.204105,0.991236,0.000000,0.000000,0.000000,0.000000,0.000000,0.000000,0.000000,0.000000,0.000000,0.000000,0.000000,0.000000,0.120818,3,0
330000,0.000308,8.323951,-0.028226,0.002873,25.042879,0.011021,-0.000123,0.000664,1.570398,-0.001645,-0.000004,0.000137,0.000000,-0.000064,-0.000000,0.003085,-0.000318,0.128853,-0.050408,0.198594,0.198594,0.200469,0.988743,0.000000,0.000000,0.000000,0.000000,0.000000,0.000000,0.000000,0.000000,0.000000,0.000000,0.000000,0.000000,0.124588,3,0
340000,0.000327,8.579353,-0.027361,0.002992,25.047691,0.012110,-0.000135,0.000743,1.570384,-0.001886,-0.000004,0.000101,0.000000,-0.000076,-0.000000,0.003832,-0.000338,0.152463,0.022834,0.195635,0.195635,0.197151,0.986053,0.000000,0.000000,0.000000,0.000000,0.000000,0.000000,0.000000,0.000000,0.000000,0.000000,0.000000,0.000000,0.147492,3,0
350000,0.000345,8.832274,-0.026797,0.003014,25.050303,0.012749,-0.000133,0.000794,1.570368,-0.002013,-0.000005,0.000079,0.000000,-0.000082,-0.000000,0.000960,-0.000357,0.075922,0.013592,0.192959,0.192959,0.194125,0.983163,0.000000,0.000000,0.000000,0.000000,0.000000,0.000000,0.000000,0.000000,0.000000,0.000000,0.000000,0.000000,0.073481,3,0
360000,0.000364,9.087260,-0.027139,0.003030,25.055101,0.012670,-0.000133,0.000888,1.570362,-0.002260,-0.000006,0.000104,0.000000,-0.000095,-0.000000,0.003245,-0.000376,0.141037,-0.014815,0.190544,0.190544,0.191370,0.980072,0.000000,0.000000,0.000000,0.000000,0.000000,0.000000,0.000000,0.000000,0.000000,0.000000,0.000000,0.000000,0.136558,3,0
370000,0.000382,9.344844,-0.026268,0.003023,25.062630,0.013948,-0.000143,0.001025,1.570356,-0.002673,-0.000006,0.000061,0.000000,-0.000118,-0.000000,0.008185,-0.000394,0.223946,0.023464,0.188371,0.188371,0.188863,0.976778,0.000000,0.000000,0.000000,0.000000,0.000000,0.000000,0.000000,0.000000,0.000000,0.000000,0.000000,0.000000,0.216915,3,0
380000,0.000400,9.599366,-0.025798,0.003035,25.067038,0.014882,-0.000156,0.001113,1.570355,-0.002916,-0.000007,0.000041,0.000000,-0.000131,-0.000000,0.002554,-0.000412,0.125319,0.010432,0.186424,0.186424,0.186586,0.973281,0.000000,0.000000,0.000000,0.000000,0.000000,0.000000,0.000000,0.000000,0.000000,0.000000,0.000000,0.000000,0.121425,3,0
390000,0.000418,9.856463,-0.024909,0.003155,25.074457,0.016109,-0.000167,0.001248,1.570350,-0.003338,-0.000008,-0.000007,0.000000,-0.000155,-0.000000,0.007128,-0.000431,0.208693,0.023922,0.184687,0.184687,0.184522,0.969579,0.000000,0.000000,0.000000,0.000000,0.000000,0.000000,0.000000,0.000000,0.000000,0.000000,0.000000,0.000000,0.202269,3,0
400000,0.000436,10.114226,-0.026042,0.003135,25.082808,0.015095,-0.000162,0.001424,1.570349,-0.003824,-0.000009,0.000083,0.000000,-0.000183,-0.000000,0.008828,-0.000449,0.229825,-0.042640,0.183145,0.183145,0.182656,0.965674,0.000000,0.000000,0.000000,0.000000,0.000000,0.000000,0.000000,0.000000,0.000000,0.000000,0.000000,0.000000,0.222810,3,0
410000,0.000453,10.371435,-0.027504,0.003101,25.090601,0.013675,-0.000164,0.001595,1.570345,-0.004290,-0.000010,0.000201,0.000000,-0.000211,-0.000000,0.007627,-0.000467,0.210526,-0.053575,0.181784,0.181784,0.180971,0.961565,0.000000,0.000000,0.000000,0.000000,0.000000,0.000000,0.000000,0.000000,0.000000,0.000000,0.000000,0.000000,0.204149,3,0
420000,0.000469,10.628716,-0.027960,0.003073,25.098701,0.013416,-0.000175,0.001757,1.570333,-0.004777,-0.000012,0.000247,0.000001,-0.000241,-0.000000,0.007307,-0.000484,0.211664,-0.019950,0.180592,0.180592,0.179456,0.957254,0.000000,0.000000,0.000000,0.000000,0.000000,0.000000,0.000000,0.000000,0.000000,0.000000,0.000000,0.000000,0.205294,3,0
430000,0.000486,10.886073,-0.028678,0.003159,25.107082,0.012948,-0.000169,0.001928,1.570324,-0.005288,-0.000013,0.000316,0.000001,-0.000274,-0.000000,0.007451,-0.000501,0.212728,-0.028881,0.179557,0.179557,0.178097,0.952742,0.000000,0.000000,0.000000,0.000000,0.000000,0.000000,0.000000,0.000000,0.000000,0.000000,0.000000,0.000000,0.206362,3,0
440000,0.000504,11.144104,-0.029801,0.003280,25.116402,0.011773,-0.000170,0.002132,1.570323,-0.005870,-0.000014,0.000422,0.000001,-0.000311,-0.000000,0.009116,-0.000519,0.233592,-0.042562,0.178670,0.178670,0.176883,0.948031,0.000000,0.000000,0.000000,0.000000,0.000000,0.000000,0.000000,0.000000,0.000000,0.000000,0.000000,0.000000,0.226636,3,0
450000,0.000521,11.399851,-0.029000,0.003282,25.122932,0.013097,-0.000177,0.002278,1.570309,-0.006270,-0.000016,0.000362,0.000001,-0.000338,-0.000000,0.003941,-0.000537,0.154377,0.023143,0.177918,0.177918,0.175803,0.943125,0.000000,0.000000,0.000000,0.000000,0.000000,0.000000,0.000000,0.000000,0.000000,0.000000,0.000000,0.000000,0.149800,3,0
460000,0.000537,11.658073,-0.029276,0.003255,25.132788,0.012850,-0.000189,0.002504,1.570297,-0.006905,-0.000017,0.000399,0.000001,-0.000381,-0.000000,0.009079,-0.000553,0.236506,-0.014028,0.177294,0.177294,0.174847,0.938026,0.000000,0.000000,0.000000,0.000000,0.000000,0.000000,0.000000,0.000000,0.000000,0.000000,0.000000,0.000000,0.229519,3,0
470000,0.000553,11.912277,-0.028800,0.003247,25.137119,0.013812,-0.000191,0.002596,1.570279,-0.007177,-0.000019,0.000366,0.000001,-0.000400,-0.000000,0.001559,-0.000570,0.097460,0.011770,0.176788,0.176788,0.174006,0.932738,0.000000,0.000000,0.000000,0.000000,0.000000,0.000000,0.000000,0.000000,0.000000,0.000000,0.000000,0.000000,0.094590,3,0
480000,0.000570,12.166641,-0.028608,0.003376,25.141796,0.014116,-0.000200,0.002698,1.570267,-0.007469,-0.000021,0.000361,0.000001,-0.000421,-0.000000,0.001672,-0.000587,0.101638,0.001815,0.176392,0.176392,0.173271,0.927264,0.000000,0.000000,0.000000,0.000000,0.000000,0.000000,0.000000,0.000000,0.000000,0.000000,0.000000,0.000000,0.098652,3,0
490000,0.000586,12.422333,-0.029521,0.003424,25.148439,0.013320,-0.000195,0.002860,1.570254,-0.007902,-0.000023,0.000471,0.000001,-0.000453,-0.000000,0.003640,-0.000604,0.145410,-0.036852,0.176098,0.176098,0.172634,0.921611,0.000000,0.000000,0.000000,0.000000,0.000000,0.000000,0.000000,0.000000,0.000000,0.000000,0.000000,0.000000,0.141143,3,0
500000,0.000602,12.680494,-0.030295,0.003377,25.158619,0.012353,-0.000195,0.003116,1.570235,-0.008602,-0.000025,0.000569,0.000001,-0.000505,-0.000000,0.008543,-0.000621,0.227594,-0.031686,0.175899,0.175899,0.172087,0.915782,0.000000,0.000000,0.000000,0.000000,0.000000,0.000000,0.000000,0.000000,0.000000,0.000000,0.000000,0.000000,0.220923,3,0
510000,0.000619,12.937013,-0.031299,0.003488,25.166496,0.011139,-0.000200,0.003311,1.570234,-0.009135,-0.000027,0.000695,0.000002,-0.000545,-0.000000,0.004825,-0.000637,0.168118,-0.039505,0.175787,0.175787,0.171622,0.909782,0.000000,0.000000,0.000000,0.000000,0.000000,0.000000,0.000000,0.000000,0.000000,0.000000,0.000000,0.000000,0.163194,3,0
520000,0.000636,13.192497,-0.031494,0.003597,25.172737,0.011005,-0.000201,0.003462,1.570215,-0.009561,-0.000029,0.000730,0.000002,-0.000578,-0.000001,0.002761,-0.000655,0.130191,-0.010823,0.175755,0.175755,0.171234,0.903619,0.000000,0.000000,0.000000,0.000000,0.000000,0.000000,0.000000,0.000000,0.000000,0.000000,0.000000,0.000000,0.126379,3,0
530000,0.000653,13.451625,-0.030721,0.003658,25.184519,0.012473,-0.000199,0.003764,1.570205,-0.010410,-0.000032,0.000651,0.000002,-0.000646,-0.000001,0.010388,-0.000673,0.252343,0.023088,0.175799,0.175799,0.170914,0.897296,0.000000,0.000000,0.000000,0.000000,0.000000,0.000000,0.000000,0.000000,0.000000,0.000000,0.000000,0.000000,0.244950,3,0
540000,0.000669,13.709102,-0.031359,0.003633,25.193758,0.012022,-0.000208,0.004012,1.570196,-0.011074,-0.000034,0.000746,0.000002,-0.000700,-0.000001,0.006075,-0.000690,0.191887,-0.027041,0.175910,0.175910,0.170658,0.890823,0.000000,0.000000,0.000000,0.000000,0.000000,0.000000,0.000000,0.000000,0.000000,0.000000,0.000000,0.000000,0.186262,3,0
550000,0.000686,13.963786,-0.031952,0.003716,25.198713,0.011351,-0.000221,0.004142,1.570192,-0.011406,-0.000037,0.000836,0.000002,-0.000728,-0.000001,0.001512,-0.000707,0.093348,-0.025180,0.176085,0.176085,0.170460,0.884204,0.000000,0.000000,0.000000,0.000000,0.000000,0.000000,0.000000,0.000000,0.000000,0.000000,0.000000,0.000000,0.090610,3,0
560000,0.000704,14.219215,-0.030770,0.003848,25.204718,0.013411,-0.000232,0.004302,1.570178,-0.011833,-0.000040,0.000697,0.000003,-0.000764,-0.000001,0.002438,-0.000725,0.116919,0.037433,0.176317,0.176317,0.170314,0.877447,0.000000,0.000000,0.000000,0.000000,0.000000,0.000000,0.000000,0.000000,0.000000,0.000000,0.000000,0.000000,0.113485,3,0
570000,0.000722,14.478893,-0.031842,0.003979,25.217489,0.011919,-0.000233,0.004667,1.570169,-0.012804,-0.000043,0.000859,0.000003,-0.000847,-0.000001,0.011145,-0.000744,0.259007,-0.042581,0.176601,0.176601,0.170214,0.870559,0.000000,0.000000,0.000000,0.000000,0.000000,0.000000,0.000000,0.000000,0.000000,0.000000,0.000000,0.000000,0.251385,3,0
580000,0.000740,14.735743,-0.031117,0.003997,25.225800,0.013226,-0.000239,0.004909,1.570149,-0.013411,-0.000046,0.000775,0.000003,-0.000901,-0.000001,0.004123,-0.000762,0.158233,0.021229,0.176933,0.176933,0.170157,0.863547,0.000000,0.000000,0.000000,0.000000,0.000000,0.000000,0.000000,0.000000,0.000000,0.000000,0.000000,0.000000,0.153568,3,0
590000,0.000757,14.992728,-0.031976,0.003947,25.234171,0.012305,-0.000248,0.005145,1.570142,-0.014040,-0.000049,0.000915,0.000003,-0.000957,-0.000001,0.004326,-0.000780,0.159726,-0.035111,0.177307,0.177307,0.170138,0.856420,0.000000,0.000000,0.000000,0.000000,0.000000,0.000000,0.000000,0.000000,0.000000,0.000000,0.000000,0.000000,0.155008,3,0
600000,0.000773,15.249848,-0.031323,0.003971,25.242662,0.013342,-0.000253,0.005405,1.570142,-0.014688,-0.000052,0.000839,0.000004,-0.001017,-0.000001,0.004253,-0.000797,0.161083,0.018585,0.177720,0.177720,0.170152,0.849185,0.000000,0.000000,0.000000,0.000000,0.000000,0.000000,0.000000,0.000000,0.000000,0.000000,0.000000,0.000000,0.156314,3,0
610000,0.000789,15.509464,-0.030777,0.003992,25.255333,0.014371,-0.000263,0.005791,1.570135,-0.015683,-0.000056,0.000778,0.000004,-0.001110,-0.000001,0.009490,-0.000813,0.241817,0.014434,0.178167,0.178167,0.170195,0.841850,0.000000,0.000000,0.000000,0.000000,0.000000,0.000000,0.000000,0.000000,0.000000,0.000000,0.000000,0.000000,0.234639,3,0
620000,0.000805,15.766820,-0.029772,0.004020,25.264162,0.015952,-0.000267,0.006052,1.570118,-0.016360,-0.000060,0.000647,0.000004,-0.001174,-0.000001,0.004339,-0.000830,0.160985,0.030245,0.178645,0.178644,0.170264,0.834423,0.000000,0.000000,0.000000,0.000000,0.000000,0.000000,0.000000,0.000000,0.000000,0.000000,0.000000,0.000000,0.156194,3,0
630000,0.000821,16.027273,-0.030030,0.004045,25.277996,0.015563,-0.000280,0.006477,1.570102,-0.017482,-0.000064,0.000711,0.000005,-0.001283,-0.000001,0.011080,-0.000846,0.261362,-0.014751,0.179149,0.179149,0.170355,0.826913,0.000000,0.000000,0.000000,0.000000,0.000000,0.000000,0.000000,0.000000,0.000000,0.000000,0.000000,0.000000,0.253560,3,0
640000,0.000836,16.286037,-0.031283,0.004046,25.288929,0.013821,-0.000287,0.006820,1.570095,-0.018357,-0.000068,0.000933,0.000005,-0.001370,-0.000001,0.006838,-0.000862,0.199560,-0.049681,0.179676,0.179676,0.170465,0.819326,0.000000,0.000000,0.000000,0.000000,0.000000,0.000000,0.000000,0.000000,0.000000,0.000000,0.000000,0.000000,0.193586,3,0
650000,0.000851,16.542528,-0.030910,0.004067,25.296038,0.014721,-0.000298,0.007037,1.570089,-0.018891,-0.000072,0.000896,0.000006,-0.001423,-0.000001,0.002323,-0.000877,0.119595,0.008086,0.180223,0.180223,0.170591,0.811672,0.000000,0.000000,0.000000,0.000000,0.000000,0.000000,0.000000,0.000000,0.000000,0.000000,0.000000,0.000000,0.116006,3,0
660000,0.000865,16.799757,-0.030149,0.004027,25.304255,0.015925,-0.000296,0.007297,1.570078,-0.019534,-0.000076,0.000795,0.000006,-0.001489,-0.000001,0.003304,-0.000891,0.141340,0.021493,0.180787,0.180787,0.170729,0.803959,0.000000,0.000000,0.000000,0.000000,0.000000,0.000000,0.000000,0.000000,0.000000,0.000000,0.000000,0.000000,0.137084,3,0
670000,0.000878,17.060122,-0.030523,0.004067,25.317785,0.015414,-0.000302,0.007749,1.570071,-0.020655,-0.000081,0.000883,0.000006,-0.001606,-0.000001,0.009511,-0.000906,0.241846,-0.018806,0.181365,0.181364,0.170877,0.796194,0.000000,0.000000,0.000000,0.000000,0.000000,0.000000,0.000000,0.000000,0.000000,0.000000,0.000000,0.000000,0.234537,3,0
680000,0.000893,17.320581,-0.031686,0.004180,25.331375,0.013822,-0.000299,0.008202,1.570071,-0.021786,-0.000085,0.001108,0.000007,-0.001727,-0.000002,0.009638,-0.000921,0.239773,-0.046288,0.181953,0.181953,0.171033,0.788386,0.000000,0.000000,0.000000,0.000000,0.000000,0.000000,0.000000,0.000000,0.000000,0.000000,0.000000,0.000000,0.232504,3,0
690000,0.000907,17.580530,-0.031292,0.004247,25.343870,0.014770,-0.000306,0.008637,1.570062,-0.022830,-0.000090,0.001063,0.000007,-0.001840,-0.000002,0.007673,-0.000936,0.217724,0.008806,0.182551,0.182551,0.171193,0.780542,0.000000,0.000000,0.000000,0.000000,0.000000,0.000000,0.000000,0.000000,0.000000,0.000000,0.000000,0.000000,0.211102,3,0
700000,0.000920,17.837542,-0.030972,0.004181,25.351206,0.015598,-0.000317,0.008885,1.570043,-0.023399,-0.000095,0.001032,0.000008,-0.001902,-0.000002,0.002205,-0.000949,0.116680,0.005866,0.183154,0.183154,0.171357,0.772670,0.000000,0.000000,0.000000,0.000000,0.000000,0.000000,0.000000,0.000000,0.000000,0.000000,0.000000,0.000000,0.113123,3,0
710000,0.000933,18.096508,-0.029965,0.004121,25.361933,0.017448,-0.000317,0.009257,1.570030,-0.024279,-0.000100,0.000879,0.000009,-0.002001,-0.000002,0.005241,-0.000962,0.177658,0.029599,0.183762,0.183762,0.171522,0.764779,0.000000,0.000000,0.000000,0.000000,0.000000,0.000000,0.000000,0.000000,0.000000,0.000000,0.000000,0.000000,0.172219,3,0
720000,0.000944,18.356192,-0.028380,0.004058,25.373819,0.019905,-0.000327,0.009677,1.570013,-0.025268,-0.000105,0.000620,0.000009,-0.002113,-0.000002,0.006655,-0.000974,0.196888,0.049220,0.184371,0.184371,0.171685,0.756875,0.000000,0.000000,0.000000,0.000000,0.000000,0.000000,0.000000,0.000000,0.000000,0.000000,0.000000,0.000000,0.190840,3,0
730000,0.000955,18.617197,-0.027466,0.004155,25.387852,0.021328,-0.000329,0.010172,1.569999,-0.026468,-0.000110,0.000485,0.000010,-0.002253,-0.000002,0.009041,-0.000986,0.235270,0.024901,0.184981,0.184981,0.171846,0.748967,0.000000,0.000000,0.000000,0.000000,0.000000,0.000000,0.000000,0.000000,0.000000,0.000000,0.000000,0.000000,0.228018,3,0
740000,0.000967,18.877054,-0.027392,0.004178,25.399734,0.021465,-0.000338,0.010607,1.569993,-0.027465,-0.000116,0.000511,0.000010,-0.002370,-0.000002,0.006007,-0.000998,0.192791,-0.004942,0.185589,0.185589,0.172003,0.741060,0.000000,0.000000,0.000000,0.000000,0.000000,0.000000,0.000000,0.000000,0.000000,0.000000,0.000000,0.000000,0.186829,3,0
750000,0.000978,19.134533,-0.027163,0.004223,25.407217,0.021915,-0.000350,0.010878,1.569992,-0.028050,-0.000122,0.000508,0.000011,-0.002441,-0.000002,0.002016,-0.001010,0.111725,0.000389,0.186193,0.186193,0.172154,0.733162,0.000000,0.000000,0.000000,0.000000,0.000000,0.000000,0.000000,0.000000,0.000000,0.000000,0.000000,0.000000,0.108262,3,0
760000,0.000989,19.392126,-0.026905,0.004202,25.414906,0.022430,-0.000361,0.011156,1.569991,-0.028648,-0.000127,0.000500,0.000012,-0.002514,-0.000002,0.002048,-0.001021,0.112597,0.001193,0.186793,0.186793,0.172299,0.725279,0.000000,0.000000,0.000000,0.000000,0.000000,0.000000,0.000000,0.000000,0.000000,0.000000,0.000000,0.000000,0.109095,3,0
770000,0.000999,19.652937,-0.027971,0.004193,25.428104,0.020910,-0.000360,0.011659,1.569986,-0.029793,-0.000133,0.000753,0.000012,-0.002656,-0.000002,0.007635,-0.001032,0.212746,-0.044957,0.187387,0.187386,0.172435,0.717419,0.000000,0.000000,0.000000,0.000000,0.000000,0.000000,0.000000,0.000000,0.000000,0.000000,0.000000,0.000000,0.206103,3,0
780000,0.001009,19.911329,-0.026865,0.004192,25.436857,0.022692,-0.000363,0.011989,1.569985,-0.030503,-0.000139,0.000573,0.000013,-0.002745,-0.000002,0.002915,-0.001042,0.130713,0.031060,0.187973,0.187973,0.172562,0.709587,0.000000,0.000000,0.000000,0.000000,0.000000,0.000000,0.000000,0.000000,0.000000,0.000000,0.000000,0.000000,0.126621,3,0
790000,0.001019,20.171070,-0.027383,0.004227,25.447943,0.022033,-0.000367,0.012411,1.569967,-0.031442,-0.000145,0.000723,0.000014,-0.002866,-0.000002,0.004797,-0.001052,0.170416,-0.025964,0.188551,0.188551,0.172680,0.701790,0.000000,0.000000,0.000000,0.000000,0.000000,0.000000,0.000000,0.000000,0.000000,0.000000,0.000000,0.000000,0.165063,3,0
800000,0.001028,20.432774,-0.025963,0.004207,25.462387,0.024074,-0.000377,0.012976,1.569957,-0.032714,-0.000152,0.000474,0.000015,-0.003032,-0.000003,0.008718,-0.001062,0.228626,0.041640,0.189120,0.189120,0.172786,0.694032,0.000000,0.000000,0.000000,0.000000,0.000000,0.000000,0.000000,0.000000,0.000000,0.000000,0.000000,0.000000,0.221423,3,0
810000,0.001036,20.693277,-0.025304,0.004116,25.474415,0.025094,-0.000389,0.013460,1.569957,-0.033756,-0.000158,0.000385,0.000016,-0.003170,-0.000003,0.005585,-0.001070,0.185448,0.014453,0.189679,0.189678,0.172881,0.686321,0.000000,0.000000,0.000000,0.000000,0.000000,0.000000,0.000000,0.000000,0.000000,0.000000,0.000000,0.000000,0.179587,3,0
820000,0.001043,20.955111,-0.025045,0.004072,25.488613,0.025455,-0.000396,0.014038,1.569954,-0.035023,-0.000165,0.000380,0.000017,-0.003341,-0.000003,0.008026,-0.001077,0.223005,0.000238,0.190227,0.190226,0.172964,0.678660,0.000000,0.000000,0.000000,0.000000,0.000000,0.000000,0.000000,0.000000,0.000000,0.000000,0.000000,0.000000,0.215937,3,0
830000,0.001050,21.216993,-0.026193,0.004004,25.502834,0.023890,-0.000406,0.014616,1.569954,-0.036283,-0.000171,0.000678,0.000017,-0.003514,-0.000003,0.008156,-0.001084,0.219456,-0.048729,0.190763,0.190762,0.173034,0.671055,0.000000,0.000000,0.000000,0.000000,0.000000,0.000000,0.000000,0.000000,0.000000,0.000000,0.000000,0.000000,0.212481,3,0
840000,0.001056,21.476389,-0.027413,0.004069,25.512444,0.022170,-0.000404,0.015008,1.569939,-0.037073,-0.000178,0.000992,0.000018,-0.003624,-0.000003,0.003415,-0.001091,0.136339,-0.050652,0.191287,0.191286,0.173092,0.663511,0.000000,0.000000,0.000000,0.000000,0.000000,0.000000,0.000000,0.000000,0.000000,0.000000,0.000000,0.000000,0.131997,3,0
850000,0.001063,21.739035,-0.027432,0.004133,25.527632,0.022158,-0.000404,0.015644,1.569924,-0.038444,-0.000185,0.001042,0.000019,-0.003818,-0.000003,0.008896,-0.001098,0.234669,-0.008357,0.191799,0.191798,0.173135,0.656033,0.000000,0.000000,0.000000,0.000000,0.000000,0.000000,0.000000,0.000000,0.000000,0.000000,0.000000,0.000000,0.227170,3,0
860000,0.001069,21.997252,-0.026511,0.004059,25.534838,0.023634,-0.000402,0.015932,1.569912,-0.038980,-0.000192,0.000886,0.000020,-0.003895,-0.000003,0.001435,-0.001104,0.091145,0.024132,0.192298,0.192297,0.173165,0.648623,0.000000,0.000000,0.000000,0.000000,0.000000,0.000000,0.000000,0.000000,0.000000,0.000000,0.000000,0.000000,0.088231,3,0
870000,0.001075,22.258112,-0.027618,0.004148,25.546709,0.021956,-0.000403,0.016429,1.569900,-0.039996,-0.000199,0.001184,0.000021,-0.004043,-0.000003,0.005056,-0.001111,0.170794,-0.046543,0.192784,0.192782,0.173181,0.641287,0.000000,0.000000,0.000000,0.000000,0.000000,0.000000,0.000000,0.000000,0.000000,0.000000,0.000000,0.000000,0.165308,3,0
880000,0.001082,22.519661,-0.028279,0.004185,25.559605,0.020929,-0.000408,0.016987,1.569889,-0.041122,-0.000206,0.001380,0.000022,-0.004211,-0.000004,0.005859,-0.001118,0.188122,-0.030519,0.193256,0.193255,0.173183,0.634028,0.000000,0.000000,0.000000,0.000000,0.000000,0.000000,0.000000,0.000000,0.000000,0.000000,0.000000,0.000000,0.182065,3,0
890000,0.001087,22.781891,-0.028454,0.004092,25.573486,0.020831,-0.000424,0.017596,1.569886,-0.042357,-0.000213,0.001465,0.000023,-0.004397,-0.000004,0.006790,-0.001123,0.204748,-0.013322,0.193715,0.193714,0.173171,0.626849,0.000000,0.000000,0.000000,0.000000,0.000000,0.000000,0.000000,0.000000,0.000000,0.000000,0.000000,0.000000,0.198140,3,0
900000,0.001092,23.042860,-0.028081,0.004041,25.585077,0.021583,-0.000429,0.018090,1.569878,-0.043335,-0.000221,0.001424,0.000024,-0.004547,-0.000004,0.004188,-0.001128,0.161047,0.005615,0.194161,0.194159,0.173144,0.619754,0.000000,0.000000,0.000000,0.000000,0.000000,0.000000,0.000000,0.000000,0.000000,0.000000,0.000000,0.000000,0.155840,3,0
910000,0.001097,23.305161,-0.028090,0.004111,25.598854,0.021768,-0.000440,0.018704,1.569877,-0.044547,-0.000228,0.001473,0.000026,-0.004735,-0.000004,0.006342,-0.001133,0.198145,-0.007845,0.194593,0.194591,0.173103,0.612745,0.000000,0.000000,0.000000,0.000000,0.000000,0.000000,0.000000,0.000000,0.000000,0.000000,0.000000,0.000000,0.191722,3,0
920000,0.001102,23.566837,-0.026737,0.004146,25.611334,0.023698,-0.000439,0.019244,1.569871,-0.045618,-0.000235,0.001200,0.000027,-0.004904,-0.000004,0.005148,-0.001139,0.174252,0.039396,0.195011,0.195010,0.173048,0.605825,0.000000,0.000000,0.000000,0.000000,0.000000,0.000000,0.000000,0.000000,0.000000,0.000000,0.000000,0.000000,0.168592,3,0
930000,0.001106,23.828539,-0.025637,0.004103,25.623663,0.025265,-0.000445,0.019790,1.569856,-0.046675,-0.000243,0.000990,0.000028,-0.005074,-0.000004,0.004853,-0.001143,0.170876,0.029921,0.195417,0.195415,0.172979,0.598997,0.000000,0.000000,0.000000,0.000000,0.000000,0.000000,0.000000,0.000000,0.000000,0.000000,0.000000,0.000000,0.165316,3,0
940000,0.001111,24.091564,-0.025607,0.004177,25.638153,0.025413,-0.000457,0.020462,1.569838,-0.047966,-0.000251,0.001039,0.000029,-0.005284,-0.000005,0.006934,-0.001148,0.207233,-0.007718,0.195809,0.195807,0.172897,0.592263,0.000000,0.000000,0.000000,0.000000,0.000000,0.000000,0.000000,0.000000,0.000000,0.000000,0.000000,0.000000,0.200473,3,0
950000,0.001115,24.353292,-0.024347,0.004080,25.650240,0.027368,-0.000466,0.021003,1.569821,-0.048984,-0.000258,0.000789,0.000030,-0.005452,-0.000005,0.004466,-0.001152,0.162731,0.034876,0.196188,0.196186,0.172800,0.585625,0.000000,0.000000,0.000000,0.000000,0.000000,0.000000,0.000000,0.000000,0.000000,0.000000,0.000000,0.000000,0.157416,3,0
960000,0.001118,24.613739,-0.025341,0.004043,25.659815,0.025916,-0.000466,0.021423,1.569810,-0.049737,-0.000266,0.001099,0.000032,-0.005579,-0.000005,0.002619,-0.001156,0.119551,-0.044067,0.196554,0.196552,0.172690,0.579085,0.000000,0.000000,0.000000,0.000000,0.000000,0.000000,0.000000,0.000000,0.000000,0.000000,0.000000,0.000000,0.115638,3,0
970000,0.001120,24.876177,-0.025445,0.003958,25.672785,0.025762,-0.000472,0.022028,1.569794,-0.050857,-0.000274,0.001184,0.000033,-0.005770,-0.000005,0.005080,-0.001158,0.177069,-0.012584,0.196908,0.196906,0.172567,0.572643,0.000000,0.000000,0.000000,0.000000,0.000000,0.000000,0.000000,0.000000,0.000000,0.000000,0.000000,0.000000,0.171261,3,0
980000,0.001123,25.137964,-0.026195,0.003970,25.684498,0.024621,-0.000477,0.022558,1.569780,-0.051829,-0.000282,0.001433,0.000034,-0.005939,-0.000005,0.003975,-0.001161,0.153049,-0.035033,0.197250,0.197247,0.172430,0.566302,0.000000,0.000000,0.000000,0.000000,0.000000,0.000000,0.000000,0.000000,0.000000,0.000000,0.000000,0.000000,0.148022,3,0
990000,0.001124,25.399765,-0.027339,0.003870,25.696068,0.022807,-0.000476,0.023089,1.569776,-0.052784,-0.000290,0.001782,0.000036,-0.006107,-0.000005,0.003984,-0.001162,0.149569,-0.048317,0.197580,0.197577,0.172281,0.560063,0.000000,0.000000,0.000000,0.000000,0.000000,0.000000,0.000000,0.000000,0.000000,0.000000,0.000000,0.000000,0.144646,3,0
1000000,0.001125,25.662884,-0.025934,0.003893,25.709837,0.024686,-0.000490,0.023741,1.569770,-0.053973,-0.000298,0.001472,0.000037,-0.006319,-0.000005,0.005841,-0.001163,0.185835,0.041177,0.197898,0.197895,0.172120,0.553927,0.000000,0.000000,0.000000,0.000000,0.000000,0.000000,0.000000,0.000000,0.000000,0.000000,0.000000,0.000000,0.179710,3,0
1010000,0.001126,25.922052,-0.025851,0.003844,25.716574,0.024728,-0.000492,0.024016,1.569751,-0.054370,-0.000305,0.001513,0.000038,-0.006391,-0.000005,0.000620,-0.001164,0.061729,-0.005746,0.198205,0.198202,0.171947,0.547895,0.000000,0.000000,0.000000,0.000000,0.000000,0.000000,0.000000,0.000000,0.000000,0.000000,0.000000,0.000000,0.059701,3,0
1020000,0.001125,26.184553,-0.026604,0.003747,25.728937,0.023723,-0.000501,0.024616,1.569744,-0.055405,-0.000314,0.001769,0.000040,-0.006582,-0.000006,0.004339,-0.001164,0.160316,-0.034921,0.198501,0.198498,0.171762,0.541966,0.000000,0.000000,0.000000,0.000000,0.000000,0.000000,0.000000,0.000000,0.000000,0.000000,0.000000,0.000000,0.155016,3,0
1030000,0.001125,26.447044,-0.025367,0.003763,25.741180,0.025423,-0.000503,0.025199,1.569733,-0.056414,-0.000322,0.001499,0.000041,-0.006770,-0.000006,0.004127,-0.001164,0.156116,0.035046,0.198787,0.198783,0.171565,0.536143,0.000000,0.000000,0.000000,0.000000,0.000000,0.000000,0.000000,0.000000,0.000000,0.000000,0.000000,0.000000,0.150950,3,0
1040000,0.001124,26.706230,-0.024314,0.003715,25.747412,0.026927,-0.000518,0.025451,1.569718,-0.056755,-0.000329,0.001284,0.000043,-0.006834,-0.000006,0.000571,-0.001163,0.052534,0.027918,0.199063,0.199059,0.171358,0.530425,0.000000,0.000000,0.000000,0.000000,0.000000,0.000000,0.000000,0.000000,0.000000,0.000000,0.000000,0.000000,0.050805,3,0
1050000,0.001123,26.968098,-0.025152,0.003609,25.758345,0.025577,-0.000518,0.025963,1.569711,-0.057609,-0.000337,0.001576,0.000044,-0.006999,-0.000006,0.003018,-0.001161,0.131224,-0.038732,0.199330,0.199325,0.171140,0.524812,0.000000,0.000000,0.000000,0.000000,0.000000,0.000000,0.000000,0.000000,0.000000,0.000000,0.000000,0.000000,0.126868,3,0
1060000,0.001120,27.227316,-0.024448,0.003547,25.764452,0.026662,-0.000522,0.026210,1.569701,-0.057923,-0.000345,0.001453,0.000046,-0.007060,-0.000006,0.000414,-0.001159,0.048161,0.015657,0.199587,0.199582,0.170912,0.519304,0.000000,0.000000,0.000000,0.000000,0.000000,0.000000,0.000000,0.000000,0.000000,0.000000,0.000000,0.000000,0.046572,3,0
1070000,0.001117,27.487896,-0.024555,0.003521,25.772955,0.026550,-0.000522,0.026595,1.569693,-0.058493,-0.000353,0.001552,0.000047,-0.007173,-0.000006,0.001249,-0.001156,0.087063,-0.013138,0.199836,0.199831,0.170674,0.513902,0.000000,0.000000,0.000000,0.000000,0.000000,0.000000,0.000000,0.000000,0.000000,0.000000,0.000000,0.000000,0.084169,3,0
1080000,0.001115,27.747824,-0.023335,0.003555,25.780191,0.028127,-0.000532,0.026893,1.569692,-0.058917,-0.000361,0.001285,0.000049,-0.007258,-0.000006,0.000862,-0.001154,0.064947,0.033578,0.200077,0.200071,0.170427,0.508606,0.000000,0.000000,0.000000,0.000000,0.000000,0.000000,0.000000,0.000000,0.000000,0.000000,0.000000,0.000000,0.062792,3,0
1090000,0.001113,28.010427,-0.021939,0.003595,25.791914,0.029812,-0.000546,0.027474,1.569676,-0.059853,-0.000369,0.000966,0.000051,-0.007449,-0.000006,0.003542,-0.001152,0.142885,0.039486,0.200310,0.200304,0.170171,0.503413,0.000000,0.000000,0.000000,0.000000,0.000000,0.000000,0.000000,0.000000,0.000000,0.000000,0.000000,0.000000,0.138121,3,0
1100000,0.001110,28.271683,-0.021055,0.003507,25.801157,0.030885,-0.000546,0.027915,1.569673,-0.060502,-0.000376,0.000796,0.000052,-0.007583,-0.000006,0.001644,-0.001149,0.098831,0.020754,0.200536,0.200529,0.169906,0.498326,0.000000,0.000000,0.000000,0.000000,0.000000,0.000000,0.000000,0.000000,0.000000,0.000000,0.000000,0.000000,0.095536,3,0
1110000,0.001107,28.534933,-0.020677,0.003428,25.813890,0.031108,-0.000552,0.028563,1.569655,-0.061525,-0.000385,0.000766,0.000054,-0.007798,-0.000007,0.003899,-0.001145,0.155546,0.002669,0.200755,0.200748,0.169634,0.493342,0.000000,0.000000,0.000000,0.000000,0.000000,0.000000,0.000000,0.000000,0.000000,0.000000,0.000000,0.000000,0.150347,3,0
1120000,0.001103,28.792826,-0.020147,0.003364,25.817074,0.031819,-0.000553,0.028608,1.569648,-0.061470,-0.000392,0.000705,0.000055,-0.007786,-0.000007,0.000021,-0.001141,-0.008438,0.007592,0.200967,0.200960,0.169353,0.488463,0.000000,0.000000,0.000000,0.000000,0.000000,0.000000,0.000000,0.000000,0.000000,0.000000,0.000000,0.000000,0.008230,3,0
1130000,0.001098,29.054766,-0.019650,0.003284,25.827221,0.032415,-0.000566,0.029111,1.569641,-0.062203,-0.000400,0.000647,0.000057,-0.007945,-0.000007,0.002004,-0.001137,0.111338,0.006457,0.201174,0.201166,0.169065,0.483685,0.000000,0.000000,0.000000,0.000000,0.000000,0.000000,0.000000,0.000000,0.000000,0.000000,0.000000,0.000000,0.107611,3,0
1140000,0.001093,29.318022,-0.018760,0.003237,25.839582,0.033333,-0.000571,0.029752,1.569629,-0.063176,-0.000408,0.000471,0.000059,-0.008158,-0.000007,0.003571,-0.001132,0.147480,0.020354,0.201375,0.201367,0.168770,0.479010,0.000000,0.000000,0.000000,0.000000,0.000000,0.000000,0.000000,0.000000,0.000000,0.000000,0.000000,0.000000,0.142537,3,0
1150000,0.001089,29.576565,-0.017402,0.003303,25.843464,0.034976,-0.000580,0.029852,1.569625,-0.063197,-0.000415,0.000171,0.000061,-0.008162,-0.000007,0.000217,-0.001127,0.003374,0.036402,0.201571,0.201562,0.168469,0.474436,0.000000,0.000000,0.000000,0.000000,0.000000,0.000000,0.000000,0.000000,0.000000,0.000000,0.000000,0.000000,0.003440,3,0
1160000,0.001086,29.837154,-0.018776,0.003341,25.851044,0.032955,-0.000586,0.030189,1.569613,-0.063614,-0.000423,0.000678,0.000062,-0.008258,-0.000007,0.001248,-0.001123,0.062855,-0.061465,0.201762,0.201753,0.168162,0.469962,0.000000,0.000000,0.000000,0.000000,0.000000,0.000000,0.000000,0.000000,0.000000,0.000000,0.000000,0.000000,0.060747,3,0
1170000,0.001082,30.095737,-0.018713,0.003345,25.854893,0.032803,-0.000594,0.030286,1.569610,-0.063621,-0.000430,0.000758,0.000064,-0.008259,-0.000007,0.000015,-0.001120,0.000977,-0.009604,0.201950,0.201940,0.167848,0.465588,0.000000,0.000000,0.000000,0.000000,0.000000,0.000000,0.000000,0.000000,0.000000,0.000000,0.000000,0.000000,0.001435,3,0
1180000,0.001079,30.358372,-0.019628,0.003368,25.865749,0.031312,-0.000596,0.030855,1.569591,-0.064415,-0.000438,0.001123,0.000066,-0.008445,-0.000007,0.002639,-0.001116,0.120054,-0.044275,0.202133,0.202123,0.167530,0.461311,0.000000,0.000000,0.000000,0.000000,0.000000,0.000000,0.000000,0.000000,0.000000,0.000000,0.000000,0.000000,0.116012,3,0
1190000,0.001075,30.620970,-0.019686,0.003273,25.876404,0.030976,-0.000599,0.031407,1.569581,-0.065179,-0.000446,0.001226,0.000067,-0.008626,-0.000007,0.002185,-0.001112,0.115738,-0.013102,0.202313,0.202302,0.167206,0.457131,0.000000,0.000000,0.000000,0.000000,0.000000,0.000000,0.000000,0.000000,0.000000,0.000000,0.000000,0.000000,0.111841,3,0
1200000,0.001070,30.882191,-0.019143,0.003232,25.884525,0.031477,-0.000603,0.031780,1.569565,-0.065651,-0.000454,0.001148,0.000069,-0.008739,-0.000007,0.000840,-0.001108,0.071701,0.008503,0.202490,0.202478,0.166878,0.453047,0.000000,0.000000,0.000000,0.000000,0.000000,0.000000,0.000000,0.000000,0.000000,0.000000,0.000000,0.000000,0.069291,3,0
1210000,0.001066,31.144070,-0.017955,0.003212,25.893864,0.032957,-0.000609,0.032237,1.569547,-0.066234,-0.000461,0.000871,0.000071,-0.008880,-0.000008,0.001429,-0.001103,0.088701,0.031568,0.202664,0.202652,0.166546,0.449059,0.000000,0.000000,0.000000,0.000000,0.000000,0.000000,0.000000,0.000000,0.000000,0.000000,0.000000,0.000000,0.085715,3,0
1220000,0.001061,31.402565,-0.016621,0.003217,25.897058,0.034575,-0.000622,0.032278,1.569531,-0.066139,-0.000468,0.000560,0.000073,-0.008856,-0.000008,0.000244,-0.001099,-0.014242,0.036131,0.202835,0.202823,0.166210,0.445165,0.000000,0.000000,0.000000,0.000000,0.000000,0.000000,0.000000,0.000000,0.000000,0.000000,0.000000,0.000000,0.013799,3,0
1230000,0.001057,31.663782,-0.016716,0.003147,25.904886,0.034403,-0.000632,0.032654,1.569521,-0.066568,-0.000476,0.000693,0.000075,-0.008964,-0.000008,0.000725,-0.001094,0.065174,-0.015928,0.203005,0.202992,0.165870,0.441361,0.000000,0.000000,0.000000,0.000000,0.000000,0.000000,0.000000,0.000000,0.000000,0.000000,0.000000,0.000000,0.062976,3,0
1240000,0.001052,31.926329,-0.017180,0.003101,25.915007,0.033610,-0.000642,0.033178,1.569515,-0.067239,-0.000484,0.000939,0.000077,-0.009135,-0.000008,0.001814,-0.001088,0.102062,-0.029048,0.203174,0.203160,0.165527,0.437650,0.000000,0.000000,0.000000,0.000000,0.000000,0.000000,0.000000,0.000000,0.000000,0.000000,0.000000,0.000000,0.098610,3,0
1250000,0.001047,32.188168,-0.018294,0.003142,25.923826,0.032122,-0.000650,0.033602,1.569513,-0.067752,-0.000491,0.001394,0.000078,-0.009268,-0.000008,0.001427,-0.001084,0.077961,-0.052574,0.203341,0.203326,0.165181,0.434028,0.000000,0.000000,0.000000,0.000000,0.000000,0.000000,0.000000,0.000000,0.000000,0.000000,0.000000,0.000000,0.075321,3,0
1260000,0.001042,32.446606,-0.018488,0.003062,25.926445,0.031758,-0.000651,0.033590,1.569512,-0.067590,-0.000498,0.001564,0.000080,-0.009226,-0.000008,0.000158,-0.001078,-0.024937,-0.018930,0.203506,0.203491,0.164832,0.430494,0.000000,0.000000,0.000000,0.000000,0.000000,0.000000,0.000000,0.000000,0.000000,0.000000,0.000000,0.000000,0.024116,3,0
1270000,0.001037,32.709785,-0.017961,0.003051,25.937391,0.032234,-0.000651,0.034178,1.569501,-0.068335,-0.000506,0.001483,0.000082,-0.009423,-0.000008,0.002110,-0.001073,0.114182,0.007931,0.203672,0.203656,0.164481,0.427047,0.000000,0.000000,0.000000,0.000000,0.000000,0.000000,0.000000,0.000000,0.000000,0.000000,0.000000,0.000000,0.110311,3,0
1280000,0.001031,32.972240,-0.018424,0.002954,25.947060,0.031532,-0.000650,0.034680,1.569495,-0.068919,-0.000513,0.001730,0.000084,-0.009581,-0.000008,0.001420,-0.001067,0.089436,-0.028509,0.203836,0.203820,0.164129,0.423686,0.000000,0.000000,0.000000,0.000000,0.000000,0.000000,0.000000,0.000000,0.000000,0.000000,0.000000,0.000000,0.086401,3,0
1290000,0.001025,33.232624,-0.017741,0.002972,25.952913,0.032173,-0.000662,0.034886,1.569487,-0.069085,-0.000520,0.001606,0.000086,-0.009626,-0.000008,0.000136,-0.001061,0.025673,0.013521,0.204001,0.203983,0.163774,0.420410,0.000000,0.000000,0.000000,0.000000,0.000000,0.000000,0.000000,0.000000,0.000000,0.000000,0.000000,0.000000,0.024824,3,0
1300000,0.001019,33.493004,-0.018096,0.002967,25.958643,0.031759,-0.000676,0.035086,1.569474,-0.069240,-0.000527,0.001829,0.000088,-0.009670,-0.000008,0.000191,-0.001055,0.023659,-0.024915,0.204166,0.204147,0.163419,0.417216,0.000000,0.000000,0.000000,0.000000,0.000000,0.000000,0.000000,0.000000,0.000000,0.000000,0.000000,0.000000,0.022873,3,0
1310000,0.001014,33.752018,-0.017826,0.002993,25.961966,0.032068,-0.000684,0.035115,1.569469,-0.069123,-0.000534,0.001849,0.000090,-0.009637,-0.000008,0.000054,-0.001050,-0.018116,-0.001975,0.204330,0.204311,0.163062,0.414104,0.000000,0.000000,0.000000,0.000000,0.000000,0.000000,0.000000,0.000000,0.000000,0.000000,0.000000,0.000000,0.017527,3,0
1320000,0.001008,34.011715,-0.016825,0.002879,25.966339,0.033434,-0.000685,0.035218,1.569455,-0.069129,-0.000541,0.001621,0.000092,-0.009638,-0.000008,0.000101,-0.001044,0.001144,0.024903,0.204496,0.204475,0.162704,0.411071,0.000000,0.000000,0.000000,0.000000,0.000000,0.000000,0.000000,0.000000,0.000000,0.000000,0.000000,0.000000,0.001499,3,0
1330000,0.001002,34.270741,-0.017372,0.002884,25.969372,0.032766,-0.000691,0.035235,1.569443,-0.069002,-0.000547,0.001925,0.000094,-0.009602,-0.000008,0.000239,-0.001037,-0.020046,-0.032810,0.204662,0.204641,0.162346,0.408116,0.000000,0.000000,0.000000,0.000000,0.000000,0.000000,0.000000,0.000000,0.000000,0.000000,0.000000,0.000000,0.019393,3,0
1340000,0.000996,34.530449,-0.017267,0.002794,25.973616,0.032874,-0.000707,0.035343,1.569430,-0.068997,-0.000554,0.002003,0.000096,-0.009601,-0.000008,0.000012,-0.001031,-0.000797,-0.008411,0.204829,0.204807,0.161988,0.405238,0.000000,0.000000,0.000000,0.000000,0.000000,0.000000,0.000000,0.000000,0.000000,0.000000,0.000000,0.000000,0.001259,3,0
1350000,0.000988,34.790165,-0.018161,0.002691,25.977842,0.031610,-0.000725,0.035442,1.569419,-0.068986,-0.000561,0.002426,0.000097,-0.009599,-0.000008,0.000337,-0.001023,-0.002125,-0.045521,0.204997,0.204974,0.161630,0.402435,0.000000,0.000000,0.000000,0.000000,0.000000,0.000000,0.000000,0.000000,0.000000,0.000000,0.000000,0.000000,0.002285,3,0
1360000,0.000982,35.051235,-0.019321,0.002730,25.984512,0.030180,-0.000724,0.035718,1.569409,-0.069219,-0.000568,0.002935,0.000099,-0.009671,-0.000008,0.000701,-0.001016,0.036301,-0.054880,0.205166,0.205142,0.161271,0.399707,0.000000,0.000000,0.000000,0.000000,0.000000,0.000000,0.000000,0.000000,0.000000,0.000000,0.000000,0.000000,0.035067,3,0
1370000,0.000975,35.309559,-0.020378,0.002669,25.986029,0.028753,-0.000738,0.035615,1.569398,-0.068931,-0.000574,0.003419,0.000101,-0.009584,-0.000008,0.000761,-0.001009,-0.045925,-0.050989,0.205337,0.205312,0.160914,0.397051,0.000000,0.000000,0.000000,0.000000,0.000000,0.000000,0.000000,0.000000,0.000000,0.000000,0.000000,0.000000,0.044372,3,0
1380000,0.000967,35.568569,-0.019728,0.002647,25.988804,0.029502,-0.000745,0.035596,1.569394,-0.068767,-0.000580,0.003297,0.000103,-0.009533,-0.000008,0.000137,-0.001002,-0.025959,0.013301,0.205509,0.205483,0.160556,0.394466,0.000000,0.000000,0.000000,0.000000,0.000000,0.000000,0.000000,0.000000,0.000000,0.000000,0.000000,0.000000,0.025085,3,0
1390000,0.000961,35.830322,-0.020159,0.002688,25.996477,0.028992,-0.000758,0.035947,1.569391,-0.069101,-0.000587,0.003547,0.000105,-0.009639,-0.000008,0.000570,-0.000995,0.052940,-0.027082,0.205682,0.205655,0.160200,0.391950,0.000000,0.000000,0.000000,0.000000,0.000000,0.000000,0.000000,0.000000,0.000000,0.000000,0.000000,0.000000,0.051130,3,0
1400000,0.000955,36.090675,-0.021199,0.002681,26.001539,0.027648,-0.000772,0.036094,1.569386,-0.069164,-0.000593,0.004023,0.000107,-0.009661,-0.000008,0.000421,-0.000988,0.009781,-0.049970,0.205857,0.205829,0.159845,0.389503,0.000000,0.000000,0.000000,0.000000,0.000000,0.000000,0.000000,0.000000,0.000000,0.000000,0.000000,0.000000,0.009486,3,0
1410000,0.000948,36.351681,-0.020008,0.002639,26.007669,0.029099,-0.000785,0.036326,1.569383,-0.069335,-0.000599,0.003689,0.000109,-0.009715,-0.000008,0.000316,-0.000982,0.027683,0.034427,0.206034,0.206005,0.159491,0.387123,0.000000,0.000000,0.000000,0.000000,0.000000,0.000000,0.000000,0.000000,0.000000,0.000000,0.000000,0.000000,0.026754,3,0
1420000,0.000942,36.614708,-0.019256,0.002681,26.017296,0.029743,-0.000800,0.036848,1.569371,-0.069858,-0.000606,0.003505,0.000111,-0.009887,-0.000009,0.001206,-0.000975,0.084679,0.017847,0.206212,0.206182,0.159138,0.384807,0.000000,0.000000,0.000000,0.000000,0.000000,0.000000,0.000000,0.000000,0.000000,0.000000,0.000000,0.000000,0.081777,3,0
1430000,0.000935,36.876316,-0.019756,0.002552,26.024357,0.029199,-0.000808,0.037151,1.569359,-0.070107,-0.000612,0.003791,0.000113,-0.009971,-0.000009,0.000407,-0.000968,0.040218,-0.030070,0.206393,0.206361,0.158787,0.382556,0.000000,0.000000,0.000000,0.000000,0.000000,0.000000,0.000000,0.000000,0.000000,0.000000,0.000000,0.000000,0.038841,3,0
1440000,0.000927,37.139256,-0.021042,0.002446,26.033709,0.027462,-0.000814,0.037648,1.569358,-0.070580,-0.000619,0.004357,0.000115,-0.010133,-0.000009,0.001519,-0.000960,0.076729,-0.059354,0.206575,0.206542,0.158438,0.380367,0.000000,0.000000,0.000000,0.000000,0.000000,0.000000,0.000000,0.000000,0.000000,0.000000,0.000000,0.000000,0.074083,3,0
1450000,0.000919,37.400078,-0.022283,0.002427,26.039171,0.025711,-0.000820,0.037833,1.569349,-0.070659,-0.000625,0.004918,0.000117,-0.010163,-0.000009,0.000562,-0.000952,0.012482,-0.057506,0.206759,0.206725,0.158090,0.378240,0.000000,0.000000,0.000000,0.000000,0.000000,0.000000,0.000000,0.000000,0.000000,0.000000,0.000000,0.000000,0.012078,3,0
1460000,0.000911,37.661552,-0.022849,0.002363,26.045715,0.024957,-0.000832,0.038104,1.569334,-0.070842,-0.000631,0.005220,0.000119,-0.010228,-0.000009,0.000302,-0.000943,0.029911,-0.031212,0.206945,0.206909,0.157745,0.376173,0.000000,0.000000,0.000000,0.000000,0.000000,0.000000,0.000000,0.000000,0.000000,0.000000,0.000000,0.000000,0.028888,3,0
1470000,0.000902,37.920921,-0.022125,0.002238,26.048336,0.025881,-0.000831,0.038048,1.569334,-0.070643,-0.000636,0.005050,0.000121,-0.010157,-0.000009,0.000225,-0.000934,-0.032845,0.017755,0.207132,0.207096,0.157402,0.374164,0.000000,0.000000,0.000000,0.000000,0.000000,0.000000,0.000000,0.000000,0.000000,0.000000,0.000000,0.000000,0.031721,3,0
1480000,0.000892,38.179588,-0.020768,0.002212,26.049534,0.027684,-0.000834,0.037864,1.569319,-0.070320,-0.000641,0.004648,0.000123,-0.010039,-0.000009,0.000742,-0.000924,-0.053688,0.041400,0.207322,0.207284,0.157061,0.372210,0.000000,0.000000,0.000000,0.000000,0.000000,0.000000,0.000000,0.000000,0.000000,0.000000,0.000000,0.000000,0.051834,3,0
1490000,0.000883,38.439648,-0.021692,0.002166,26.053253,0.026561,-0.000841,0.037909,1.569307,-0.070238,-0.000647,0.005110,0.000125,-0.010011,-0.000009,0.000379,-0.000914,-0.014183,-0.046212,0.207513,0.207474,0.156723,0.370312,0.000000,0.000000,0.000000,0.000000,0.000000,0.000000,0.000000,0.000000,0.000000,0.000000,0.000000,0.000000,0.013731,3,0
1500000,0.000873,38.698986,-0.021170,0.002115,26.055561,0.027255,-0.000859,0.037826,1.569303,-0.070027,-0.000652,0.005022,0.000127,-0.009932,-0.000009,0.000220,-0.000905,-0.035732,0.009424,0.207706,0.207666,0.156388,0.368468,0.000000,0.000000,0.000000,0.000000,0.000000,0.000000,0.000000,0.000000,0.000000,0.000000,0.000000,0.000000,0.034504,3,0
1510000,0.000863,38.959007,-0.020908,0.001985,26.059103,0.027406,-0.000860,0.037837,1.569301,-0.069928,-0.000657,0.005030,0.000129,-0.009895,-0.000009,0.000046,-0.000894,-0.016788,-0.000575,0.207901,0.207860,0.156055,0.366677,0.000000,0.000000,0.000000,0.000000,0.000000,0.000000,0.000000,0.000000,0.000000,0.000000,0.000000,0.000000,0.016232,3,0
1520000,0.000852,39.217636,-0.021653,0.001927,26.060125,0.026659,-0.000871,0.037636,1.569293,-0.069591,-0.000662,0.005443,0.000131,-0.009768,-0.000009,0.000803,-0.000883,-0.058182,-0.039900,0.208098,0.208055,0.155725,0.364938,0.000000,0.000000,0.000000,0.000000,0.000000,0.000000,0.000000,0.000000,0.000000,0.000000,0.000000,0.000000,0.056178,3,0
1530000,0.000841,39.475563,-0.020746,0.001843,26.059662,0.027917,-0.000878,0.037306,1.569286,-0.069138,-0.000667,0.005215,0.000133,-0.009592,-0.000009,0.001078,-0.000871,-0.078270,0.023922,0.208297,0.208252,0.155398,0.363248,0.000000,0.000000,0.000000,0.000000,0.000000,0.000000,0.000000,0.000000,0.000000,0.000000,0.000000,0.000000,0.075555,3,0
1540000,0.000830,39.735573,-0.020258,0.001893,26.063143,0.028559,-0.000885,0.037298,1.569280,-0.069033,-0.000671,0.005138,0.000135,-0.009550,-0.000009,0.000063,-0.000860,-0.018131,0.007793,0.208497,0.208451,0.155075,0.361607,0.000000,0.000000,0.000000,0.000000,0.000000,0.000000,0.000000,0.000000,0.000000,0.000000,0.000000,0.000000,0.017518,3,0
1550000,0.000819,39.996941,-0.019555,0.001797,26.069002,0.029242,-0.000887,0.037513,1.569267,-0.069147,-0.000676,0.004968,0.000137,-0.009595,-0.000009,0.000107,-0.000849,0.020008,0.016258,0.208698,0.208651,0.154754,0.360014,0.000000,0.000000,0.000000,0.000000,0.000000,0.000000,0.000000,0.000000,0.000000,0.000000,0.000000,0.000000,0.019335,3,0
1560000,0.000808,40.258961,-0.019425,0.001729,26.075993,0.029170,-0.000901,0.037828,1.569250,-0.069355,-0.000681,0.005024,0.000139,-0.009679,-0.000009,0.000225,-0.000837,0.036888,-0.006048,0.208901,0.208853,0.154437,0.358467,0.000000,0.000000,0.000000,0.000000,0.000000,0.000000,0.000000,0.000000,0.000000,0.000000,0.000000,0.000000,0.035612,3,0
1570000,0.000797,40.518856,-0.020255,0.001660,26.078939,0.027966,-0.000918,0.037796,1.569232,-0.069209,-0.000686,0.005482,0.000140,-0.009622,-0.000009,0.000426,-0.000825,-0.026417,-0.043951,0.209106,0.209056,0.154123,0.356965,0.000000,0.000000,0.000000,0.000000,0.000000,0.000000,0.000000,0.000000,0.000000,0.000000,0.000000,0.000000,0.025518,3,0
1580000,0.000785,40.777332,-0.020329,0.001645,26.079210,0.027949,-0.000929,0.037527,1.569224,-0.068834,-0.000690,0.005646,0.000142,-0.009466,-0.000009,0.000771,-0.000814,-0.067669,-0.014564,0.209311,0.209260,0.153812,0.355506,0.000000,0.000000,0.000000,0.000000,0.000000,0.000000,0.000000,0.000000,0.000000,0.000000,0.000000,0.000000,0.065316,3,0
1590000,0.000775,41.035114,-0.020321,0.001686,26.078255,0.027852,-0.000947,0.037142,1.569211,-0.068352,-0.000694,0.005783,0.000144,-0.009262,-0.000008,0.001256,-0.000803,-0.087601,-0.011497,0.209517,0.209465,0.153505,0.354091,0.000000,0.000000,0.000000,0.000000,0.000000,0.000000,0.000000,0.000000,0.000000,0.000000,0.000000,0.000000,0.084549,3,0
1600000,0.000764,41.296394,-0.021502,0.001582,26.083700,0.026246,-0.000953,0.037313,1.569207,-0.068423,-0.000699,0.006378,0.000146,-0.009296,-0.000008,0.000555,-0.000791,0.012444,-0.057106,0.209725,0.209671,0.153201,0.352717,0.000000,0.000000,0.000000,0.000000,0.000000,0.000000,0.000000,0.000000,0.000000,0.000000,0.000000,0.000000,0.012018,3,0
1610000,0.000752,41.556221,-0.021451,0.001479,26.086287,0.026109,-0.000963,0.037240,1.569189,-0.068260,-0.000703,0.006474,0.000148,-0.009225,-0.000008,0.000159,-0.000779,-0.030224,-0.008625,0.209933,0.209878,0.152901,0.351382,0.000000,0.000000,0.000000,0.000000,0.000000,0.000000,0.000000,0.000000,0.000000,0.000000,0.000000,0.000000,0.029177,3,0
1620000,0.000740,41.815323,-0.020865,0.001455,26.087532,0.026877,-0.000973,0.037036,1.569176,-0.067983,-0.000707,0.006358,0.000149,-0.009101,-0.000008,0.000451,-0.000767,-0.051529,0.012123,0.210142,0.210085,0.152605,0.350086,0.000000,0.000000,0.000000,0.000000,0.000000,0.000000,0.000000,0.000000,0.000000,0.000000,0.000000,0.000000,0.049726,3,0
1630000,0.000727,42.073711,-0.019812,0.001340,26.087336,0.028185,-0.000987,0.036711,1.569163,-0.067600,-0.000710,0.006055,0.000151,-0.008926,-0.000008,0.000982,-0.000754,-0.072094,0.030048,0.210351,0.210293,0.152312,0.348828,0.000000,0.000000,0.000000,0.000000,0.000000,0.000000,0.000000,0.000000,0.000000,0.000000,0.000000,0.000000,0.069565,3,0
1640000,0.000714,42.330700,-0.018933,0.001239,26.084517,0.029455,-0.001003,0.036156,1.569149,-0.067012,-0.000713,0.005845,0.000153,-0.008655,-0.000008,0.002090,-0.000740,-0.111809,0.022194,0.210561,0.210502,0.152024,0.347606,0.000000,0.000000,0.000000,0.000000,0.000000,0.000000,0.000000,0.000000,0.000000,0.000000,0.000000,0.000000,0.107882,3,0
1650000,0.000700,42.587723,-0.019740,0.001094,26.081766,0.028554,-0.001016,0.035613,1.569130,-0.066440,-0.000717,0.006348,0.000154,-0.008392,-0.000008,0.002286,-0.000725,-0.110344,-0.044883,0.210772,0.210711,0.151739,0.346418,0.000000,0.000000,0.000000,0.000000,0.000000,0.000000,0.000000,0.000000,0.000000,0.000000,0.000000,0.000000,0.106482,3,0
1660000,0.000686,42.844749,-0.019045,0.001092,26.079010,0.029613,-0.001028,0.035064,1.569115,-0.065879,-0.000720,0.006214,0.000156,-0.008125,-0.000008,0.001943,-0.000711,-0.108913,0.014838,0.210982,0.210920,0.151458,0.345265,0.000000,0.000000,0.000000,0.000000,0.000000,0.000000,0.000000,0.000000,0.000000,0.000000,0.000000,0.000000,0.105082,3,0
1670000,0.000672,43.101795,-0.018233,0.000974,26.076357,0.030597,-0.001031,0.034512,1.569106,-0.065331,-0.000722,0.006033,0.000157,-0.007861,-0.000008,0.001917,-0.000697,-0.107487,0.019152,0.211193,0.211129,0.151180,0.344146,0.000000,0.000000,0.000000,0.000000,0.000000,0.000000,0.000000,0.000000,0.000000,0.000000,0.000000,0.000000,0.103701,3,0
1680000,0.000658,43.360977,-0.018942,0.000983,26.077627,0.029626,-0.001040,0.034336,1.569093,-0.065099,-0.000726,0.006486,0.000159,-0.007750,-0.000007,0.000620,-0.000682,-0.046444,-0.040963,0.211404,0.211338,0.150907,0.343059,0.000000,0.000000,0.000000,0.000000,0.000000,0.000000,0.000000,0.000000,0.000000,0.000000,0.000000,0.000000,0.044824,3,0
1690000,0.000645,43.622250,-0.019980,0.000968,26.082766,0.028301,-0.001052,0.034509,1.569090,-0.065163,-0.000730,0.007057,0.000161,-0.007785,-0.000008,0.000483,-0.000669,0.012424,-0.053074,0.211614,0.211547,0.150638,0.342003,0.000000,0.000000,0.000000,0.000000,0.000000,0.000000,0.000000,0.000000,0.000000,0.000000,0.000000,0.000000,0.011988,3,0
1700000,0.000632,43.879261,-0.020649,0.000937,26.079882,0.027732,-0.001055,0.033952,1.569074,-0.064624,-0.000733,0.007512,0.000162,-0.007516,-0.000007,0.002190,-0.000655,-0.109745,-0.039486,0.211824,0.211756,0.150372,0.340977,0.000000,0.000000,0.000000,0.000000,0.000000,0.000000,0.000000,0.000000,0.000000,0.000000,0.000000,0.000000,0.105886,3,0
1710000,0.000619,44.137672,-0.019520,0.000957,26.079426,0.029076,-0.001058,0.033605,1.569064,-0.064289,-0.000735,0.007169,0.000164,-0.007342,-0.000007,0.000933,-0.000642,-0.068546,0.033082,0.212033,0.211964,0.150111,0.339978,0.000000,0.000000,0.000000,0.000000,0.000000,0.000000,0.000000,0.000000,0.000000,0.000000,0.000000,0.000000,0.066119,3,0
1720000,0.000607,44.394684,-0.019455,0.000985,26.076494,0.029388,-0.001073,0.033034,1.569057,-0.063769,-0.000738,0.007312,0.000165,-0.007071,-0.000007,0.001903,-0.000629,-0.108284,-0.010552,0.212242,0.212171,0.149853,0.339009,0.000000,0.000000,0.000000,0.000000,0.000000,0.000000,0.000000,0.000000,0.000000,0.000000,0.000000,0.000000,0.104460,3,0
