time_us,pos_x,pos_y,pos_z,vel_x,vel_y,vel_z,roll,pitch,yaw,bias_ax,bias_ay,bias_az,bias_gx,bias_gy,bias_gz,nis,innov_x,innov_y,innov_z,cov_pos_x,cov_pos_y,cov_pos_z,cov_yaw,des_speed,des_heading,des_climb,pid_speed,pid_yaw,pid_alt,speed_meas,yaw_meas,climb_meas,fwd_accel,yaw_rate,vert_accel,drift_m,nav_mode,mission_state
0,0.000004,0.150004,0.000003,0.000706,25.000681,0.000832,-0.000009,-0.000022,1.570774,0.000000,0.000000,0.000000,0.000000,0.000000,0.000000,0.006250,-0.000007,-0.250009,-0.000008,2.400038,2.400038,3.600017,1.000518,0.000000,0.000000,0.000000,0.000000,0.000000,0.000000,0.000000,0.000000,0.000000,0.000000,0.000000,0.000000,0.229520,1,0
10000,0.000012,0.280038,0.010052,0.001213,25.000660,0.001611,-0.000015,-0.000041,1.570744,0.000001,-0.000000,-0.000000,0.000000,0.000000,0.000000,0.021064,-0.000016,-0.419897,0.026753,1.714420,1.714420,2.250079,1.001073,0.000000,0.000000,0.000000,0.000000,0.000000,0.000000,0.000000,0.000000,0.000000,0.000000,0.000000,0.000000,0.101128,3,0
20000,0.000024,0.390144,0.013447,0.001972,24.999393,0.002498,-0.000015,-0.000068,1.570733,0.000007,-0.000000,-0.000000,0.000000,0.000000,0.000000,0.051375,-0.000031,-0.629444,0.012356,1.333616,1.333616,1.636554,1.001655,0.000000,0.000000,0.000000,0.000000,0.000000,0.000000,0.000000,0.000000,0.000000,0.000000,0.000000,0.000000,0.047192,3,0
30000,0.000042,0.512853,0.015573,0.002645,24.997318,0.003223,-0.000022,-0.000095,1.570720,0.000019,-0.000000,-0.000000,0.000000,0.000000,0.000000,0.066782,-0.000051,-0.699779,0.009772,1.091392,1.091392,1.286065,1.002257,0.000000,0.000000,0.000000,0.000000,0.000000,0.000000,0.000000,0.000000,0.000000,0.000000,0.000000,0.000000,0.182909,3,0
40000,0.000064,0.636197,0.011326,0.003403,24.994112,0.004196,-0.000019,-0.000124,1.570702,0.000043,-0.000000,0.000000,-0.000000,0.000000,0.000000,0.095465,-0.000076,-0.822468,-0.024298,0.923811,0.923811,1.059385,1.002869,0.000000,0.000000,0.000000,0.000000,0.000000,0.000000,0.000000,0.000000,0.000000,0.000000,0.000000,0.000000,0.317991,3,0
50000,0.000087,0.754571,0.007404,0.003679,24.989681,0.004933,-0.000024,-0.000155,1.570688,0.000085,-0.000000,0.000001,-0.000000,0.000000,0.000000,0.140369,-0.000101,-0.985541,-0.026462,0.801036,0.801036,0.900822,1.003484,0.000000,0.000000,0.000000,0.000000,0.000000,0.000000,0.000000,0.000000,0.000000,0.000000,0.000000,0.000000,0.458043,3,0
60000,0.000114,0.883724,0.005101,0.004136,24.983820,0.005777,-0.000028,-0.000180,1.570685,0.000147,-0.000000,0.000002,-0.000000,0.000001,0.000000,0.154315,-0.000129,-1.024352,-0.018079,0.707270,0.707270,0.783741,1.004094,0.000000,0.000000,0.000000,0.000000,0.000000,0.000000,0.000000,0.000000,0.000000,0.000000,0.000000,0.000000,0.587316,3,0
70000,0.000146,1.009712,0.003900,0.005017,24.976425,0.006654,-0.000032,-0.000230,1.570667,0.000240,-0.000000,0.000003,-0.000000,0.000002,0.000000,0.205247,-0.000164,-1.173329,-0.010967,0.633370,0.633370,0.693801,1.004688,0.000000,0.000000,0.000000,0.000000,0.000000,0.000000,0.000000,0.000000,0.000000,0.000000,0.000000,0.000000,0.719753,3,0
80000,0.000184,1.127658,0.001001,0.005751,24.966272,0.007328,-0.000046,-0.000283,1.570652,0.000381,-0.000000,0.000006,-0.000000,0.000003,0.000000,0.286659,-0.000204,-1.378758,-0.028663,0.573673,0.573673,0.622594,1.005260,0.000000,0.000000,0.000000,0.000000,0.000000,0.000000,0.000000,0.000000,0.000000,0.000000,0.000000,0.000000,0.860233,3,0
90000,0.000226,1.274305,-0.002711,0.006327,24.956486,0.008082,-0.000054,-0.000343,1.570630,0.000531,-0.000000,0.000011,-0.000000,0.000005,0.000000,0.211501,-0.000248,-1.178537,-0.040320,0.524488,0.524488,0.564865,1.005801,0.000000,0.000000,0.000000,0.000000,0.000000,0.000000,0.000000,0.000000,0.000000,0.000000,0.000000,0.000000,0.972013,3,0
100000,0.000272,1.441161,-0.006598,0.007020,24.947536,0.008788,-0.000061,-0.000417,1.570614,0.000691,-0.000000,0.000018,-0.000000,0.000007,0.000000,0.161923,-0.000296,-1.026906,-0.046169,0.483304,0.483304,0.517162,1.006301,0.000000,0.000000,0.000000,0.000000,0.000000,0.000000,0.000000,0.000000,0.000000,0.000000,0.000000,0.000000,1.063583,3,0
110000,0.000320,1.614815,-0.008739,0.007299,24.937603,0.009517,-0.000058,-0.000497,1.570598,0.000880,-0.000000,0.000023,-0.000000,0.000010,0.000000,0.158920,-0.000345,-1.014760,-0.028151,0.448354,0.448354,0.477121,1.006754,0.000000,0.000000,0.000000,0.000000,0.000000,0.000000,0.000000,0.000000,0.000000,0.000000,0.000000,0.000000,1.148355,3,0
120000,0.000372,1.804901,-0.011628,0.007976,24.928385,0.010089,-0.000055,-0.000574,1.570575,0.001067,-0.000000,0.000032,0.000000,0.000013,0.000000,0.112372,-0.000399,-0.850370,-0.040544,0.418359,0.418359,0.443071,1.007150,0.000000,0.000000,0.000000,0.000000,0.000000,0.000000,0.000000,0.000000,0.000000,0.000000,0.000000,0.000000,1.216694,3,0
130000,0.000427,1.993957,-0.013080,0.008504,24.917830,0.010895,-0.000062,-0.000664,1.570556,0.001303,-0.000000,0.000037,0.000000,0.000017,0.000000,0.132235,-0.000457,-0.921094,-0.022669,0.392370,0.392370,0.413797,1.007481,0.000000,0.000000,0.000000,0.000000,0.000000,0.000000,0.000000,0.000000,0.000000,0.000000,0.000000,0.000000,1.286065,3,0
140000,0.000487,2.191898,-0.015166,0.009154,24.907669,0.011441,-0.000070,-0.000763,1.570540,0.001548,-0.000000,0.000047,0.000000,0.000022,0.000000,0.108376,-0.000518,-0.831739,-0.034058,0.369667,0.369667,0.388393,1.007739,0.000000,0.000000,0.000000,0.000000,0.000000,0.000000,0.000000,0.000000,0.000000,0.000000,0.000000,0.000000,1.346550,3,0
150000,0.000550,2.401828,-0.015863,0.009740,24.898897,0.011861,-0.000076,-0.000852,1.570517,0.001774,-0.000001,0.000051,0.000000,0.000026,0.000000,0.070854,-0.000584,-0.671756,-0.013404,0.349696,0.349696,0.366172,1.007915,0.000000,0.000000,0.000000,0.000000,0.000000,0.000000,0.000000,0.000000,0.000000,0.000000,0.000000,0.000000,1.395045,3,0
160000,0.000615,2.614137,-0.016033,0.010139,24.889587,0.012728,-0.000078,-0.000943,1.570495,0.002026,-0.000001,0.000053,0.000000,0.000032,0.000000,0.069197,-0.000651,-0.662930,-0.005161,0.332022,0.332022,0.346600,1.008002,0.000000,0.000000,0.000000,0.000000,0.000000,0.000000,0.000000,0.000000,0.000000,0.000000,0.000000,0.000000,1.441162,3,0
170000,0.000684,2.827387,-0.013668,0.010617,24.879953,0.014222,-0.000075,-0.001055,1.570459,0.002315,-0.000001,0.000036,0.000000,0.000039,0.000000,0.072485,-0.000722,-0.676362,0.040612,0.316299,0.316299,0.329260,1.007991,0.000000,0.000000,0.000000,0.000000,0.000000,0.000000,0.000000,0.000000,0.000000,0.000000,0.000000,0.000000,1.486338,3,0
180000,0.000756,3.045403,-0.013184,0.011188,24.870447,0.015124,-0.000084,-0.001166,1.570444,0.002606,-0.000001,0.000033,0.000000,0.000046,0.000000,0.059132,-0.000796,-0.611207,0.006390,0.302248,0.302248,0.313817,1.007875,0.000000,0.000000,0.000000,0.000000,0.000000,0.000000,0.000000,0.000000,0.000000,0.000000,0.000000,0.000000,1.526748,3,0
190000,0.000831,3.266562,-0.014843,0.011735,24.861044,0.015207,-0.000084,-0.001277,1.570439,0.002908,-0.000002,0.000052,0.000000,0.000054,0.000000,0.051872,-0.000873,-0.570701,-0.036335,0.289644,0.289644,0.300003,1.007645,0.000000,0.000000,0.000000,0.000000,0.000000,0.000000,0.000000,0.000000,0.000000,0.000000,0.000000,0.000000,1.564015,3,0
200000,0.000897,3.468590,-0.017166,0.012198,24.852911,0.015173,-0.000091,-0.001383,1.570418,0.003177,-0.000002,0.000081,0.000000,0.000062,0.000000,0.035341,-0.000941,-0.468720,-0.051524,0.278090,0.278090,0.287401,1.007176,0.000000,0.000000,0.000000,0.000000,0.000000,0.000000,0.000000,0.000000,0.000000,0.000000,0.000000,0.000000,1.620413,3,0
210000,0.000979,3.695838,-0.018319,0.012688,24.844515,0.015629,-0.000106,-0.001503,1.570395,0.003479,-0.000003,0.000099,0.000000,0.000071,0.000000,0.036338,-0.001024,-0.476862,-0.028558,0.267849,0.267849,0.276224,1.006727,0.000000,0.000000,0.000000,0.000000,0.000000,0.000000,0.000000,0.000000,0.000000,0.000000,0.000000,0.000000,1.651591,3,0
220000,0.001063,3.928511,-0.018533,0.013226,24.837807,0.016348,-0.000109,-0.001594,1.570385,0.003732,-0.000004,0.000104,0.000000,0.000079,0.000000,0.021385,-0.001111,-0.366083,-0.008549,0.258583,0.258583,0.266125,1.006142,0.000000,0.000000,0.000000,0.000000,0.000000,0.000000,0.000000,0.000000,0.000000,0.000000,0.000000,0.000000,1.677343,3,0
230000,0.001152,4.162705,-0.019569,0.013889,24.831194,0.016793,-0.000113,-0.001695,1.570380,0.003988,-0.000005,0.000125,0.000000,0.000087,0.000001,0.018619,-0.001202,-0.340262,-0.028224,0.250183,0.250183,0.256976,1.005416,0.000000,0.000000,0.000000,0.000000,0.000000,0.000000,0.000000,0.000000,0.000000,0.000000,0.000000,0.000000,1.701575,3,0
240000,0.001244,4.399051,-0.018669,0.014409,24.825151,0.018118,-0.000108,-0.001796,1.570372,0.004230,-0.000006,0.000111,0.000000,0.000095,0.000001,0.014069,-0.001297,-0.296085,0.017408,0.242554,0.242554,0.248671,1.004539,0.000000,0.000000,0.000000,0.000000,0.000000,0.000000,0.000000,0.000000,0.000000,0.000000,0.000000,0.000000,1.723655,3,0
250000,0.001341,4.632646,-0.017632,0.015090,24.817205,0.019408,-0.000116,-0.001922,1.570350,0.004560,-0.000007,0.000092,0.000000,0.000107,0.000001,0.022390,-0.001395,-0.373340,0.021084,0.235618,0.235618,0.241120,1.003508,0.000000,0.000000,0.000000,0.000000,0.000000,0.000000,0.000000,0.000000,0.000000,0.000000,0.000000,0.000000,1.748486,3,0
260000,0.001441,4.870545,-0.018367,0.015701,24.811386,0.019822,-0.000109,-0.002035,1.570335,0.004816,-0.000008,0.000115,0.000000,0.000116,0.000001,0.011685,-0.001498,-0.268914,-0.024024,0.229306,0.229306,0.234243,1.002314,0.000000,0.000000,0.000000,0.000000,0.000000,0.000000,0.000000,0.000000,0.000000,0.000000,0.000000,0.000000,1.769014,3,0
270000,0.001544,5.109410,-0.017994,0.016312,24.805752,0.020675,-0.000115,-0.002131,1.570310,0.005070,-0.000010,0.000110,0.000000,0.000126,0.000001,0.009898,-0.001604,-0.248328,0.004393,0.223558,0.223558,0.227973,1.000953,0.000000,0.000000,0.000000,0.000000,0.000000,0.000000,0.000000,0.000000,0.000000,0.000000,0.000000,0.000000,1.788574,3,0
280000,0.001650,5.349152,-0.019556,0.016743,24.800697,0.020350,-0.000112,-0.002230,1.570300,0.005320,-0.000012,0.000162,0.000000,0.000136,0.000001,0.008771,-0.001712,-0.228714,-0.047960,0.218322,0.218322,0.222252,0.999419,0.000000,0.000000,0.000000,0.000000,0.000000,0.000000,0.000000,0.000000,0.000000,0.000000,0.000000,0.000000,1.807259,3,0
290000,0.001758,5.588274,-0.020798,0.017225,24.794531,0.020121,-0.000111,-0.002352,1.570284,0.005613,-0.000014,0.000209,0.000000,0.000148,0.000001,0.010284,-0.001823,-0.249734,-0.040182,0.213553,0.213553,0.217029,0.997707,0.000000,0.000000,0.000000,0.000000,0.000000,0.000000,0.000000,0.000000,0.000000,0.000000,0.000000,0.000000,1.826563,3,0
300000,0.001868,5.829571,-0.021196,0.017681,24.789310,0.020562,-0.000110,-0.002453,1.570264,0.005851,-0.000016,0.000230,0.000001,0.000159,0.000001,0.005892,-0.001935,-0.190605,-0.017176,0.209210,0.209210,0.212258,0.995811,0.000000,0.000000,0.000000,0.000000,0.000000,0.000000,0.000000,0.000000,0.000000,0.000000,0.000000,0.000000,1.843691,3,0
310000,0.001978,6.067453,-0.021459,0.017955,24.781454,0.021069,-0.000115,-0.002597,1.570240,0.006239,-0.000019,0.000248,0.000001,0.000176,0.000001,0.013822,-0.002048,-0.292702,-0.013787,0.205258,0.205258,0.207900,0.993729,0.000000,0.000000,0.000000,0.000000,0.000000,0.000000,0.000000,0.000000,0.000000,0.000000,0.000000,0.000000,1.864235,3,0
320000,0.002092,6.306127,-0.022007,0.018678,24.774063,0.021570,-0.000116,-0.002738,1.570212,0.006622,-0.000022,0.000279,0.000001,0.000194,0.000001,0.012007,-0.002165,-0.272081,-0.022653,0.201665,0.201665,0.203920,0.991456,0.000000,0.000000,0.000000,0.000000,0.000000,0.000000,0.000000,0.000000,0.000000,0.000000,0.000000,0.000000,1.883988,3,0
330000,0.002207,6.549473,-0.021585,0.018915,24.770506,0.022799,-0.000110,-0.002821,1.570203,0.006820,-0.000025,0.000270,0.000001,0.000203,0.000001,0.002856,-0.002282,-0.132981,0.005859,0.198403,0.198403,0.200286,0.988988,0.000000,0.000000,0.000000,0.000000,0.000000,0.000000,0.000000,0.000000,0.000000,0.000000,0.000000,0.000000,1.899067,3,0
340000,0.002322,6.792048,-0.020177,0.019280,24.766130,0.024890,-0.000120,-0.002915,1.570182,0.007068,-0.000029,0.000214,0.000001,0.000215,0.000001,0.004211,-0.002400,-0.157624,0.035590,0.195447,0.195447,0.196970,0.986322,0.000000,0.000000,0.000000,0.000000,0.000000,0.000000,0.000000,0.000000,0.000000,0.000000,0.000000,0.000000,1.914919,3,0
350000,0.002441,7.035157,-0.020803,0.019890,24.761936,0.024970,-0.000126,-0.003005,1.570157,0.007303,-0.000033,0.000259,0.000001,0.000227,0.000001,0.003362,-0.002522,-0.141726,-0.027341,0.192773,0.192773,0.193946,0.983457,0.000000,0.000000,0.000000,0.000000,0.000000,0.000000,0.000000,0.000000,0.000000,0.000000,0.000000,0.000000,1.930236,3,0
360000,0.002563,7.279400,-0.021172,0.020525,24.758728,0.025394,-0.000131,-0.003081,1.570148,0.007489,-0.000037,0.000293,0.000002,0.000237,0.000001,0.001894,-0.002647,-0.106490,-0.019732,0.190362,0.190362,0.191193,0.980389,0.000000,0.000000,0.000000,0.000000,0.000000,0.000000,0.000000,0.000000,0.000000,0.000000,0.000000,0.000000,1.944420,3,0
370000,0.002689,7.521600,-0.020455,0.021185,24.753263,0.026376,-0.000135,-0.003200,1.570130,0.007804,-0.000042,0.000267,0.000002,0.000254,0.000001,0.004800,-0.002776,-0.171790,0.014538,0.188193,0.188193,0.188689,0.977118,0.000000,0.000000,0.000000,0.000000,0.000000,0.000000,0.000000,0.000000,0.000000,0.000000,0.000000,0.000000,1.960645,3,0
380000,0.002817,7.766778,-0.021147,0.021754,24.751110,0.026337,-0.000150,-0.003265,1.570116,0.007951,-0.000048,0.000326,0.000002,0.000262,0.000002,0.001090,-0.002907,-0.075996,-0.031042,0.186249,0.186249,0.186415,0.973643,0.000000,0.000000,0.000000,0.000000,0.000000,0.000000,0.000000,0.000000,0.000000,0.000000,0.000000,0.000000,1.973893,3,0
390000,0.002946,8.012364,-0.020909,0.022165,24.749407,0.027223,-0.000163,-0.003340,1.570100,0.008077,-0.000054,0.000328,0.000002,0.000269,0.000002,0.000637,-0.003040,-0.062727,-0.001142,0.184515,0.184515,0.184354,0.969963,0.000000,0.000000,0.000000,0.000000,0.000000,0.000000,0.000000,0.000000,0.000000,0.000000,0.000000,0.000000,1.986733,3,0
400000,0.003076,8.257734,-0.021961,0.022529,24.747229,0.026694,-0.000183,-0.003416,1.570090,0.008224,-0.000061,0.000420,0.000003,0.000278,0.000002,0.001098,-0.003173,-0.069748,-0.043829,0.182977,0.182977,0.182489,0.966078,0.000000,0.000000,0.000000,0.000000,0.000000,0.000000,0.000000,0.000000,0.000000,0.000000,0.000000,0.000000,1.999789,3,0
410000,0.003207,8.505299,-0.022696,0.022983,24.747601,0.026366,-0.000199,-0.003432,1.570072,0.008218,-0.000068,0.000493,0.000003,0.000277,0.000002,0.000184,-0.003307,0.002967,-0.033483,0.181620,0.181620,0.180808,0.961989,0.000000,0.000000,0.000000,0.000000,0.000000,0.000000,0.000000,0.000000,0.000000,0.000000,0.000000,0.000000,2.010650,3,0
420000,0.003339,8.751399,-0.022607,0.023468,24.746136,0.027213,-0.000201,-0.003490,1.570057,0.008323,-0.000076,0.000508,0.000004,0.000284,0.000002,0.000347,-0.003443,-0.045812,-0.006221,0.180433,0.180433,0.179296,0.957696,0.000000,0.000000,0.000000,0.000000,0.000000,0.000000,0.000000,0.000000,0.000000,0.000000,0.000000,0.000000,2.022976,3,0
430000,0.003473,8.997861,-0.021424,0.023995,24.745001,0.029191,-0.000209,-0.003528,1.570039,0.008403,-0.000084,0.000435,0.000004,0.000289,0.000002,0.000333,-0.003581,-0.033470,0.030385,0.179403,0.179403,0.177940,0.953202,0.000000,0.000000,0.000000,0.000000,0.000000,0.000000,0.000000,0.000000,0.000000,0.000000,0.000000,0.000000,2.034941,3,0
440000,0.003609,9.247040,-0.021710,0.024525,24.747459,0.029278,-0.000221,-0.003503,1.570018,0.008259,-0.000094,0.000485,0.000005,0.000280,0.000002,0.000610,-0.003720,0.058020,-0.019865,0.178520,0.178520,0.176729,0.948509,0.000000,0.000000,0.000000,0.000000,0.000000,0.000000,0.000000,0.000000,0.000000,0.000000,0.000000,0.000000,2.044188,3,0
450000,0.003744,9.495919,-0.021427,0.024760,24.749523,0.030009,-0.000230,-0.003496,1.570009,0.008137,-0.000104,0.000486,0.000006,0.000271,0.000002,0.000365,-0.003859,0.047363,-0.000577,0.177773,0.177773,0.175653,0.943619,0.000000,0.000000,0.000000,0.000000,0.000000,0.000000,0.000000,0.000000,0.000000,0.000000,0.000000,0.000000,2.053734,3,0
460000,0.003882,9.743336,-0.019941,0.025408,24.749636,0.032411,-0.000234,-0.003525,1.570003,0.008144,-0.000114,0.000378,0.000006,0.000272,0.000002,0.000268,-0.004000,-0.002748,0.040388,0.177154,0.177154,0.174701,0.938535,0.000000,0.000000,0.000000,0.000000,0.000000,0.000000,0.000000,0.000000,0.000000,0.000000,0.000000,0.000000,2.064745,3,0
470000,0.004018,9.992247,-0.019194,0.025638,24.751648,0.033874,-0.000253,-0.003499,1.569990,0.008010,-0.000126,0.000338,0.000007,0.000263,0.000002,0.000409,-0.004140,0.048019,0.014257,0.176654,0.176654,0.173863,0.933261,0.000000,0.000000,0.000000,0.000000,0.000000,0.000000,0.000000,0.000000,0.000000,0.000000,0.000000,0.000000,2.074260,3,0
480000,0.004151,10.239705,-0.017901,0.025705,24.752066,0.035914,-0.000267,-0.003527,1.569968,0.008016,-0.000138,0.000244,0.000008,0.000263,0.000002,0.000178,-0.004277,-0.002126,0.032778,0.176263,0.176263,0.173132,0.927801,0.000000,0.000000,0.000000,0.000000,0.000000,0.000000,0.000000,0.000000,0.000000,0.000000,0.000000,0.000000,2.085227,3,0
490000,0.004283,10.490403,-0.016077,0.025988,24.756960,0.038762,-0.000277,-0.003435,1.569948,0.007695,-0.000151,0.000093,0.000009,0.000240,0.000001,0.002314,-0.004413,0.108233,0.050645,0.175975,0.175975,0.172499,0.922159,0.000000,0.000000,0.000000,0.000000,0.000000,0.000000,0.000000,0.000000,0.000000,0.000000,0.000000,0.000000,2.092955,3,0
500000,0.004414,10.738460,-0.014705,0.026257,24.757963,0.040835,-0.000285,-0.003439,1.569934,0.007644,-0.000165,-0.000012,0.000010,0.000236,0.000001,0.000235,-0.004547,0.016518,0.034050,0.175781,0.175781,0.171955,0.916342,0.000000,0.000000,0.000000,0.000000,0.000000,0.000000,0.000000,0.000000,0.000000,0.000000,0.000000,0.000000,2.103325,3,0
510000,0.004544,10.988575,-0.014427,0.026477,24.761929,0.041359,-0.000300,-0.003372,1.569925,0.007371,-0.000180,0.000004,0.000011,0.000215,0.000001,0.001218,-0.004681,0.086514,-0.004790,0.175675,0.175675,0.171495,0.910353,0.000000,0.000000,0.000000,0.000000,0.000000,0.000000,0.000000,0.000000,0.000000,0.000000,0.000000,0.000000,2.111635,3,0
520000,0.004674,11.238970,-0.014508,0.026860,24.766130,0.041532,-0.000312,-0.003281,1.569921,0.007062,-0.000196,0.000062,0.000013,0.000191,0.000001,0.001508,-0.004815,0.094788,-0.017620,0.175650,0.175650,0.171110,0.904198,0.000000,0.000000,0.000000,0.000000,0.000000,0.000000,0.000000,0.000000,0.000000,0.000000,0.000000,0.000000,2.119668,3,0
530000,0.004803,11.487314,-0.014528,0.027245,24.767406,0.041902,-0.000318,-0.003279,1.569921,0.006984,-0.000213,0.000115,0.000014,0.000185,0.000001,0.000131,-0.004948,0.023259,-0.015620,0.175700,0.175700,0.170794,0.897885,0.000000,0.000000,0.000000,0.000000,0.000000,0.000000,0.000000,0.000000,0.000000,0.000000,0.000000,0.000000,2.129749,3,0
540000,0.004933,11.738297,-0.015479,0.027590,24.772638,0.041059,-0.000317,-0.003164,1.569912,0.006594,-0.000230,0.000285,0.000015,0.000153,0.000001,0.002446,-0.005082,0.112844,-0.048577,0.175818,0.175818,0.170543,0.891418,0.000000,0.000000,0.000000,0.000000,0.000000,0.000000,0.000000,0.000000,0.000000,0.000000,0.000000,0.000000,2.137192,3,0
550000,0.005061,11.986056,-0.015059,0.027811,24.773071,0.041807,-0.000326,-0.003179,1.569895,0.006591,-0.000249,0.000285,0.000017,0.000153,0.000001,0.000005,-0.005213,0.000959,0.000075,0.175999,0.175999,0.170348,0.884806,0.000000,0.000000,0.000000,0.000000,0.000000,0.000000,0.000000,0.000000,0.000000,0.000000,0.000000,0.000000,2.147859,3,0
560000,0.005186,12.235883,-0.014245,0.028044,24.776562,0.043150,-0.000336,-0.003111,1.569878,0.006331,-0.000268,0.000235,0.000018,0.000131,0.000001,0.000856,-0.005343,0.071259,0.013701,0.176238,0.176238,0.170206,0.878054,0.000000,0.000000,0.000000,0.000000,0.000000,0.000000,0.000000,0.000000,0.000000,0.000000,0.000000,0.000000,2.156458,3,0
570000,0.005310,12.487170,-0.013370,0.028223,24.782547,0.044506,-0.000354,-0.002976,1.569870,0.005884,-0.000289,0.000177,0.000020,0.000092,0.000000,0.002356,-0.005471,0.119581,0.015376,0.176529,0.176529,0.170111,0.871171,0.000000,0.000000,0.000000,0.000000,0.000000,0.000000,0.000000,0.000000,0.000000,0.000000,0.000000,0.000000,2.163597,3,0
580000,0.005432,12.738731,-0.013320,0.028381,24.788685,0.044921,-0.000373,-0.002824,1.569851,0.005399,-0.000311,0.000233,0.000022,0.000049,0.000000,0.002633,-0.005597,0.126661,-0.014273,0.176867,0.176867,0.170058,0.864163,0.000000,0.000000,0.000000,0.000000,0.000000,0.000000,0.000000,0.000000,0.000000,0.000000,0.000000,0.000000,2.170462,3,0
590000,0.005551,12.990564,-0.012843,0.028550,24.795416,0.045781,-0.000377,-0.002659,1.569838,0.004875,-0.000333,0.000231,0.000024,0.000002,-0.000000,0.002886,-0.005720,0.133464,0.000735,0.177249,0.177249,0.170043,0.857039,0.000000,0.000000,0.000000,0.000000,0.000000,0.000000,0.000000,0.000000,0.000000,0.000000,0.000000,0.000000,2.177055,3,0
600000,0.005669,13.240313,-0.013098,0.028831,24.798603,0.045703,-0.000402,-0.002598,1.569825,0.004632,-0.000357,0.000336,0.000026,-0.000020,-0.000000,0.000702,-0.005842,0.060473,-0.025471,0.177668,0.177668,0.170061,0.849806,0.000000,0.000000,0.000000,0.000000,0.000000,0.000000,0.000000,0.000000,0.000000,0.000000,0.000000,0.000000,2.185734,3,0
610000,0.005786,13.490946,-0.014144,0.029054,24.803400,0.044322,-0.000413,-0.002486,1.569815,0.004267,-0.000382,0.000560,0.000028,-0.000055,-0.000000,0.001746,-0.005963,0.088997,-0.053283,0.178123,0.178123,0.170108,0.842472,0.000000,0.000000,0.000000,0.000000,0.000000,0.000000,0.000000,0.000000,0.000000,0.000000,0.000000,0.000000,2.193527,3,0
620000,0.005899,13.741270,-0.012466,0.029142,24.807465,0.046950,-0.000430,-0.002386,1.569802,0.003944,-0.000407,0.000375,0.000031,-0.000086,-0.000001,0.001264,-0.006080,0.076864,0.043229,0.178607,0.178607,0.170181,0.835045,0.000000,0.000000,0.000000,0.000000,0.000000,0.000000,0.000000,0.000000,0.000000,0.000000,0.000000,0.000000,2.201629,3,0
630000,0.006011,13.992476,-0.011609,0.029406,24.812908,0.048511,-0.000436,-0.002237,1.569786,0.003495,-0.000434,0.000317,0.000034,-0.000129,-0.000001,0.001811,-0.006196,0.104804,0.013325,0.179118,0.179118,0.170276,0.827534,0.000000,0.000000,0.000000,0.000000,0.000000,0.000000,0.000000,0.000000,0.000000,0.000000,0.000000,0.000000,2.208848,3,0
640000,0.006120,14.244559,-0.011446,0.029407,24.820078,0.048696,-0.000443,-0.002036,1.569782,0.002919,-0.000462,0.000370,0.000036,-0.000186,-0.000001,0.002838,-0.006308,0.131845,-0.011531,0.179653,0.179653,0.170390,0.819946,0.000000,0.000000,0.000000,0.000000,0.000000,0.000000,0.000000,0.000000,0.000000,0.000000,0.000000,0.000000,2.215193,3,0
650000,0.006225,14.497510,-0.010613,0.029525,24.828548,0.050056,-0.000462,-0.001791,1.569770,0.002214,-0.000491,0.000316,0.000039,-0.000257,-0.000002,0.004065,-0.006418,0.157996,0.011884,0.180207,0.180207,0.170520,0.812290,0.000000,0.000000,0.000000,0.000000,0.000000,0.000000,0.000000,0.000000,0.000000,0.000000,0.000000,0.000000,2.220667,3,0
660000,0.006330,14.748327,-0.011228,0.029818,24.833261,0.049322,-0.000477,-0.001664,1.569751,0.001833,-0.000521,0.000502,0.000042,-0.000297,-0.000002,0.001397,-0.006527,0.083872,-0.039514,0.180778,0.180778,0.170662,0.804573,0.000000,0.000000,0.000000,0.000000,0.000000,0.000000,0.000000,0.000000,0.000000,0.000000,0.000000,0.000000,2.228276,3,0
670000,0.006431,15.000630,-0.011744,0.029729,24.840515,0.048762,-0.000491,-0.001441,1.569739,0.001227,-0.000552,0.000673,0.000045,-0.000360,-0.000002,0.002996,-0.006631,0.131190,-0.035757,0.181363,0.181363,0.170814,0.796805,0.000000,0.000000,0.000000,0.000000,0.000000,0.000000,0.000000,0.000000,0.000000,0.000000,0.000000,0.000000,2.234401,3,0
680000,0.006529,15.252599,-0.011586,0.029874,24.847036,0.049119,-0.000508,-0.001245,1.569719,0.000674,-0.000584,0.000732,0.000049,-0.000419,-0.000003,0.002256,-0.006733,0.117363,-0.011832,0.181959,0.181959,0.170973,0.788992,0.000000,0.000000,0.000000,0.000000,0.000000,0.000000,0.000000,0.000000,0.000000,0.000000,0.000000,0.000000,2.240857,3,0
690000,0.006625,15.505445,-0.012412,0.029948,24.855085,0.047953,-0.000526,-0.000989,1.569712,-0.000013,-0.000617,0.000963,0.000052,-0.000494,-0.000003,0.003690,-0.006832,0.143632,-0.046422,0.182564,0.182564,0.171138,0.781143,0.000000,0.000000,0.000000,0.000000,0.000000,0.000000,0.000000,0.000000,0.000000,0.000000,0.000000,0.000000,2.246437,3,0
700000,0.006719,15.757947,-0.011149,0.030252,24.862364,0.049941,-0.000541,-0.000765,1.569703,-0.000642,-0.000651,0.000827,0.000056,-0.000563,-0.000003,0.002827,-0.006931,0.129253,0.027182,0.183174,0.183174,0.171305,0.773267,0.000000,0.000000,0.000000,0.000000,0.000000,0.000000,0.000000,0.000000,0.000000,0.000000,0.000000,0.000000,2.252361,3,0
710000,0.006814,16.013758,-0.011872,0.030585,24.875242,0.048716,-0.000567,-0.000327,1.569692,-0.001801,-0.000686,0.001049,0.000060,-0.000694,-0.000004,0.009191,-0.007028,0.234501,-0.042935,0.183789,0.183789,0.171473,0.765369,0.000000,0.000000,0.000000,0.000000,0.000000,0.000000,0.000000,0.000000,0.000000,0.000000,0.000000,0.000000,2.254977,3,0
720000,0.006905,16.270411,-0.010225,0.030676,24.889479,0.051138,-0.000593,0.000166,1.569694,-0.003090,-0.000722,0.000840,0.000064,-0.000841,-0.000005,0.010931,-0.007124,0.256865,0.040401,0.184405,0.184405,0.171640,0.757459,0.000000,0.000000,0.000000,0.000000,0.000000,0.000000,0.000000,0.000000,0.000000,0.000000,0.000000,0.000000,2.256749,3,0
730000,0.006995,16.526052,-0.008554,0.030976,24.901522,0.053451,-0.000619,0.000601,1.569685,-0.004205,-0.000760,0.000628,0.000069,-0.000971,-0.000006,0.008000,-0.007218,0.218739,0.040340,0.185021,0.185021,0.171805,0.749542,0.000000,0.000000,0.000000,0.000000,0.000000,0.000000,0.000000,0.000000,0.000000,0.000000,0.000000,0.000000,2.259534,3,0
740000,0.007086,16.782541,-0.009520,0.031219,24.915321,0.052256,-0.000629,0.001088,1.569688,-0.005450,-0.000798,0.000914,0.000073,-0.001118,-0.000007,0.009859,-0.007311,0.241276,-0.052632,0.185636,0.185636,0.171965,0.741628,0.000000,0.000000,0.000000,0.000000,0.000000,0.000000,0.000000,0.000000,0.000000,0.000000,0.000000,0.000000,2.261472,3,0
750000,0.007173,17.039248,-0.009398,0.031317,24.929253,0.052718,-0.000644,0.001588,1.569686,-0.006722,-0.000838,0.000995,0.000078,-0.001271,-0.000008,0.009584,-0.007403,0.243076,-0.014259,0.186247,0.186247,0.172120,0.733721,0.000000,0.000000,0.000000,0.000000,0.000000,0.000000,0.000000,0.000000,0.000000,0.000000,0.000000,0.000000,2.263191,3,0
760000,0.007260,17.296787,-0.009083,0.031550,24.944521,0.053383,-0.000678,0.002145,1.569674,-0.008124,-0.000878,0.001040,0.000082,-0.001443,-0.000009,0.011318,-0.007493,0.264534,-0.007647,0.186853,0.186853,0.172267,0.725830,0.000000,0.000000,0.000000,0.000000,0.000000,0.000000,0.000000,0.000000,0.000000,0.000000,0.000000,0.000000,2.264078,3,0
770000,0.007342,17.550184,-0.008155,0.031550,24.952522,0.054980,-0.000698,0.002415,1.569666,-0.008801,-0.000919,0.000965,0.000088,-0.001528,-0.000009,0.002606,-0.007579,0.126112,0.013376,0.187453,0.187453,0.172407,0.717961,0.000000,0.000000,0.000000,0.000000,0.000000,0.000000,0.000000,0.000000,0.000000,0.000000,0.000000,0.000000,2.269106,3,0
780000,0.007421,17.806318,-0.006468,0.031570,24.965088,0.057257,-0.000727,0.002888,1.569656,-0.009946,-0.000961,0.000740,0.000093,-0.001672,-0.000010,0.007420,-0.007662,0.210579,0.039435,0.188046,0.188046,0.172537,0.710120,0.000000,0.000000,0.000000,0.000000,0.000000,0.000000,0.000000,0.000000,0.000000,0.000000,0.000000,0.000000,2.271399,3,0
790000,0.007498,18.062668,-0.005496,0.031582,24.977854,0.058397,-0.000756,0.003365,1.569658,-0.011115,-0.001004,0.000662,0.000099,-0.001823,-0.000011,0.007347,-0.007741,0.212746,0.013778,0.188630,0.188630,0.172657,0.702313,0.000000,0.000000,0.000000,0.000000,0.000000,0.000000,0.000000,0.000000,0.000000,0.000000,0.000000,0.000000,2.273475,3,0
800000,0.007572,18.321108,-0.004133,0.031657,24.994274,0.060474,-0.000772,0.004000,1.569645,-0.012639,-0.001049,0.000506,0.000105,-0.002022,-0.000012,0.012273,-0.007819,0.274328,0.026808,0.189205,0.189205,0.172767,0.694546,0.000000,0.000000,0.000000,0.000000,0.000000,0.000000,0.000000,0.000000,0.000000,0.000000,0.000000,0.000000,2.273462,3,0
810000,0.007644,18.575335,-0.003278,0.031758,25.003035,0.061675,-0.000798,0.004323,1.569635,-0.013398,-0.001093,0.000456,0.000111,-0.002123,-0.000012,0.002963,-0.007894,0.134996,0.008465,0.189769,0.189770,0.172864,0.686824,0.000000,0.000000,0.000000,0.000000,0.000000,0.000000,0.000000,0.000000,0.000000,0.000000,0.000000,0.000000,2.277660,3,0
820000,0.007713,18.833572,-0.003024,0.031725,25.018692,0.061713,-0.000817,0.004943,1.569626,-0.014863,-0.001139,0.000536,0.000117,-0.002321,-0.000014,0.010810,-0.007966,0.258383,-0.012695,0.190323,0.190323,0.172950,0.679153,0.000000,0.000000,0.000000,0.000000,0.000000,0.000000,0.000000,0.000000,0.000000,0.000000,0.000000,0.000000,2.277851,3,0
830000,0.007781,19.089462,-0.001509,0.031998,25.029982,0.063765,-0.000849,0.005388,1.569617,-0.015888,-0.001186,0.000347,0.000123,-0.002462,-0.000014,0.005330,-0.008037,0.178898,0.030951,0.190865,0.190865,0.173022,0.671537,0.000000,0.000000,0.000000,0.000000,0.000000,0.000000,0.000000,0.000000,0.000000,0.000000,0.000000,0.000000,2.280386,3,0
840000,0.007846,19.346193,-0.001708,0.031852,25.042675,0.063705,-0.000877,0.005891,1.569605,-0.017051,-0.001234,0.000531,0.000130,-0.002625,-0.000015,0.006682,-0.008104,0.201200,-0.029332,0.191394,0.191394,0.173082,0.663982,0.000000,0.000000,0.000000,0.000000,0.000000,0.000000,0.000000,0.000000,0.000000,0.000000,0.000000,0.000000,2.282082,3,0
850000,0.007910,19.601851,-0.002698,0.031934,25.053417,0.062116,-0.000910,0.006311,1.569599,-0.018001,-0.001282,0.000890,0.000136,-0.002760,-0.000016,0.004816,-0.008170,0.163006,-0.056590,0.191911,0.191912,0.173128,0.656493,0.000000,0.000000,0.000000,0.000000,0.000000,0.000000,0.000000,0.000000,0.000000,0.000000,0.000000,0.000000,2.284851,3,0
860000,0.007970,19.857077,-0.001851,0.032013,25.063286,0.063254,-0.000937,0.006699,1.569599,-0.018859,-0.001331,0.000843,0.000143,-0.002883,-0.000017,0.003449,-0.008235,0.145788,0.007600,0.192416,0.192416,0.173160,0.649072,0.000000,0.000000,0.000000,0.000000,0.000000,0.000000,0.000000,0.000000,0.000000,0.000000,0.000000,0.000000,2.288050,3,0
870000,0.008030,20.113791,-0.001028,0.032167,25.075611,0.064270,-0.000968,0.007209,1.569604,-0.019977,-0.001381,0.000803,0.000151,-0.003047,-0.000018,0.005758,-0.008297,0.188648,0.006412,0.192906,0.192907,0.173178,0.641725,0.000000,0.000000,0.000000,0.000000,0.000000,0.000000,0.000000,0.000000,0.000000,0.000000,0.000000,0.000000,2.289763,3,0
880000,0.008087,20.373898,0.000394,0.032197,25.093672,0.066183,-0.001004,0.007992,1.569603,-0.021709,-0.001432,0.000629,0.000158,-0.003305,-0.000019,0.013659,-0.008356,0.289631,0.026878,0.193384,0.193384,0.173182,0.634454,0.000000,0.000000,0.000000,0.000000,0.000000,0.000000,0.000000,0.000000,0.000000,0.000000,0.000000,0.000000,2.288081,3,0
890000,0.008143,20.633505,-0.000387,0.032260,25.110554,0.064935,-0.001028,0.008730,1.569589,-0.023321,-0.001484,0.000963,0.000166,-0.003549,-0.000021,0.011993,-0.008414,0.267893,-0.050139,0.193848,0.193848,0.173172,0.627263,0.000000,0.000000,0.000000,0.000000,0.000000,0.000000,0.000000,0.000000,0.000000,0.000000,0.000000,0.000000,2.286901,3,0
900000,0.008192,20.893257,0.000507,0.031836,25.127453,0.066059,-0.001058,0.009486,1.569587,-0.024938,-0.001536,0.000909,0.000174,-0.003797,-0.000022,0.011480,-0.008466,0.266541,0.008346,0.194298,0.194298,0.173147,0.620156,0.000000,0.000000,0.000000,0.000000,0.000000,0.000000,0.000000,0.000000,0.000000,0.000000,0.000000,0.000000,2.285573,3,0
910000,0.008239,21.151863,0.001971,0.031933,25.142361,0.068052,-0.001094,0.010134,1.569583,-0.026313,-0.001589,0.000724,0.000182,-0.004012,-0.000023,0.008320,-0.008516,0.225283,0.027660,0.194735,0.194734,0.173108,0.613135,0.000000,0.000000,0.000000,0.000000,0.000000,0.000000,0.000000,0.000000,0.000000,0.000000,0.000000,0.000000,2.285394,3,0
920000,0.008285,21.410624,0.001078,0.031813,25.157076,0.066480,-0.001125,0.010786,1.569571,-0.027694,-0.001643,0.001098,0.000190,-0.004231,-0.000025,0.008655,-0.008562,0.224957,-0.054651,0.195158,0.195157,0.173055,0.606204,0.000000,0.000000,0.000000,0.000000,0.000000,0.000000,0.000000,0.000000,0.000000,0.000000,0.000000,0.000000,2.285059,3,0
930000,0.008327,21.669531,0.000545,0.031699,25.172085,0.065487,-0.001161,0.011469,1.569559,-0.029081,-0.001697,0.001387,0.000199,-0.004455,-0.000026,0.008417,-0.008606,0.224474,-0.041668,0.195567,0.195567,0.172987,0.599364,0.000000,0.000000,0.000000,0.000000,0.000000,0.000000,0.000000,0.000000,0.000000,0.000000,0.000000,0.000000,2.284578,3,0
940000,0.008367,21.929234,-0.000677,0.031632,25.188242,0.063766,-0.001196,0.012202,1.569551,-0.030595,-0.001752,0.001843,0.000207,-0.004703,-0.000027,0.010279,-0.008648,0.243719,-0.065319,0.195963,0.195963,0.172906,0.592618,0.000000,0.000000,0.000000,0.000000,0.000000,0.000000,0.000000,0.000000,0.000000,0.000000,0.000000,0.000000,2.283303,3,0
950000,0.008402,22.187765,-0.000314,0.031482,25.201990,0.063995,-0.001229,0.012829,1.569555,-0.031861,-0.001807,0.001912,0.000216,-0.004913,-0.000029,0.006639,-0.008687,0.202522,-0.009642,0.196346,0.196346,0.172811,0.585967,0.000000,0.000000,0.000000,0.000000,0.000000,0.000000,0.000000,0.000000,0.000000,0.000000,0.000000,0.000000,2.283198,3,0
960000,0.008438,22.447744,-0.001540,0.031482,25.218243,0.062287,-0.001268,0.013592,1.569557,-0.033380,-0.001863,0.002374,0.000225,-0.005170,-0.000030,0.010140,-0.008722,0.242035,-0.065009,0.196716,0.196716,0.172702,0.579415,0.000000,0.000000,0.000000,0.000000,0.000000,0.000000,0.000000,0.000000,0.000000,0.000000,0.000000,0.000000,2.281643,3,0
970000,0.008472,22.707846,-0.002676,0.031570,25.234558,0.060637,-0.001301,0.014350,1.569547,-0.034896,-0.001920,0.002814,0.000235,-0.005430,-0.000032,0.009929,-0.008758,0.240318,-0.061258,0.197074,0.197073,0.172580,0.572962,0.000000,0.000000,0.000000,0.000000,0.000000,0.000000,0.000000,0.000000,0.000000,0.000000,0.000000,0.000000,2.279969,3,0
980000,0.008504,22.968065,-0.003836,0.031442,25.250902,0.058997,-0.001331,0.015131,1.569549,-0.036407,-0.001977,0.003260,0.000244,-0.005693,-0.000033,0.009794,-0.008791,0.238480,-0.061608,0.197419,0.197419,0.172445,0.566609,0.000000,0.000000,0.000000,0.000000,0.000000,0.000000,0.000000,0.000000,0.000000,0.000000,0.000000,0.000000,2.278174,3,0
990000,0.008530,23.229050,-0.002935,0.031280,25.268394,0.060093,-0.001366,0.015984,1.569545,-0.038040,-0.002035,0.003182,0.000254,-0.005981,-0.000035,0.010627,-0.008821,0.256399,0.010799,0.197752,0.197752,0.172297,0.560359,0.000000,0.000000,0.000000,0.000000,0.000000,0.000000,0.000000,0.000000,0.000000,0.000000,0.000000,0.000000,2.275616,3,0
1000000,0.008556,23.487511,-0.003067,0.031172,25.281258,0.060058,-0.001404,0.016590,1.569536,-0.039153,-0.002092,0.003372,0.000264,-0.006180,-0.000036,0.005008,-0.008847,0.174150,-0.025761,0.198074,0.198073,0.172136,0.554211,0.000000,0.000000,0.000000,0.000000,0.000000,0.000000,0.000000,0.000000,0.000000,0.000000,0.000000,0.000000,2.275580,3,0
1010000,0.008578,23.746103,-0.003361,0.030928,25.293997,0.059645,-0.001438,0.017187,1.569531,-0.040269,-0.002150,0.003604,0.000275,-0.006384,-0.000037,0.005050,-0.008870,0.173988,-0.031354,0.198384,0.198383,0.171964,0.548166,0.000000,0.000000,0.000000,0.000000,0.000000,0.000000,0.000000,0.000000,0.000000,0.000000,0.000000,0.000000,2.275414,3,0
1020000,0.008597,24.006136,-0.002782,0.030903,25.308821,0.060301,-0.001487,0.017921,1.569532,-0.041643,-0.002208,0.003609,0.000285,-0.006637,-0.000039,0.007355,-0.008892,0.213453,-0.000671,0.198684,0.198683,0.171780,0.542226,0.000000,0.000000,0.000000,0.000000,0.000000,0.000000,0.000000,0.000000,0.000000,0.000000,0.000000,0.000000,2.273807,3,0
1030000,0.008617,24.264296,-0.003006,0.030903,25.320528,0.059791,-0.001526,0.018476,1.569525,-0.042625,-0.002267,0.003828,0.000296,-0.006822,-0.000040,0.003875,-0.008911,0.152056,-0.029028,0.198973,0.198972,0.171584,0.536391,0.000000,0.000000,0.000000,0.000000,0.000000,0.000000,0.000000,0.000000,0.000000,0.000000,0.000000,0.000000,2.274074,3,0
1040000,0.008635,24.526546,-0.004062,0.030804,25.339132,0.058052,-0.001563,0.019451,1.569524,-0.044383,-0.002327,0.004267,0.000307,-0.007157,-0.000042,0.012430,-0.008930,0.271481,-0.057818,0.199252,0.199251,0.171377,0.530661,0.000000,0.000000,0.000000,0.000000,0.000000,0.000000,0.000000,0.000000,0.000000,0.000000,0.000000,0.000000,2.270248,3,0
1050000,0.008652,24.784237,-0.004943,0.030848,25.349751,0.056933,-0.001607,0.019937,1.569516,-0.045216,-0.002386,0.004662,0.000318,-0.007318,-0.000042,0.003094,-0.008948,0.128313,-0.051452,0.199521,0.199520,0.171160,0.525038,0.000000,0.000000,0.000000,0.000000,0.000000,0.000000,0.000000,0.000000,0.000000,0.000000,0.000000,0.000000,2.270986,3,0
1060000,0.008663,25.042719,-0.004060,0.030415,25.361473,0.057965,-0.001630,0.020504,1.569512,-0.046185,-0.002445,0.004576,0.000329,-0.007508,-0.000044,0.003601,-0.008961,0.148825,0.010946,0.199781,0.199780,0.170933,0.519519,0.000000,0.000000,0.000000,0.000000,0.000000,0.000000,0.000000,0.000000,0.000000,0.000000,0.000000,0.000000,2.270927,3,0
1070000,0.008670,25.301319,-0.003357,0.030155,25.373220,0.058809,-0.001681,0.021082,1.569499,-0.047155,-0.002504,0.004542,0.000341,-0.007701,-0.000045,0.003576,-0.008969,0.148649,0.004272,0.200033,0.200031,0.170695,0.514106,0.000000,0.000000,0.000000,0.000000,0.000000,0.000000,0.000000,0.000000,0.000000,0.000000,0.000000,0.000000,2.270755,3,0
1080000,0.008675,25.563351,-0.002452,0.029937,25.390896,0.059883,-0.001726,0.022016,1.569491,-0.048774,-0.002564,0.004452,0.000353,-0.008028,-0.000047,0.009922,-0.008975,0.247751,0.011199,0.200276,0.200274,0.170449,0.508798,0.000000,0.000000,0.000000,0.000000,0.000000,0.000000,0.000000,0.000000,0.000000,0.000000,0.000000,0.000000,2.267148,3,0
1090000,0.008678,25.823452,-0.003101,0.029678,25.404785,0.058780,-0.001764,0.022722,1.569489,-0.049981,-0.002624,0.004798,0.000365,-0.008275,-0.000048,0.005800,-0.008977,0.184334,-0.043967,0.200512,0.200509,0.170193,0.503595,0.000000,0.000000,0.000000,0.000000,0.000000,0.000000,0.000000,0.000000,0.000000,0.000000,0.000000,0.000000,2.265474,3,0
1100000,0.008678,26.082975,-0.002176,0.029536,25.417727,0.059848,-0.001813,0.023375,1.569482,-0.051048,-0.002684,0.004702,0.000377,-0.008497,-0.000049,0.004297,-0.008979,0.162638,0.011891,0.200740,0.200737,0.169928,0.498498,0.000000,0.000000,0.000000,0.000000,0.000000,0.000000,0.000000,0.000000,0.000000,0.000000,0.000000,0.000000,2.264375,3,0
1110000,0.008678,26.345924,-0.003179,0.029399,25.436630,0.058472,-0.001853,0.024393,1.569477,-0.052760,-0.002744,0.005153,0.000390,-0.008859,-0.000051,0.011489,-0.008977,0.260803,-0.056611,0.200961,0.200958,0.169656,0.493505,0.000000,0.000000,0.000000,0.000000,0.000000,0.000000,0.000000,0.000000,0.000000,0.000000,0.000000,0.000000,2.259853,3,0
1120000,0.008678,26.605581,-0.003435,0.029490,25.449526,0.058117,-0.001894,0.025039,1.569457,-0.053790,-0.002805,0.005392,0.000402,-0.009080,-0.000053,0.004112,-0.008978,0.156696,-0.029818,0.201175,0.201172,0.169376,0.488615,0.000000,0.000000,0.000000,0.000000,0.000000,0.000000,0.000000,0.000000,0.000000,0.000000,0.000000,0.000000,2.258621,3,0
1130000,0.008673,26.865324,-0.002656,0.029176,25.462234,0.058988,-0.001936,0.025687,1.569444,-0.054812,-0.002864,0.005333,0.000415,-0.009302,-0.000054,0.003907,-0.008975,0.155334,0.007005,0.201384,0.201380,0.169088,0.483828,0.000000,0.000000,0.000000,0.000000,0.000000,0.000000,0.000000,0.000000,0.000000,0.000000,0.000000,0.000000,2.257305,3,0
1140000,0.008669,27.126492,-0.003508,0.029060,25.477505,0.057655,-0.001986,0.026504,1.569441,-0.056086,-0.002925,0.005749,0.000428,-0.009584,-0.000056,0.006477,-0.008969,0.193645,-0.051186,0.201587,0.201583,0.168793,0.479144,0.000000,0.000000,0.000000,0.000000,0.000000,0.000000,0.000000,0.000000,0.000000,0.000000,0.000000,0.000000,2.254564,3,0
1150000,0.008662,27.385715,-0.004085,0.028789,25.489088,0.056677,-0.002027,0.027091,1.569436,-0.056950,-0.002985,0.006085,0.000441,-0.009778,-0.000057,0.003055,-0.008962,0.131115,-0.041045,0.201785,0.201781,0.168492,0.474561,0.000000,0.000000,0.000000,0.000000,0.000000,0.000000,0.000000,0.000000,0.000000,0.000000,0.000000,0.000000,2.253764,3,0
1160000,0.008651,27.645697,-0.004024,0.028436,25.501757,0.056865,-0.002079,0.027757,1.569436,-0.057938,-0.003045,0.006233,0.000454,-0.010003,-0.000058,0.003694,-0.008952,0.150082,-0.018114,0.201978,0.201974,0.168185,0.470079,0.000000,0.000000,0.000000,0.000000,0.000000,0.000000,0.000000,0.000000,0.000000,0.000000,0.000000,0.000000,2.252212,3,0
1170000,0.008641,27.905756,-0.004747,0.028457,25.514484,0.055964,-0.002140,0.028412,1.569427,-0.058915,-0.003106,0.006616,0.000468,-0.010229,-0.000059,0.003905,-0.008941,0.148397,-0.046199,0.202167,0.202162,0.167872,0.465696,0.000000,0.000000,0.000000,0.000000,0.000000,0.000000,0.000000,0.000000,0.000000,0.000000,0.000000,0.000000,2.250576,3,0
1180000,0.008627,28.167227,-0.004549,0.028219,25.529526,0.056055,-0.002191,0.029239,1.569409,-0.060143,-0.003166,0.006719,0.000482,-0.010516,-0.000061,0.005635,-0.008928,0.186394,-0.012843,0.202353,0.202347,0.167553,0.461411,0.000000,0.000000,0.000000,0.000000,0.000000,0.000000,0.000000,0.000000,0.000000,0.000000,0.000000,0.000000,2.247533,3,0
1190000,0.008612,28.428745,-0.003365,0.028037,25.544649,0.057253,-0.002240,0.030058,1.569404,-0.061349,-0.003225,0.006523,0.000496,-0.010801,-0.000063,0.005500,-0.008913,0.183197,0.022573,0.202534,0.202528,0.167229,0.457225,0.000000,0.000000,0.000000,0.000000,0.000000,0.000000,0.000000,0.000000,0.000000,0.000000,0.000000,0.000000,2.244439,3,0
1200000,0.008597,28.691658,-0.004344,0.027963,25.561911,0.055812,-0.002292,0.031038,1.569403,-0.062794,-0.003286,0.006990,0.000510,-0.011150,-0.000065,0.008286,-0.008896,0.219711,-0.055543,0.202713,0.202706,0.166901,0.453135,0.000000,0.000000,0.000000,0.000000,0.000000,0.000000,0.000000,0.000000,0.000000,0.000000,0.000000,0.000000,2.239953,3,0
1210000,0.008581,28.951906,-0.003942,0.027847,25.574533,0.056535,-0.002335,0.031683,1.569392,-0.063685,-0.003345,0.007035,0.000524,-0.011368,-0.000066,0.002976,-0.008881,0.135530,-0.005684,0.202888,0.202881,0.166569,0.449141,0.000000,0.000000,0.000000,0.000000,0.000000,0.000000,0.000000,0.000000,0.000000,0.000000,0.000000,0.000000,2.238130,3,0
1220000,0.008563,29.214235,-0.004226,0.027619,25.590511,0.056083,-0.002389,0.032580,1.569385,-0.064954,-0.003405,0.007292,0.000538,-0.011683,-0.000068,0.006175,-0.008862,0.193222,-0.030461,0.203062,0.203054,0.166232,0.445240,0.000000,0.000000,0.000000,0.000000,0.000000,0.000000,0.000000,0.000000,0.000000,0.000000,0.000000,0.000000,2.234227,3,0
1230000,0.008543,29.474575,-0.005284,0.027235,25.602701,0.054644,-0.002430,0.033220,1.569379,-0.065803,-0.003464,0.007795,0.000553,-0.011897,-0.000069,0.003268,-0.008841,0.129520,-0.058502,0.203233,0.203225,0.165892,0.441431,0.000000,0.000000,0.000000,0.000000,0.000000,0.000000,0.000000,0.000000,0.000000,0.000000,0.000000,0.000000,2.232312,3,0
1240000,0.008521,29.735643,-0.003962,0.027204,25.616287,0.056273,-0.002477,0.033940,1.569371,-0.066768,-0.003523,0.007543,0.000568,-0.012143,-0.000071,0.003638,-0.008821,0.147362,0.028215,0.203403,0.203394,0.165549,0.437716,0.000000,0.000000,0.000000,0.000000,0.000000,0.000000,0.000000,0.000000,0.000000,0.000000,0.000000,0.000000,2.229671,3,0
1250000,0.008497,29.996758,-0.003010,0.027024,25.629641,0.057078,-0.002528,0.034662,1.569367,-0.067714,-0.003581,0.007411,0.000583,-0.012387,-0.000072,0.003412,-0.008796,0.144583,0.014387,0.203572,0.203562,0.165203,0.434089,0.000000,0.000000,0.000000,0.000000,0.000000,0.000000,0.000000,0.000000,0.000000,0.000000,0.000000,0.000000,2.226979,3,0
1260000,0.008470,30.256563,-0.002031,0.026557,25.640480,0.058154,-0.002584,0.035208,1.569347,-0.068379,-0.003638,0.007275,0.000598,-0.012561,-0.000073,0.001724,-0.008768,0.102003,0.014922,0.203739,0.203728,0.164854,0.430552,0.000000,0.000000,0.000000,0.000000,0.000000,0.000000,0.000000,0.000000,0.000000,0.000000,0.000000,0.000000,2.225604,3,0
1270000,0.008443,30.519814,-0.002844,0.026369,25.657267,0.056914,-0.002644,0.036178,1.569338,-0.069681,-0.003697,0.007715,0.000613,-0.012909,-0.000075,0.006861,-0.008739,0.199911,-0.050549,0.203905,0.203894,0.164503,0.427101,0.000000,0.000000,0.000000,0.000000,0.000000,0.000000,0.000000,0.000000,0.000000,0.000000,0.000000,0.000000,2.220777,3,0
1280000,0.008412,30.781710,-0.001621,0.026107,25.671482,0.058398,-0.002693,0.036970,1.569333,-0.070690,-0.003754,0.007492,0.000629,-0.013181,-0.000077,0.003983,-0.008710,0.155161,0.024115,0.204071,0.204059,0.164150,0.423737,0.000000,0.000000,0.000000,0.000000,0.000000,0.000000,0.000000,0.000000,0.000000,0.000000,0.000000,0.000000,2.217307,3,0
1290000,0.008380,31.042278,-0.000370,0.025845,25.683294,0.059925,-0.002736,0.037568,1.569324,-0.071414,-0.003811,0.007266,0.000644,-0.013379,-0.000078,0.002121,-0.008676,0.111788,0.024512,0.204236,0.204224,0.163795,0.420458,0.000000,0.000000,0.000000,0.000000,0.000000,0.000000,0.000000,0.000000,0.000000,0.000000,0.000000,0.000000,2.215165,3,0
1300000,0.008348,31.301537,0.001106,0.025784,25.692595,0.061579,-0.002789,0.038000,1.569322,-0.071866,-0.003867,0.006972,0.000660,-0.013503,-0.000079,0.000964,-0.008643,0.069769,0.032174,0.204402,0.204388,0.163439,0.417263,0.000000,0.000000,0.000000,0.000000,0.000000,0.000000,0.000000,0.000000,0.000000,0.000000,0.000000,0.000000,2.214333,3,0
1310000,0.008316,31.564253,-0.000027,0.025426,25.707701,0.059895,-0.002831,0.038873,1.569328,-0.072951,-0.003924,0.007544,0.000675,-0.013811,-0.000080,0.005232,-0.008607,0.168238,-0.063984,0.204568,0.204553,0.163082,0.414148,0.000000,0.000000,0.000000,0.000000,0.000000,0.000000,0.000000,0.000000,0.000000,0.000000,0.000000,0.000000,2.210039,3,0
1320000,0.008280,31.827650,-0.000400,0.025094,25.723928,0.059236,-0.002880,0.039820,1.569322,-0.074132,-0.003981,0.007856,0.000691,-0.014150,-0.000082,0.005646,-0.008572,0.183674,-0.035406,0.204734,0.204718,0.162724,0.411113,0.000000,0.000000,0.000000,0.000000,0.000000,0.000000,0.000000,0.000000,0.000000,0.000000,0.000000,0.000000,2.205069,3,0
1330000,0.008242,32.090363,-0.000090,0.024727,25.738789,0.059342,-0.002933,0.040672,1.569314,-0.075148,-0.004037,0.007939,0.000707,-0.014446,-0.000084,0.004080,-0.008533,0.158661,-0.010064,0.204901,0.204884,0.162366,0.408158,0.000000,0.000000,0.000000,0.000000,0.000000,0.000000,0.000000,0.000000,0.000000,0.000000,0.000000,0.000000,2.200787,3,0
1340000,0.008204,32.352398,-0.000840,0.024607,25.752247,0.058317,-0.002979,0.041418,1.569302,-0.076007,-0.004093,0.008388,0.000723,-0.014700,-0.000086,0.003314,-0.008493,0.134350,-0.049497,0.205068,0.205050,0.162007,0.405281,0.000000,0.000000,0.000000,0.000000,0.000000,0.000000,0.000000,0.000000,0.000000,0.000000,0.000000,0.000000,2.197174,3,0
1350000,0.008163,32.615128,-0.001503,0.024172,25.766731,0.057187,-0.003027,0.042244,1.569296,-0.076964,-0.004149,0.008803,0.000739,-0.014988,-0.000087,0.003997,-0.008451,0.150478,-0.045875,0.205237,0.205218,0.161648,0.402479,0.000000,0.000000,0.000000,0.000000,0.000000,0.000000,0.000000,0.000000,0.000000,0.000000,0.000000,0.000000,2.192871,3,0
1360000,0.008120,32.875134,-0.001969,0.023810,25.776747,0.056332,-0.003085,0.042685,1.569281,-0.077386,-0.004203,0.009158,0.000754,-0.015117,-0.000088,0.000964,-0.008407,0.066509,-0.038502,0.205406,0.205386,0.161289,0.399755,0.000000,0.000000,0.000000,0.000000,0.000000,0.000000,0.000000,0.000000,0.000000,0.000000,0.000000,0.000000,2.191288,3,0
1370000,0.008075,33.135860,-0.001964,0.023523,25.787451,0.056386,-0.003141,0.043227,1.569274,-0.077921,-0.004257,0.009347,0.000771,-0.015282,-0.000089,0.001236,-0.008360,0.084713,-0.020772,0.205577,0.205556,0.160931,0.397102,0.000000,0.000000,0.000000,0.000000,0.000000,0.000000,0.000000,0.000000,0.000000,0.000000,0.000000,0.000000,2.188991,3,0
1380000,0.008029,33.400028,-0.002016,0.023354,25.804539,0.056178,-0.003193,0.044237,1.569281,-0.079064,-0.004311,0.009544,0.000787,-0.015640,-0.000091,0.005406,-0.008313,0.181694,-0.022425,0.205749,0.205727,0.160574,0.394523,0.000000,0.000000,0.000000,0.000000,0.000000,0.000000,0.000000,0.000000,0.000000,0.000000,0.000000,0.000000,2.183246,3,0
1390000,0.007983,33.660072,-0.001809,0.023233,25.813820,0.056275,-0.003249,0.044650,1.569276,-0.079418,-0.004364,0.009665,0.000803,-0.015752,-0.000092,0.000553,-0.008266,0.056511,-0.013250,0.205923,0.205899,0.160217,0.392013,0.000000,0.000000,0.000000,0.000000,0.000000,0.000000,0.000000,0.000000,0.000000,0.000000,0.000000,0.000000,2.181629,3,0
1400000,0.007936,33.920155,-0.001564,0.022942,25.823092,0.056266,-0.003310,0.045055,1.569263,-0.079759,-0.004415,0.009773,0.000820,-0.015863,-0.000093,0.000517,-0.008217,0.054798,-0.011805,0.206098,0.206073,0.159861,0.389572,0.000000,0.000000,0.000000,0.000000,0.000000,0.000000,0.000000,0.000000,0.000000,0.000000,0.000000,0.000000,2.179973,3,0
1410000,0.007888,34.185055,-0.001457,0.022770,25.840700,0.056014,-0.003374,0.046141,1.569257,-0.080951,-0.004468,0.009912,0.000836,-0.016252,-0.000095,0.005999,-0.008168,0.192204,-0.016344,0.206275,0.206248,0.159507,0.387197,0.000000,0.000000,0.000000,0.000000,0.000000,0.000000,0.000000,0.000000,0.000000,0.000000,0.000000,0.000000,2.173499,3,0
1420000,0.007837,34.445118,-0.000276,0.022401,25.849569,0.057603,-0.003427,0.046511,1.569251,-0.081238,-0.004518,0.009683,0.000853,-0.016345,-0.000095,0.000445,-0.008117,0.046398,0.023341,0.206453,0.206425,0.159154,0.384889,0.000000,0.000000,0.000000,0.000000,0.000000,0.000000,0.000000,0.000000,0.000000,0.000000,0.000000,0.000000,2.171859,3,0
1430000,0.007784,34.708630,0.000976,0.022076,25.864624,0.058671,-0.003476,0.047376,1.569246,-0.082122,-0.004567,0.009415,0.000870,-0.016641,-0.000097,0.003462,-0.008063,0.144066,0.026181,0.206634,0.206604,0.158802,0.382647,0.000000,0.000000,0.000000,0.000000,0.000000,0.000000,0.000000,0.000000,0.000000,0.000000,0.000000,0.000000,2.166774,3,0
1440000,0.007731,34.970070,0.001198,0.021806,25.875731,0.058654,-0.003528,0.047917,1.569231,-0.082605,-0.004617,0.009539,0.000887,-0.016806,-0.000098,0.001049,-0.008007,0.079189,-0.013526,0.206816,0.206784,0.158453,0.380467,0.000000,0.000000,0.000000,0.000000,0.000000,0.000000,0.000000,0.000000,0.000000,0.000000,0.000000,0.000000,2.163760,3,0
1450000,0.007673,35.234249,0.002018,0.021186,25.891432,0.059458,-0.003582,0.048861,1.569223,-0.083550,-0.004666,0.009429,0.000904,-0.017132,-0.000100,0.003920,-0.007948,0.155586,0.009536,0.206999,0.206966,0.158105,0.378348,0.000000,0.000000,0.000000,0.000000,0.000000,0.000000,0.000000,0.000000,0.000000,0.000000,0.000000,0.000000,2.158007,3,0
1460000,0.007616,35.494274,0.002918,0.021027,25.899622,0.060327,-0.003632,0.049162,1.569212,-0.083733,-0.004714,0.009312,0.000920,-0.017196,-0.000101,0.000181,-0.007889,0.030399,0.011584,0.207185,0.207150,0.157760,0.376290,0.000000,0.000000,0.000000,0.000000,0.000000,0.000000,0.000000,0.000000,0.000000,0.000000,0.000000,0.000000,2.156405,3,0
1470000,0.007558,35.758457,0.002830,0.020747,25.915499,0.060146,-0.003685,0.050077,1.569199,-0.084622,-0.004762,0.009548,0.000937,-0.017513,-0.000102,0.003640,-0.007828,0.147984,-0.025684,0.207373,0.207336,0.157416,0.374294,0.000000,0.000000,0.000000,0.000000,0.000000,0.000000,0.000000,0.000000,0.000000,0.000000,0.000000,0.000000,2.150648,3,0
1480000,0.007498,36.019154,0.003453,0.020346,25.924593,0.060416,-0.003735,0.050455,1.569186,-0.084876,-0.004809,0.009533,0.000954,-0.017605,-0.000103,0.000303,-0.007767,0.042679,0.000962,0.207562,0.207523,0.157076,0.372353,0.000000,0.000000,0.000000,0.000000,0.000000,0.000000,0.000000,0.000000,0.000000,0.000000,0.000000,0.000000,2.148378,3,0
1490000,0.007439,36.279865,0.002658,0.020048,25.933529,0.059240,-0.003778,0.050825,1.569170,-0.085115,-0.004856,0.010061,0.000970,-0.017695,-0.000104,0.000736,-0.007703,0.040318,-0.053499,0.207753,0.207713,0.156737,0.370468,0.000000,0.000000,0.000000,0.000000,0.000000,0.000000,0.000000,0.000000,0.000000,0.000000,0.000000,0.000000,2.146093,3,0
1500000,0.007377,36.544025,0.003178,0.019872,25.948570,0.059584,-0.003841,0.051703,1.569155,-0.085923,-0.004902,0.010063,0.000987,-0.017996,-0.000105,0.003045,-0.007642,0.137337,-0.002017,0.207946,0.207904,0.156402,0.368638,0.000000,0.000000,0.000000,0.000000,0.000000,0.000000,0.000000,0.000000,0.000000,0.000000,0.000000,0.000000,2.140355,3,0
1510000,0.007316,36.808147,0.002455,0.019496,25.963511,0.058597,-0.003894,0.052569,1.569139,-0.086692,-0.004949,0.010548,0.001004,-0.018289,-0.000107,0.003195,-0.007577,0.131447,-0.050012,0.208141,0.208096,0.156069,0.366862,0.000000,0.000000,0.000000,0.000000,0.000000,0.000000,0.000000,0.000000,0.000000,0.000000,0.000000,0.000000,2.134664,3,0
1520000,0.007254,37.071526,0.001975,0.019325,25.976933,0.057597,-0.003946,0.053295,1.569128,-0.087306,-0.004994,0.010942,0.001020,-0.018527,-0.000109,0.002072,-0.007514,0.105724,-0.040423,0.208337,0.208290,0.155739,0.365139,0.000000,0.000000,0.000000,0.000000,0.000000,0.000000,0.000000,0.000000,0.000000,0.000000,0.000000,0.000000,2.129708,3,0
1530000,0.007192,37.331406,0.002718,0.019276,25.984026,0.058370,-0.003997,0.053468,1.569122,-0.087313,-0.005037,0.010878,0.001037,-0.018529,-0.000109,0.000015,-0.007452,0.001240,0.006232,0.208535,0.208486,0.155412,0.363470,0.000000,0.000000,0.000000,0.000000,0.000000,0.000000,0.000000,0.000000,0.000000,0.000000,0.000000,0.000000,2.128255,3,0
1540000,0.007130,37.593391,0.001864,0.018811,25.994753,0.056868,-0.004052,0.053969,1.569109,-0.087653,-0.005081,0.011432,0.001053,-0.018667,-0.000110,0.001071,-0.007385,0.059349,-0.055256,0.208735,0.208684,0.155088,0.361848,0.000000,0.000000,0.000000,0.000000,0.000000,0.000000,0.000000,0.000000,0.000000,0.000000,0.000000,0.000000,2.124695,3,0
1550000,0.007066,37.858120,0.001681,0.018487,26.010181,0.056251,-0.004116,0.054887,1.569103,-0.088420,-0.005125,0.011700,0.001070,-0.018976,-0.000111,0.003078,-0.007320,0.135201,-0.028200,0.208936,0.208882,0.154767,0.360274,0.000000,0.000000,0.000000,0.000000,0.000000,0.000000,0.000000,0.000000,0.000000,0.000000,0.000000,0.000000,2.118393,3,0
1560000,0.006997,38.120003,0.002369,0.017898,26.020168,0.057008,-0.004168,0.055325,1.569093,-0.088697,-0.005166,0.011640,0.001086,-0.019088,-0.000112,0.000402,-0.007250,0.049229,0.005051,0.209138,0.209082,0.154450,0.358746,0.000000,0.000000,0.000000,0.000000,0.000000,0.000000,0.000000,0.000000,0.000000,0.000000,0.000000,0.000000,2.114937,3,0
1570000,0.006926,38.380482,0.002613,0.017438,26.027342,0.056947,-0.004222,0.055539,1.569072,-0.088730,-0.005206,0.011771,0.001103,-0.019103,-0.000112,0.000040,-0.007176,0.005913,-0.012772,0.209342,0.209283,0.154136,0.357263,0.000000,0.000000,0.000000,0.000000,0.000000,0.000000,0.000000,0.000000,0.000000,0.000000,0.000000,0.000000,2.112881,3,0
1580000,0.006855,38.640968,0.002099,0.017169,26.034811,0.056163,-0.004279,0.055730,1.569062,-0.088751,-0.005247,0.012210,0.001119,-0.019115,-0.000113,0.000303,-0.007102,0.003788,-0.042431,0.209546,0.209486,0.153825,0.355828,0.000000,0.000000,0.000000,0.000000,0.000000,0.000000,0.000000,0.000000,0.000000,0.000000,0.000000,0.000000,2.110821,3,0
1590000,0.006785,38.901463,0.001057,0.016847,26.042170,0.054694,-0.004322,0.055912,1.569049,-0.088760,-0.005287,0.012863,0.001135,-0.019123,-0.000113,0.000650,-0.007028,0.001648,-0.062858,0.209752,0.209689,0.153518,0.354436,0.000000,0.000000,0.000000,0.000000,0.000000,0.000000,0.000000,0.000000,0.000000,0.000000,0.000000,0.000000,2.108753,3,0
1600000,0.006710,39.161942,0.001122,0.016281,26.049112,0.054549,-0.004383,0.056090,1.569033,-0.088758,-0.005326,0.013063,0.001151,-0.019124,-0.000113,0.000067,-0.006952,-0.000488,-0.019060,0.209959,0.209893,0.153215,0.353084,0.000000,0.000000,0.000000,0.000000,0.000000,0.000000,0.000000,0.000000,0.000000,0.000000,0.000000,0.000000,2.106700,3,0
1610000,0.006634,39.425896,0.001377,0.016023,26.062502,0.054501,-0.004446,0.056825,1.569027,-0.089279,-0.005364,0.013156,0.001167,-0.019354,-0.000115,0.001532,-0.006874,0.096779,-0.010575,0.210167,0.210098,0.152915,0.351774,0.000000,0.000000,0.000000,0.000000,0.000000,0.000000,0.000000,0.000000,0.000000,0.000000,0.000000,0.000000,2.101169,3,0
1620000,0.006560,39.684925,0.000421,0.015750,26.066664,0.053267,-0.004507,0.056730,1.569015,-0.089023,-0.005402,0.013794,0.001183,-0.019244,-0.000114,0.000958,-0.006796,-0.048035,-0.059739,0.210375,0.210303,0.152619,0.350504,0.000000,0.000000,0.000000,0.000000,0.000000,0.000000,0.000000,0.000000,0.000000,0.000000,0.000000,0.000000,2.100569,3,0
1630000,0.006482,39.944660,0.000806,0.015366,26.072172,0.053718,-0.004562,0.056741,1.568999,-0.088870,-0.005437,0.013867,0.001199,-0.019176,-0.000114,0.000147,-0.006718,-0.028801,-0.006386,0.210584,0.210510,0.152327,0.349274,0.000000,0.000000,0.000000,0.000000,0.000000,0.000000,0.000000,0.000000,0.000000,0.000000,0.000000,0.000000,2.099257,3,0
1640000,0.006404,40.205109,-0.000245,0.014820,26.078665,0.052303,-0.004615,0.056869,1.568986,-0.088817,-0.005474,0.014537,0.001214,-0.019156,-0.000114,0.000668,-0.006635,-0.010284,-0.062977,0.210793,0.210716,0.152038,0.348078,0.000000,0.000000,0.000000,0.000000,0.000000,0.000000,0.000000,0.000000,0.000000,0.000000,0.000000,0.000000,2.097235,3,0
1650000,0.006321,40.467625,0.000558,0.014356,26.088718,0.052992,-0.004688,0.057317,1.568970,-0.089061,-0.005508,0.014406,0.001230,-0.019270,-0.000115,0.000388,-0.006552,0.047268,0.011459,0.211003,0.210923,0.151754,0.346917,0.000000,0.000000,0.000000,0.000000,0.000000,0.000000,0.000000,0.000000,0.000000,0.000000,0.000000,0.000000,2.093145,3,0
1660000,0.006235,40.727295,0.001833,0.013833,26.093487,0.054665,-0.004750,0.057260,1.568940,-0.088874,-0.005540,0.014106,0.001246,-0.019178,-0.000115,0.000354,-0.006464,-0.036442,0.028751,0.211213,0.211130,0.151473,0.345793,0.000000,0.000000,0.000000,0.000000,0.000000,0.000000,0.000000,0.000000,0.000000,0.000000,0.000000,0.000000,2.091902,3,0
1670000,0.006146,40.988373,0.002399,0.013119,26.100697,0.055133,-0.004805,0.057444,1.568933,-0.088885,-0.005572,0.014099,0.001262,-0.019183,-0.000115,0.000007,-0.006370,0.002026,0.000611,0.211423,0.211337,0.151196,0.344700,0.000000,0.000000,0.000000,0.000000,0.000000,0.000000,0.000000,0.000000,0.000000,0.000000,0.000000,0.000000,2.089246,3,0
1680000,0.006058,41.252235,0.002488,0.012927,26.112850,0.054791,-0.004859,0.058082,1.568923,-0.089280,-0.005605,0.014270,0.001277,-0.019379,-0.000116,0.001055,-0.006279,0.078815,-0.017521,0.211633,0.211544,0.150924,0.343640,0.000000,0.000000,0.000000,0.000000,0.000000,0.000000,0.000000,0.000000,0.000000,0.000000,0.000000,0.000000,2.083810,3,0
1690000,0.005972,41.515339,0.001524,0.012604,26.123657,0.053338,-0.004914,0.058588,1.568920,-0.089544,-0.005638,0.014903,0.001292,-0.019517,-0.000117,0.001044,-0.006188,0.053379,-0.059727,0.211843,0.211750,0.150655,0.342614,0.000000,0.000000,0.000000,0.000000,0.000000,0.000000,0.000000,0.000000,0.000000,0.000000,0.000000,0.000000,2.079133,3,0
1700000,0.005886,41.775574,0.000794,0.012306,26.129124,0.052192,-0.004962,0.058593,1.568907,-0.089392,-0.005670,0.015464,0.001307,-0.019445,-0.000117,0.000582,-0.006099,-0.030926,-0.050941,0.212052,0.211956,0.150390,0.341621,0.000000,0.000000,0.000000,0.000000,0.000000,0.000000,0.000000,0.000000,0.000000,0.000000,0.000000,0.000000,2.077325,3,0
1710000,0.005787,42.011276,0.000145,0.011970,26.136698,0.051310,-0.005012,0.058841,1.568906,-0.089456,-0.005701,0.015947,0.001322,-0.019482,-0.000117,0.000360,-0.005997,0.013233,-0.044810,0.211506,0.211409,0.149784,0.340237,0.000000,0.000000,0.000000,0.000000,0.000000,0.000000,0.000000,0.000000,0.000000,0.000000,0.000000,0.000000,2.100044,3,0
1720000,0.005700,42.272362,0.000497,0.011719,26.143415,0.051510,-0.005066,0.058961,1.568883,-0.089407,-0.005729,0.016023,0.001336,-0.019457,-0.000117,0.000030,-0.005908,-0.010139,-0.006750,0.211740,0.211639,0.149537,0.339320,0.000000,0.000000,0.000000,0.000000,0.000000,0.000000,0.000000,0.000000,0.000000,0.000000,0.000000,0.000000,2.097385,3,0
