time_us,pos_x,pos_y,pos_z,vel_x,vel_y,vel_z,roll,pitch,yaw,bias_ax,bias_ay,bias_az,bias_gx,bias_gy,bias_gz,nis,innov_x,innov_y,innov_z,cov_pos_x,cov_pos_y,cov_pos_z,cov_yaw,des_speed,des_heading,des_climb,pid_speed,pid_yaw,pid_alt,speed_meas,yaw_meas,climb_meas,fwd_accel,yaw_rate,vert_accel,drift_m,nav_mode,mission_state
0,0.000002,0.150001,-0.000000,0.000381,25.000193,-0.000068,-0.000002,0.000010,1.570797,0.000000,0.000000,0.000000,0.000000,0.000000,0.000000,0.006250,-0.000004,-0.250004,0.000001,2.400038,2.400038,3.600017,1.000518,0.000000,0.000000,0.000000,0.000000,0.000000,0.000000,0.000000,0.000000,0.000000,0.000000,0.000000,0.000000,0.150001,1,0
10000,0.000008,0.365233,0.014359,0.000872,25.000456,0.000140,0.000006,0.000026,1.570803,0.000000,-0.000000,-0.000000,0.000000,0.000000,0.000000,0.001916,-0.000011,-0.121703,0.038289,1.714420,1.714420,2.250079,1.001073,0.000000,0.000000,0.000000,0.000000,0.000000,0.000000,0.000000,0.000000,0.000000,0.000000,0.000000,0.000000,0.086928,3,0
20000,0.000017,0.584535,0.025677,0.001377,25.000450,0.000438,0.000005,0.000045,1.570805,0.000002,-0.000000,-0.000000,0.000000,0.000000,0.000000,0.002682,-0.000022,-0.138147,0.041480,1.333616,1.333616,1.636554,1.001655,0.000000,0.000000,0.000000,0.000000,0.000000,0.000000,0.000000,0.000000,0.000000,0.000000,0.000000,0.000000,0.107441,3,0
30000,0.000028,0.823764,0.020873,0.001779,25.000746,0.000253,0.000022,0.000054,1.570809,0.000003,-0.000000,-0.000000,-0.000000,0.000000,0.000000,0.000545,-0.000035,-0.059267,-0.022424,1.091392,1.091392,1.286065,1.002257,0.000000,0.000000,0.000000,0.000000,0.000000,0.000000,0.000000,0.000000,0.000000,0.000000,0.000000,0.000000,0.048487,3,0
40000,0.000043,1.046181,0.019113,0.002197,25.000326,0.000457,0.000025,0.000067,1.570821,0.000008,-0.000000,0.000000,-0.000000,0.000000,0.000000,0.004543,-0.000050,-0.179224,-0.009998,0.923811,0.923811,1.059385,1.002869,0.000000,0.000000,0.000000,0.000000,0.000000,0.000000,0.000000,0.000000,0.000000,0.000000,0.000000,0.000000,0.151630,3,0
50000,0.000059,1.298301,0.015116,0.002547,25.000872,0.000540,0.000024,0.000081,1.570818,0.000007,-0.000000,0.000001,-0.000000,0.000000,0.000000,0.000137,-0.000068,0.015820,-0.026664,0.801036,0.801036,0.900822,1.003484,0.000000,0.000000,0.000000,0.000000,0.000000,0.000000,0.000000,0.000000,0.000000,0.000000,0.000000,0.000000,0.013708,3,0
60000,0.000078,1.536861,0.013659,0.002934,25.000628,0.000522,0.000031,0.000088,1.570832,0.000013,-0.000000,0.000002,0.000000,0.000000,0.000000,0.001406,-0.000088,-0.097152,-0.011200,0.707270,0.707270,0.783741,1.004094,0.000000,0.000000,0.000000,0.000000,0.000000,0.000000,0.000000,0.000000,0.000000,0.000000,0.000000,0.000000,0.085700,3,0
70000,0.000100,1.780812,0.017355,0.003421,25.000710,0.000764,0.000034,0.000109,1.570834,0.000018,-0.000000,-0.000001,0.000000,0.000000,0.000000,0.000641,-0.000112,-0.057406,0.031912,0.633370,0.633370,0.693801,1.004688,0.000000,0.000000,0.000000,0.000000,0.000000,0.000000,0.000000,0.000000,0.000000,0.000000,0.000000,0.000000,0.051347,3,0
80000,0.000125,2.022917,0.020474,0.003835,25.000452,0.001123,0.000039,0.000121,1.570832,0.000026,-0.000000,-0.000003,0.000000,0.000000,0.000000,0.001165,-0.000139,-0.082690,0.029971,0.573673,0.573673,0.622594,1.005260,0.000000,0.000000,0.000000,0.000000,0.000000,0.000000,0.000000,0.000000,0.000000,0.000000,0.000000,0.000000,0.074783,3,0
90000,0.000153,2.270599,0.022462,0.004268,25.000608,0.001420,0.000055,0.000129,1.570828,0.000029,-0.000000,-0.000006,0.000000,0.000000,0.000000,0.000174,-0.000168,-0.026608,0.020985,0.524488,0.524488,0.564865,1.005801,0.000000,0.000000,0.000000,0.000000,0.000000,0.000000,0.000000,0.000000,0.000000,0.000000,0.000000,0.000000,0.024282,3,0
100000,0.000184,2.522534,0.019630,0.004702,25.001215,0.001345,0.000067,0.000136,1.570838,0.000026,-0.000000,-0.000001,0.000000,0.000000,0.000000,0.000254,-0.000200,0.023892,-0.033043,0.483304,0.483304,0.517162,1.006301,0.000000,0.000000,0.000000,0.000000,0.000000,0.000000,0.000000,0.000000,0.000000,0.000000,0.000000,0.000000,0.021968,3,0
110000,0.000218,2.770363,0.017427,0.005090,25.001245,0.001008,0.000071,0.000149,1.570846,0.000031,-0.000000,0.000004,0.000000,0.000000,0.000000,0.000251,-0.000235,-0.029259,-0.027869,0.448354,0.448354,0.477121,1.006754,0.000000,0.000000,0.000000,0.000000,0.000000,0.000000,0.000000,0.000000,0.000000,0.000000,0.000000,0.000000,0.027073,3,0
120000,0.000254,3.019078,0.013787,0.005487,25.001377,0.000412,0.000078,0.000170,1.570852,0.000035,-0.000000,0.000015,0.000000,0.000000,0.000000,0.000431,-0.000273,-0.018662,-0.049418,0.418359,0.418359,0.443071,1.007150,0.000000,0.000000,0.000000,0.000000,0.000000,0.000000,0.000000,0.000000,0.000000,0.000000,0.000000,0.000000,0.017363,3,0
130000,0.000292,3.269809,0.013151,0.005912,25.001883,0.000346,0.000091,0.000188,1.570852,0.000032,-0.000000,0.000017,0.000000,0.000000,0.000000,0.000032,-0.000313,0.010926,-0.009288,0.392369,0.392369,0.413797,1.007481,0.000000,0.000000,0.000000,0.000000,0.000000,0.000000,0.000000,0.000000,0.000000,0.000000,0.000000,0.000000,0.010216,3,0
140000,0.000335,3.519754,0.014279,0.006432,25.002243,0.000693,0.000102,0.000197,1.570849,0.000033,-0.000000,0.000012,0.000000,0.000000,0.000000,0.000047,-0.000357,-0.001264,0.017345,0.369666,0.369666,0.388393,1.007739,0.000000,0.000000,0.000000,0.000000,0.000000,0.000000,0.000000,0.000000,0.000000,0.000000,0.000000,0.000000,0.001232,3,0
150000,0.000381,3.769043,0.015272,0.006938,25.002535,0.001159,0.000112,0.000208,1.570854,0.000037,-0.000001,0.000007,0.000000,0.000000,0.000000,0.000066,-0.000404,-0.012666,0.016114,0.349695,0.349695,0.366172,1.007915,0.000000,0.000000,0.000000,0.000000,0.000000,0.000000,0.000000,0.000000,0.000000,0.000000,0.000000,0.000000,0.011934,3,0
160000,0.000430,4.018877,0.012756,0.007407,25.002825,0.000506,0.000128,0.000223,1.570858,0.000038,-0.000001,0.000023,0.000000,0.000000,0.000000,0.000302,-0.000455,-0.003531,-0.043742,0.332021,0.332021,0.346600,1.008002,0.000000,0.000000,0.000000,0.000000,0.000000,0.000000,0.000000,0.000000,0.000000,0.000000,0.000000,0.000000,0.003363,3,0
170000,0.000481,4.269176,0.014000,0.007796,25.003389,0.001023,0.000131,0.000244,1.570864,0.000036,-0.000001,0.000013,0.000000,0.000000,0.000000,0.000084,-0.000508,0.005057,0.022544,0.316298,0.316298,0.329260,1.007991,0.000000,0.000000,0.000000,0.000000,0.000000,0.000000,0.000000,0.000000,0.000000,0.000000,0.000000,0.000000,0.004815,3,0
180000,0.000536,4.519877,0.011557,0.008308,25.003954,0.000479,0.000130,0.000255,1.570876,0.000030,-0.000001,0.000035,0.000000,0.000000,0.000000,0.000375,-0.000564,0.013180,-0.046935,0.302247,0.302247,0.313817,1.007875,0.000000,0.000000,0.000000,0.000000,0.000000,0.000000,0.000000,0.000000,0.000000,0.000000,0.000000,0.000000,0.012527,3,0
190000,0.000593,4.772850,0.011844,0.008758,25.005527,0.000590,0.000131,0.000287,1.570878,-0.000002,-0.000001,0.000032,0.000000,-0.000001,-0.000000,0.000589,-0.000623,0.060655,0.005635,0.289642,0.289642,0.300003,1.007645,0.000000,0.000000,0.000000,0.000000,0.000000,0.000000,0.000000,0.000000,0.000000,0.000000,0.000000,0.000000,0.057730,3,0
200000,0.000653,5.023210,0.011292,0.009127,25.006180,0.000258,0.000134,0.000302,1.570892,-0.000006,-0.000002,0.000039,0.000000,-0.000001,-0.000000,0.000028,-0.000685,0.006455,-0.011614,0.278296,0.278296,0.287598,1.007295,0.000000,0.000000,0.000000,0.000000,0.000000,0.000000,0.000000,0.000000,0.000000,0.000000,0.000000,0.000000,0.006190,3,0
210000,0.000716,5.274812,0.012729,0.009656,25.007252,0.000877,0.000148,0.000325,1.570887,-0.000028,-0.000002,0.000019,0.000000,-0.000001,-0.000000,0.000342,-0.000750,0.034395,0.031117,0.268055,0.268055,0.276421,1.006816,0.000000,0.000000,0.000000,0.000000,0.000000,0.000000,0.000000,0.000000,0.000000,0.000000,0.000000,0.000000,0.032866,3,0
220000,0.000781,5.531812,0.010856,0.010005,25.010988,-0.000061,0.000151,0.000366,1.570897,-0.000140,-0.000003,0.000049,0.000000,-0.000005,-0.000000,0.004393,-0.000816,0.160480,-0.042358,0.258788,0.258788,0.266321,1.006202,0.000000,0.000000,0.000000,0.000000,0.000000,0.000000,0.000000,0.000000,0.000000,0.000000,0.000000,0.000000,0.153560,3,0
230000,0.000848,5.784534,0.010780,0.010420,25.012726,0.000021,0.000162,0.000403,1.570898,-0.000188,-0.000004,0.000050,0.000000,-0.000006,-0.000000,0.000624,-0.000885,0.062475,-0.001772,0.250386,0.250386,0.257172,1.005446,0.000000,0.000000,0.000000,0.000000,0.000000,0.000000,0.000000,0.000000,0.000000,0.000000,0.000000,0.000000,0.059874,3,0
240000,0.000918,6.038227,0.010412,0.010767,25.015011,0.000040,0.000168,0.000448,1.570905,-0.000260,-0.000004,0.000057,0.000000,-0.000009,-0.000000,0.001253,-0.000956,0.088041,-0.008946,0.242757,0.242757,0.248866,1.004541,0.000000,0.000000,0.000000,0.000000,0.000000,0.000000,0.000000,0.000000,0.000000,0.000000,0.000000,0.000000,0.084484,3,0
250000,0.000989,6.292026,0.011060,0.011151,25.017469,0.000409,0.000178,0.000494,1.570906,-0.000343,-0.000005,0.000043,0.000000,-0.000012,-0.000000,0.001419,-0.001029,0.092751,0.016107,0.235820,0.235820,0.241314,1.003481,0.000000,0.000000,0.000000,0.000000,0.000000,0.000000,0.000000,0.000000,0.000000,0.000000,0.000000,0.000000,0.089111,3,0
260000,0.001063,6.545169,0.009495,0.011601,25.019724,-0.000578,0.000190,0.000525,1.570904,-0.000417,-0.000006,0.000081,0.000000,-0.000015,-0.000000,0.001220,-0.001105,0.077474,-0.040145,0.229506,0.229506,0.234436,1.002258,0.000000,0.000000,0.000000,0.000000,0.000000,0.000000,0.000000,0.000000,0.000000,0.000000,0.000000,0.000000,0.074518,3,0
270000,0.001139,6.799939,0.008189,0.012027,25.023172,-0.001428,0.000204,0.000570,1.570904,-0.000544,-0.000008,0.000116,0.000000,-0.000019,-0.000000,0.002595,-0.001183,0.122492,-0.034170,0.223756,0.223756,0.228165,1.000869,0.000000,0.000000,0.000000,0.000000,0.000000,0.000000,0.000000,0.000000,0.000000,0.000000,0.000000,0.000000,0.117929,3,0
280000,0.001217,7.054769,0.008975,0.012378,25.026808,-0.000982,0.000203,0.000629,1.570900,-0.000683,-0.000009,0.000092,0.000000,-0.000025,-0.000000,0.002629,-0.001263,0.126113,0.021614,0.218519,0.218519,0.222443,0.999307,0.000000,0.000000,0.000000,0.000000,0.000000,0.000000,0.000000,0.000000,0.000000,0.000000,0.000000,0.000000,0.121526,3,0
290000,0.001299,7.307536,0.008441,0.012901,25.029045,-0.001148,0.000209,0.000673,1.570908,-0.000765,-0.000011,0.000109,0.000000,-0.000028,-0.000000,0.000823,-0.001347,0.070037,-0.014520,0.213747,0.213747,0.217219,0.997567,0.000000,0.000000,0.000000,0.000000,0.000000,0.000000,0.000000,0.000000,0.000000,0.000000,0.000000,0.000000,0.067555,3,0
300000,0.001383,7.565327,0.008156,0.013406,25.035202,-0.001443,0.000214,0.000764,1.570919,-0.001035,-0.000012,0.000119,0.000000,-0.000040,-0.000000,0.007433,-0.001433,0.214826,-0.007688,0.209402,0.209402,0.212446,0.995645,0.000000,0.000000,0.000000,0.000000,0.000000,0.000000,0.000000,0.000000,0.000000,0.000000,0.000000,0.000000,0.207333,3,0
310000,0.001469,7.821698,0.009974,0.013730,25.040594,-0.000178,0.000215,0.000864,1.570927,-0.001270,-0.000014,0.000049,0.000001,-0.000050,-0.000000,0.005415,-0.001521,0.175640,0.052841,0.205447,0.205447,0.208087,0.993536,0.000000,0.000000,0.000000,0.000000,0.000000,0.000000,0.000000,0.000000,0.000000,0.000000,0.000000,0.000000,0.169633,3,0
320000,0.001557,8.074742,0.008689,0.014199,25.043400,-0.001066,0.000218,0.000908,1.570923,-0.001381,-0.000017,0.000102,0.000001,-0.000055,-0.000000,0.001216,-0.001611,0.078246,-0.037735,0.201852,0.201852,0.204105,0.991237,0.000000,0.000000,0.000000,0.000000,0.000000,0.000000,0.000000,0.000000,0.000000,0.000000,0.000000,0.000000,0.075630,3,0
330000,0.001648,8.331238,0.008784,0.014637,25.049229,-0.001083,0.000225,0.001010,1.570937,-0.001655,-0.000019,0.000097,0.000001,-0.000068,-0.000000,0.005399,-0.001704,0.182995,0.003190,0.198587,0.198587,0.200469,0.988744,0.000000,0.000000,0.000000,0.000000,0.000000,0.000000,0.000000,0.000000,0.000000,0.000000,0.000000,0.000000,0.176946,3,0
340000,0.001739,8.585817,0.009963,0.014963,25.053507,0.000146,0.000232,0.001097,1.570933,-0.001853,-0.000022,0.000040,0.000001,-0.000078,-0.000000,0.002740,-0.001798,0.125231,0.036135,0.195627,0.195627,0.197151,0.986054,0.000000,0.000000,0.000000,0.000000,0.000000,0.000000,0.000000,0.000000,0.000000,0.000000,0.000000,0.000000,0.121161,3,0
350000,0.001833,8.843063,0.010138,0.015450,25.060459,0.000192,0.000242,0.001233,1.570933,-0.002201,-0.000025,0.000031,0.000001,-0.000096,-0.000000,0.007021,-0.001894,0.208549,0.005408,0.192950,0.192950,0.194125,0.983164,0.000000,0.000000,0.000000,0.000000,0.000000,0.000000,0.000000,0.000000,0.000000,0.000000,0.000000,0.000000,0.201852,3,0
360000,0.001929,9.100963,0.009210,0.015849,25.068314,-0.000412,0.000251,0.001382,1.570937,-0.002603,-0.000029,0.000082,0.000001,-0.000117,-0.000001,0.008641,-0.001992,0.229538,-0.029235,0.190534,0.190534,0.191370,0.980074,0.000000,0.000000,0.000000,0.000000,0.000000,0.000000,0.000000,0.000000,0.000000,0.000000,0.000000,0.000000,0.222257,3,0
370000,0.002027,9.358246,0.009486,0.016253,25.075649,0.000029,0.000265,0.001518,1.570952,-0.002991,-0.000032,0.000066,0.000001,-0.000137,-0.000001,0.007140,-0.002092,0.210109,0.008861,0.188360,0.188360,0.188863,0.976780,0.000000,0.000000,0.000000,0.000000,0.000000,0.000000,0.000000,0.000000,0.000000,0.000000,0.000000,0.000000,0.203523,3,0
380000,0.002126,9.612482,0.009769,0.016627,25.080057,0.000326,0.000266,0.001599,1.570954,-0.003207,-0.000037,0.000048,0.000002,-0.000149,-0.000001,0.002032,-0.002194,0.111782,0.009082,0.186412,0.186412,0.186586,0.973283,0.000000,0.000000,0.000000,0.000000,0.000000,0.000000,0.000000,0.000000,0.000000,0.000000,0.000000,0.000000,0.108330,3,0
390000,0.002226,9.866857,0.009385,0.017019,25.084532,0.000142,0.000279,0.001693,1.570967,-0.003442,-0.000041,0.000074,0.000002,-0.000163,-0.000001,0.002198,-0.002296,0.115929,-0.012662,0.184674,0.184674,0.184522,0.969582,0.000000,0.000000,0.000000,0.000000,0.000000,0.000000,0.000000,0.000000,0.000000,0.000000,0.000000,0.000000,0.112382,3,0
400000,0.002327,10.121368,0.010168,0.017330,25.089342,0.001117,0.000285,0.001794,1.570979,-0.003695,-0.000046,0.000019,0.000002,-0.000177,-0.000001,0.002431,-0.002400,0.119934,0.025644,0.183130,0.183130,0.182656,0.965677,0.000000,0.000000,0.000000,0.000000,0.000000,0.000000,0.000000,0.000000,0.000000,0.000000,0.000000,0.000000,0.116297,3,0
410000,0.002428,10.375417,0.010759,0.017674,25.093733,0.001634,0.000298,0.001879,1.570979,-0.003925,-0.000052,-0.000023,0.000003,-0.000191,-0.000001,0.001806,-0.002504,0.103921,0.019278,0.181768,0.181768,0.180971,0.961568,0.000000,0.000000,0.000000,0.000000,0.000000,0.000000,0.000000,0.000000,0.000000,0.000000,0.000000,0.000000,0.100802,3,0
420000,0.002532,10.631413,0.011626,0.018113,25.100487,0.002804,0.000311,0.002018,1.570985,-0.004312,-0.000058,-0.000089,0.000003,-0.000215,-0.000001,0.004688,-0.002610,0.167892,0.028375,0.180575,0.180575,0.179456,0.957257,0.000000,0.000000,0.000000,0.000000,0.000000,0.000000,0.000000,0.000000,0.000000,0.000000,0.000000,0.000000,0.162859,3,0
430000,0.002637,10.887518,0.012251,0.018541,25.107489,0.003675,0.000315,0.002163,1.571001,-0.004720,-0.000064,-0.000137,0.000003,-0.000241,-0.000001,0.004753,-0.002718,0.170254,0.020048,0.179539,0.179539,0.178097,0.952745,0.000000,0.000000,0.000000,0.000000,0.000000,0.000000,0.000000,0.000000,0.000000,0.000000,0.000000,0.000000,0.165180,3,0
440000,0.002742,11.144919,0.012586,0.018821,25.116222,0.004215,0.000321,0.002363,1.570998,-0.005250,-0.000071,-0.000162,0.000004,-0.000275,-0.000001,0.007303,-0.002826,0.212262,0.010046,0.178649,0.178649,0.176883,0.948035,0.000000,0.000000,0.000000,0.000000,0.000000,0.000000,0.000000,0.000000,0.000000,0.000000,0.000000,0.000000,0.205960,3,0
450000,0.002848,11.401821,0.013895,0.019229,25.124512,0.005608,0.000325,0.002540,1.570996,-0.005750,-0.000079,-0.000274,0.000004,-0.000308,-0.000001,0.006349,-0.002935,0.193318,0.043290,0.177897,0.177897,0.175803,0.943129,0.000000,0.000000,0.000000,0.000000,0.000000,0.000000,0.000000,0.000000,0.000000,0.000000,0.000000,0.000000,0.187608,3,0
460000,0.002956,11.656478,0.014038,0.019646,25.129795,0.005581,0.000333,0.002657,1.571005,-0.006060,-0.000087,-0.000283,0.000005,-0.000329,-0.000001,0.002151,-0.003046,0.115245,0.003033,0.177271,0.177271,0.174847,0.938030,0.000000,0.000000,0.000000,0.000000,0.000000,0.000000,0.000000,0.000000,0.000000,0.000000,0.000000,0.000000,0.111879,3,0
470000,0.003063,11.913630,0.013583,0.019918,25.138514,0.004890,0.000335,0.002864,1.571021,-0.006612,-0.000096,-0.000234,0.000006,-0.000367,-0.000002,0.006424,-0.003156,0.198477,-0.017573,0.176763,0.176763,0.174006,0.932742,0.000000,0.000000,0.000000,0.000000,0.000000,0.000000,0.000000,0.000000,0.000000,0.000000,0.000000,0.000000,0.192654,3,0
480000,0.003171,12.172059,0.014111,0.020219,25.148983,0.005443,0.000332,0.003127,1.571029,-0.007302,-0.000105,-0.000282,0.000006,-0.000416,-0.000002,0.009320,-0.003267,0.239422,0.016648,0.176365,0.176365,0.173271,0.927269,0.000000,0.000000,0.000000,0.000000,0.000000,0.000000,0.000000,0.000000,0.000000,0.000000,0.000000,0.000000,0.232406,3,0
490000,0.003278,12.427663,0.013531,0.020506,25.155609,0.004520,0.000328,0.003289,1.571043,-0.007719,-0.000115,-0.000217,0.000007,-0.000446,-0.000002,0.003247,-0.003377,0.139917,-0.022004,0.176069,0.176069,0.172634,0.921616,0.000000,0.000000,0.000000,0.000000,0.000000,0.000000,0.000000,0.000000,0.000000,0.000000,0.000000,0.000000,0.135851,3,0
500000,0.003387,12.682243,0.013333,0.020922,25.160744,0.004116,0.000323,0.003411,1.571054,-0.008035,-0.000126,-0.000191,0.000008,-0.000470,-0.000002,0.001727,-0.003489,0.102916,-0.008447,0.175868,0.175868,0.172087,0.915787,0.000000,0.000000,0.000000,0.000000,0.000000,0.000000,0.000000,0.000000,0.000000,0.000000,0.000000,0.000000,0.099957,3,0
510000,0.003495,12.941644,0.013708,0.021200,25.173084,0.004497,0.000325,0.003728,1.571055,-0.008878,-0.000137,-0.000229,0.000009,-0.000534,-0.000002,0.011449,-0.003600,0.265740,0.011725,0.175753,0.175753,0.171622,0.909788,0.000000,0.000000,0.000000,0.000000,0.000000,0.000000,0.000000,0.000000,0.000000,0.000000,0.000000,0.000000,0.257980,3,0
520000,0.003602,13.197059,0.014951,0.021471,25.179424,0.006230,0.000326,0.003893,1.571053,-0.009288,-0.000149,-0.000367,0.000010,-0.000565,-0.000003,0.002835,-0.003711,0.125491,0.041946,0.175720,0.175720,0.171234,0.903625,0.000000,0.000000,0.000000,0.000000,0.000000,0.000000,0.000000,0.000000,0.000000,0.000000,0.000000,0.000000,0.121869,3,0
530000,0.003709,13.454371,0.013633,0.021700,25.188663,0.004218,0.000334,0.004133,1.571068,-0.009921,-0.000162,-0.000203,0.000011,-0.000616,-0.000003,0.006104,-0.003821,0.188075,-0.048375,0.175761,0.175761,0.170914,0.897303,0.000000,0.000000,0.000000,0.000000,0.000000,0.000000,0.000000,0.000000,0.000000,0.000000,0.000000,0.000000,0.182603,3,0
540000,0.003816,13.711227,0.015125,0.022094,25.197182,0.006082,0.000336,0.004352,1.571068,-0.010507,-0.000176,-0.000382,0.000012,-0.000663,-0.000003,0.005057,-0.003932,0.169216,0.051046,0.175870,0.175870,0.170658,0.890830,0.000000,0.000000,0.000000,0.000000,0.000000,0.000000,0.000000,0.000000,0.000000,0.000000,0.000000,0.000000,0.164300,3,0
550000,0.003923,13.966468,0.015266,0.022309,25.203230,0.006441,0.000332,0.004518,1.571068,-0.010902,-0.000190,-0.000392,0.000013,-0.000696,-0.000003,0.001999,-0.004041,0.111063,0.002757,0.176042,0.176042,0.170460,0.884211,0.000000,0.000000,0.000000,0.000000,0.000000,0.000000,0.000000,0.000000,0.000000,0.000000,0.000000,0.000000,0.107876,3,0
560000,0.004030,14.226537,0.014419,0.022677,25.216784,0.005027,0.000335,0.004904,1.571071,-0.011900,-0.000205,-0.000274,0.000014,-0.000780,-0.000004,0.012245,-0.004151,0.273220,-0.032028,0.176272,0.176272,0.170314,0.877454,0.000000,0.000000,0.000000,0.000000,0.000000,0.000000,0.000000,0.000000,0.000000,0.000000,0.000000,0.000000,0.265224,3,0
570000,0.004136,14.486117,0.014245,0.023007,25.229553,0.004665,0.000340,0.005263,1.571087,-0.012843,-0.000221,-0.000245,0.000015,-0.000861,-0.000004,0.010250,-0.004262,0.251562,-0.007831,0.176553,0.176553,0.170214,0.870567,0.000000,0.000000,0.000000,0.000000,0.000000,0.000000,0.000000,0.000000,0.000000,0.000000,0.000000,0.000000,0.244195,3,0
580000,0.004243,14.745215,0.013372,0.023360,25.241444,0.003290,0.000344,0.005599,1.571100,-0.013728,-0.000238,-0.000120,0.000017,-0.000939,-0.000004,0.008759,-0.004372,0.230400,-0.032352,0.176882,0.176882,0.170157,0.863556,0.000000,0.000000,0.000000,0.000000,0.000000,0.000000,0.000000,0.000000,0.000000,0.000000,0.000000,0.000000,0.223648,3,0
590000,0.004350,15.003249,0.012593,0.023679,25.251570,0.001996,0.000348,0.005889,1.571108,-0.014474,-0.000255,-0.000006,0.000018,-0.001006,-0.000005,0.005965,-0.004482,0.189852,-0.028575,0.177254,0.177254,0.170138,0.856430,0.000000,0.000000,0.000000,0.000000,0.000000,0.000000,0.000000,0.000000,0.000000,0.000000,0.000000,0.000000,0.184295,3,0
600000,0.004456,15.263761,0.011551,0.023988,25.265665,0.000424,0.000353,0.006316,1.571118,-0.015560,-0.000274,0.000146,0.000020,-0.001105,-0.000005,0.011990,-0.004592,0.269659,-0.037355,0.177664,0.177664,0.170152,0.849195,0.000000,0.000000,0.000000,0.000000,0.000000,0.000000,0.000000,0.000000,0.000000,0.000000,0.000000,0.000000,0.261712,3,0
610000,0.004561,15.519647,0.012714,0.024188,25.272156,0.002339,0.000357,0.006515,1.571118,-0.016006,-0.000293,-0.000026,0.000022,-0.001146,-0.000005,0.002173,-0.004700,0.108399,0.040792,0.178108,0.178108,0.170196,0.841861,0.000000,0.000000,0.000000,0.000000,0.000000,0.000000,0.000000,0.000000,0.000000,0.000000,0.000000,0.000000,0.105281,3,0
620000,0.004665,15.779821,0.013344,0.024504,25.285624,0.003311,0.000356,0.006937,1.571128,-0.017058,-0.000313,-0.000119,0.000024,-0.001246,-0.000006,0.010186,-0.004808,0.250026,0.021374,0.178583,0.178583,0.170265,0.834434,0.000000,0.000000,0.000000,0.000000,0.000000,0.000000,0.000000,0.000000,0.000000,0.000000,0.000000,0.000000,0.242629,3,0
630000,0.004767,16.037724,0.014317,0.024672,25.295183,0.004763,0.000348,0.007233,1.571129,-0.017782,-0.000334,-0.000265,0.000026,-0.001316,-0.000006,0.004780,-0.004914,0.168627,0.033150,0.179084,0.179084,0.170356,0.826924,0.000000,0.000000,0.000000,0.000000,0.000000,0.000000,0.000000,0.000000,0.000000,0.000000,0.000000,0.000000,0.163663,3,0
640000,0.004868,16.298725,0.015780,0.024935,25.310005,0.007061,0.000340,0.007699,1.571144,-0.018958,-0.000356,-0.000490,0.000028,-0.001431,-0.000007,0.012057,-0.005019,0.268448,0.049803,0.179609,0.179608,0.170466,0.819338,0.000000,0.000000,0.000000,0.000000,0.000000,0.000000,0.000000,0.000000,0.000000,0.000000,0.000000,0.000000,0.260458,3,0
650000,0.004968,16.555042,0.017091,0.025090,25.316832,0.008786,0.000336,0.007914,1.571149,-0.019434,-0.000379,-0.000691,0.000031,-0.001479,-0.000007,0.002153,-0.005122,0.106691,0.043679,0.180153,0.180153,0.170591,0.811685,0.000000,0.000000,0.000000,0.000000,0.000000,0.000000,0.000000,0.000000,0.000000,0.000000,0.000000,0.000000,0.103608,3,0
660000,0.005067,16.813894,0.015920,0.025397,25.327766,0.007040,0.000331,0.008268,1.571165,-0.020291,-0.000403,-0.000485,0.000033,-0.001567,-0.000007,0.006049,-0.005224,0.188250,-0.044209,0.180714,0.180714,0.170729,0.803972,0.000000,0.000000,0.000000,0.000000,0.000000,0.000000,0.000000,0.000000,0.000000,0.000000,0.000000,0.000000,0.182649,3,0
670000,0.005166,17.072258,0.015535,0.025665,25.337822,0.006301,0.000323,0.008604,1.571179,-0.021070,-0.000427,-0.000410,0.000035,-0.001648,-0.000008,0.004598,-0.005327,0.167835,-0.015905,0.181288,0.181288,0.170877,0.796208,0.000000,0.000000,0.000000,0.000000,0.000000,0.000000,0.000000,0.000000,0.000000,0.000000,0.000000,0.000000,0.162846,3,0
680000,0.005262,17.330738,0.015708,0.025795,25.348057,0.006356,0.000317,0.008928,1.571182,-0.021861,-0.000453,-0.000430,0.000038,-0.001731,-0.000008,0.004558,-0.005426,0.167795,0.003950,0.181874,0.181874,0.171033,0.788400,0.000000,0.000000,0.000000,0.000000,0.000000,0.000000,0.000000,0.000000,0.000000,0.000000,0.000000,0.000000,0.162793,3,0
690000,0.005357,17.588123,0.017105,0.026067,25.356232,0.008477,0.000305,0.009197,1.571187,-0.022474,-0.000479,-0.000663,0.000041,-0.001797,-0.000008,0.003001,-0.005526,0.127880,0.046729,0.182469,0.182468,0.171194,0.780557,0.000000,0.000000,0.000000,0.000000,0.000000,0.000000,0.000000,0.000000,0.000000,0.000000,0.000000,0.000000,0.124107,3,0
700000,0.005452,17.849272,0.015882,0.026294,25.370787,0.006564,0.000292,0.009692,1.571197,-0.023684,-0.000506,-0.000434,0.000044,-0.001930,-0.000009,0.010290,-0.005623,0.248112,-0.045723,0.183069,0.183069,0.171357,0.772687,0.000000,0.000000,0.000000,0.000000,0.000000,0.000000,0.000000,0.000000,0.000000,0.000000,0.000000,0.000000,0.240603,3,0
710000,0.005544,18.109285,0.014952,0.026409,25.383217,0.005011,0.000298,0.010124,1.571212,-0.024702,-0.000535,-0.000257,0.000047,-0.002044,-0.000010,0.007023,-0.005719,0.205486,-0.034743,0.183674,0.183673,0.171522,0.764796,0.000000,0.000000,0.000000,0.000000,0.000000,0.000000,0.000000,0.000000,0.000000,0.000000,0.000000,0.000000,0.199273,3,0
720000,0.005635,18.367561,0.015656,0.026631,25.392605,0.006050,0.000290,0.010452,1.571227,-0.025427,-0.000564,-0.000378,0.000050,-0.002126,-0.000010,0.003447,-0.005813,0.144136,0.022893,0.184280,0.184280,0.171686,0.756893,0.000000,0.000000,0.000000,0.000000,0.000000,0.000000,0.000000,0.000000,0.000000,0.000000,0.000000,0.000000,0.139823,3,0
730000,0.005724,18.627785,0.016060,0.026788,25.405134,0.006669,0.000282,0.010891,1.571243,-0.026467,-0.000594,-0.000444,0.000054,-0.002246,-0.000011,0.006740,-0.005906,0.203829,0.012057,0.184886,0.184886,0.171847,0.748985,0.000000,0.000000,0.000000,0.000000,0.000000,0.000000,0.000000,0.000000,0.000000,0.000000,0.000000,0.000000,0.197631,3,0
740000,0.005811,18.888712,0.016136,0.027004,25.418892,0.006868,0.000273,0.011387,1.571252,-0.027614,-0.000624,-0.000448,0.000058,-0.002381,-0.000011,0.007950,-0.005997,0.221783,0.000364,0.185491,0.185491,0.172004,0.741079,0.000000,0.000000,0.000000,0.000000,0.000000,0.000000,0.000000,0.000000,0.000000,0.000000,0.000000,0.000000,0.215004,3,0
750000,0.005897,19.148483,0.017447,0.027170,25.430368,0.008799,0.000260,0.011811,1.571258,-0.028554,-0.000656,-0.000688,0.000061,-0.002493,-0.000012,0.005507,-0.006086,0.179388,0.043351,0.186093,0.186092,0.172155,0.733182,0.000000,0.000000,0.000000,0.000000,0.000000,0.000000,0.000000,0.000000,0.000000,0.000000,0.000000,0.000000,0.173924,3,0
760000,0.005981,19.408342,0.016216,0.027226,25.441919,0.006795,0.000251,0.012236,1.571264,-0.029500,-0.000689,-0.000434,0.000065,-0.002609,-0.000012,0.005458,-0.006173,0.177927,-0.045837,0.186689,0.186689,0.172299,0.725300,0.000000,0.000000,0.000000,0.000000,0.000000,0.000000,0.000000,0.000000,0.000000,0.000000,0.000000,0.000000,0.172494,3,0
770000,0.006062,19.666426,0.015461,0.027287,25.450230,0.005560,0.000240,0.012529,1.571267,-0.030128,-0.000722,-0.000273,0.000069,-0.002686,-0.000013,0.002339,-0.006257,0.116741,-0.028571,0.187280,0.187279,0.172436,0.717441,0.000000,0.000000,0.000000,0.000000,0.000000,0.000000,0.000000,0.000000,0.000000,0.000000,0.000000,0.000000,0.113259,3,0
780000,0.006142,19.925234,0.014819,0.027490,25.459774,0.004738,0.000231,0.012886,1.571270,-0.030873,-0.000757,-0.000136,0.000074,-0.002780,-0.000013,0.003127,-0.006341,0.136879,-0.024251,0.187863,0.187863,0.172563,0.709610,0.000000,0.000000,0.000000,0.000000,0.000000,0.000000,0.000000,0.000000,0.000000,0.000000,0.000000,0.000000,0.132735,3,0
790000,0.006220,20.186632,0.015475,0.027629,25.473604,0.005680,0.000223,0.013416,1.571282,-0.032062,-0.000792,-0.000262,0.000078,-0.002932,-0.000014,0.007606,-0.006422,0.215916,0.021242,0.188438,0.188438,0.172681,0.701813,0.000000,0.000000,0.000000,0.000000,0.000000,0.000000,0.000000,0.000000,0.000000,0.000000,0.000000,0.000000,0.209228,3,0
800000,0.006298,20.447468,0.014438,0.027818,25.486353,0.004203,0.000215,0.013908,1.571299,-0.033137,-0.000828,-0.000041,0.000083,-0.003072,-0.000015,0.006247,-0.006502,0.192926,-0.037901,0.189004,0.189003,0.172787,0.694057,0.000000,0.000000,0.000000,0.000000,0.000000,0.000000,0.000000,0.000000,0.000000,0.000000,0.000000,0.000000,0.186954,3,0
810000,0.006371,20.707739,0.015445,0.027829,25.497860,0.005692,0.000215,0.014347,1.571305,-0.034096,-0.000865,-0.000245,0.000088,-0.003198,-0.000015,0.004882,-0.006580,0.170509,0.033560,0.189560,0.189559,0.172882,0.686346,0.000000,0.000000,0.000000,0.000000,0.000000,0.000000,0.000000,0.000000,0.000000,0.000000,0.000000,0.000000,0.165246,3,0
820000,0.006443,20.969339,0.015039,0.027907,25.511675,0.005145,0.000211,0.014899,1.571320,-0.035280,-0.000903,-0.000151,0.000093,-0.003358,-0.000016,0.007051,-0.006654,0.208305,-0.015955,0.190104,0.190104,0.172965,0.678687,0.000000,0.000000,0.000000,0.000000,0.000000,0.000000,0.000000,0.000000,0.000000,0.000000,0.000000,0.000000,0.201809,3,0
830000,0.006513,21.229095,0.016463,0.028003,25.521975,0.007073,0.000204,0.015310,1.571330,-0.036114,-0.000941,-0.000447,0.000098,-0.003471,-0.000017,0.003786,-0.006727,0.145357,0.047745,0.190638,0.190637,0.173035,0.671083,0.000000,0.000000,0.000000,0.000000,0.000000,0.000000,0.000000,0.000000,0.000000,0.000000,0.000000,0.000000,0.140890,3,0
840000,0.006581,21.488924,0.017588,0.028110,25.532322,0.008826,0.000196,0.015716,1.571342,-0.036947,-0.000980,-0.000678,0.000104,-0.003586,-0.000017,0.003566,-0.006798,0.143923,0.036574,0.191159,0.191158,0.173093,0.663540,0.000000,0.000000,0.000000,0.000000,0.000000,0.000000,0.000000,0.000000,0.000000,0.000000,0.000000,0.000000,0.139493,3,0
850000,0.006648,21.749456,0.016474,0.028275,25.543810,0.007178,0.000193,0.016187,1.571344,-0.037896,-0.001020,-0.000418,0.000109,-0.003720,-0.000018,0.004537,-0.006867,0.162294,-0.041575,0.191668,0.191667,0.173136,0.656063,0.000000,0.000000,0.000000,0.000000,0.000000,0.000000,0.000000,0.000000,0.000000,0.000000,0.000000,0.000000,0.157249,3,0
860000,0.006713,22.011953,0.017249,0.028301,25.558529,0.008400,0.000185,0.016798,1.571366,-0.039191,-0.001061,-0.000579,0.000115,-0.003906,-0.000019,0.007893,-0.006935,0.219711,0.024470,0.192164,0.192163,0.173166,0.648654,0.000000,0.000000,0.000000,0.000000,0.000000,0.000000,0.000000,0.000000,0.000000,0.000000,0.000000,0.000000,0.212781,3,0
870000,0.006777,22.274483,0.016931,0.028447,25.573191,0.007696,0.000172,0.017416,1.571388,-0.040472,-0.001102,-0.000495,0.000121,-0.004092,-0.000020,0.007529,-0.007001,0.215490,-0.013733,0.192647,0.192646,0.173182,0.641319,0.000000,0.000000,0.000000,0.000000,0.000000,0.000000,0.000000,0.000000,0.000000,0.000000,0.000000,0.000000,0.208681,3,0
880000,0.006838,22.537678,0.018036,0.028579,25.588783,0.009211,0.000168,0.018097,1.571402,-0.041856,-0.001144,-0.000734,0.000128,-0.004296,-0.000021,0.008832,-0.007066,0.231121,0.035841,0.193117,0.193116,0.173184,0.634061,0.000000,0.000000,0.000000,0.000000,0.000000,0.000000,0.000000,0.000000,0.000000,0.000000,0.000000,0.000000,0.223787,3,0
890000,0.006898,22.800890,0.017442,0.028534,25.604282,0.008313,0.000148,0.018764,1.571420,-0.043221,-0.001187,-0.000583,0.000134,-0.004502,-0.000022,0.008351,-0.007128,0.226192,-0.023630,0.193574,0.193572,0.173172,0.626884,0.000000,0.000000,0.000000,0.000000,0.000000,0.000000,0.000000,0.000000,0.000000,0.000000,0.000000,0.000000,0.219004,3,0
900000,0.006956,23.064114,0.016531,0.028577,25.619595,0.006694,0.000142,0.019441,1.571439,-0.044566,-0.001231,-0.000359,0.000140,-0.004707,-0.000023,0.008092,-0.007188,0.221252,-0.034153,0.194017,0.194015,0.173145,0.619790,0.000000,0.000000,0.000000,0.000000,0.000000,0.000000,0.000000,0.000000,0.000000,0.000000,0.000000,0.000000,0.214211,3,0
910000,0.007012,23.325415,0.016624,0.028658,25.631218,0.006692,0.000136,0.019940,1.571454,-0.045525,-0.001275,-0.000370,0.000147,-0.004856,-0.000023,0.003967,-0.007247,0.156662,0.001057,0.194446,0.194444,0.173105,0.612782,0.000000,0.000000,0.000000,0.000000,0.000000,0.000000,0.000000,0.000000,0.000000,0.000000,0.000000,0.000000,0.151747,3,0
920000,0.007065,23.587395,0.015549,0.028607,25.644035,0.005207,0.000120,0.020496,1.571463,-0.046594,-0.001319,-0.000105,0.000154,-0.005024,-0.000024,0.005117,-0.007302,0.173548,-0.039455,0.194862,0.194860,0.173050,0.605864,0.000000,0.000000,0.000000,0.000000,0.000000,0.000000,0.000000,0.000000,0.000000,0.000000,0.000000,0.000000,0.168058,3,0
930000,0.007117,23.845512,0.014758,0.028611,25.649879,0.004130,0.000105,0.020699,1.571475,-0.046908,-0.001365,0.000095,0.000161,-0.005075,-0.000025,0.000560,-0.007356,0.050592,-0.029238,0.195265,0.195262,0.172981,0.599038,0.000000,0.000000,0.000000,0.000000,0.000000,0.000000,0.000000,0.000000,0.000000,0.000000,0.000000,0.000000,0.049459,3,0
940000,0.007166,24.106939,0.014254,0.028615,25.661417,0.003528,0.000097,0.021204,1.571483,-0.047845,-0.001411,0.000222,0.000169,-0.005227,-0.000025,0.003705,-0.007407,0.150240,-0.018823,0.195654,0.195652,0.172898,0.592305,0.000000,0.000000,0.000000,0.000000,0.000000,0.000000,0.000000,0.000000,0.000000,0.000000,0.000000,0.000000,0.145517,3,0
950000,0.007213,24.367741,0.014004,0.028674,25.671711,0.002982,0.000072,0.021657,1.571485,-0.048642,-0.001458,0.000287,0.000176,-0.005358,-0.000026,0.002634,-0.007457,0.127241,-0.009702,0.196031,0.196028,0.172801,0.585668,0.000000,0.000000,0.000000,0.000000,0.000000,0.000000,0.000000,0.000000,0.000000,0.000000,0.000000,0.000000,0.123294,3,0
960000,0.007258,24.625967,0.014158,0.028597,25.677269,0.002984,0.000058,0.021871,1.571495,-0.048927,-0.001505,0.000254,0.000184,-0.005406,-0.000026,0.000342,-0.007504,0.045250,0.004402,0.196395,0.196392,0.172691,0.579129,0.000000,0.000000,0.000000,0.000000,0.000000,0.000000,0.000000,0.000000,0.000000,0.000000,0.000000,0.000000,0.044368,3,0
970000,0.007301,24.888823,0.013552,0.028565,25.691000,0.002160,0.000047,0.022501,1.571503,-0.050095,-0.001552,0.000405,0.000192,-0.005605,-0.000027,0.005576,-0.007548,0.184544,-0.021869,0.196746,0.196743,0.172568,0.572689,0.000000,0.000000,0.000000,0.000000,0.000000,0.000000,0.000000,0.000000,0.000000,0.000000,0.000000,0.000000,0.178641,3,0
980000,0.007341,25.147757,0.014216,0.028586,25.697647,0.002964,0.000031,0.022754,1.571507,-0.050481,-0.001600,0.000240,0.000200,-0.005671,-0.000028,0.000685,-0.007591,0.060703,0.022468,0.197086,0.197082,0.172432,0.566350,0.000000,0.000000,0.000000,0.000000,0.000000,0.000000,0.000000,0.000000,0.000000,0.000000,0.000000,0.000000,0.059167,3,0
990000,0.007381,25.409359,0.013863,0.028587,25.708860,0.002248,0.000005,0.023263,1.571527,-0.051372,-0.001649,0.000331,0.000209,-0.005827,-0.000028,0.003180,-0.007632,0.139643,-0.013088,0.197413,0.197409,0.172283,0.560112,0.000000,0.000000,0.000000,0.000000,0.000000,0.000000,0.000000,0.000000,0.000000,0.000000,0.000000,0.000000,0.135249,3,0
1000000,0.007418,25.669010,0.012600,0.028476,25.716499,0.000438,-0.000015,0.023575,1.571530,-0.051865,-0.001698,0.000657,0.000217,-0.005915,-0.000029,0.001281,-0.007670,0.076715,-0.044696,0.197729,0.197725,0.172122,0.553977,0.000000,0.000000,0.000000,0.000000,0.000000,0.000000,0.000000,0.000000,0.000000,0.000000,0.000000,0.000000,0.074554,3,0
1010000,0.007452,25.929354,0.012141,0.028369,25.725344,-0.000220,-0.000038,0.023959,1.571538,-0.052479,-0.001748,0.000773,0.000226,-0.006026,-0.000030,0.001515,-0.007706,0.095293,-0.016030,0.198034,0.198029,0.171948,0.547946,0.000000,0.000000,0.000000,0.000000,0.000000,0.000000,0.000000,0.000000,0.000000,0.000000,0.000000,0.000000,0.092449,3,0
1020000,0.007485,26.193010,0.011753,0.028371,25.739906,-0.000968,-0.000052,0.024670,1.571543,-0.053723,-0.001797,0.000863,0.000235,-0.006254,-0.000031,0.006020,-0.007740,0.192678,-0.013099,0.198328,0.198323,0.171764,0.542020,0.000000,0.000000,0.000000,0.000000,0.000000,0.000000,0.000000,0.000000,0.000000,0.000000,0.000000,0.000000,0.186460,3,0
1030000,0.007515,26.456644,0.011738,0.028323,25.754208,-0.001192,-0.000079,0.025376,1.571562,-0.054936,-0.001847,0.000853,0.000245,-0.006480,-0.000032,0.005663,-0.007772,0.187305,0.000212,0.198611,0.198606,0.171567,0.536198,0.000000,0.000000,0.000000,0.000000,0.000000,0.000000,0.000000,0.000000,0.000000,0.000000,0.000000,0.000000,0.181261,3,0
1040000,0.007542,26.720251,0.013191,0.028245,25.768335,0.000779,-0.000107,0.026073,1.571573,-0.056117,-0.001897,0.000452,0.000254,-0.006702,-0.000033,0.005776,-0.007802,0.181952,0.051632,0.198885,0.198879,0.171360,0.530482,0.000000,0.000000,0.000000,0.000000,0.000000,0.000000,0.000000,0.000000,0.000000,0.000000,0.000000,0.000000,0.176084,3,0
1050000,0.007568,26.982510,0.013752,0.028164,25.779774,0.001376,-0.000138,0.026612,1.571575,-0.057008,-0.001948,0.000295,0.000264,-0.006873,-0.000034,0.003091,-0.007828,0.136873,0.019689,0.199149,0.199143,0.171142,0.524870,0.000000,0.000000,0.000000,0.000000,0.000000,0.000000,0.000000,0.000000,0.000000,0.000000,0.000000,0.000000,0.132548,3,0
1060000,0.007593,27.243437,0.014547,0.028173,25.788853,0.002264,-0.000157,0.027005,1.571589,-0.057616,-0.001999,0.000076,0.000274,-0.006991,-0.000034,0.001532,-0.007854,0.093166,0.027651,0.199404,0.199398,0.170914,0.519365,0.000000,0.000000,0.000000,0.000000,0.000000,0.000000,0.000000,0.000000,0.000000,0.000000,0.000000,0.000000,0.090392,3,0
1070000,0.007616,27.503714,0.014730,0.028121,25.796682,0.002442,-0.000185,0.027336,1.571594,-0.058078,-0.002051,0.000028,0.000285,-0.007082,-0.000035,0.000821,-0.007879,0.070696,0.005801,0.199651,0.199644,0.170677,0.513965,0.000000,0.000000,0.000000,0.000000,0.000000,0.000000,0.000000,0.000000,0.000000,0.000000,0.000000,0.000000,0.068767,3,0
1080000,0.007637,27.763346,0.015881,0.028058,25.803320,0.003994,-0.000218,0.027598,1.571606,-0.058398,-0.002102,-0.000287,0.000295,-0.007145,-0.000035,0.000651,-0.007902,0.048887,0.039751,0.199889,0.199882,0.170430,0.508671,0.000000,0.000000,0.000000,0.000000,0.000000,0.000000,0.000000,0.000000,0.000000,0.000000,0.000000,0.000000,0.047873,3,0
1090000,0.007656,28.022339,0.017105,0.027903,25.808628,0.005530,-0.000249,0.027779,1.571609,-0.058578,-0.002154,-0.000619,0.000306,-0.007181,-0.000036,0.000417,-0.007921,0.027735,0.041809,0.200120,0.200112,0.170174,0.503480,0.000000,0.000000,0.000000,0.000000,0.000000,0.000000,0.000000,0.000000,0.000000,0.000000,0.000000,0.000000,0.027883,3,0
1100000,0.007673,28.282034,0.016859,0.027753,25.815207,0.004917,-0.000278,0.028034,1.571625,-0.058888,-0.002206,-0.000539,0.000317,-0.007245,-0.000036,0.000384,-0.007938,0.046993,-0.010445,0.200344,0.200335,0.169909,0.498395,0.000000,0.000000,0.000000,0.000000,0.000000,0.000000,0.000000,0.000000,0.000000,0.000000,0.000000,0.000000,0.046067,3,0
1110000,0.007688,28.545071,0.017853,0.027694,25.827499,0.006049,-0.000311,0.028646,1.571646,-0.059843,-0.002258,-0.000819,0.000328,-0.007445,-0.000037,0.003585,-0.007955,0.145052,0.033798,0.200560,0.200551,0.169636,0.493413,0.000000,0.000000,0.000000,0.000000,0.000000,0.000000,0.000000,0.000000,0.000000,0.000000,0.000000,0.000000,0.140416,3,0
1120000,0.007702,28.807415,0.018055,0.027578,25.838459,0.006155,-0.000331,0.029172,1.571657,-0.060637,-0.002310,-0.000869,0.000339,-0.007613,-0.000038,0.002352,-0.007968,0.120440,0.005330,0.200771,0.200761,0.169356,0.488535,0.000000,0.000000,0.000000,0.000000,0.000000,0.000000,0.000000,0.000000,0.000000,0.000000,0.000000,0.000000,0.116664,3,0
1130000,0.007715,29.067076,0.017337,0.027487,25.844496,0.005003,-0.000353,0.029393,1.571656,-0.060881,-0.002363,-0.000647,0.000350,-0.007667,-0.000038,0.000353,-0.007981,0.036896,-0.027563,0.200975,0.200965,0.169068,0.483760,0.000000,0.000000,0.000000,0.000000,0.000000,0.000000,0.000000,0.000000,0.000000,0.000000,0.000000,0.000000,0.036483,3,0
1140000,0.007725,29.327419,0.017879,0.027457,25.851608,0.005543,-0.000381,0.029701,1.571665,-0.061247,-0.002416,-0.000795,0.000362,-0.007746,-0.000039,0.000557,-0.007994,0.055479,0.017662,0.201174,0.201164,0.168773,0.479086,0.000000,0.000000,0.000000,0.000000,0.000000,0.000000,0.000000,0.000000,0.000000,0.000000,0.000000,0.000000,0.054173,3,0
1150000,0.007734,29.590439,0.018300,0.027323,25.863436,0.006041,-0.000406,0.030304,1.571676,-0.062126,-0.002468,-0.000914,0.000374,-0.007941,-0.000040,0.002889,-0.008003,0.133003,0.013366,0.201368,0.201357,0.168472,0.474514,0.000000,0.000000,0.000000,0.000000,0.000000,0.000000,0.000000,0.000000,0.000000,0.000000,0.000000,0.000000,0.128773,3,0
1160000,0.007741,29.853422,0.018602,0.027165,25.874960,0.006467,-0.000430,0.030892,1.571677,-0.062974,-0.002521,-0.000997,0.000386,-0.008132,-0.000041,0.002674,-0.008011,0.128292,0.008938,0.201558,0.201546,0.168165,0.470041,0.000000,0.000000,0.000000,0.000000,0.000000,0.000000,0.000000,0.000000,0.000000,0.000000,0.000000,0.000000,0.124225,3,0
1170000,0.007747,30.113029,0.017996,0.027035,25.880524,0.005448,-0.000453,0.031083,1.571678,-0.063135,-0.002574,-0.000800,0.000398,-0.008169,-0.000041,0.000197,-0.008016,0.024223,-0.023844,0.201743,0.201731,0.167852,0.465669,0.000000,0.000000,0.000000,0.000000,0.000000,0.000000,0.000000,0.000000,0.000000,0.000000,0.000000,0.000000,0.024656,3,0
1180000,0.007753,30.373991,0.016617,0.026940,25.888294,0.003589,-0.000479,0.031430,1.571696,-0.063552,-0.002627,-0.000373,0.000409,-0.008267,-0.000042,0.001069,-0.008021,0.062744,-0.051185,0.201925,0.201912,0.167533,0.461394,0.000000,0.000000,0.000000,0.000000,0.000000,0.000000,0.000000,0.000000,0.000000,0.000000,0.000000,0.000000,0.061123,3,0
1190000,0.007755,30.634941,0.016804,0.026753,25.896036,0.003728,-0.000510,0.031761,1.571704,-0.063949,-0.002680,-0.000425,0.000422,-0.008360,-0.000042,0.000598,-0.008025,0.060131,0.005623,0.202103,0.202089,0.167210,0.457217,0.000000,0.000000,0.000000,0.000000,0.000000,0.000000,0.000000,0.000000,0.000000,0.000000,0.000000,0.000000,0.058621,3,0
1200000,0.007754,30.898560,0.017782,0.026594,25.908367,0.005018,-0.000532,0.032404,1.571708,-0.064853,-0.002732,-0.000728,0.000435,-0.008575,-0.000043,0.003225,-0.008025,0.137045,0.034230,0.202278,0.202264,0.166882,0.453135,0.000000,0.000000,0.000000,0.000000,0.000000,0.000000,0.000000,0.000000,0.000000,0.000000,0.000000,0.000000,0.132656,3,0
1210000,0.007753,31.158104,0.018204,0.026535,25.913248,0.005331,-0.000564,0.032545,1.571721,-0.064934,-0.002785,-0.000845,0.000448,-0.008595,-0.000043,0.000065,-0.008024,0.012455,0.013490,0.202451,0.202436,0.166550,0.449148,0.000000,0.000000,0.000000,0.000000,0.000000,0.000000,0.000000,0.000000,0.000000,0.000000,0.000000,0.000000,0.014316,3,0
1220000,0.007750,31.421017,0.017898,0.026347,25.924128,0.004636,-0.000596,0.033107,1.571729,-0.065665,-0.002838,-0.000747,0.000461,-0.008774,-0.000044,0.002008,-0.008021,0.110683,-0.012478,0.202621,0.202605,0.166214,0.445255,0.000000,0.000000,0.000000,0.000000,0.000000,0.000000,0.000000,0.000000,0.000000,0.000000,0.000000,0.000000,0.107226,3,0
1230000,0.007747,31.682547,0.017286,0.026200,25.932411,0.003829,-0.000622,0.033479,1.571740,-0.066102,-0.002891,-0.000547,0.000473,-0.008884,-0.000045,0.000809,-0.008017,0.066328,-0.023633,0.202790,0.202773,0.165874,0.441455,0.000000,0.000000,0.000000,0.000000,0.000000,0.000000,0.000000,0.000000,0.000000,0.000000,0.000000,0.000000,0.064550,3,0
1240000,0.007743,31.942038,0.016361,0.026096,25.937048,0.002530,-0.000644,0.033596,1.571738,-0.066127,-0.002944,-0.000242,0.000487,-0.008891,-0.000045,0.000209,-0.008013,0.003504,-0.034872,0.202957,0.202939,0.165531,0.437746,0.000000,0.000000,0.000000,0.000000,0.000000,0.000000,0.000000,0.000000,0.000000,0.000000,0.000000,0.000000,0.008449,3,0
1250000,0.007738,32.201534,0.015267,0.026008,25.941519,0.001139,-0.000672,0.033710,1.571742,-0.066144,-0.002997,0.000115,0.000500,-0.008897,-0.000045,0.000280,-0.008007,0.002396,-0.040685,0.203122,0.203104,0.165185,0.434126,0.000000,0.000000,0.000000,0.000000,0.000000,0.000000,0.000000,0.000000,0.000000,0.000000,0.000000,0.000000,0.008075,3,0
1260000,0.007729,32.461708,0.016162,0.025906,25.947123,0.002128,-0.000710,0.033899,1.571745,-0.066282,-0.003049,-0.000173,0.000514,-0.008931,-0.000046,0.000252,-0.008001,0.021156,0.032311,0.203287,0.203268,0.164837,0.430594,0.000000,0.000000,0.000000,0.000000,0.000000,0.000000,0.000000,0.000000,0.000000,0.000000,0.000000,0.000000,0.021855,3,0
1270000,0.007720,32.722553,0.016413,0.025672,25.953941,0.002379,-0.000752,0.034177,1.571743,-0.066538,-0.003101,-0.000252,0.000527,-0.008999,-0.000046,0.000270,-0.007991,0.039227,0.008528,0.203451,0.203431,0.164486,0.427150,0.000000,0.000000,0.000000,0.000000,0.000000,0.000000,0.000000,0.000000,0.000000,0.000000,0.000000,0.000000,0.038677,3,0
1280000,0.007708,32.981358,0.016406,0.025430,25.956953,0.002319,-0.000784,0.034182,1.571754,-0.066389,-0.003153,-0.000239,0.000541,-0.008959,-0.000046,0.000095,-0.007979,-0.022892,-0.001232,0.203615,0.203593,0.164134,0.423790,0.000000,0.000000,0.000000,0.000000,0.000000,0.000000,0.000000,0.000000,0.000000,0.000000,0.000000,0.000000,0.023419,3,0
1290000,0.007696,33.242207,0.015711,0.025250,25.963549,0.001328,-0.000807,0.034450,1.571759,-0.066626,-0.003205,-0.000008,0.000555,-0.009024,-0.000046,0.000333,-0.007965,0.036335,-0.026106,0.203778,0.203756,0.163779,0.420515,0.000000,0.000000,0.000000,0.000000,0.000000,0.000000,0.000000,0.000000,0.000000,0.000000,0.000000,0.000000,0.035933,3,0
1300000,0.007683,33.505741,0.014521,0.025187,25.974829,-0.000202,-0.000850,0.035062,1.571764,-0.067365,-0.003257,0.000375,0.000569,-0.009229,-0.000047,0.002388,-0.007952,0.113361,-0.043674,0.203941,0.203918,0.163424,0.417322,0.000000,0.000000,0.000000,0.000000,0.000000,0.000000,0.000000,0.000000,0.000000,0.000000,0.000000,0.000000,0.109774,3,0
1310000,0.007667,33.767178,0.015569,0.025027,25.982309,0.001054,-0.000877,0.035376,1.571778,-0.067677,-0.003308,0.000016,0.000584,-0.009315,-0.000048,0.000634,-0.007938,0.048504,0.038864,0.204105,0.204081,0.163067,0.414212,0.000000,0.000000,0.000000,0.000000,0.000000,0.000000,0.000000,0.000000,0.000000,0.000000,0.000000,0.000000,0.047483,3,0
1320000,0.007652,34.025887,0.015475,0.024969,25.984745,0.000976,-0.000909,0.035330,1.571772,-0.067457,-0.003359,0.000057,0.000598,-0.009253,-0.000048,0.000200,-0.007921,-0.034100,-0.004023,0.204269,0.204244,0.162710,0.411180,0.000000,0.000000,0.000000,0.000000,0.000000,0.000000,0.000000,0.000000,0.000000,0.000000,0.000000,0.000000,0.033817,3,0
1330000,0.007635,34.283928,0.016027,0.024848,25.986094,0.001743,-0.000947,0.035187,1.571770,-0.067107,-0.003410,-0.000117,0.000613,-0.009151,-0.000048,0.000547,-0.007905,-0.054287,0.019694,0.204434,0.204408,0.162352,0.408228,0.000000,0.000000,0.000000,0.000000,0.000000,0.000000,0.000000,0.000000,0.000000,0.000000,0.000000,0.000000,0.052986,3,0
1340000,0.007618,34.546741,0.015657,0.024642,25.995909,0.001125,-0.000983,0.035700,1.571787,-0.067655,-0.003460,0.000001,0.000628,-0.009312,-0.000048,0.001211,-0.007886,0.085236,-0.013871,0.204600,0.204573,0.161994,0.405353,0.000000,0.000000,0.000000,0.000000,0.000000,0.000000,0.000000,0.000000,0.000000,0.000000,0.000000,0.000000,0.082680,3,0
1350000,0.007598,34.808144,0.015854,0.024407,26.003052,0.001285,-0.001017,0.036005,1.571789,-0.067917,-0.003511,-0.000071,0.000643,-0.009389,-0.000049,0.000289,-0.007867,0.040993,0.007145,0.204767,0.204739,0.161635,0.402553,0.000000,0.000000,0.000000,0.000000,0.000000,0.000000,0.000000,0.000000,0.000000,0.000000,0.000000,0.000000,0.040319,3,0
1360000,0.007578,35.068844,0.015359,0.024274,26.008835,0.000697,-0.001060,0.036194,1.571788,-0.068033,-0.003561,0.000103,0.000658,-0.009425,-0.000049,0.000120,-0.007846,0.018066,-0.018818,0.204935,0.204906,0.161277,0.399826,0.000000,0.000000,0.000000,0.000000,0.000000,0.000000,0.000000,0.000000,0.000000,0.000000,0.000000,0.000000,0.019020,3,0
1370000,0.007558,35.329525,0.014350,0.024171,26.014576,-0.000462,-0.001090,0.036377,1.571804,-0.068134,-0.003611,0.000456,0.000672,-0.009457,-0.000050,0.000282,-0.007825,0.015732,-0.037856,0.205105,0.205074,0.160920,0.397173,0.000000,0.000000,0.000000,0.000000,0.000000,0.000000,0.000000,0.000000,0.000000,0.000000,0.000000,0.000000,0.016963,3,0
1380000,0.007538,35.592899,0.013855,0.024092,26.024899,-0.001221,-0.001129,0.036927,1.571815,-0.068723,-0.003660,0.000611,0.000687,-0.009640,-0.000051,0.001451,-0.007804,0.092937,-0.017716,0.205276,0.205244,0.160563,0.394590,0.000000,0.000000,0.000000,0.000000,0.000000,0.000000,0.000000,0.000000,0.000000,0.000000,0.000000,0.000000,0.090072,3,0
1390000,0.007514,35.852116,0.014554,0.023845,26.027596,-0.000518,-0.001163,0.036893,1.571823,-0.068524,-0.003709,0.000364,0.000703,-0.009576,-0.000050,0.000282,-0.007781,-0.031387,0.026484,0.205448,0.205415,0.160206,0.392077,0.000000,0.000000,0.000000,0.000000,0.000000,0.000000,0.000000,0.000000,0.000000,0.000000,0.000000,0.000000,0.031225,3,0
1400000,0.007489,36.112019,0.013862,0.023608,26.031628,-0.001224,-0.001203,0.036944,1.571833,-0.068448,-0.003758,0.000613,0.000718,-0.009553,-0.000051,0.000143,-0.007754,-0.012325,-0.025908,0.205623,0.205588,0.159851,0.389632,0.000000,0.000000,0.000000,0.000000,0.000000,0.000000,0.000000,0.000000,0.000000,0.000000,0.000000,0.000000,0.014065,3,0
1410000,0.007464,36.375324,0.012728,0.023372,26.041601,-0.002733,-0.001246,0.037477,1.571845,-0.068983,-0.003806,0.001000,0.000733,-0.009728,-0.000051,0.001468,-0.007728,0.085548,-0.041596,0.205799,0.205763,0.159497,0.387253,0.000000,0.000000,0.000000,0.000000,0.000000,0.000000,0.000000,0.000000,0.000000,0.000000,0.000000,0.000000,0.082944,3,0
1420000,0.007437,36.637871,0.012910,0.023248,26.050154,-0.002617,-0.001293,0.037897,1.571853,-0.069360,-0.003854,0.000911,0.000749,-0.009851,-0.000052,0.000614,-0.007701,0.060692,0.008325,0.205976,0.205939,0.159145,0.384941,0.000000,0.000000,0.000000,0.000000,0.000000,0.000000,0.000000,0.000000,0.000000,0.000000,0.000000,0.000000,0.059079,3,0
1430000,0.007409,36.896954,0.012044,0.023038,26.052370,-0.003872,-0.001326,0.037804,1.571850,-0.069096,-0.003902,0.001227,0.000765,-0.009765,-0.000052,0.000472,-0.007672,-0.042912,-0.031966,0.206156,0.206117,0.158794,0.382692,0.000000,0.000000,0.000000,0.000000,0.000000,0.000000,0.000000,0.000000,0.000000,0.000000,0.000000,0.000000,0.042100,3,0
1440000,0.007379,37.157394,0.011807,0.022753,26.056953,-0.004077,-0.001368,0.037895,1.571855,-0.069073,-0.003949,0.001301,0.000780,-0.009757,-0.000052,0.000021,-0.007642,-0.003830,-0.007541,0.206337,0.206297,0.158445,0.380505,0.000000,0.000000,0.000000,0.000000,0.000000,0.000000,0.000000,0.000000,0.000000,0.000000,0.000000,0.000000,0.008255,3,0
1450000,0.007347,37.417130,0.011580,0.022503,26.060276,-0.004492,-0.001411,0.037869,1.571849,-0.068916,-0.003995,0.001376,0.000796,-0.009704,-0.000052,0.000125,-0.007609,-0.025772,-0.007199,0.206520,0.206479,0.158098,0.378380,0.000000,0.000000,0.000000,0.000000,0.000000,0.000000,0.000000,0.000000,0.000000,0.000000,0.000000,0.000000,0.025949,3,0
1460000,0.007313,37.680271,0.011401,0.022197,26.069567,-0.004939,-0.001448,0.038348,1.571856,-0.069355,-0.004041,0.001408,0.000812,-0.009857,-0.000053,0.000853,-0.007574,0.072281,-0.004466,0.206706,0.206663,0.157753,0.376314,0.000000,0.000000,0.000000,0.000000,0.000000,0.000000,0.000000,0.000000,0.000000,0.000000,0.000000,0.000000,0.070172,3,0
1470000,0.007279,37.938553,0.010627,0.022058,26.069994,-0.005696,-0.001481,0.038096,1.571867,-0.068924,-0.004088,0.001698,0.000828,-0.009706,-0.000052,0.000965,-0.007538,-0.071682,-0.028230,0.206893,0.206849,0.157410,0.374306,0.000000,0.000000,0.000000,0.000000,0.000000,0.000000,0.000000,0.000000,0.000000,0.000000,0.000000,0.000000,0.069599,3,0
1480000,0.007244,38.200268,0.009761,0.021810,26.076540,-0.006933,-0.001519,0.038364,1.571871,-0.069092,-0.004133,0.001997,0.000844,-0.009768,-0.000053,0.000286,-0.007502,0.027859,-0.030577,0.207081,0.207036,0.157070,0.372354,0.000000,0.000000,0.000000,0.000000,0.000000,0.000000,0.000000,0.000000,0.000000,0.000000,0.000000,0.000000,0.027849,3,0
1490000,0.007207,38.457813,0.009367,0.021519,26.075516,-0.007125,-0.001562,0.037977,1.571868,-0.068528,-0.004178,0.002146,0.000860,-0.009563,-0.000052,0.001483,-0.007464,-0.094776,-0.013305,0.207272,0.207225,0.156732,0.370459,0.000000,0.000000,0.000000,0.000000,0.000000,0.000000,0.000000,0.000000,0.000000,0.000000,0.000000,0.000000,0.091790,3,0
1500000,0.007168,38.718815,0.008551,0.021260,26.080696,-0.008206,-0.001593,0.038125,1.571879,-0.068562,-0.004222,0.002430,0.000876,-0.009577,-0.000052,0.000145,-0.007424,0.005512,-0.028462,0.207465,0.207416,0.156396,0.368616,0.000000,0.000000,0.000000,0.000000,0.000000,0.000000,0.000000,0.000000,0.000000,0.000000,0.000000,0.000000,0.008923,3,0
1510000,0.007130,38.979088,0.007802,0.021103,26.084585,-0.009249,-0.001633,0.038155,1.571889,-0.068463,-0.004266,0.002692,0.000892,-0.009542,-0.000052,0.000162,-0.007384,-0.016994,-0.025681,0.207659,0.207609,0.156064,0.366828,0.000000,0.000000,0.000000,0.000000,0.000000,0.000000,0.000000,0.000000,0.000000,0.000000,0.000000,0.000000,0.017893,3,0
1520000,0.007088,39.242077,0.008178,0.020908,26.093317,-0.008845,-0.001682,0.038588,1.571890,-0.068816,-0.004309,0.002492,0.000908,-0.009675,-0.000053,0.000657,-0.007343,0.060635,0.018625,0.207855,0.207804,0.155734,0.365091,0.000000,0.000000,0.000000,0.000000,0.000000,0.000000,0.000000,0.000000,0.000000,0.000000,0.000000,0.000000,0.058968,3,0
1530000,0.007045,39.503620,0.008397,0.020622,26.099136,-0.008587,-0.001719,0.038792,1.571897,-0.068910,-0.004351,0.002367,0.000925,-0.009710,-0.000054,0.000074,-0.007299,0.016224,0.012031,0.208053,0.208000,0.155407,0.363402,0.000000,0.000000,0.000000,0.000000,0.000000,0.000000,0.000000,0.000000,0.000000,0.000000,0.000000,0.000000,0.017175,3,0
1540000,0.007000,39.763031,0.009752,0.020346,26.101030,-0.006693,-0.001764,0.038649,1.571902,-0.068639,-0.004392,0.001814,0.000942,-0.009601,-0.000053,0.000853,-0.007253,-0.046585,0.055250,0.208252,0.208198,0.155084,0.361763,0.000000,0.000000,0.000000,0.000000,0.000000,0.000000,0.000000,0.000000,0.000000,0.000000,0.000000,0.000000,0.045498,3,0
1550000,0.006957,40.021755,0.008927,0.020213,26.101599,-0.007590,-0.001796,0.038400,1.571904,-0.068255,-0.004434,0.002134,0.000958,-0.009451,-0.000053,0.000887,-0.007206,-0.067471,-0.030002,0.208453,0.208397,0.154763,0.360171,0.000000,0.000000,0.000000,0.000000,0.000000,0.000000,0.000000,0.000000,0.000000,0.000000,0.000000,0.000000,0.065506,3,0
1560000,0.006912,40.281841,0.009273,0.019967,26.104618,-0.007005,-0.001847,0.038347,1.571903,-0.068096,-0.004474,0.001975,0.000974,-0.009385,-0.000053,0.000176,-0.007161,-0.028015,0.016052,0.208656,0.208598,0.154446,0.358625,0.000000,0.000000,0.000000,0.000000,0.000000,0.000000,0.000000,0.000000,0.000000,0.000000,0.000000,0.000000,0.027908,3,0
1570000,0.006865,40.543968,0.009963,0.019750,26.111345,-0.006371,-0.001890,0.038621,1.571911,-0.068263,-0.004513,0.001660,0.000991,-0.009452,-0.000053,0.000298,-0.007114,0.029934,0.029989,0.208860,0.208801,0.154132,0.357125,0.000000,0.000000,0.000000,0.000000,0.000000,0.000000,0.000000,0.000000,0.000000,0.000000,0.000000,0.000000,0.029704,3,0
1580000,0.006817,40.806038,0.010418,0.019428,26.117851,-0.005647,-0.001938,0.038875,1.571921,-0.068408,-0.004552,0.001443,0.001008,-0.009511,-0.000054,0.000186,-0.007064,0.026165,0.020445,0.209065,0.209004,0.153822,0.355668,0.000000,0.000000,0.000000,0.000000,0.000000,0.000000,0.000000,0.000000,0.000000,0.000000,0.000000,0.000000,0.026161,3,0
1590000,0.006768,41.067345,0.011126,0.019241,26.122961,-0.004763,-0.001976,0.038987,1.571935,-0.068421,-0.004590,0.001131,0.001024,-0.009515,-0.000054,0.000154,-0.007014,0.002579,0.029895,0.209271,0.209209,0.153515,0.354255,0.000000,0.000000,0.000000,0.000000,0.000000,0.000000,0.000000,0.000000,0.000000,0.000000,0.000000,0.000000,0.007215,3,0
1600000,0.006718,41.327904,0.012376,0.019021,26.126549,-0.003162,-0.002024,0.038977,1.571944,-0.068309,-0.004627,0.000607,0.001041,-0.009463,-0.000054,0.000489,-0.006963,-0.020237,0.050583,0.209479,0.209415,0.153211,0.352882,0.000000,0.000000,0.000000,0.000000,0.000000,0.000000,0.000000,0.000000,0.000000,0.000000,0.000000,0.000000,0.020640,3,0
1610000,0.006670,41.585667,0.011376,0.018782,26.124889,-0.004463,-0.002075,0.038516,1.571937,-0.067757,-0.004666,0.001040,0.001057,-0.009226,-0.000053,0.001926,-0.006910,-0.101917,-0.039042,0.209687,0.209622,0.152912,0.351549,0.000000,0.000000,0.000000,0.000000,0.000000,0.000000,0.000000,0.000000,0.000000,0.000000,0.000000,0.000000,0.098592,3,0
1620000,0.006620,41.844818,0.011123,0.018500,26.125925,-0.004580,-0.002125,0.038278,1.571937,-0.067426,-0.004704,0.001148,0.001073,-0.009080,-0.000053,0.000628,-0.006860,-0.061481,-0.008885,0.209896,0.209829,0.152616,0.350256,0.000000,0.000000,0.000000,0.000000,0.000000,0.000000,0.000000,0.000000,0.000000,0.000000,0.000000,0.000000,0.059702,3,0
1630000,0.006569,42.107426,0.011230,0.018288,26.133244,-0.004363,-0.002172,0.038597,1.571941,-0.067624,-0.004739,0.001072,0.001090,-0.009169,-0.000053,0.000236,-0.006807,0.037178,0.006370,0.210106,0.210037,0.152323,0.349001,0.000000,0.000000,0.000000,0.000000,0.000000,0.000000,0.000000,0.000000,0.000000,0.000000,0.000000,0.000000,0.036474,3,0
1640000,0.006516,42.365086,0.011237,0.017979,26.131353,-0.004116,-0.002224,0.038088,1.571940,-0.067064,-0.004776,0.001090,0.001106,-0.008913,-0.000052,0.001822,-0.006753,-0.106232,0.000748,0.210317,0.210246,0.152035,0.347783,0.000000,0.000000,0.000000,0.000000,0.000000,0.000000,0.000000,0.000000,0.000000,0.000000,0.000000,0.000000,0.102715,3,0
1650000,0.006461,42.623432,0.012105,0.017687,26.130625,-0.003014,-0.002259,0.037688,1.571941,-0.066616,-0.004810,0.000739,0.001123,-0.008703,-0.000052,0.001383,-0.006697,-0.085567,0.034938,0.210528,0.210455,0.151750,0.346599,0.000000,0.000000,0.000000,0.000000,0.000000,0.000000,0.000000,0.000000,0.000000,0.000000,0.000000,0.000000,0.082806,3,0
1660000,0.006405,42.885269,0.012841,0.017412,26.136364,-0.002030,-0.002304,0.037873,1.571948,-0.066687,-0.004844,0.000410,0.001139,-0.008734,-0.000052,0.000189,-0.006640,0.013912,0.030446,0.210739,0.210665,0.151469,0.345450,0.000000,0.000000,0.000000,0.000000,0.000000,0.000000,0.000000,0.000000,0.000000,0.000000,0.000000,0.000000,0.014881,3,0
1670000,0.006351,43.146351,0.012456,0.017242,26.140566,-0.002646,-0.002353,0.037917,1.571960,-0.066639,-0.004878,0.000568,0.001155,-0.008713,-0.000052,0.000055,-0.006582,-0.009430,-0.014502,0.210950,0.210875,0.151192,0.344334,0.000000,0.000000,0.000000,0.000000,0.000000,0.000000,0.000000,0.000000,0.000000,0.000000,0.000000,0.000000,0.011099,3,0
1680000,0.006296,43.407372,0.012969,0.017064,26.144651,-0.002190,-0.002404,0.037938,1.571972,-0.066577,-0.004910,0.000341,0.001171,-0.008681,-0.000052,0.000105,-0.006526,-0.012135,0.021363,0.211161,0.211084,0.150919,0.343251,0.000000,0.000000,0.000000,0.000000,0.000000,0.000000,0.000000,0.000000,0.000000,0.000000,0.000000,0.000000,0.013286,3,0
1690000,0.006241,43.669750,0.012682,0.016839,26.151100,-0.002614,-0.002452,0.038200,1.571986,-0.066703,-0.004943,0.000445,0.001187,-0.008744,-0.000053,0.000124,-0.006468,0.024990,-0.010231,0.211372,0.211293,0.150650,0.342198,0.000000,0.000000,0.000000,0.000000,0.000000,0.000000,0.000000,0.000000,0.000000,0.000000,0.000000,0.000000,0.024900,3,0
1700000,0.006185,43.931347,0.012755,0.016590,26.155993,-0.002617,-0.002488,0.038300,1.571986,-0.066708,-0.004974,0.000401,0.001203,-0.008746,-0.000053,0.000009,-0.006411,0.001095,0.004025,0.211583,0.211502,0.150384,0.341176,0.000000,0.000000,0.000000,0.000000,0.000000,0.000000,0.000000,0.000000,0.000000,0.000000,0.000000,0.000000,0.006274,3,0
1710000,0.006129,44.190784,0.011991,0.016290,26.156935,-0.003315,-0.002521,0.038041,1.571990,-0.066407,-0.005006,0.000749,0.001219,-0.008595,-0.000052,0.000770,-0.006352,-0.061760,-0.030386,0.211793,0.211710,0.150123,0.340185,0.000000,0.000000,0.000000,0.000000,0.000000,0.000000,0.000000,0.000000,0.000000,0.000000,0.000000,0.000000,0.059904,3,0
1720000,0.006072,44.449486,0.011516,0.016091,26.156336,-0.003860,-0.002556,0.037653,1.571997,-0.066008,-0.005037,0.000977,0.001234,-0.008390,-0.000052,0.001162,-0.006294,-0.082661,-0.018746,0.212002,0.211918,0.149866,0.339220,0.000000,0.000000,0.000000,0.000000,0.000000,0.000000,0.000000,0.000000,0.000000,0.000000,0.000000,0.000000,0.079977,3,0
