time_us,pos_x,pos_y,pos_z,vel_x,vel_y,vel_z,roll,pitch,yaw,bias_ax,bias_ay,bias_az,bias_gx,bias_gy,bias_gz,nis,innov_x,innov_y,innov_z,cov_pos_x,cov_pos_y,cov_pos_z,cov_yaw,des_speed,des_heading,des_climb,pid_speed,pid_yaw,pid_alt,speed_meas,yaw_meas,climb_meas,fwd_accel,yaw_rate,vert_accel,drift_m,nav_mode,mission_state
0,-0.000002,0.149995,0.000000,-0.000267,24.999191,0.000024,-0.000005,-0.000001,1.570798,0.000000,0.000000,0.000000,0.000000,0.000000,0.000000,0.006250,0.000003,-0.249994,-0.000000,2.400038,2.400038,3.600017,1.000518,0.000000,0.000000,0.000000,0.000000,0.000000,0.000000,0.000000,0.000000,0.000000,0.000000,0.000000,0.000000,0.149995,1,0
10000,-0.000005,0.331133,0.025382,-0.000549,24.998125,-0.000055,-0.000003,-0.000003,1.570806,0.000001,0.000000,-0.000000,0.000000,0.000000,0.000000,0.007389,0.000007,-0.240950,0.067688,1.714420,1.714420,2.250079,1.001073,0.000000,0.000000,0.000000,0.000000,0.000000,0.000000,0.000000,0.000000,0.000000,0.000000,0.000000,0.000000,0.172101,3,0
20000,-0.000010,0.566826,0.024043,-0.000806,24.997425,0.000100,-0.000006,-0.000006,1.570816,0.000001,0.000000,-0.000000,0.000000,0.000000,-0.000000,0.000538,0.000013,-0.064257,-0.004914,1.333616,1.333616,1.636554,1.001655,0.000000,0.000000,0.000000,0.000000,0.000000,0.000000,0.000000,0.000000,0.000000,0.000000,0.000000,0.000000,0.049975,3,0
30000,-0.000017,0.802012,0.022917,-0.001112,24.996624,-0.000104,-0.000013,0.000010,1.570824,0.000003,0.000000,-0.000000,-0.000000,0.000000,-0.000000,0.000904,0.000021,-0.081276,-0.005252,1.091392,1.091392,1.286065,1.002257,0.000000,0.000000,0.000000,0.000000,0.000000,0.000000,0.000000,0.000000,0.000000,0.000000,0.000000,0.000000,0.066492,3,0
40000,-0.000026,1.049159,0.032452,-0.001333,24.995939,0.000260,-0.000020,0.000009,1.570821,0.000003,0.000000,-0.000002,-0.000000,0.000000,-0.000000,0.000447,0.000031,-0.018268,0.054005,0.923811,0.923811,1.059385,1.002869,0.000000,0.000000,0.000000,0.000000,0.000000,0.000000,0.000000,0.000000,0.000000,0.000000,0.000000,0.000000,0.015456,3,0
50000,-0.000035,1.300834,0.039452,-0.001473,24.995335,0.000408,-0.000025,0.000009,1.570829,0.000003,0.000000,-0.000003,-0.000000,0.000000,-0.000000,0.000332,0.000041,0.012897,0.046611,0.801036,0.801036,0.900822,1.003484,0.000000,0.000000,0.000000,0.000000,0.000000,0.000000,0.000000,0.000000,0.000000,0.000000,0.000000,0.000000,0.011175,3,0
60000,-0.000046,1.539037,0.038248,-0.001646,24.994032,0.000432,-0.000026,0.000008,1.570838,0.000009,0.000000,-0.000003,-0.000000,0.000000,-0.000000,0.001471,0.000052,-0.099619,-0.009258,0.707270,0.707270,0.783741,1.004094,0.000000,0.000000,0.000000,0.000000,0.000000,0.000000,0.000000,0.000000,0.000000,0.000000,0.000000,0.000000,0.087876,3,0
70000,-0.000058,1.788985,0.035313,-0.001919,24.993359,0.000088,-0.000026,0.000007,1.570841,0.000009,0.000000,-0.000001,-0.000000,0.000000,-0.000000,0.000095,0.000065,0.000132,-0.025401,0.633370,0.633370,0.693801,1.004688,0.000000,0.000000,0.000000,0.000000,0.000000,0.000000,0.000000,0.000000,0.000000,0.000000,0.000000,0.000000,0.000131,3,0
80000,-0.000071,2.037835,0.032252,-0.002058,24.992592,-0.000256,-0.000029,0.000022,1.570834,0.000010,0.000000,0.000002,-0.000000,0.000000,-0.000000,0.000149,0.000079,-0.011262,-0.029497,0.573673,0.573673,0.622594,1.005260,0.000000,0.000000,0.000000,0.000000,0.000000,0.000000,0.000000,0.000000,0.000000,0.000000,0.000000,0.000000,0.010186,3,0
90000,-0.000086,2.289345,0.032191,-0.002276,24.992102,-0.000222,-0.000026,0.000031,1.570838,0.000007,0.000000,0.000002,-0.000000,0.000000,-0.000000,0.000050,0.000094,0.018200,-0.000625,0.524488,0.524488,0.564865,1.005801,0.000000,0.000000,0.000000,0.000000,0.000000,0.000000,0.000000,0.000000,0.000000,0.000000,0.000000,0.000000,0.016609,3,0
100000,-0.000103,2.536479,0.032860,-0.002589,24.991112,-0.000308,-0.000022,0.000037,1.570850,0.000013,0.000000,0.000001,-0.000000,0.000000,-0.000000,0.000192,0.000112,-0.034516,0.007804,0.483304,0.483304,0.517162,1.006301,0.000000,0.000000,0.000000,0.000000,0.000000,0.000000,0.000000,0.000000,0.000000,0.000000,0.000000,0.000000,0.031736,3,0
110000,-0.000122,2.789106,0.034697,-0.002894,24.990883,-0.000122,-0.000027,0.000044,1.570852,0.000006,0.000000,-0.000003,-0.000000,0.000000,-0.000000,0.000287,0.000132,0.036422,0.023153,0.448354,0.448354,0.477121,1.006754,0.000000,0.000000,0.000000,0.000000,0.000000,0.000000,0.000000,0.000000,0.000000,0.000000,0.000000,0.000000,0.033700,3,0
120000,-0.000142,3.037796,0.035492,-0.003111,24.990194,0.000057,-0.000034,0.000043,1.570854,0.000010,0.000000,-0.000006,-0.000000,0.000000,-0.000000,0.000065,0.000153,-0.017415,0.010769,0.418359,0.418359,0.443071,1.007150,0.000000,0.000000,0.000000,0.000000,0.000000,0.000000,0.000000,0.000000,0.000000,0.000000,0.000000,0.000000,0.016201,3,0
130000,-0.000165,3.287189,0.036361,-0.003412,24.989437,0.000149,-0.000025,0.000051,1.570862,0.000012,0.000000,-0.000009,-0.000000,0.000000,-0.000000,0.000034,0.000176,-0.007670,0.012593,0.392369,0.392369,0.413797,1.007481,0.000000,0.000000,0.000000,0.000000,0.000000,0.000000,0.000000,0.000000,0.000000,0.000000,0.000000,0.000000,0.007170,3,0
140000,-0.000190,3.539612,0.038722,-0.003714,24.989346,0.000607,-0.000033,0.000060,1.570860,-0.000000,0.000000,-0.000019,-0.000000,-0.000000,0.000000,0.000472,0.000202,0.041127,0.036454,0.369666,0.369666,0.388393,1.007739,0.000000,0.000000,0.000000,0.000000,0.000000,0.000000,0.000000,0.000000,0.000000,0.000000,0.000000,0.000000,0.038594,3,0
150000,-0.000216,3.789929,0.038749,-0.004024,24.988811,0.000800,-0.000029,0.000076,1.570867,-0.000003,0.000000,-0.000019,-0.000000,-0.000000,0.000000,0.000009,0.000230,0.007374,0.000318,0.349695,0.349695,0.366172,1.007915,0.000000,0.000000,0.000000,0.000000,0.000000,0.000000,0.000000,0.000000,0.000000,0.000000,0.000000,0.000000,0.006948,3,0
160000,-0.000244,4.046168,0.036987,-0.004181,24.989882,0.000532,-0.000028,0.000099,1.570873,-0.000046,0.000000,-0.000008,-0.000000,-0.000001,0.000000,0.002226,0.000258,0.114883,-0.030675,0.332021,0.332021,0.346600,1.008002,0.000000,0.000000,0.000000,0.000000,0.000000,0.000000,0.000000,0.000000,0.000000,0.000000,0.000000,0.000000,0.108526,3,0
170000,-0.000273,4.294895,0.037074,-0.004416,24.988899,0.000695,-0.000020,0.000098,1.570879,-0.000037,0.000001,-0.000009,-0.000000,-0.000001,0.000000,0.000077,0.000288,-0.022093,0.001465,0.316297,0.316297,0.329260,1.007991,0.000000,0.000000,0.000000,0.000000,0.000000,0.000000,0.000000,0.000000,0.000000,0.000000,0.000000,0.000000,0.020930,3,0
180000,-0.000303,4.550163,0.035219,-0.004556,24.990133,0.000229,-0.000019,0.000125,1.570890,-0.000088,0.000001,0.000008,-0.000000,-0.000002,0.000000,0.002009,0.000319,0.106888,-0.035619,0.302246,0.302246,0.313817,1.007875,0.000000,0.000000,0.000000,0.000000,0.000000,0.000000,0.000000,0.000000,0.000000,0.000000,0.000000,0.000000,0.101504,3,0
190000,-0.000334,4.801533,0.034691,-0.004807,24.990170,0.000071,-0.000017,0.000143,1.570899,-0.000104,0.000001,0.000014,-0.000000,-0.000003,0.000000,0.000166,0.000351,0.030517,-0.010612,0.289641,0.289641,0.300003,1.007645,0.000000,0.000000,0.000000,0.000000,0.000000,0.000000,0.000000,0.000000,0.000000,0.000000,0.000000,0.000000,0.029046,3,0
200000,-0.000367,5.057781,0.034527,-0.005102,24.991997,0.000030,-0.000007,0.000174,1.570894,-0.000184,0.000001,0.000016,-0.000000,-0.000005,0.000000,0.002984,0.000385,0.136969,-0.003442,0.278296,0.278296,0.287598,1.007295,0.000000,0.000000,0.000000,0.000000,0.000000,0.000000,0.000000,0.000000,0.000000,0.000000,0.000000,0.000000,0.130617,3,0
210000,-0.000402,5.310359,0.033107,-0.005400,24.992626,-0.000612,-0.000009,0.000202,1.570906,-0.000222,0.000001,0.000035,-0.000000,-0.000006,0.000000,0.000717,0.000421,0.059612,-0.030807,0.268054,0.268054,0.276421,1.006817,0.000000,0.000000,0.000000,0.000000,0.000000,0.000000,0.000000,0.000000,0.000000,0.000000,0.000000,0.000000,0.056950,3,0
220000,-0.000439,5.563103,0.031987,-0.005617,24.993364,-0.001113,-0.000014,0.000231,1.570918,-0.000268,0.000002,0.000052,-0.000000,-0.000007,0.000000,0.000784,0.000459,0.065454,-0.025095,0.258788,0.258787,0.266321,1.006203,0.000000,0.000000,0.000000,0.000000,0.000000,0.000000,0.000000,0.000000,0.000000,0.000000,0.000000,0.000000,0.062632,3,0
230000,-0.000476,5.815999,0.031120,-0.005780,24.994230,-0.001329,-0.000019,0.000260,1.570917,-0.000322,0.000002,0.000067,-0.000000,-0.000009,0.000000,0.000872,0.000497,0.071129,-0.020001,0.250386,0.250386,0.257172,1.005447,0.000000,0.000000,0.000000,0.000000,0.000000,0.000000,0.000000,0.000000,0.000000,0.000000,0.000000,0.000000,0.068162,3,0
240000,-0.000514,6.072253,0.031428,-0.005970,24.997004,-0.001221,-0.000013,0.000316,1.570921,-0.000451,0.000002,0.000061,-0.000000,-0.000013,0.000000,0.003910,0.000536,0.156167,0.007767,0.242756,0.242756,0.248866,1.004542,0.000000,0.000000,0.000000,0.000000,0.000000,0.000000,0.000000,0.000000,0.000000,0.000000,0.000000,0.000000,0.149849,3,0
250000,-0.000554,6.327659,0.031754,-0.006210,24.999649,-0.001227,-0.000004,0.000351,1.570926,-0.000574,0.000003,0.000053,-0.000000,-0.000018,0.000000,0.003080,0.000576,0.138429,0.008441,0.235819,0.235819,0.241314,1.003481,0.000000,0.000000,0.000000,0.000000,0.000000,0.000000,0.000000,0.000000,0.000000,0.000000,0.000000,0.000000,0.132990,3,0
260000,-0.000594,6.580018,0.033641,-0.006357,25.000542,-0.000004,0.000002,0.000382,1.570928,-0.000634,0.000004,0.000007,-0.000000,-0.000020,0.000000,0.000992,0.000617,0.061908,0.048566,0.229506,0.229505,0.234436,1.002259,0.000000,0.000000,0.000000,0.000000,0.000000,0.000000,0.000000,0.000000,0.000000,0.000000,0.000000,0.000000,0.059543,3,0
270000,-0.000635,6.830328,0.032772,-0.006614,25.000107,-0.000468,-0.000004,0.000392,1.570929,-0.000642,0.000004,0.000031,-0.000000,-0.000020,0.000000,0.000095,0.000660,0.008330,-0.022859,0.223756,0.223756,0.228165,1.000870,0.000000,0.000000,0.000000,0.000000,0.000000,0.000000,0.000000,0.000000,0.000000,0.000000,0.000000,0.000000,0.008045,3,0
280000,-0.000678,7.085267,0.032757,-0.006843,25.003025,-0.000638,-0.000012,0.000455,1.570928,-0.000792,0.000005,0.000031,-0.000000,-0.000026,0.000000,0.002958,0.000704,0.135723,-0.000227,0.218518,0.218518,0.222443,0.999308,0.000000,0.000000,0.000000,0.000000,0.000000,0.000000,0.000000,0.000000,0.000000,0.000000,0.000000,0.000000,0.130782,3,0
290000,-0.000722,7.338125,0.032013,-0.007017,25.004530,-0.001110,-0.000004,0.000496,1.570940,-0.000886,0.000006,0.000055,-0.000000,-0.000030,0.000000,0.001084,0.000749,0.079545,-0.020392,0.213746,0.213746,0.217219,0.997569,0.000000,0.000000,0.000000,0.000000,0.000000,0.000000,0.000000,0.000000,0.000000,0.000000,0.000000,0.000000,0.076714,3,0
300000,-0.000767,7.592523,0.030593,-0.007193,25.007395,-0.001937,-0.000009,0.000562,1.570938,-0.001043,0.000007,0.000104,-0.000000,-0.000037,0.000000,0.002763,0.000794,0.124854,-0.039851,0.209401,0.209401,0.212446,0.995647,0.000000,0.000000,0.000000,0.000000,0.000000,0.000000,0.000000,0.000000,0.000000,0.000000,0.000000,0.000000,0.120499,3,0
310000,-0.000812,7.844280,0.031350,-0.007429,25.008142,-0.001357,-0.000017,0.000595,1.570943,-0.001109,0.000008,0.000075,-0.000000,-0.000040,0.000000,0.000473,0.000841,0.049339,0.022401,0.205446,0.205446,0.208087,0.993538,0.000000,0.000000,0.000000,0.000000,0.000000,0.000000,0.000000,0.000000,0.000000,0.000000,0.000000,0.000000,0.047657,3,0
320000,-0.000858,8.100252,0.030392,-0.007548,25.012558,-0.002119,-0.000011,0.000671,1.570937,-0.001357,0.000009,0.000114,-0.000000,-0.000051,0.000000,0.005072,0.000888,0.175274,-0.027764,0.201851,0.201850,0.204105,0.991239,0.000000,0.000000,0.000000,0.000000,0.000000,0.000000,0.000000,0.000000,0.000000,0.000000,0.000000,0.000000,0.169380,3,0
330000,-0.000906,8.355595,0.030100,-0.007834,25.016581,-0.002404,-0.000003,0.000748,1.570930,-0.001593,0.000011,0.000126,-0.000000,-0.000062,0.000000,0.004024,0.000937,0.157804,-0.008087,0.198586,0.198585,0.200469,0.988745,0.000000,0.000000,0.000000,0.000000,0.000000,0.000000,0.000000,0.000000,0.000000,0.000000,0.000000,0.000000,0.152584,3,0
340000,-0.000954,8.608407,0.030022,-0.008006,25.018503,-0.002273,-0.000011,0.000805,1.570928,-0.001722,0.000012,0.000128,-0.000000,-0.000069,0.000000,0.001067,0.000986,0.081331,-0.001692,0.195626,0.195626,0.197151,0.986055,0.000000,0.000000,0.000000,0.000000,0.000000,0.000000,0.000000,0.000000,0.000000,0.000000,0.000000,0.000000,0.078685,3,0
350000,-0.001004,8.864579,0.031544,-0.008309,25.023777,-0.001025,-0.000015,0.000920,1.570926,-0.002033,0.000014,0.000049,-0.000001,-0.000084,0.000000,0.005968,0.001037,0.186319,0.047766,0.192948,0.192948,0.194125,0.983166,0.000000,0.000000,0.000000,0.000000,0.000000,0.000000,0.000000,0.000000,0.000000,0.000000,0.000000,0.000000,0.180330,3,0
360000,-0.001054,9.117643,0.031961,-0.008437,25.026182,-0.000448,-0.000015,0.000973,1.570922,-0.002189,0.000016,0.000026,-0.000001,-0.000093,0.000000,0.001311,0.001089,0.089126,0.013324,0.190532,0.190532,0.191370,0.980075,0.000000,0.000000,0.000000,0.000000,0.000000,0.000000,0.000000,0.000000,0.000000,0.000000,0.000000,0.000000,0.086302,3,0
370000,-0.001105,9.373362,0.031950,-0.008665,25.031366,-0.000633,-0.000013,0.001081,1.570918,-0.002510,0.000018,0.000026,-0.000001,-0.000110,0.000000,0.004887,0.001141,0.173980,-0.000142,0.188359,0.188358,0.188863,0.976781,0.000000,0.000000,0.000000,0.000000,0.000000,0.000000,0.000000,0.000000,0.000000,0.000000,0.000000,0.000000,0.168522,3,0
380000,-0.001157,9.627307,0.032186,-0.008820,25.034859,-0.000545,-0.000020,0.001171,1.570922,-0.002736,0.000020,0.000011,-0.000001,-0.000122,0.000000,0.002221,0.001194,0.116998,0.007812,0.186410,0.186410,0.186586,0.973284,0.000000,0.000000,0.000000,0.000000,0.000000,0.000000,0.000000,0.000000,0.000000,0.000000,0.000000,0.000000,0.113368,3,0
390000,-0.001209,9.882613,0.033511,-0.009014,25.039904,0.000643,-0.000022,0.001294,1.570929,-0.003062,0.000023,-0.000076,-0.000001,-0.000141,0.000000,0.004501,0.001247,0.161201,0.043331,0.184672,0.184671,0.184522,0.969582,0.000000,0.000000,0.000000,0.000000,0.000000,0.000000,0.000000,0.000000,0.000000,0.000000,0.000000,0.000000,0.156244,3,0
400000,-0.001262,10.139235,0.033621,-0.009267,25.046627,0.000832,-0.000028,0.001446,1.570933,-0.003494,0.000026,-0.000084,-0.000001,-0.000166,0.000000,0.006728,0.001302,0.204028,0.003365,0.183128,0.183127,0.182656,0.965677,0.000000,0.000000,0.000000,0.000000,0.000000,0.000000,0.000000,0.000000,0.000000,0.000000,0.000000,0.000000,0.197805,3,0
410000,-0.001317,10.395329,0.035084,-0.009521,25.052841,0.002517,-0.000025,0.001583,1.570936,-0.003905,0.000029,-0.000190,-0.000001,-0.000190,0.000000,0.005960,0.001358,0.185886,0.048179,0.181765,0.181765,0.180971,0.961568,0.000000,0.000000,0.000000,0.000000,0.000000,0.000000,0.000000,0.000000,0.000000,0.000000,0.000000,0.000000,0.180260,3,0
420000,-0.001371,10.650318,0.033744,-0.009624,25.057793,0.001205,-0.000024,0.001707,1.570933,-0.004247,0.000032,-0.000085,-0.000002,-0.000211,0.000000,0.003899,0.001414,0.148399,-0.045749,0.180572,0.180571,0.179456,0.957257,0.000000,0.000000,0.000000,0.000000,0.000000,0.000000,0.000000,0.000000,0.000000,0.000000,0.000000,0.000000,0.143940,3,0
430000,-0.001426,10.904244,0.032343,-0.009875,25.061563,-0.000345,-0.000014,0.001810,1.570942,-0.004515,0.000036,0.000029,-0.000002,-0.000228,0.000001,0.002396,0.001470,0.112027,-0.047604,0.179536,0.179535,0.178097,0.952745,0.000000,0.000000,0.000000,0.000000,0.000000,0.000000,0.000000,0.000000,0.000000,0.000000,0.000000,0.000000,0.108684,3,0
440000,-0.001481,11.160692,0.031778,-0.009962,25.068672,-0.001143,-0.000003,0.001979,1.570951,-0.005004,0.000040,0.000077,-0.000002,-0.000260,0.000001,0.006271,0.001527,0.196005,-0.019030,0.178646,0.178646,0.176883,0.948035,0.000000,0.000000,0.000000,0.000000,0.000000,0.000000,0.000000,0.000000,0.000000,0.000000,0.000000,0.000000,0.190175,3,0
450000,-0.001537,11.414296,0.031113,-0.010234,25.072067,-0.001861,-0.000006,0.002074,1.570951,-0.005260,0.000044,0.000135,-0.000002,-0.000277,0.000001,0.001651,0.001584,0.098517,-0.022346,0.177893,0.177893,0.175803,0.943128,0.000000,0.000000,0.000000,0.000000,0.000000,0.000000,0.000000,0.000000,0.000000,0.000000,0.000000,0.000000,0.095609,3,0
460000,-0.001594,11.669828,0.030480,-0.010443,25.078260,-0.002582,0.000003,0.002241,1.570952,-0.005697,0.000048,0.000191,-0.000003,-0.000306,0.000001,0.004367,0.001642,0.162941,-0.021089,0.177267,0.177266,0.174847,0.938029,0.000000,0.000000,0.000000,0.000000,0.000000,0.000000,0.000000,0.000000,0.000000,0.000000,0.000000,0.000000,0.158135,3,0
470000,-0.001651,11.924320,0.030830,-0.010649,25.082972,-0.002245,0.000004,0.002371,1.570946,-0.006048,0.000053,0.000155,-0.000003,-0.000331,0.000001,0.002596,0.001701,0.126016,0.012965,0.176759,0.176758,0.174006,0.932741,0.000000,0.000000,0.000000,0.000000,0.000000,0.000000,0.000000,0.000000,0.000000,0.000000,0.000000,0.000000,0.122314,3,0
480000,-0.001707,12.177796,0.029527,-0.010713,25.086365,-0.003828,0.000012,0.002469,1.570950,-0.006308,0.000058,0.000283,-0.000003,-0.000349,0.000001,0.001633,0.001759,0.090144,-0.044341,0.176361,0.176360,0.173271,0.927268,0.000000,0.000000,0.000000,0.000000,0.000000,0.000000,0.000000,0.000000,0.000000,0.000000,0.000000,0.000000,0.087512,3,0
490000,-0.001763,12.433198,0.029114,-0.010836,25.092609,-0.004117,0.000004,0.002647,1.570950,-0.006768,0.000063,0.000322,-0.000004,-0.000382,0.000001,0.003900,0.001816,0.154696,-0.013123,0.176065,0.176064,0.172634,0.921614,0.000000,0.000000,0.000000,0.000000,0.000000,0.000000,0.000000,0.000000,0.000000,0.000000,0.000000,0.000000,0.150166,3,0
500000,-0.001819,12.686995,0.030032,-0.010982,25.096455,-0.003034,0.000011,0.002758,1.570944,-0.007070,0.000069,0.000218,-0.000004,-0.000405,0.000001,0.001737,0.001874,0.098022,0.033492,0.175863,0.175862,0.172087,0.915785,0.000000,0.000000,0.000000,0.000000,0.000000,0.000000,0.000000,0.000000,0.000000,0.000000,0.000000,0.000000,0.095165,3,0
510000,-0.001874,12.945620,0.029281,-0.011111,25.107359,-0.004072,0.000011,0.003048,1.570936,-0.007900,0.000075,0.000299,-0.000005,-0.000468,0.000001,0.011179,0.001931,0.261644,-0.025194,0.175748,0.175748,0.171622,0.909785,0.000000,0.000000,0.000000,0.000000,0.000000,0.000000,0.000000,0.000000,0.000000,0.000000,0.000000,0.000000,0.253988,3,0
520000,-0.001930,13.203179,0.029956,-0.011347,25.116751,-0.003195,0.000015,0.003311,1.570936,-0.008624,0.000082,0.000216,-0.000005,-0.000524,0.000001,0.008045,0.001988,0.221578,0.025047,0.175715,0.175714,0.171234,0.903622,0.000000,0.000000,0.000000,0.000000,0.000000,0.000000,0.000000,0.000000,0.000000,0.000000,0.000000,0.000000,0.215098,3,0
530000,-0.001985,13.459693,0.029135,-0.011407,25.124584,-0.004231,0.000018,0.003534,1.570937,-0.009238,0.000089,0.000310,-0.000006,-0.000573,0.000001,0.005519,0.002045,0.182592,-0.027733,0.175755,0.175755,0.170914,0.897300,0.000000,0.000000,0.000000,0.000000,0.000000,0.000000,0.000000,0.000000,0.000000,0.000000,0.000000,0.000000,0.177255,3,0
540000,-0.002040,13.716343,0.028174,-0.011528,25.132704,-0.005565,0.000017,0.003779,1.570929,-0.009877,0.000096,0.000422,-0.000006,-0.000624,0.000001,0.005672,0.002101,0.184425,-0.032292,0.175864,0.175864,0.170658,0.890826,0.000000,0.000000,0.000000,0.000000,0.000000,0.000000,0.000000,0.000000,0.000000,0.000000,0.000000,0.000000,0.179032,3,0
550000,-0.002093,13.973129,0.028527,-0.011573,25.141022,-0.005024,0.000029,0.004032,1.570924,-0.010539,0.000104,0.000371,-0.000007,-0.000679,0.000002,0.005638,0.002157,0.186120,0.014343,0.176036,0.176035,0.170460,0.884206,0.000000,0.000000,0.000000,0.000000,0.000000,0.000000,0.000000,0.000000,0.000000,0.000000,0.000000,0.000000,0.180671,3,0
560000,-0.002147,14.228885,0.028481,-0.011768,25.147793,-0.005158,0.000039,0.004245,1.570922,-0.011079,0.000112,0.000370,-0.000008,-0.000724,0.000002,0.003540,0.002212,0.147918,0.000166,0.176265,0.176264,0.170314,0.877449,0.000000,0.000000,0.000000,0.000000,0.000000,0.000000,0.000000,0.000000,0.000000,0.000000,0.000000,0.000000,0.143588,3,0
570000,-0.002201,14.487715,0.027477,-0.011947,25.159306,-0.006454,0.000037,0.004595,1.570918,-0.012016,0.000121,0.000497,-0.000008,-0.000805,0.000002,0.010287,0.002268,0.249916,-0.033634,0.176547,0.176546,0.170214,0.870561,0.000000,0.000000,0.000000,0.000000,0.000000,0.000000,0.000000,0.000000,0.000000,0.000000,0.000000,0.000000,0.242572,3,0
580000,-0.002253,14.743730,0.028558,-0.011977,25.166302,-0.004755,0.000036,0.004815,1.570915,-0.012592,0.000130,0.000340,-0.000009,-0.000855,0.000002,0.003904,0.002322,0.150002,0.040333,0.176875,0.176874,0.170157,0.863550,0.000000,0.000000,0.000000,0.000000,0.000000,0.000000,0.000000,0.000000,0.000000,0.000000,0.000000,0.000000,0.145597,3,0
590000,-0.002305,15.002243,0.028667,-0.012037,25.177439,-0.004447,0.000032,0.005157,1.570919,-0.013504,0.000139,0.000317,-0.000010,-0.000937,0.000002,0.008701,0.002375,0.231855,0.005452,0.177247,0.177246,0.170138,0.856422,0.000000,0.000000,0.000000,0.000000,0.000000,0.000000,0.000000,0.000000,0.000000,0.000000,0.000000,0.000000,0.225018,3,0
600000,-0.002355,15.259111,0.029613,-0.012069,25.185764,-0.002980,0.000038,0.005415,1.570912,-0.014196,0.000149,0.000174,-0.000011,-0.001000,0.000002,0.004984,0.002427,0.172021,0.034867,0.177657,0.177656,0.170152,0.849187,0.000000,0.000000,0.000000,0.000000,0.000000,0.000000,0.000000,0.000000,0.000000,0.000000,0.000000,0.000000,0.166944,3,0
610000,-0.002404,15.519070,0.030012,-0.012207,25.199099,-0.002237,0.000052,0.005852,1.570906,-0.015320,0.000159,0.000111,-0.000012,-0.001105,0.000003,0.012081,0.002478,0.272891,0.014999,0.178101,0.178100,0.170195,0.841852,0.000000,0.000000,0.000000,0.000000,0.000000,0.000000,0.000000,0.000000,0.000000,0.000000,0.000000,0.000000,0.264801,3,0
620000,-0.002453,15.777950,0.028656,-0.012272,25.210617,-0.004020,0.000062,0.006230,1.570912,-0.016293,0.000170,0.000312,-0.000013,-0.001197,0.000003,0.009024,0.002528,0.231465,-0.047114,0.178575,0.178574,0.170264,0.834424,0.000000,0.000000,0.000000,0.000000,0.000000,0.000000,0.000000,0.000000,0.000000,0.000000,0.000000,0.000000,0.224590,3,0
630000,-0.002501,16.035763,0.028934,-0.012357,25.220287,-0.003596,0.000060,0.006555,1.570903,-0.017114,0.000181,0.000263,-0.000014,-0.001276,0.000003,0.005929,0.002578,0.191137,0.011186,0.179076,0.179075,0.170356,0.826913,0.000000,0.000000,0.000000,0.000000,0.000000,0.000000,0.000000,0.000000,0.000000,0.000000,0.000000,0.000000,0.185449,3,0
640000,-0.002548,16.294895,0.028956,-0.012406,25.232037,-0.003415,0.000072,0.006959,1.570911,-0.018128,0.000193,0.000254,-0.000015,-0.001376,0.000003,0.008660,0.002626,0.231413,0.001935,0.179600,0.179599,0.170465,0.819326,0.000000,0.000000,0.000000,0.000000,0.000000,0.000000,0.000000,0.000000,0.000000,0.000000,0.000000,0.000000,0.224500,3,0
650000,-0.002594,16.555336,0.029074,-0.012518,25.245893,-0.003275,0.000072,0.007441,1.570901,-0.019336,0.000205,0.000228,-0.000016,-0.001497,0.000003,0.011821,0.002674,0.270346,0.005298,0.180144,0.180143,0.170591,0.811671,0.000000,0.000000,0.000000,0.000000,0.000000,0.000000,0.000000,0.000000,0.000000,0.000000,0.000000,0.000000,0.262241,3,0
660000,-0.002641,16.814678,0.027843,-0.012701,25.257944,-0.004911,0.000068,0.007850,1.570896,-0.020376,0.000217,0.000425,-0.000017,-0.001603,0.000004,0.008725,0.002722,0.228434,-0.042213,0.180705,0.180704,0.170729,0.803957,0.000000,0.000000,0.000000,0.000000,0.000000,0.000000,0.000000,0.000000,0.000000,0.000000,0.000000,0.000000,0.221570,3,0
670000,-0.002686,17.074734,0.028238,-0.012798,25.271088,-0.004414,0.000069,0.008316,1.570901,-0.021522,0.000230,0.000350,-0.000019,-0.001722,0.000004,0.009923,0.002770,0.247272,0.015587,0.181279,0.181278,0.170877,0.796192,0.000000,0.000000,0.000000,0.000000,0.000000,0.000000,0.000000,0.000000,0.000000,0.000000,0.000000,0.000000,0.239816,3,0
680000,-0.002731,17.332479,0.028600,-0.012913,25.280092,-0.003841,0.000072,0.008641,1.570911,-0.022305,0.000244,0.000280,-0.000020,-0.001805,0.000004,0.004487,0.002817,0.165998,0.014181,0.181865,0.181864,0.171033,0.788383,0.000000,0.000000,0.000000,0.000000,0.000000,0.000000,0.000000,0.000000,0.000000,0.000000,0.000000,0.000000,0.160990,3,0
690000,-0.002775,17.588537,0.028768,-0.012910,25.286053,-0.003447,0.000078,0.008865,1.570908,-0.022818,0.000257,0.000244,-0.000022,-0.001861,0.000004,0.001858,0.002862,0.106951,0.007165,0.182459,0.182458,0.171193,0.780539,0.000000,0.000000,0.000000,0.000000,0.000000,0.000000,0.000000,0.000000,0.000000,0.000000,0.000000,0.000000,0.103736,3,0
700000,-0.002818,17.846556,0.029785,-0.012990,25.295336,-0.002026,0.000079,0.009217,1.570917,-0.023642,0.000272,0.000057,-0.000023,-0.001951,0.000005,0.004830,0.002906,0.168896,0.036836,0.183059,0.183058,0.171357,0.772667,0.000000,0.000000,0.000000,0.000000,0.000000,0.000000,0.000000,0.000000,0.000000,0.000000,0.000000,0.000000,0.163766,3,0
710000,-0.002859,18.104088,0.030400,-0.013067,25.303841,-0.001115,0.000095,0.009541,1.570913,-0.024381,0.000286,-0.000058,-0.000025,-0.002034,0.000005,0.003684,0.002950,0.149328,0.022194,0.183663,0.183662,0.171522,0.764774,0.000000,0.000000,0.000000,0.000000,0.000000,0.000000,0.000000,0.000000,0.000000,0.000000,0.000000,0.000000,0.144785,3,0
720000,-0.002900,18.361744,0.031655,-0.013094,25.312311,0.000709,0.000108,0.009873,1.570917,-0.025136,0.000301,-0.000290,-0.000027,-0.002119,0.000005,0.003960,0.002992,0.150139,0.044216,0.184269,0.184268,0.171685,0.756870,0.000000,0.000000,0.000000,0.000000,0.000000,0.000000,0.000000,0.000000,0.000000,0.000000,0.000000,0.000000,0.145556,3,0
730000,-0.002940,18.618910,0.033021,-0.013179,25.319946,0.002948,0.000114,0.010168,1.570927,-0.025804,0.000317,-0.000543,-0.000029,-0.002197,0.000005,0.003134,0.003033,0.130945,0.047325,0.184875,0.184874,0.171846,0.748960,0.000000,0.000000,0.000000,0.000000,0.000000,0.000000,0.000000,0.000000,0.000000,0.000000,0.000000,0.000000,0.126943,3,0
740000,-0.002978,18.877430,0.033277,-0.013206,25.329859,0.003448,0.000111,0.010541,1.570926,-0.026693,0.000333,-0.000586,-0.000031,-0.002301,0.000005,0.004783,0.003073,0.171886,0.007793,0.185480,0.185479,0.172003,0.741052,0.000000,0.000000,0.000000,0.000000,0.000000,0.000000,0.000000,0.000000,0.000000,0.000000,0.000000,0.000000,0.166599,3,0
750000,-0.003017,19.139143,0.033626,-0.013344,25.345188,0.004060,0.000118,0.011144,1.570920,-0.028114,0.000349,-0.000647,-0.000033,-0.002471,0.000006,0.011889,0.003113,0.271086,0.010824,0.186081,0.186080,0.172154,0.733153,0.000000,0.000000,0.000000,0.000000,0.000000,0.000000,0.000000,0.000000,0.000000,0.000000,0.000000,0.000000,0.262695,3,0
760000,-0.003054,19.396601,0.033613,-0.013304,25.352890,0.004021,0.000124,0.011460,1.570912,-0.028797,0.000366,-0.000637,-0.000035,-0.002554,0.000006,0.002668,0.003152,0.128492,-0.001942,0.186678,0.186676,0.172299,0.725269,0.000000,0.000000,0.000000,0.000000,0.000000,0.000000,0.000000,0.000000,0.000000,0.000000,0.000000,0.000000,0.124532,3,0
770000,-0.003088,19.656658,0.033830,-0.013256,25.365129,0.004373,0.000123,0.011957,1.570921,-0.029920,0.000383,-0.000673,-0.000037,-0.002693,0.000006,0.007054,0.003188,0.208899,0.006047,0.187268,0.187267,0.172435,0.717407,0.000000,0.000000,0.000000,0.000000,0.000000,0.000000,0.000000,0.000000,0.000000,0.000000,0.000000,0.000000,0.202403,3,0
780000,-0.003122,19.916182,0.033848,-0.013312,25.376232,0.004311,0.000138,0.012412,1.570917,-0.030940,0.000401,-0.000669,-0.000039,-0.002821,0.000006,0.005664,0.003223,0.187265,-0.000943,0.187851,0.187850,0.172562,0.709574,0.000000,0.000000,0.000000,0.000000,0.000000,0.000000,0.000000,0.000000,0.000000,0.000000,0.000000,0.000000,0.181429,3,0
790000,-0.003156,20.177668,0.034447,-0.013448,25.390594,0.004974,0.000145,0.013001,1.570921,-0.032293,0.000419,-0.000783,-0.000041,-0.002994,0.000007,0.009807,0.003259,0.245695,0.019289,0.188426,0.188424,0.172680,0.701775,0.000000,0.000000,0.000000,0.000000,0.000000,0.000000,0.000000,0.000000,0.000000,0.000000,0.000000,0.000000,0.238001,3,0
800000,-0.003189,20.437342,0.033549,-0.013479,25.401741,0.003390,0.000154,0.013469,1.570921,-0.033311,0.000438,-0.000590,-0.000044,-0.003126,0.000007,0.005574,0.003293,0.182852,-0.032932,0.188991,0.188990,0.172786,0.694017,0.000000,0.000000,0.000000,0.000000,0.000000,0.000000,0.000000,0.000000,0.000000,0.000000,0.000000,0.000000,0.177122,3,0
810000,-0.003222,20.695219,0.032991,-0.013539,25.409630,0.002387,0.000167,0.013786,1.570916,-0.033997,0.000456,-0.000468,-0.000046,-0.003217,0.000007,0.002467,0.003326,0.121855,-0.020540,0.189546,0.189545,0.172881,0.686304,0.000000,0.000000,0.000000,0.000000,0.000000,0.000000,0.000000,0.000000,0.000000,0.000000,0.000000,0.000000,0.118050,3,0
820000,-0.003253,20.955723,0.032777,-0.013556,25.422041,0.001852,0.000183,0.014317,1.570918,-0.035144,0.000476,-0.000419,-0.000049,-0.003371,0.000008,0.006588,0.003359,0.201839,-0.008247,0.190091,0.190089,0.172964,0.678641,0.000000,0.000000,0.000000,0.000000,0.000000,0.000000,0.000000,0.000000,0.000000,0.000000,0.000000,0.000000,0.195471,3,0
830000,-0.003283,21.214401,0.033296,-0.013580,25.430939,0.002617,0.000185,0.014696,1.570929,-0.035948,0.000495,-0.000527,-0.000051,-0.003481,0.000008,0.003213,0.003390,0.140003,0.017276,0.190623,0.190622,0.173034,0.671035,0.000000,0.000000,0.000000,0.000000,0.000000,0.000000,0.000000,0.000000,0.000000,0.000000,0.000000,0.000000,0.135595,3,0
840000,-0.003312,21.473806,0.032970,-0.013641,25.441090,0.001985,0.000185,0.015126,1.570925,-0.036872,0.000515,-0.000453,-0.000054,-0.003609,0.000008,0.004133,0.003421,0.159538,-0.012198,0.191144,0.191143,0.173091,0.663490,0.000000,0.000000,0.000000,0.000000,0.000000,0.000000,0.000000,0.000000,0.000000,0.000000,0.000000,0.000000,0.154491,3,0
850000,-0.003339,21.733292,0.033019,-0.013572,25.451199,0.002040,0.000195,0.015577,1.570916,-0.037799,0.000535,-0.000461,-0.000057,-0.003739,0.000009,0.004053,0.003450,0.158459,0.000932,0.191653,0.191651,0.173135,0.656009,0.000000,0.000000,0.000000,0.000000,0.000000,0.000000,0.000000,0.000000,0.000000,0.000000,0.000000,0.000000,0.153433,3,0
860000,-0.003366,21.993490,0.033259,-0.013590,25.462439,0.002468,0.000195,0.016073,1.570918,-0.038843,0.000556,-0.000511,-0.000060,-0.003889,0.000009,0.005075,0.003477,0.177176,0.007533,0.192148,0.192147,0.173165,0.648598,0.000000,0.000000,0.000000,0.000000,0.000000,0.000000,0.000000,0.000000,0.000000,0.000000,0.000000,0.000000,0.171534,3,0
870000,-0.003393,22.251841,0.032669,-0.013703,25.470291,0.001441,0.000203,0.016420,1.570912,-0.039531,0.000577,-0.000374,-0.000063,-0.003989,0.000009,0.002233,0.003505,0.115654,-0.021322,0.192631,0.192629,0.173181,0.641259,0.000000,0.000000,0.000000,0.000000,0.000000,0.000000,0.000000,0.000000,0.000000,0.000000,0.000000,0.000000,0.111992,3,0
880000,-0.003417,22.512199,0.034015,-0.013674,25.481628,0.003417,0.000210,0.016944,1.570920,-0.040580,0.000598,-0.000678,-0.000066,-0.004144,0.000009,0.005302,0.003531,0.175285,0.046086,0.193100,0.193098,0.173183,0.633998,0.000000,0.000000,0.000000,0.000000,0.000000,0.000000,0.000000,0.000000,0.000000,0.000000,0.000000,0.000000,0.169678,3,0
890000,-0.003442,22.774542,0.034176,-0.013714,25.496254,0.003497,0.000220,0.017624,1.570912,-0.041985,0.000620,-0.000710,-0.000069,-0.004355,0.000010,0.008752,0.003556,0.232878,0.004342,0.193555,0.193554,0.173170,0.626817,0.000000,0.000000,0.000000,0.000000,0.000000,0.000000,0.000000,0.000000,0.000000,0.000000,0.000000,0.000000,0.225391,3,0
900000,-0.003465,23.033705,0.034596,-0.013750,25.505230,0.003928,0.000231,0.018035,1.570917,-0.042772,0.000642,-0.000802,-0.000073,-0.004475,0.000010,0.002732,0.003581,0.129417,0.013364,0.193998,0.193996,0.173144,0.619719,0.000000,0.000000,0.000000,0.000000,0.000000,0.000000,0.000000,0.000000,0.000000,0.000000,0.000000,0.000000,0.125281,3,0
910000,-0.003488,23.293583,0.034345,-0.013688,25.515228,0.003602,0.000239,0.018494,1.570911,-0.043680,0.000664,-0.000736,-0.000076,-0.004615,0.000010,0.003574,0.003604,0.148470,-0.010130,0.194426,0.194425,0.173103,0.612708,0.000000,0.000000,0.000000,0.000000,0.000000,0.000000,0.000000,0.000000,0.000000,0.000000,0.000000,0.000000,0.143702,3,0
920000,-0.003510,23.552877,0.032976,-0.013735,25.524143,0.001528,0.000241,0.018911,1.570920,-0.044464,0.000686,-0.000405,-0.000079,-0.004738,0.000011,0.002989,0.003627,0.127037,-0.048730,0.194842,0.194840,0.173048,0.605786,0.000000,0.000000,0.000000,0.000000,0.000000,0.000000,0.000000,0.000000,0.000000,0.000000,0.000000,0.000000,0.122962,3,0
930000,-0.003531,23.812885,0.032894,-0.013792,25.534216,0.001418,0.000243,0.019390,1.570919,-0.045368,0.000709,-0.000384,-0.000083,-0.004883,0.000011,0.003439,0.003650,0.145958,-0.003450,0.195244,0.195242,0.172979,0.598955,0.000000,0.000000,0.000000,0.000000,0.000000,0.000000,0.000000,0.000000,0.000000,0.000000,0.000000,0.000000,0.141253,3,0
940000,-0.003552,24.072300,0.031577,-0.013858,25.543137,-0.000381,0.000264,0.019808,1.570912,-0.046144,0.000732,-0.000063,-0.000087,-0.005009,0.000011,0.002843,0.003672,0.124395,-0.046252,0.195633,0.195631,0.172896,0.592218,0.000000,0.000000,0.000000,0.000000,0.000000,0.000000,0.000000,0.000000,0.000000,0.000000,0.000000,0.000000,0.120393,3,0
950000,-0.003574,24.332426,0.030433,-0.013936,25.553143,-0.002155,0.000282,0.020290,1.570919,-0.047043,0.000755,0.000212,-0.000090,-0.005156,0.000012,0.003562,0.003694,0.143198,-0.039567,0.196009,0.196007,0.172799,0.585577,0.000000,0.000000,0.000000,0.000000,0.000000,0.000000,0.000000,0.000000,0.000000,0.000000,0.000000,0.000000,0.138567,3,0
960000,-0.003594,24.591953,0.029912,-0.014004,25.561981,-0.003022,0.000300,0.020715,1.570913,-0.047808,0.000779,0.000333,-0.000094,-0.005285,0.000012,0.002431,0.003716,0.121515,-0.017346,0.196372,0.196370,0.172689,0.579034,0.000000,0.000000,0.000000,0.000000,0.000000,0.000000,0.000000,0.000000,0.000000,0.000000,0.000000,0.000000,0.117593,3,0
970000,-0.003614,24.851538,0.029657,-0.013962,25.570913,-0.003539,0.000312,0.021137,1.570922,-0.048570,0.000803,0.000386,-0.000098,-0.005414,0.000012,0.002346,0.003736,0.120327,-0.007753,0.196722,0.196721,0.172565,0.572590,0.000000,0.000000,0.000000,0.000000,0.000000,0.000000,0.000000,0.000000,0.000000,0.000000,0.000000,0.000000,0.116439,3,0
980000,-0.003631,25.111176,0.030378,-0.013879,25.579710,-0.002543,0.000333,0.021575,1.570930,-0.049326,0.000827,0.000193,-0.000103,-0.005544,0.000013,0.002400,0.003755,0.119078,0.026314,0.197061,0.197059,0.172429,0.566245,0.000000,0.000000,0.000000,0.000000,0.000000,0.000000,0.000000,0.000000,0.000000,0.000000,0.000000,0.000000,0.115225,3,0
990000,-0.003647,25.370214,0.030850,-0.013830,25.587395,-0.001790,0.000349,0.021953,1.570938,-0.049951,0.000851,0.000064,-0.000107,-0.005654,0.000013,0.001595,0.003772,0.097898,0.017290,0.197387,0.197385,0.172280,0.560003,0.000000,0.000000,0.000000,0.000000,0.000000,0.000000,0.000000,0.000000,0.000000,0.000000,0.000000,0.000000,0.094747,3,0
1000000,-0.003663,25.631933,0.030155,-0.013816,25.599789,-0.002672,0.000363,0.022588,1.570937,-0.051085,0.000875,0.000234,-0.000111,-0.005855,0.000013,0.005127,0.003788,0.176723,-0.023648,0.197702,0.197700,0.172118,0.553864,0.000000,0.000000,0.000000,0.000000,0.000000,0.000000,0.000000,0.000000,0.000000,0.000000,0.000000,0.000000,0.170940,3,0
1010000,-0.003678,25.894327,0.030818,-0.013871,25.613110,-0.001636,0.000385,0.023283,1.570943,-0.052327,0.000900,0.000051,-0.000116,-0.006079,0.000014,0.006111,0.003804,0.193186,0.024053,0.198006,0.198004,0.171945,0.547827,0.000000,0.000000,0.000000,0.000000,0.000000,0.000000,0.000000,0.000000,0.000000,0.000000,0.000000,0.000000,0.186848,3,0
1020000,-0.003693,26.157387,0.031268,-0.013876,25.627428,-0.000955,0.000405,0.024034,1.570947,-0.053676,0.000925,-0.000077,-0.000120,-0.006326,0.000014,0.007082,0.003819,0.208961,0.016266,0.198300,0.198298,0.171760,0.541896,0.000000,0.000000,0.000000,0.000000,0.000000,0.000000,0.000000,0.000000,0.000000,0.000000,0.000000,0.000000,0.202089,3,0
1030000,-0.003706,26.419127,0.031736,-0.013760,25.639320,-0.000345,0.000425,0.024651,1.570944,-0.054740,0.000949,-0.000208,-0.000125,-0.006524,0.000015,0.004404,0.003833,0.164425,0.016714,0.198583,0.198581,0.171563,0.536068,0.000000,0.000000,0.000000,0.000000,0.000000,0.000000,0.000000,0.000000,0.000000,0.000000,0.000000,0.000000,0.159026,3,0
1040000,-0.003718,26.680220,0.032966,-0.013779,25.649832,0.001437,0.000440,0.025186,1.570948,-0.055656,0.000974,-0.000541,-0.000130,-0.006697,0.000015,0.003513,0.003846,0.141115,0.043166,0.198856,0.198854,0.171356,0.530346,0.000000,0.000000,0.000000,0.000000,0.000000,0.000000,0.000000,0.000000,0.000000,0.000000,0.000000,0.000000,0.136489,3,0
1050000,-0.003729,26.941334,0.032833,-0.013723,25.660349,0.001001,0.000456,0.025729,1.570952,-0.056557,0.001000,-0.000506,-0.000134,-0.006870,0.000016,0.003090,0.003857,0.138342,-0.005090,0.199120,0.199118,0.171138,0.524730,0.000000,0.000000,0.000000,0.000000,0.000000,0.000000,0.000000,0.000000,0.000000,0.000000,0.000000,0.000000,0.133803,3,0
1060000,-0.003740,27.203127,0.033624,-0.013707,25.671865,0.001888,0.000477,0.026329,1.570947,-0.057571,0.001025,-0.000724,-0.000139,-0.007067,0.000016,0.004018,0.003869,0.155428,0.027519,0.199375,0.199372,0.170910,0.519218,0.000000,0.000000,0.000000,0.000000,0.000000,0.000000,0.000000,0.000000,0.000000,0.000000,0.000000,0.000000,0.150309,3,0
1070000,-0.003750,27.464266,0.034418,-0.013713,25.682264,0.002921,0.000498,0.026859,1.570942,-0.058435,0.001050,-0.000941,-0.000145,-0.007237,0.000016,0.002933,0.003879,0.132063,0.027291,0.199621,0.199618,0.170672,0.513812,0.000000,0.000000,0.000000,0.000000,0.000000,0.000000,0.000000,0.000000,0.000000,0.000000,0.000000,0.000000,0.127725,3,0
1080000,-0.003759,27.726744,0.035361,-0.013619,25.694738,0.003991,0.000520,0.027543,1.570941,-0.059542,0.001076,-0.001200,-0.000150,-0.007459,0.000017,0.004773,0.003888,0.169004,0.032244,0.199859,0.199856,0.170425,0.508511,0.000000,0.000000,0.000000,0.000000,0.000000,0.000000,0.000000,0.000000,0.000000,0.000000,0.000000,0.000000,0.163419,3,0
1090000,-0.003767,27.990541,0.036435,-0.013626,25.709507,0.005423,0.000533,0.028348,1.570942,-0.060885,0.001102,-0.001496,-0.000155,-0.007732,0.000018,0.006961,0.003897,0.204584,0.036496,0.200089,0.200086,0.170168,0.503315,0.000000,0.000000,0.000000,0.000000,0.000000,0.000000,0.000000,0.000000,0.000000,0.000000,0.000000,0.000000,0.197797,3,0
1100000,-0.003775,28.254311,0.036199,-0.013668,25.723999,0.005063,0.000554,0.029156,1.570937,-0.062195,0.001128,-0.001423,-0.000160,-0.008002,0.000018,0.006403,0.003906,0.199062,-0.010185,0.200312,0.200309,0.169903,0.498224,0.000000,0.000000,0.000000,0.000000,0.000000,0.000000,0.000000,0.000000,0.000000,0.000000,0.000000,0.000000,0.192454,3,0
1110000,-0.003782,28.516056,0.036487,-0.013561,25.734713,0.005206,0.000574,0.029728,1.570939,-0.063078,0.001153,-0.001496,-0.000166,-0.008187,0.000019,0.002904,0.003913,0.133940,0.008484,0.200529,0.200526,0.169630,0.493236,0.000000,0.000000,0.000000,0.000000,0.000000,0.000000,0.000000,0.000000,0.000000,0.000000,0.000000,0.000000,0.129518,3,0
1120000,-0.003788,28.777134,0.036698,-0.013465,25.744131,0.005357,0.000596,0.030236,1.570945,-0.063807,0.001179,-0.001547,-0.000171,-0.008342,0.000019,0.001979,0.003919,0.110632,0.005707,0.200739,0.200735,0.169350,0.488352,0.000000,0.000000,0.000000,0.000000,0.000000,0.000000,0.000000,0.000000,0.000000,0.000000,0.000000,0.000000,0.106997,3,0
1130000,-0.003794,29.040216,0.035338,-0.013454,25.756954,0.003277,0.000606,0.030949,1.570945,-0.064916,0.001206,-0.001146,-0.000177,-0.008581,0.000019,0.004929,0.003925,0.167522,-0.050038,0.200943,0.200939,0.169062,0.483570,0.000000,0.000000,0.000000,0.000000,0.000000,0.000000,0.000000,0.000000,0.000000,0.000000,0.000000,0.000000,0.161955,3,0
1140000,-0.003799,29.299274,0.035872,-0.013414,25.762682,0.003880,0.000621,0.031201,1.570940,-0.065202,0.001232,-0.001295,-0.000183,-0.008643,0.000020,0.000359,0.003931,0.043463,0.017878,0.201142,0.201138,0.168767,0.478891,0.000000,0.000000,0.000000,0.000000,0.000000,0.000000,0.000000,0.000000,0.000000,0.000000,0.000000,0.000000,0.042177,3,0
1150000,-0.003803,29.561037,0.034449,-0.013320,25.773064,0.001748,0.000640,0.031765,1.570949,-0.066013,0.001258,-0.000872,-0.000188,-0.008823,0.000020,0.002848,0.003934,0.122290,-0.051949,0.201335,0.201332,0.168465,0.474312,0.000000,0.000000,0.000000,0.000000,0.000000,0.000000,0.000000,0.000000,0.000000,0.000000,0.000000,0.000000,0.118246,3,0
1160000,-0.003805,29.822792,0.033478,-0.013162,25.783260,0.000420,0.000664,0.032324,1.570946,-0.066801,0.001284,-0.000585,-0.000194,-0.009001,0.000020,0.002478,0.003937,0.118847,-0.035183,0.201525,0.201520,0.168158,0.469834,0.000000,0.000000,0.000000,0.000000,0.000000,0.000000,0.000000,0.000000,0.000000,0.000000,0.000000,0.000000,0.114918,3,0
1170000,-0.003806,30.081196,0.033905,-0.013159,25.787479,0.000875,0.000686,0.032486,1.570953,-0.066906,0.001310,-0.000713,-0.000200,-0.009025,0.000020,0.000081,0.003939,0.016022,0.015159,0.201710,0.201705,0.167844,0.465455,0.000000,0.000000,0.000000,0.000000,0.000000,0.000000,0.000000,0.000000,0.000000,0.000000,0.000000,0.000000,0.015945,3,0
1180000,-0.003807,30.344326,0.032925,-0.013052,25.799925,-0.000513,0.000694,0.033188,1.570956,-0.067934,0.001337,-0.000424,-0.000206,-0.009263,0.000021,0.004081,0.003939,0.155153,-0.035238,0.201891,0.201886,0.167526,0.461174,0.000000,0.000000,0.000000,0.000000,0.000000,0.000000,0.000000,0.000000,0.000000,0.000000,0.000000,0.000000,0.149979,3,0
1190000,-0.003807,30.605415,0.032220,-0.013032,25.808708,-0.001433,0.000720,0.033649,1.570953,-0.068535,0.001363,-0.000217,-0.000212,-0.009404,0.000021,0.001429,0.003940,0.090687,-0.025041,0.202069,0.202064,0.167202,0.456991,0.000000,0.000000,0.000000,0.000000,0.000000,0.000000,0.000000,0.000000,0.000000,0.000000,0.000000,0.000000,0.087714,3,0
1200000,-0.003806,30.867170,0.032265,-0.012902,25.818604,-0.001265,0.000745,0.034183,1.570955,-0.069247,0.001389,-0.000241,-0.000218,-0.009574,0.000022,0.001875,0.003939,0.107815,0.002203,0.202244,0.202238,0.166873,0.452903,0.000000,0.000000,0.000000,0.000000,0.000000,0.000000,0.000000,0.000000,0.000000,0.000000,0.000000,0.000000,0.104251,3,0
1210000,-0.003803,31.130253,0.032144,-0.012747,25.830568,-0.001448,0.000764,0.034872,1.570952,-0.070198,0.001415,-0.000218,-0.000224,-0.009804,0.000022,0.003351,0.003936,0.144142,-0.003750,0.202416,0.202411,0.166541,0.448910,0.000000,0.000000,0.000000,0.000000,0.000000,0.000000,0.000000,0.000000,0.000000,0.000000,0.000000,0.000000,0.139332,3,0
1220000,-0.003799,31.391954,0.033448,-0.012661,25.839956,0.000255,0.000776,0.035394,1.570946,-0.070852,0.001441,-0.000635,-0.000231,-0.009965,0.000023,0.001969,0.003932,0.099609,0.047711,0.202586,0.202580,0.166204,0.445011,0.000000,0.000000,0.000000,0.000000,0.000000,0.000000,0.000000,0.000000,0.000000,0.000000,0.000000,0.000000,0.096324,3,0
1230000,-0.003794,31.650284,0.032748,-0.012499,25.843317,-0.000659,0.000799,0.035491,1.570943,-0.070833,0.001467,-0.000414,-0.000237,-0.009960,0.000023,0.000109,0.003926,-0.003153,-0.025415,0.202754,0.202748,0.165864,0.441204,0.000000,0.000000,0.000000,0.000000,0.000000,0.000000,0.000000,0.000000,0.000000,0.000000,0.000000,0.000000,0.004866,3,0
1240000,-0.003787,31.912010,0.032844,-0.012321,25.852747,-0.000648,0.000821,0.036000,1.570951,-0.071466,0.001493,-0.000455,-0.000244,-0.010120,0.000023,0.001498,0.003919,0.096300,0.003893,0.202921,0.202915,0.165521,0.437488,0.000000,0.000000,0.000000,0.000000,0.000000,0.000000,0.000000,0.000000,0.000000,0.000000,0.000000,0.000000,0.093121,3,0
1250000,-0.003778,32.171024,0.034037,-0.012200,25.857140,0.000934,0.000835,0.036162,1.570962,-0.071552,0.001518,-0.000838,-0.000251,-0.010142,0.000023,0.000339,0.003911,0.013393,0.043567,0.203087,0.203080,0.165174,0.433862,0.000000,0.000000,0.000000,0.000000,0.000000,0.000000,0.000000,0.000000,0.000000,0.000000,0.000000,0.000000,0.013483,3,0
1260000,-0.003770,32.432087,0.032873,-0.012083,25.865164,-0.000704,0.000848,0.036582,1.570961,-0.072029,0.001544,-0.000467,-0.000257,-0.010266,0.000023,0.001140,0.003901,0.072395,-0.042553,0.203251,0.203244,0.164826,0.430324,0.000000,0.000000,0.000000,0.000000,0.000000,0.000000,0.000000,0.000000,0.000000,0.000000,0.000000,0.000000,0.070044,3,0
1270000,-0.003760,32.691792,0.033227,-0.012032,25.870749,-0.000412,0.000873,0.036831,1.570970,-0.072224,0.001569,-0.000587,-0.000264,-0.010318,0.000023,0.000175,0.003892,0.029922,0.013256,0.203415,0.203407,0.164475,0.426874,0.000000,0.000000,0.000000,0.000000,0.000000,0.000000,0.000000,0.000000,0.000000,0.000000,0.000000,0.000000,0.029151,3,0
1280000,-0.003749,32.953526,0.034185,-0.011917,25.879778,0.000886,0.000897,0.037323,1.570967,-0.072798,0.001595,-0.000909,-0.000271,-0.010471,0.000024,0.001458,0.003882,0.088226,0.035286,0.203578,0.203570,0.164122,0.423509,0.000000,0.000000,0.000000,0.000000,0.000000,0.000000,0.000000,0.000000,0.000000,0.000000,0.000000,0.000000,0.085318,3,0
1290000,-0.003738,33.213215,0.034107,-0.011783,25.885174,0.000743,0.000924,0.037552,1.570979,-0.072962,0.001620,-0.000883,-0.000278,-0.010516,0.000024,0.000106,0.003870,0.025188,-0.003098,0.203741,0.203733,0.163767,0.420228,0.000000,0.000000,0.000000,0.000000,0.000000,0.000000,0.000000,0.000000,0.000000,0.000000,0.000000,0.000000,0.024619,3,0
1300000,-0.003726,33.472240,0.035336,-0.011713,25.889261,0.002109,0.000944,0.037677,1.570982,-0.072985,0.001645,-0.001290,-0.000285,-0.010522,0.000024,0.000332,0.003858,0.003986,0.044929,0.203905,0.203895,0.163411,0.417030,0.000000,0.000000,0.000000,0.000000,0.000000,0.000000,0.000000,0.000000,0.000000,0.000000,0.000000,0.000000,0.005360,3,0
1310000,-0.003714,33.730610,0.034651,-0.011583,25.892195,0.001073,0.000959,0.037719,1.570992,-0.072880,0.001670,-0.001052,-0.000292,-0.010492,0.000024,0.000156,0.003844,-0.016529,-0.025994,0.204068,0.204058,0.163054,0.413914,0.000000,0.000000,0.000000,0.000000,0.000000,0.000000,0.000000,0.000000,0.000000,0.000000,0.000000,0.000000,0.016394,3,0
1320000,-0.003701,33.993069,0.035352,-0.011573,25.902248,0.001902,0.000986,0.038295,1.570988,-0.073542,0.001694,-0.001296,-0.000299,-0.010680,0.000024,0.001810,0.003832,0.102768,0.025691,0.204232,0.204222,0.162696,0.410877,0.000000,0.000000,0.000000,0.000000,0.000000,0.000000,0.000000,0.000000,0.000000,0.000000,0.000000,0.000000,0.099339,3,0
1330000,-0.003687,34.252106,0.034971,-0.011373,25.906111,0.001464,0.001000,0.038415,1.570992,-0.073538,0.001719,-0.001160,-0.000306,-0.010679,0.000024,0.000038,0.003817,-0.000755,-0.014796,0.204397,0.204386,0.162338,0.407918,0.000000,0.000000,0.000000,0.000000,0.000000,0.000000,0.000000,0.000000,0.000000,0.000000,0.000000,0.000000,0.003759,3,0
1340000,-0.003673,34.514549,0.034156,-0.011227,25.915968,0.000238,0.001018,0.038978,1.570990,-0.074170,0.001744,-0.000887,-0.000313,-0.010864,0.000025,0.001698,0.003802,0.097984,-0.030444,0.204563,0.204551,0.161979,0.405037,0.000000,0.000000,0.000000,0.000000,0.000000,0.000000,0.000000,0.000000,0.000000,0.000000,0.000000,0.000000,0.094714,3,0
1350000,-0.003657,34.775593,0.034657,-0.011206,25.923157,0.000925,0.001046,0.039353,1.570999,-0.074514,0.001768,-0.001065,-0.000320,-0.010966,0.000025,0.000530,0.003787,0.054115,0.018621,0.204729,0.204717,0.161620,0.402231,0.000000,0.000000,0.000000,0.000000,0.000000,0.000000,0.000000,0.000000,0.000000,0.000000,0.000000,0.000000,0.052397,3,0
1360000,-0.003643,35.037975,0.034474,-0.011187,25.932688,0.000614,0.001077,0.039900,1.571004,-0.075096,0.001792,-0.001009,-0.000327,-0.011140,0.000025,0.001348,0.003772,0.091183,-0.006895,0.204897,0.204885,0.161262,0.399499,0.000000,0.000000,0.000000,0.000000,0.000000,0.000000,0.000000,0.000000,0.000000,0.000000,0.000000,0.000000,0.088145,3,0
1370000,-0.003626,35.296917,0.035723,-0.011019,25.935930,0.001935,0.001096,0.039964,1.571009,-0.075015,0.001816,-0.001444,-0.000335,-0.011115,0.000025,0.000376,0.003755,-0.012264,0.046405,0.205067,0.205053,0.160904,0.396839,0.000000,0.000000,0.000000,0.000000,0.000000,0.000000,0.000000,0.000000,0.000000,0.000000,0.000000,0.000000,0.012384,3,0
1380000,-0.003611,35.557919,0.035272,-0.010975,25.942802,0.001238,0.001116,0.040307,1.571007,-0.075312,0.001839,-0.001284,-0.000342,-0.011207,0.000025,0.000404,0.003738,0.046822,-0.017393,0.205237,0.205223,0.160546,0.394251,0.000000,0.000000,0.000000,0.000000,0.000000,0.000000,0.000000,0.000000,0.000000,0.000000,0.000000,0.000000,0.045363,3,0
1390000,-0.003593,35.816856,0.036245,-0.010777,25.946041,0.002535,0.001148,0.040345,1.571008,-0.075212,0.001862,-0.001623,-0.000349,-0.011175,0.000025,0.000249,0.003721,-0.015461,0.035877,0.205410,0.205395,0.160190,0.391733,0.000000,0.000000,0.000000,0.000000,0.000000,0.000000,0.000000,0.000000,0.000000,0.000000,0.000000,0.000000,0.015353,3,0
1400000,-0.003576,36.080582,0.035380,-0.010681,25.957661,0.001448,0.001176,0.041064,1.571015,-0.075987,0.001886,-0.001321,-0.000357,-0.011422,0.000026,0.002620,0.003702,0.123146,-0.033028,0.205584,0.205568,0.159834,0.389282,0.000000,0.000000,0.000000,0.000000,0.000000,0.000000,0.000000,0.000000,0.000000,0.000000,0.000000,0.000000,0.118977,3,0
1410000,-0.003558,36.339462,0.035465,-0.010643,25.960539,0.001510,0.001198,0.041072,1.571020,-0.075853,0.001909,-0.001343,-0.000364,-0.011379,0.000026,0.000077,0.003684,-0.021420,0.002593,0.205760,0.205743,0.159480,0.386899,0.000000,0.000000,0.000000,0.000000,0.000000,0.000000,0.000000,0.000000,0.000000,0.000000,0.000000,0.000000,0.020987,3,0
1420000,-0.003539,36.600407,0.035222,-0.010464,25.966993,0.000954,0.001224,0.041374,1.571021,-0.076088,0.001932,-0.001256,-0.000372,-0.011456,0.000026,0.000246,0.003665,0.037731,-0.009515,0.205937,0.205920,0.159127,0.384581,0.000000,0.000000,0.000000,0.000000,0.000000,0.000000,0.000000,0.000000,0.000000,0.000000,0.000000,0.000000,0.036606,3,0
1430000,-0.003520,36.858597,0.035167,-0.010375,25.968542,0.000752,0.001243,0.041264,1.571018,-0.075814,0.001954,-0.001226,-0.000379,-0.011365,0.000026,0.000320,0.003645,-0.044365,-0.002532,0.206117,0.206099,0.158775,0.382327,0.000000,0.000000,0.000000,0.000000,0.000000,0.000000,0.000000,0.000000,0.000000,0.000000,0.000000,0.000000,0.042987,3,0
1440000,-0.003500,37.120220,0.035678,-0.010268,25.976128,0.001185,0.001271,0.041659,1.571021,-0.076152,0.001977,-0.001421,-0.000387,-0.011479,0.000026,0.000554,0.003625,0.055248,0.019319,0.206298,0.206279,0.158426,0.380136,0.000000,0.000000,0.000000,0.000000,0.000000,0.000000,0.000000,0.000000,0.000000,0.000000,0.000000,0.000000,0.053467,3,0
1450000,-0.003480,37.383183,0.035440,-0.010185,25.986160,0.000819,0.001289,0.042244,1.571026,-0.076713,0.001999,-0.001343,-0.000394,-0.011671,0.000027,0.001370,0.003604,0.091732,-0.009073,0.206481,0.206461,0.158078,0.378006,0.000000,0.000000,0.000000,0.000000,0.000000,0.000000,0.000000,0.000000,0.000000,0.000000,0.000000,0.000000,0.088642,3,0
1460000,-0.003458,37.643341,0.036658,-0.010014,25.990849,0.002207,0.001320,0.042394,1.571026,-0.076755,0.002020,-0.001797,-0.000402,-0.011685,0.000027,0.000356,0.003583,0.007580,0.046076,0.206666,0.206645,0.157732,0.375935,0.000000,0.000000,0.000000,0.000000,0.000000,0.000000,0.000000,0.000000,0.000000,0.000000,0.000000,0.000000,0.008100,3,0
1470000,-0.003437,37.904179,0.036576,-0.009909,25.996759,0.002018,0.001337,0.042643,1.571032,-0.076911,0.002042,-0.001762,-0.000409,-0.011740,0.000027,0.000111,0.003560,0.025681,-0.003841,0.206853,0.206832,0.157389,0.373923,0.000000,0.000000,0.000000,0.000000,0.000000,0.000000,0.000000,0.000000,0.000000,0.000000,0.000000,0.000000,0.025033,3,0
1480000,-0.003416,38.167053,0.035324,-0.009809,26.006340,0.000316,0.001353,0.043204,1.571036,-0.077412,0.002063,-0.001296,-0.000417,-0.011920,0.000027,0.001483,0.003537,0.082848,-0.048143,0.207042,0.207020,0.157048,0.371968,0.000000,0.000000,0.000000,0.000000,0.000000,0.000000,0.000000,0.000000,0.000000,0.000000,0.000000,0.000000,0.080056,3,0
1490000,-0.003394,38.429871,0.034613,-0.009703,26.015665,-0.000853,0.001376,0.043743,1.571035,-0.077881,0.002085,-0.001038,-0.000424,-0.012091,0.000028,0.001106,0.003515,0.078297,-0.026879,0.207233,0.207209,0.156710,0.370069,0.000000,0.000000,0.000000,0.000000,0.000000,0.000000,0.000000,0.000000,0.000000,0.000000,0.000000,0.000000,0.075664,3,0
1500000,-0.003372,38.689873,0.034710,-0.009619,26.019840,-0.000712,0.001393,0.043844,1.571034,-0.077847,0.002105,-0.001078,-0.000432,-0.012078,0.000028,0.000010,0.003493,-0.005703,0.003999,0.207425,0.207401,0.156374,0.368224,0.000000,0.000000,0.000000,0.000000,0.000000,0.000000,0.000000,0.000000,0.000000,0.000000,0.000000,0.000000,0.006455,3,0
1510000,-0.003349,38.951233,0.035820,-0.009537,26.026327,0.000424,0.001407,0.044150,1.571027,-0.078034,0.002125,-0.001516,-0.000440,-0.012147,0.000028,0.000474,0.003469,0.032440,0.043203,0.207620,0.207594,0.156041,0.366432,0.000000,0.000000,0.000000,0.000000,0.000000,0.000000,0.000000,0.000000,0.000000,0.000000,0.000000,0.000000,0.031501,3,0
1520000,-0.003325,39.211872,0.036127,-0.009343,26.031551,0.000698,0.001426,0.044325,1.571034,-0.078089,0.002145,-0.001637,-0.000448,-0.012168,0.000028,0.000039,0.003444,0.009556,0.011775,0.207816,0.207790,0.155711,0.364692,0.000000,0.000000,0.000000,0.000000,0.000000,0.000000,0.000000,0.000000,0.000000,0.000000,0.000000,0.000000,0.009808,3,0
1530000,-0.003299,39.472481,0.036780,-0.009129,26.036524,0.001357,0.001449,0.044482,1.571040,-0.078129,0.002165,-0.001892,-0.000455,-0.012183,0.000028,0.000112,0.003418,0.007294,0.025024,0.208014,0.207986,0.155383,0.363002,0.000000,0.000000,0.000000,0.000000,0.000000,0.000000,0.000000,0.000000,0.000000,0.000000,0.000000,0.000000,0.007780,3,0
1540000,-0.003273,39.734447,0.036790,-0.008977,26.043928,0.001160,0.001473,0.044855,1.571036,-0.078387,0.002184,-0.001900,-0.000463,-0.012284,0.000028,0.000325,0.003391,0.044819,0.000196,0.208213,0.208185,0.155059,0.361361,0.000000,0.000000,0.000000,0.000000,0.000000,0.000000,0.000000,0.000000,0.000000,0.000000,0.000000,0.000000,0.043386,3,0
1550000,-0.003246,39.993603,0.036996,-0.008754,26.046125,0.001464,0.001486,0.044775,1.571030,-0.078168,0.002204,-0.001969,-0.000471,-0.012197,0.000028,0.000247,0.003363,-0.038315,0.007253,0.208414,0.208385,0.154738,0.359768,0.000000,0.000000,0.000000,0.000000,0.000000,0.000000,0.000000,0.000000,0.000000,0.000000,0.000000,0.000000,0.037126,3,0
1560000,-0.003219,40.251381,0.035743,-0.008595,26.045782,-0.000180,0.001507,0.044482,1.571026,-0.077725,0.002223,-0.001446,-0.000478,-0.012019,0.000027,0.001402,0.003334,-0.078823,-0.049673,0.208617,0.208586,0.154421,0.358222,0.000000,0.000000,0.000000,0.000000,0.000000,0.000000,0.000000,0.000000,0.000000,0.000000,0.000000,0.000000,0.076160,3,0
1570000,-0.003192,40.509861,0.035020,-0.008530,26.046564,-0.001164,0.001539,0.044281,1.571024,-0.077400,0.002242,-0.001143,-0.000485,-0.011887,0.000027,0.000679,0.003307,-0.058289,-0.028390,0.208821,0.208789,0.154106,0.356719,0.000000,0.000000,0.000000,0.000000,0.000000,0.000000,0.000000,0.000000,0.000000,0.000000,0.000000,0.000000,0.056357,3,0
1580000,-0.003165,40.772495,0.034414,-0.008469,26.054979,-0.001942,0.001567,0.044753,1.571033,-0.077742,0.002261,-0.000917,-0.000493,-0.012029,0.000028,0.000683,0.003279,0.060925,-0.022756,0.209026,0.208993,0.153795,0.355261,0.000000,0.000000,0.000000,0.000000,0.000000,0.000000,0.000000,0.000000,0.000000,0.000000,0.000000,0.000000,0.058885,3,0
1590000,-0.003136,41.032288,0.034764,-0.008300,26.058006,-0.001557,0.001585,0.044749,1.571043,-0.077614,0.002278,-0.001062,-0.000501,-0.011975,0.000027,0.000119,0.003250,-0.022884,0.014280,0.209232,0.209198,0.153488,0.353845,0.000000,0.000000,0.000000,0.000000,0.000000,0.000000,0.000000,0.000000,0.000000,0.000000,0.000000,0.000000,0.022305,3,0
1600000,-0.003107,41.289978,0.035513,-0.008098,26.057177,-0.000781,0.001602,0.044393,1.571058,-0.077152,0.002295,-0.001355,-0.000508,-0.011776,0.000027,0.001275,0.003220,-0.083920,0.029438,0.209440,0.209404,0.153184,0.352471,0.000000,0.000000,0.000000,0.000000,0.000000,0.000000,0.000000,0.000000,0.000000,0.000000,0.000000,0.000000,0.081046,3,0
1610000,-0.003076,41.548374,0.036691,-0.007941,26.057577,0.000453,0.001624,0.044142,1.571072,-0.076804,0.002312,-0.001828,-0.000516,-0.011624,0.000027,0.000992,0.003188,-0.063293,0.046138,0.209648,0.209611,0.152884,0.351137,0.000000,0.000000,0.000000,0.000000,0.000000,0.000000,0.000000,0.000000,0.000000,0.000000,0.000000,0.000000,0.061151,3,0
1620000,-0.003046,41.807476,0.036926,-0.007878,26.059341,0.000509,0.001638,0.044011,1.571082,-0.076570,0.002329,-0.001913,-0.000524,-0.011520,0.000026,0.000317,0.003157,-0.043392,0.008862,0.209857,0.209819,0.152587,0.349843,0.000000,0.000000,0.000000,0.000000,0.000000,0.000000,0.000000,0.000000,0.000000,0.000000,0.000000,0.000000,0.041985,3,0
1630000,-0.003016,42.065884,0.035828,-0.007694,26.059723,-0.000643,0.001662,0.043766,1.571085,-0.076233,0.002346,-0.001436,-0.000531,-0.011370,0.000026,0.000975,0.003125,-0.063965,-0.044027,0.210067,0.210027,0.152295,0.348585,0.000000,0.000000,0.000000,0.000000,0.000000,0.000000,0.000000,0.000000,0.000000,0.000000,0.000000,0.000000,0.061807,3,0
1640000,-0.002986,42.325680,0.035570,-0.007584,26.062653,-0.000882,0.001680,0.043751,1.571098,-0.076106,0.002363,-0.001323,-0.000538,-0.011313,0.000026,0.000112,0.003094,-0.024193,-0.010155,0.210277,0.210236,0.152006,0.347365,0.000000,0.000000,0.000000,0.000000,0.000000,0.000000,0.000000,0.000000,0.000000,0.000000,0.000000,0.000000,0.023536,3,0
1650000,-0.002955,42.588242,0.035477,-0.007480,26.070602,-0.001142,0.001695,0.044190,1.571095,-0.076388,0.002379,-0.001303,-0.000546,-0.011443,0.000026,0.000471,0.003063,0.053928,-0.002839,0.210488,0.210446,0.151720,0.346181,0.000000,0.000000,0.000000,0.000000,0.000000,0.000000,0.000000,0.000000,0.000000,0.000000,0.000000,0.000000,0.052120,3,0
1660000,-0.002925,42.850048,0.034486,-0.007380,26.077028,-0.002213,0.001712,0.044498,1.571091,-0.076545,0.002395,-0.000897,-0.000553,-0.011518,0.000027,0.000386,0.003031,0.029831,-0.038568,0.210699,0.210655,0.151439,0.345031,0.000000,0.000000,0.000000,0.000000,0.000000,0.000000,0.000000,0.000000,0.000000,0.000000,0.000000,0.000000,0.028923,3,0
1670000,-0.002894,43.111790,0.034521,-0.007253,26.083225,-0.002081,0.001735,0.044774,1.571101,-0.076680,0.002410,-0.000928,-0.000560,-0.011583,0.000027,0.000114,0.003000,0.026386,0.002438,0.210910,0.210865,0.151162,0.343914,0.000000,0.000000,0.000000,0.000000,0.000000,0.000000,0.000000,0.000000,0.000000,0.000000,0.000000,0.000000,0.025623,3,0
1680000,-0.002862,43.370678,0.034661,-0.007009,26.084053,-0.001832,0.001760,0.044572,1.571096,-0.076394,0.002425,-0.000980,-0.000568,-0.011444,0.000026,0.000520,0.002966,-0.056507,0.005898,0.211121,0.211075,0.150888,0.342830,0.000000,0.000000,0.000000,0.000000,0.000000,0.000000,0.000000,0.000000,0.000000,0.000000,0.000000,0.000000,0.054595,3,0
1690000,-0.002829,43.631649,0.035754,-0.006885,26.088758,-0.000747,0.001793,0.044710,1.571096,-0.076403,0.002439,-0.001461,-0.000575,-0.011447,0.000026,0.000322,0.002933,0.002655,0.044371,0.211332,0.211285,0.150618,0.341779,0.000000,0.000000,0.000000,0.000000,0.000000,0.000000,0.000000,0.000000,0.000000,0.000000,0.000000,0.000000,0.003823,3,0
1700000,-0.002796,43.889084,0.035332,-0.006728,26.086809,-0.001089,0.001810,0.044241,1.571093,-0.075913,0.002454,-0.001249,-0.000582,-0.011202,0.000026,0.001638,0.002898,-0.099331,-0.017521,0.211543,0.211494,0.150353,0.340757,0.000000,0.000000,0.000000,0.000000,0.000000,0.000000,0.000000,0.000000,0.000000,0.000000,0.000000,0.000000,0.095874,3,0
1710000,-0.002762,44.150726,0.036260,-0.006545,26.092623,-0.000069,0.001836,0.044478,1.571100,-0.076013,0.002467,-0.001665,-0.000589,-0.011251,0.000026,0.000304,0.002863,0.020954,0.037765,0.211753,0.211703,0.150091,0.339764,0.000000,0.000000,0.000000,0.000000,0.000000,0.000000,0.000000,0.000000,0.000000,0.000000,0.000000,0.000000,0.020413,3,0
1720000,-0.002729,44.412331,0.035219,-0.006449,26.098370,-0.001470,0.001865,0.044710,1.571096,-0.076102,0.002481,-0.001217,-0.000596,-0.011299,0.000026,0.000330,0.002828,0.017681,-0.041393,0.211963,0.211911,0.149833,0.338800,0.000000,0.000000,0.000000,0.000000,0.000000,0.000000,0.000000,0.000000,0.000000,0.000000,0.000000,0.000000,0.017265,3,0
