time_us,pos_x,pos_y,pos_z,vel_x,vel_y,vel_z,roll,pitch,yaw,bias_ax,bias_ay,bias_az,bias_gx,bias_gy,bias_gz,nis,innov_x,innov_y,innov_z,cov_pos_x,cov_pos_y,cov_pos_z,cov_yaw,des_speed,des_heading,des_climb,pid_speed,pid_yaw,pid_alt,speed_meas,yaw_meas,climb_meas,fwd_accel,yaw_rate,vert_accel,drift_m,nav_mode,mission_state
0,-0.000006,0.150000,-0.000000,-0.000938,25.000013,-0.000001,0.000024,-0.000004,1.570809,0.000000,0.000000,0.000000,0.000000,0.000000,0.000000,0.006250,0.000009,-0.250003,0.000000,2.400038,2.400038,3.600017,1.000518,0.000000,0.000000,0.000000,0.000000,0.000000,0.000000,0.000000,0.000000,0.000000,0.000000,0.000000,0.000000,0.150000,1,0
10000,-0.000018,0.365230,0.012464,-0.001915,25.000191,0.000380,0.000045,0.000008,1.570814,0.000000,0.000000,-0.000000,0.000000,0.000000,0.000000,0.001878,0.000025,-0.121699,0.033227,1.714420,1.714420,2.250079,1.001073,0.000000,0.000000,0.000000,0.000000,0.000000,0.000000,0.000000,0.000000,0.000000,0.000000,0.000000,0.000000,0.086925,3,0
20000,-0.000037,0.593368,0.015477,-0.002933,25.000309,0.000731,0.000066,0.000020,1.570827,0.000001,0.000000,-0.000000,-0.000000,0.000000,-0.000000,0.001269,0.000047,-0.098384,0.011019,1.333616,1.333616,1.636554,1.001655,0.000000,0.000000,0.000000,0.000000,0.000000,0.000000,0.000000,0.000000,0.000000,0.000000,0.000000,0.000000,0.076516,3,0
30000,-0.000061,0.834604,0.013781,-0.003849,25.000515,0.000738,0.000084,0.000028,1.570831,0.000002,0.000000,-0.000000,-0.000000,0.000000,-0.000000,0.000325,0.000075,-0.048219,-0.007945,1.091392,1.091392,1.286065,1.002257,0.000000,0.000000,0.000000,0.000000,0.000000,0.000000,0.000000,0.000000,0.000000,0.000000,0.000000,0.000000,0.039448,3,0
40000,-0.000092,1.064532,0.017538,-0.004691,25.000257,0.001038,0.000094,0.000037,1.570838,0.000006,0.000000,-0.000001,-0.000000,0.000000,-0.000000,0.002460,0.000108,-0.130425,0.021225,0.923811,0.923811,1.059385,1.002869,0.000000,0.000000,0.000000,0.000000,0.000000,0.000000,0.000000,0.000000,0.000000,0.000000,0.000000,0.000000,0.110344,3,0
50000,-0.000128,1.311547,0.019384,-0.005551,25.000555,0.001212,0.000105,0.000047,1.570846,0.000007,0.000000,-0.000001,-0.000000,0.000000,-0.000000,0.000094,0.000147,-0.022409,0.012215,0.801036,0.801036,0.900822,1.003484,0.000000,0.000000,0.000000,0.000000,0.000000,0.000000,0.000000,0.000000,0.000000,0.000000,0.000000,0.000000,0.019418,3,0
60000,-0.000170,1.555573,0.018240,-0.006530,25.000603,0.001253,0.000127,0.000051,1.570847,0.000010,0.000000,-0.000001,-0.000000,0.000000,-0.000000,0.000390,0.000193,-0.050758,-0.008860,0.707270,0.707270,0.783741,1.004094,0.000000,0.000000,0.000000,0.000000,0.000000,0.000000,0.000000,0.000000,0.000000,0.000000,0.000000,0.000000,0.044775,3,0
70000,-0.000219,1.810137,0.013398,-0.007477,25.001171,0.000949,0.000138,0.000065,1.570856,0.000006,0.000000,0.000003,-0.000000,0.000000,-0.000000,0.000537,0.000245,0.043158,-0.041979,0.633370,0.633370,0.693801,1.004688,0.000000,0.000000,0.000000,0.000000,0.000000,0.000000,0.000000,0.000000,0.000000,0.000000,0.000000,0.000000,0.038603,3,0
80000,-0.000274,2.051342,0.008202,-0.008351,25.000774,0.000747,0.000163,0.000059,1.570859,0.000016,0.000000,0.000008,0.000000,0.000000,-0.000000,0.001656,0.000303,-0.092139,-0.050174,0.573673,0.573673,0.622594,1.005260,0.000000,0.000000,0.000000,0.000000,0.000000,0.000000,0.000000,0.000000,0.000000,0.000000,0.000000,0.000000,0.083330,3,0
90000,-0.000334,2.303494,0.003122,-0.009257,25.001423,0.000606,0.000189,0.000069,1.570865,0.000013,0.000000,0.000014,0.000000,0.000000,-0.000000,0.000533,0.000366,0.024479,-0.054078,0.524488,0.524488,0.564865,1.005801,0.000000,0.000000,0.000000,0.000000,0.000000,0.000000,0.000000,0.000000,0.000000,0.000000,0.000000,0.000000,0.022341,3,0
100000,-0.000401,2.557590,-0.001116,-0.010231,25.002274,0.000184,0.000204,0.000068,1.570866,0.000005,0.000000,0.000022,0.000000,-0.000000,0.000000,0.000762,0.000437,0.050626,-0.049241,0.483304,0.483304,0.517162,1.006302,0.000000,0.000000,0.000000,0.000000,0.000000,0.000000,0.000000,0.000000,0.000000,0.000000,0.000000,0.000000,0.046550,3,0
110000,-0.000474,2.802810,-0.002897,-0.011111,25.001987,-0.000029,0.000216,0.000071,1.570867,0.000017,0.000000,0.000026,-0.000000,0.000000,-0.000000,0.000715,0.000513,-0.064327,-0.022418,0.448354,0.448354,0.477121,1.006755,0.000000,0.000000,0.000000,0.000000,0.000000,0.000000,0.000000,0.000000,0.000000,0.000000,0.000000,0.000000,0.059522,3,0
120000,-0.000553,3.053427,-0.001039,-0.012011,25.002356,0.000315,0.000234,0.000080,1.570866,0.000015,0.000000,0.000020,-0.000000,0.000000,-0.000000,0.000109,0.000594,0.008520,0.025153,0.418359,0.418359,0.443071,1.007151,0.000000,0.000000,0.000000,0.000000,0.000000,0.000000,0.000000,0.000000,0.000000,0.000000,0.000000,0.000000,0.007945,3,0
130000,-0.000637,3.309721,-0.000704,-0.012847,25.003849,0.000439,0.000257,0.000097,1.570870,-0.000010,0.000001,0.000019,-0.000000,-0.000000,0.000000,0.001434,0.000682,0.095841,0.004808,0.392369,0.392369,0.413797,1.007482,0.000000,0.000000,0.000000,0.000000,0.000000,0.000000,0.000000,0.000000,0.000000,0.000000,0.000000,0.000000,0.089575,3,0
140000,-0.000727,3.563349,-0.001358,-0.013789,25.004896,0.000395,0.000273,0.000104,1.570880,-0.000027,0.000001,0.000022,-0.000000,-0.000001,0.000000,0.000546,0.000775,0.058200,-0.010189,0.369667,0.369667,0.388393,1.007740,0.000000,0.000000,0.000000,0.000000,0.000000,0.000000,0.000000,0.000000,0.000000,0.000000,0.000000,0.000000,0.054619,3,0
150000,-0.000824,3.811278,-0.002729,-0.014743,25.004641,0.000075,0.000291,0.000111,1.570878,-0.000015,0.000001,0.000029,-0.000000,-0.000000,0.000000,0.000288,0.000875,-0.036406,-0.022528,0.349695,0.349695,0.366172,1.007917,0.000000,0.000000,0.000000,0.000000,0.000000,0.000000,0.000000,0.000000,0.000000,0.000000,0.000000,0.000000,0.034294,3,0
160000,-0.000926,4.060994,-0.005024,-0.015665,25.004808,-0.000356,0.000300,0.000124,1.570894,-0.000012,0.000001,0.000044,-0.000000,-0.000000,0.000000,0.000254,0.000981,-0.006029,-0.039759,0.332021,0.332021,0.346600,1.008004,0.000000,0.000000,0.000000,0.000000,0.000000,0.000000,0.000000,0.000000,0.000000,0.000000,0.000000,0.000000,0.005770,3,0
170000,-0.001034,4.313282,-0.003075,-0.016546,25.005819,0.000404,0.000327,0.000141,1.570902,-0.000030,0.000002,0.000029,-0.000000,-0.000001,0.000000,0.000483,0.001092,0.042438,0.035540,0.316298,0.316298,0.329260,1.007993,0.000000,0.000000,0.000000,0.000000,0.000000,0.000000,0.000000,0.000000,0.000000,0.000000,0.000000,0.000000,0.040214,3,0
180000,-0.001148,4.565790,-0.002016,-0.017401,25.006872,0.000775,0.000340,0.000156,1.570919,-0.000053,0.000003,0.000020,-0.000000,-0.000001,0.000000,0.000438,0.001209,0.048566,0.020152,0.302247,0.302247,0.313817,1.007877,0.000000,0.000000,0.000000,0.000000,0.000000,0.000000,0.000000,0.000000,0.000000,0.000000,0.000000,0.000000,0.046133,3,0
190000,-0.001266,4.818492,-0.003702,-0.018240,25.008257,0.000248,0.000361,0.000179,1.570933,-0.000082,0.000003,0.000037,-0.000000,-0.000002,0.000000,0.000653,0.001330,0.054472,-0.033870,0.289642,0.289642,0.300003,1.007648,0.000000,0.000000,0.000000,0.000000,0.000000,0.000000,0.000000,0.000000,0.000000,0.000000,0.000000,0.000000,0.051858,3,0
200000,-0.001391,5.070448,-0.005012,-0.019173,25.009399,0.000065,0.000385,0.000191,1.570939,-0.000106,0.000004,0.000053,-0.000000,-0.000003,0.000000,0.000378,0.001458,0.040302,-0.027449,0.278296,0.278296,0.287598,1.007298,0.000000,0.000000,0.000000,0.000000,0.000000,0.000000,0.000000,0.000000,0.000000,0.000000,0.000000,0.000000,0.038458,3,0
210000,-0.001521,5.321747,-0.005930,-0.020126,25.010239,-0.000040,0.000409,0.000201,1.570948,-0.000123,0.000005,0.000066,-0.000000,-0.000003,0.000000,0.000179,0.001592,0.026883,-0.019993,0.268055,0.268055,0.276421,1.006819,0.000000,0.000000,0.000000,0.000000,0.000000,0.000000,0.000000,0.000000,0.000000,0.000000,0.000000,0.000000,0.025726,3,0
220000,-0.001656,5.576749,-0.006016,-0.020915,25.012859,0.000193,0.000419,0.000225,1.570965,-0.000202,0.000006,0.000067,-0.000000,-0.000006,0.000000,0.002056,0.001730,0.113517,-0.001981,0.258788,0.258788,0.266321,1.006206,0.000000,0.000000,0.000000,0.000000,0.000000,0.000000,0.000000,0.000000,0.000000,0.000000,0.000000,0.000000,0.108634,3,0
230000,-0.001796,5.827613,-0.005560,-0.021852,25.013666,0.000501,0.000438,0.000235,1.570965,-0.000216,0.000008,0.000059,-0.000000,-0.000006,0.000000,0.000067,0.001875,0.017519,0.010574,0.250387,0.250387,0.257172,1.005450,0.000000,0.000000,0.000000,0.000000,0.000000,0.000000,0.000000,0.000000,0.000000,0.000000,0.000000,0.000000,0.016884,3,0
240000,-0.001943,6.085202,-0.006624,-0.022774,25.018002,0.000208,0.000460,0.000290,1.570971,-0.000368,0.000009,0.000080,-0.000000,-0.000011,0.000000,0.005528,0.002025,0.184105,-0.025838,0.242757,0.242757,0.248866,1.004545,0.000000,0.000000,0.000000,0.000000,0.000000,0.000000,0.000000,0.000000,0.000000,0.000000,0.000000,0.000000,0.176667,3,0
250000,-0.002094,6.337184,-0.004801,-0.023630,25.019497,0.001503,0.000471,0.000312,1.570976,-0.000408,0.000011,0.000040,-0.000000,-0.000013,0.000000,0.000662,0.002180,0.045745,0.045180,0.235820,0.235820,0.241314,1.003484,0.000000,0.000000,0.000000,0.000000,0.000000,0.000000,0.000000,0.000000,0.000000,0.000000,0.000000,0.000000,0.043997,3,0
260000,-0.002250,6.593181,-0.004716,-0.024546,25.023409,0.001845,0.000485,0.000357,1.570984,-0.000554,0.000014,0.000039,-0.000000,-0.000018,0.000000,0.003684,0.002340,0.151569,0.001715,0.229507,0.229507,0.234436,1.002263,0.000000,0.000000,0.000000,0.000000,0.000000,0.000000,0.000000,0.000000,0.000000,0.000000,0.000000,0.000000,0.145789,3,0
270000,-0.002412,6.849161,-0.006232,-0.025455,25.027533,0.000959,0.000496,0.000414,1.570996,-0.000713,0.000016,0.000080,-0.000000,-0.000024,0.000000,0.004065,0.002506,0.153960,-0.040362,0.223757,0.223757,0.228165,1.000874,0.000000,0.000000,0.000000,0.000000,0.000000,0.000000,0.000000,0.000000,0.000000,0.000000,0.000000,0.000000,0.148238,3,0
280000,-0.002578,7.102238,-0.006506,-0.026257,25.029785,0.000763,0.000519,0.000448,1.571007,-0.000797,0.000019,0.000088,-0.000001,-0.000028,0.000000,0.000959,0.002675,0.076849,-0.007632,0.218519,0.218519,0.222443,0.999312,0.000000,0.000000,0.000000,0.000000,0.000000,0.000000,0.000000,0.000000,0.000000,0.000000,0.000000,0.000000,0.074095,3,0
290000,-0.002747,7.354760,-0.004923,-0.026978,25.031879,0.001963,0.000529,0.000477,1.571005,-0.000871,0.000023,0.000037,-0.000001,-0.000031,0.000000,0.000929,0.002848,0.062295,0.043483,0.213748,0.213748,0.217219,0.997573,0.000000,0.000000,0.000000,0.000000,0.000000,0.000000,0.000000,0.000000,0.000000,0.000000,0.000000,0.000000,0.060139,3,0
300000,-0.002920,7.612318,-0.003749,-0.027797,25.037758,0.002864,0.000540,0.000565,1.571012,-0.001131,0.000026,-0.000003,-0.000001,-0.000042,0.000000,0.007086,0.003026,0.207332,0.032574,0.209403,0.209403,0.212446,0.995651,0.000000,0.000000,0.000000,0.000000,0.000000,0.000000,0.000000,0.000000,0.000000,0.000000,0.000000,0.000000,0.200117,3,0
310000,-0.003096,7.866424,-0.001797,-0.028509,25.041224,0.004500,0.000551,0.000623,1.571018,-0.001276,0.000031,-0.000076,-0.000001,-0.000048,0.000000,0.002399,0.003206,0.108745,0.055406,0.205448,0.205449,0.208087,0.993542,0.000000,0.000000,0.000000,0.000000,0.000000,0.000000,0.000000,0.000000,0.000000,0.000000,0.000000,0.000000,0.105067,3,0
320000,-0.003276,8.121312,-0.001574,-0.029302,25.045464,0.004824,0.000575,0.000684,1.571027,-0.001465,0.000035,-0.000084,-0.000001,-0.000057,0.000001,0.002851,0.003390,0.132910,0.005175,0.201853,0.201853,0.204105,0.991243,0.000000,0.000000,0.000000,0.000000,0.000000,0.000000,0.000000,0.000000,0.000000,0.000000,0.000000,0.000000,0.128480,3,0
330000,-0.003460,8.378261,0.000155,-0.030126,25.051718,0.006326,0.000591,0.000785,1.571025,-0.001758,0.000041,-0.000158,-0.000002,-0.000071,0.000001,0.006602,0.003578,0.196041,0.050261,0.198588,0.198588,0.200469,0.988750,0.000000,0.000000,0.000000,0.000000,0.000000,0.000000,0.000000,0.000000,0.000000,0.000000,0.000000,0.000000,0.189584,3,0
340000,-0.003648,8.631331,0.000251,-0.030950,25.054558,0.006634,0.000601,0.000838,1.571023,-0.001882,0.000047,-0.000160,-0.000002,-0.000077,0.000001,0.000988,0.003771,0.078183,0.000933,0.195629,0.195629,0.197151,0.986061,0.000000,0.000000,0.000000,0.000000,0.000000,0.000000,0.000000,0.000000,0.000000,0.000000,0.000000,0.000000,0.075722,3,0
350000,-0.003839,8.888402,-0.000297,-0.031722,25.061234,0.006361,0.000621,0.000956,1.571029,-0.002220,0.000053,-0.000128,-0.000002,-0.000094,0.000001,0.006694,0.003966,0.202784,-0.019070,0.192951,0.192952,0.194125,0.983172,0.000000,0.000000,0.000000,0.000000,0.000000,0.000000,0.000000,0.000000,0.000000,0.000000,0.000000,0.000000,0.196300,3,0
360000,-0.004032,9.141711,0.000685,-0.032438,25.064295,0.007258,0.000651,0.001017,1.571025,-0.002369,0.000061,-0.000178,-0.000003,-0.000102,0.000001,0.001297,0.004164,0.084800,0.028779,0.190536,0.190536,0.191370,0.980081,0.000000,0.000000,0.000000,0.000000,0.000000,0.000000,0.000000,0.000000,0.000000,0.000000,0.000000,0.000000,0.082206,3,0
370000,-0.004227,9.397054,-0.000064,-0.033090,25.069687,0.006603,0.000666,0.001115,1.571028,-0.002645,0.000069,-0.000131,-0.000003,-0.000117,0.000001,0.003723,0.004364,0.149520,-0.026150,0.188363,0.188363,0.188863,0.976788,0.000000,0.000000,0.000000,0.000000,0.000000,0.000000,0.000000,0.000000,0.000000,0.000000,0.000000,0.000000,0.144888,3,0
380000,-0.004425,9.654965,-0.001121,-0.033753,25.077921,0.005734,0.000683,0.001277,1.571024,-0.003093,0.000078,-0.000061,-0.000004,-0.000141,0.000001,0.008911,0.004566,0.232065,-0.036172,0.186415,0.186415,0.186586,0.973291,0.000000,0.000000,0.000000,0.000000,0.000000,0.000000,0.000000,0.000000,0.000000,0.000000,0.000000,0.000000,0.224899,3,0
390000,-0.004623,9.909235,-0.000707,-0.034379,25.082342,0.006264,0.000695,0.001354,1.571024,-0.003323,0.000087,-0.000084,-0.000004,-0.000154,0.000001,0.002096,0.004770,0.113223,0.011537,0.184677,0.184677,0.184523,0.969590,0.000000,0.000000,0.000000,0.000000,0.000000,0.000000,0.000000,0.000000,0.000000,0.000000,0.000000,0.000000,0.109836,3,0
400000,-0.004824,10.164858,-0.001842,-0.035059,25.088324,0.005212,0.000717,0.001469,1.571032,-0.003655,0.000098,-0.000001,-0.000005,-0.000174,0.000002,0.004243,0.004975,0.157095,-0.039423,0.183133,0.183134,0.182656,0.965685,0.000000,0.000000,0.000000,0.000000,0.000000,0.000000,0.000000,0.000000,0.000000,0.000000,0.000000,0.000000,0.152376,3,0
410000,-0.005027,10.422396,-0.001512,-0.035822,25.096771,0.005583,0.000735,0.001628,1.571044,-0.004140,0.000110,-0.000022,-0.000005,-0.000203,0.000002,0.007803,0.005184,0.219473,0.009222,0.181771,0.181772,0.180971,0.961577,0.000000,0.000000,0.000000,0.000000,0.000000,0.000000,0.000000,0.000000,0.000000,0.000000,0.000000,0.000000,0.212883,3,0
420000,-0.005231,10.679999,-0.000568,-0.036453,25.105427,0.006525,0.000763,0.001809,1.571042,-0.004648,0.000122,-0.000090,-0.000006,-0.000234,0.000002,0.007991,0.005393,0.220277,0.029706,0.180578,0.180579,0.179456,0.957266,0.000000,0.000000,0.000000,0.000000,0.000000,0.000000,0.000000,0.000000,0.000000,0.000000,0.000000,0.000000,0.213711,3,0
430000,-0.005437,10.938269,-0.000628,-0.037173,25.115080,0.006567,0.000784,0.002013,1.571037,-0.005225,0.000135,-0.000080,-0.000007,-0.000270,0.000003,0.009390,0.005605,0.240891,-0.004255,0.179543,0.179543,0.178097,0.952755,0.000000,0.000000,0.000000,0.000000,0.000000,0.000000,0.000000,0.000000,0.000000,0.000000,0.000000,0.000000,0.233746,3,0
440000,-0.005645,11.196601,0.000230,-0.037883,25.124924,0.007810,0.000797,0.002215,1.571047,-0.005826,0.000150,-0.000147,-0.000008,-0.000309,0.000003,0.009510,0.005818,0.240951,0.026775,0.178654,0.178654,0.176883,0.948045,0.000000,0.000000,0.000000,0.000000,0.000000,0.000000,0.000000,0.000000,0.000000,0.000000,0.000000,0.000000,0.233844,3,0
450000,-0.005853,11.455000,0.001725,-0.038486,25.134863,0.009701,0.000814,0.002433,1.571050,-0.006450,0.000166,-0.000272,-0.000009,-0.000350,0.000003,0.009772,0.006032,0.240947,0.048303,0.177901,0.177902,0.175803,0.943139,0.000000,0.000000,0.000000,0.000000,0.000000,0.000000,0.000000,0.000000,0.000000,0.000000,0.000000,0.000000,0.233876,3,0
460000,-0.006062,11.711123,0.002580,-0.039120,25.141907,0.010762,0.000839,0.002589,1.571060,-0.006884,0.000182,-0.000342,-0.000010,-0.000380,0.000004,0.004327,0.006246,0.161358,0.025969,0.177276,0.177277,0.174847,0.938040,0.000000,0.000000,0.000000,0.000000,0.000000,0.000000,0.000000,0.000000,0.000000,0.000000,0.000000,0.000000,0.156708,3,0
470000,-0.006270,11.968539,0.003985,-0.039611,25.150728,0.012619,0.000866,0.002785,1.571068,-0.007450,0.000200,-0.000467,-0.000012,-0.000419,0.000004,0.007018,0.006460,0.203348,0.044664,0.176769,0.176770,0.174007,0.932753,0.000000,0.000000,0.000000,0.000000,0.000000,0.000000,0.000000,0.000000,0.000000,0.000000,0.000000,0.000000,0.197457,3,0
480000,-0.006477,12.223720,0.003046,-0.040087,25.156420,0.011297,0.000880,0.002920,1.571077,-0.007809,0.000220,-0.000361,-0.000013,-0.000445,0.000004,0.002745,0.006673,0.124754,-0.036883,0.176371,0.176372,0.173272,0.927280,0.000000,0.000000,0.000000,0.000000,0.000000,0.000000,0.000000,0.000000,0.000000,0.000000,0.000000,0.000000,0.121260,3,0
490000,-0.006684,12.478461,0.001713,-0.040559,25.161615,0.009660,0.000895,0.003036,1.571087,-0.008131,0.000240,-0.000210,-0.000014,-0.000468,0.000004,0.002307,0.006886,0.108064,-0.050340,0.176076,0.176077,0.172634,0.921627,0.000000,0.000000,0.000000,0.000000,0.000000,0.000000,0.000000,0.000000,0.000000,0.000000,0.000000,0.000000,0.105105,3,0
500000,-0.006889,12.735106,0.001457,-0.040997,25.169516,0.009442,0.000926,0.003233,1.571091,-0.008658,0.000262,-0.000172,-0.000016,-0.000507,0.000005,0.004782,0.007097,0.171333,-0.012367,0.175875,0.175876,0.172087,0.915798,0.000000,0.000000,0.000000,0.000000,0.000000,0.000000,0.000000,0.000000,0.000000,0.000000,0.000000,0.000000,0.166454,3,0
510000,-0.007094,12.989548,0.001305,-0.041590,25.174273,0.009121,0.000942,0.003336,1.571099,-0.008954,0.000286,-0.000145,-0.000018,-0.000530,0.000005,0.001436,0.007308,0.093518,-0.008621,0.175761,0.175762,0.171623,0.909799,0.000000,0.000000,0.000000,0.000000,0.000000,0.000000,0.000000,0.000000,0.000000,0.000000,0.000000,0.000000,0.091055,3,0
520000,-0.007299,13.245898,0.001846,-0.042142,25.181887,0.009721,0.000963,0.003517,1.571092,-0.009468,0.000310,-0.000197,-0.000020,-0.000570,0.000005,0.004042,0.007519,0.157091,0.015787,0.175728,0.175729,0.171234,0.903636,0.000000,0.000000,0.000000,0.000000,0.000000,0.000000,0.000000,0.000000,0.000000,0.000000,0.000000,0.000000,0.152665,3,0
530000,-0.007502,13.504716,0.001969,-0.042639,25.193304,0.009875,0.000981,0.003807,1.571092,-0.010271,0.000336,-0.000200,-0.000022,-0.000633,0.000006,0.009221,0.007728,0.238605,0.000884,0.175770,0.175771,0.170915,0.897315,0.000000,0.000000,0.000000,0.000000,0.000000,0.000000,0.000000,0.000000,0.000000,0.000000,0.000000,0.000000,0.231737,3,0
540000,-0.007703,13.760723,0.002388,-0.043067,25.200415,0.010408,0.001007,0.003988,1.571098,-0.010751,0.000364,-0.000240,-0.000024,-0.000672,0.000006,0.003143,0.007936,0.138705,0.011239,0.175880,0.175881,0.170659,0.890842,0.000000,0.000000,0.000000,0.000000,0.000000,0.000000,0.000000,0.000000,0.000000,0.000000,0.000000,0.000000,0.134860,3,0
550000,-0.007904,14.016291,0.002055,-0.043560,25.206741,0.009802,0.001035,0.004142,1.571093,-0.011182,0.000393,-0.000185,-0.000026,-0.000708,0.000007,0.002424,0.008143,0.121174,-0.015364,0.176052,0.176054,0.170460,0.884223,0.000000,0.000000,0.000000,0.000000,0.000000,0.000000,0.000000,0.000000,0.000000,0.000000,0.000000,0.000000,0.117884,3,0
560000,-0.008103,14.276097,0.002044,-0.044042,25.219751,0.009825,0.001067,0.004496,1.571091,-0.012143,0.000423,-0.000171,-0.000029,-0.000789,0.000008,0.011214,0.008348,0.263122,-0.003865,0.176283,0.176284,0.170314,0.877467,0.000000,0.000000,0.000000,0.000000,0.000000,0.000000,0.000000,0.000000,0.000000,0.000000,0.000000,0.000000,0.255520,3,0
570000,-0.008300,14.533664,0.001462,-0.044465,25.229219,0.009105,0.001094,0.004754,1.571096,-0.012825,0.000456,-0.000080,-0.000032,-0.000848,0.000008,0.005469,0.008551,0.182093,-0.024044,0.176565,0.176567,0.170215,0.870580,0.000000,0.000000,0.000000,0.000000,0.000000,0.000000,0.000000,0.000000,0.000000,0.000000,0.000000,0.000000,0.176929,3,0
580000,-0.008495,14.792528,0.002618,-0.044890,25.240618,0.010791,0.001119,0.005070,1.571097,-0.013680,0.000489,-0.000227,-0.000035,-0.000923,0.000009,0.008256,0.008753,0.222616,0.037514,0.176895,0.176896,0.170158,0.863569,0.000000,0.000000,0.000000,0.000000,0.000000,0.000000,0.000000,0.000000,0.000000,0.000000,0.000000,0.000000,0.216220,3,0
590000,-0.008688,15.050919,0.003212,-0.045344,25.251293,0.011806,0.001143,0.005368,1.571093,-0.014475,0.000525,-0.000296,-0.000038,-0.000994,0.000009,0.006672,0.008952,0.202184,0.017065,0.177267,0.177269,0.170139,0.856443,0.000000,0.000000,0.000000,0.000000,0.000000,0.000000,0.000000,0.000000,0.000000,0.000000,0.000000,0.000000,0.196402,3,0
600000,-0.008878,15.308839,0.002556,-0.045712,25.261143,0.011018,0.001166,0.005641,1.571092,-0.015209,0.000562,-0.000184,-0.000041,-0.001061,0.000010,0.005506,0.009149,0.182234,-0.027380,0.177678,0.177680,0.170153,0.849208,0.000000,0.000000,0.000000,0.000000,0.000000,0.000000,0.000000,0.000000,0.000000,0.000000,0.000000,0.000000,0.177060,3,0
610000,-0.009067,15.564523,0.001965,-0.046087,25.267265,0.010108,0.001200,0.005811,1.571087,-0.015634,0.000600,-0.000081,-0.000045,-0.001101,0.000010,0.001833,0.009344,0.103125,-0.024738,0.178123,0.178125,0.170196,0.841874,0.000000,0.000000,0.000000,0.000000,0.000000,0.000000,0.000000,0.000000,0.000000,0.000000,0.000000,0.000000,0.100473,3,0
620000,-0.009252,15.822722,0.001767,-0.046437,25.277454,0.009935,0.001223,0.006117,1.571077,-0.016413,0.000640,-0.000036,-0.000048,-0.001175,0.000011,0.005586,0.009536,0.185321,-0.010588,0.178599,0.178601,0.170265,0.834448,0.000000,0.000000,0.000000,0.000000,0.000000,0.000000,0.000000,0.000000,0.000000,0.000000,0.000000,0.000000,0.180043,3,0
630000,-0.009435,16.078671,0.000868,-0.046754,25.283735,0.008754,0.001253,0.006296,1.571077,-0.016868,0.000682,0.000118,-0.000052,-0.001219,0.000012,0.002031,0.009724,0.105930,-0.035257,0.179101,0.179103,0.170356,0.826938,0.000000,0.000000,0.000000,0.000000,0.000000,0.000000,0.000000,0.000000,0.000000,0.000000,0.000000,0.000000,0.103200,3,0
640000,-0.009612,16.336548,0.002266,-0.046983,25.293247,0.010874,0.001285,0.006583,1.571076,-0.017604,0.000726,-0.000089,-0.000057,-0.001291,0.000012,0.004922,0.009909,0.167982,0.046109,0.179626,0.179629,0.170466,0.819352,0.000000,0.000000,0.000000,0.000000,0.000000,0.000000,0.000000,0.000000,0.000000,0.000000,0.000000,0.000000,0.163236,3,0
650000,-0.009787,16.596939,0.002226,-0.047227,25.306934,0.010806,0.001312,0.007009,1.571062,-0.018712,0.000771,-0.000066,-0.000061,-0.001402,0.000013,0.009960,0.010089,0.247950,-0.005253,0.180171,0.180174,0.170592,0.811698,0.000000,0.000000,0.000000,0.000000,0.000000,0.000000,0.000000,0.000000,0.000000,0.000000,0.000000,0.000000,0.240702,3,0
660000,-0.009958,16.858027,0.002508,-0.047530,25.321737,0.011285,0.001341,0.007483,1.571050,-0.019921,0.000818,-0.000096,-0.000066,-0.001526,0.000014,0.011437,0.010267,0.265726,0.006092,0.180733,0.180736,0.170730,0.803985,0.000000,0.000000,0.000000,0.000000,0.000000,0.000000,0.000000,0.000000,0.000000,0.000000,0.000000,0.000000,0.257913,3,0
670000,-0.010125,17.117399,0.002687,-0.047737,25.333433,0.011454,0.001370,0.007867,1.571045,-0.020863,0.000867,-0.000109,-0.000071,-0.001624,0.000015,0.006698,0.010440,0.203279,0.002370,0.181309,0.181312,0.170878,0.796221,0.000000,0.000000,0.000000,0.000000,0.000000,0.000000,0.000000,0.000000,0.000000,0.000000,0.000000,0.000000,0.197396,3,0
680000,-0.010288,17.374466,0.003512,-0.047980,25.341103,0.012630,0.001399,0.008101,1.571037,-0.021442,0.000917,-0.000231,-0.000077,-0.001685,0.000016,0.002552,0.010610,0.122700,0.024909,0.181896,0.181899,0.171034,0.788413,0.000000,0.000000,0.000000,0.000000,0.000000,0.000000,0.000000,0.000000,0.000000,0.000000,0.000000,0.000000,0.119424,3,0
690000,-0.010448,17.631056,0.004249,-0.048273,25.347799,0.013660,0.001441,0.008304,1.571043,-0.021941,0.000968,-0.000337,-0.000082,-0.001739,0.000017,0.001844,0.010776,0.104103,0.021390,0.182491,0.182494,0.171194,0.780570,0.000000,0.000000,0.000000,0.000000,0.000000,0.000000,0.000000,0.000000,0.000000,0.000000,0.000000,0.000000,0.101476,3,0
700000,-0.010604,17.888992,0.005369,-0.048423,25.356783,0.015137,0.001487,0.008605,1.571032,-0.022651,0.001022,-0.000513,-0.000088,-0.001817,0.000017,0.003638,0.010938,0.145630,0.034454,0.183093,0.183096,0.171358,0.772699,0.000000,0.000000,0.000000,0.000000,0.000000,0.000000,0.000000,0.000000,0.000000,0.000000,0.000000,0.000000,0.141583,3,0
710000,-0.010756,18.148870,0.005406,-0.048589,25.369135,0.014933,0.001526,0.009021,1.571035,-0.023670,0.001077,-0.000494,-0.000094,-0.001931,0.000018,0.006856,0.011096,0.205666,-0.003897,0.183699,0.183701,0.171523,0.764809,0.000000,0.000000,0.000000,0.000000,0.000000,0.000000,0.000000,0.000000,0.000000,0.000000,0.000000,0.000000,0.199659,3,0
720000,-0.010903,18.407013,0.006462,-0.048758,25.378330,0.016545,0.001557,0.009339,1.571034,-0.024396,0.001133,-0.000661,-0.000101,-0.002013,0.000019,0.003553,0.011249,0.144453,0.031635,0.184306,0.184309,0.171686,0.756906,0.000000,0.000000,0.000000,0.000000,0.000000,0.000000,0.000000,0.000000,0.000000,0.000000,0.000000,0.000000,0.140440,3,0
730000,-0.011047,18.667107,0.005906,-0.048869,25.390745,0.015536,0.001590,0.009776,1.571033,-0.025438,0.001192,-0.000528,-0.000108,-0.002134,0.000020,0.006864,0.011398,0.204281,-0.025164,0.184913,0.184916,0.171848,0.748997,0.000000,0.000000,0.000000,0.000000,0.000000,0.000000,0.000000,0.000000,0.000000,0.000000,0.000000,0.000000,0.198293,3,0
740000,-0.011187,18.925447,0.004607,-0.048957,25.400061,0.013435,0.001636,0.010106,1.571036,-0.026177,0.001252,-0.000255,-0.000114,-0.002221,0.000021,0.003733,0.011543,0.142851,-0.050686,0.185519,0.185522,0.172004,0.741091,0.000000,0.000000,0.000000,0.000000,0.000000,0.000000,0.000000,0.000000,0.000000,0.000000,0.000000,0.000000,0.138885,3,0
750000,-0.011322,19.185129,0.003576,-0.049036,25.411503,0.011885,0.001680,0.010511,1.571034,-0.027135,0.001313,-0.000033,-0.000122,-0.002336,0.000022,0.005674,0.011684,0.182600,-0.040636,0.186122,0.186124,0.172156,0.733193,0.000000,0.000000,0.000000,0.000000,0.000000,0.000000,0.000000,0.000000,0.000000,0.000000,0.000000,0.000000,0.177297,3,0
760000,-0.011452,19.443663,0.003342,-0.049097,25.420849,0.011627,0.001732,0.010852,1.571041,-0.027887,0.001376,0.000035,-0.000129,-0.002428,0.000023,0.003279,0.011819,0.141472,-0.012315,0.186719,0.186722,0.172300,0.725312,0.000000,0.000000,0.000000,0.000000,0.000000,0.000000,0.000000,0.000000,0.000000,0.000000,0.000000,0.000000,0.137547,3,0
770000,-0.011575,19.706020,0.004771,-0.049109,25.436659,0.013562,0.001774,0.011443,1.571030,-0.029287,0.001441,-0.000228,-0.000137,-0.002601,0.000025,0.011324,0.011949,0.260546,0.045804,0.187311,0.187314,0.172437,0.717452,0.000000,0.000000,0.000000,0.000000,0.000000,0.000000,0.000000,0.000000,0.000000,0.000000,0.000000,0.000000,0.252678,3,0
780000,-0.011696,19.965944,0.003678,-0.049111,25.448023,0.011848,0.001826,0.011878,1.571026,-0.030251,0.001507,0.000016,-0.000145,-0.002722,0.000026,0.005373,0.012073,0.176939,-0.042688,0.187895,0.187898,0.172564,0.709620,0.000000,0.000000,0.000000,0.000000,0.000000,0.000000,0.000000,0.000000,0.000000,0.000000,0.000000,0.000000,0.171797,3,0
790000,-0.011810,20.224703,0.004007,-0.049103,25.457375,0.012445,0.001864,0.012220,1.571024,-0.030997,0.001574,-0.000028,-0.000154,-0.002818,0.000027,0.002999,0.012194,0.135567,0.007277,0.188471,0.188474,0.172681,0.701823,0.000000,0.000000,0.000000,0.000000,0.000000,0.000000,0.000000,0.000000,0.000000,0.000000,0.000000,0.000000,0.131838,3,0
800000,-0.011922,20.486685,0.003660,-0.049250,25.472176,0.011955,0.001918,0.012799,1.571017,-0.032303,0.001643,0.000066,-0.000163,-0.002988,0.000028,0.008947,0.012310,0.234535,-0.016343,0.189038,0.189041,0.172788,0.694067,0.000000,0.000000,0.000000,0.000000,0.000000,0.000000,0.000000,0.000000,0.000000,0.000000,0.000000,0.000000,0.227459,3,0
810000,-0.012028,20.747463,0.005038,-0.049252,25.484760,0.013930,0.001968,0.013289,1.571004,-0.033377,0.001713,-0.000199,-0.000172,-0.003130,0.000030,0.006227,0.012422,0.191072,0.043726,0.189594,0.189597,0.172883,0.686356,0.000000,0.000000,0.000000,0.000000,0.000000,0.000000,0.000000,0.000000,0.000000,0.000000,0.000000,0.000000,0.185426,3,0
820000,-0.012131,21.007048,0.005376,-0.049312,25.495070,0.014394,0.002023,0.013691,1.571003,-0.034223,0.001784,-0.000243,-0.000182,-0.003244,0.000031,0.003608,0.012528,0.148836,0.006908,0.190140,0.190143,0.172966,0.678696,0.000000,0.000000,0.000000,0.000000,0.000000,0.000000,0.000000,0.000000,0.000000,0.000000,0.000000,0.000000,0.144629,3,0
830000,-0.012228,21.266708,0.006446,-0.049278,25.505287,0.016064,0.002072,0.014088,1.571005,-0.035070,0.001856,-0.000443,-0.000192,-0.003359,0.000032,0.003707,0.012631,0.147575,0.032086,0.190674,0.190677,0.173036,0.671092,0.000000,0.000000,0.000000,0.000000,0.000000,0.000000,0.000000,0.000000,0.000000,0.000000,0.000000,0.000000,0.143408,3,0
840000,-0.012324,21.528343,0.005454,-0.049372,25.518890,0.014522,0.002114,0.014637,1.571008,-0.036262,0.001931,-0.000198,-0.000202,-0.003525,0.000033,0.007122,0.012729,0.205873,-0.039857,0.191196,0.191199,0.173093,0.663549,0.000000,0.000000,0.000000,0.000000,0.000000,0.000000,0.000000,0.000000,0.000000,0.000000,0.000000,0.000000,0.199693,3,0
850000,-0.012415,21.787483,0.006459,-0.049363,25.527931,0.015935,0.002166,0.014992,1.571013,-0.036981,0.002006,-0.000388,-0.000213,-0.003626,0.000034,0.002612,0.012825,0.123011,0.029786,0.191706,0.191709,0.173137,0.656071,0.000000,0.000000,0.000000,0.000000,0.000000,0.000000,0.000000,0.000000,0.000000,0.000000,0.000000,0.000000,0.119727,3,0
860000,-0.012501,22.046062,0.006942,-0.049337,25.535866,0.016608,0.002218,0.015289,1.571015,-0.037584,0.002082,-0.000461,-0.000224,-0.003713,0.000035,0.001737,0.012915,0.102329,0.011224,0.192203,0.192206,0.173167,0.648662,0.000000,0.000000,0.000000,0.000000,0.000000,0.000000,0.000000,0.000000,0.000000,0.000000,0.000000,0.000000,0.099836,3,0
870000,-0.012585,22.306000,0.005541,-0.049230,25.546089,0.014528,0.002268,0.015693,1.571008,-0.038428,0.002160,-0.000112,-0.000235,-0.003836,0.000036,0.003750,0.013001,0.141853,-0.054295,0.192687,0.192690,0.173183,0.641326,0.000000,0.000000,0.000000,0.000000,0.000000,0.000000,0.000000,0.000000,0.000000,0.000000,0.000000,0.000000,0.137872,3,0
880000,-0.012663,22.564718,0.006064,-0.049263,25.554138,0.015123,0.002328,0.016000,1.571005,-0.039029,0.002238,-0.000201,-0.000247,-0.003925,0.000037,0.001684,0.013085,0.100481,0.013165,0.193158,0.193161,0.173185,0.634068,0.000000,0.000000,0.000000,0.000000,0.000000,0.000000,0.000000,0.000000,0.000000,0.000000,0.000000,0.000000,0.098067,3,0
890000,-0.012737,22.823511,0.007162,-0.049231,25.562120,0.016763,0.002380,0.016319,1.571003,-0.039633,0.002317,-0.000419,-0.000259,-0.004015,0.000038,0.001818,0.013163,0.100109,0.032771,0.193615,0.193618,0.173173,0.626889,0.000000,0.000000,0.000000,0.000000,0.000000,0.000000,0.000000,0.000000,0.000000,0.000000,0.000000,0.000000,0.097714,3,0
900000,-0.012808,23.082376,0.008542,-0.049227,25.570057,0.018554,0.002446,0.016646,1.571008,-0.040238,0.002397,-0.000703,-0.000271,-0.004107,0.000039,0.001916,0.013237,0.099661,0.042062,0.194059,0.194062,0.173146,0.619795,0.000000,0.000000,0.000000,0.000000,0.000000,0.000000,0.000000,0.000000,0.000000,0.000000,0.000000,0.000000,0.097286,3,0
910000,-0.012875,23.345823,0.009902,-0.049195,25.585989,0.020335,0.002500,0.017349,1.570997,-0.041695,0.002478,-0.000984,-0.000284,-0.004333,0.000041,0.009456,0.013307,0.238295,0.040872,0.194489,0.194492,0.173105,0.612786,0.000000,0.000000,0.000000,0.000000,0.000000,0.000000,0.000000,0.000000,0.000000,0.000000,0.000000,0.000000,0.230931,3,0
920000,-0.012939,23.604116,0.009111,-0.049019,25.592772,0.019090,0.002566,0.017601,1.570992,-0.042151,0.002561,-0.000751,-0.000297,-0.004405,0.000042,0.001106,0.013372,0.074080,-0.034472,0.194906,0.194908,0.173051,0.605867,0.000000,0.000000,0.000000,0.000000,0.000000,0.000000,0.000000,0.000000,0.000000,0.000000,0.000000,0.000000,0.072831,3,0
930000,-0.012997,23.863129,0.010393,-0.048849,25.600594,0.020908,0.002623,0.017918,1.570988,-0.042733,0.002644,-0.001014,-0.000311,-0.004498,0.000043,0.001686,0.013435,0.094025,0.037847,0.195310,0.195312,0.172982,0.599039,0.000000,0.000000,0.000000,0.000000,0.000000,0.000000,0.000000,0.000000,0.000000,0.000000,0.000000,0.000000,0.091889,3,0
940000,-0.013052,24.124151,0.008908,-0.048630,25.611994,0.018638,0.002680,0.018417,1.570983,-0.043687,0.002729,-0.000609,-0.000324,-0.004654,0.000044,0.004362,0.013491,0.152996,-0.058733,0.195700,0.195702,0.172899,0.592306,0.000000,0.000000,0.000000,0.000000,0.000000,0.000000,0.000000,0.000000,0.000000,0.000000,0.000000,0.000000,0.148579,3,0
950000,-0.013104,24.387808,0.007756,-0.048526,25.627819,0.016652,0.002742,0.019155,1.570980,-0.045127,0.002815,-0.000289,-0.000337,-0.004892,0.000046,0.008889,0.013545,0.229801,-0.046215,0.196077,0.196079,0.172802,0.585668,0.000000,0.000000,0.000000,0.000000,0.000000,0.000000,0.000000,0.000000,0.000000,0.000000,0.000000,0.000000,0.222676,3,0
960000,-0.013151,24.650160,0.007553,-0.048351,25.641151,0.016235,0.002796,0.019759,1.570968,-0.046290,0.002901,-0.000204,-0.000352,-0.005087,0.000048,0.005552,0.013596,0.184652,-0.012672,0.196442,0.196444,0.172692,0.579127,0.000000,0.000000,0.000000,0.000000,0.000000,0.000000,0.000000,0.000000,0.000000,0.000000,0.000000,0.000000,0.179090,3,0
970000,-0.013194,24.909264,0.006668,-0.048141,25.648645,0.014936,0.002867,0.020073,1.570962,-0.046804,0.002988,0.000054,-0.000366,-0.005174,0.000049,0.001307,0.013640,0.081200,-0.036404,0.196794,0.196796,0.172569,0.572686,0.000000,0.000000,0.000000,0.000000,0.000000,0.000000,0.000000,0.000000,0.000000,0.000000,0.000000,0.000000,0.079636,3,0
980000,-0.013232,25.171690,0.005859,-0.047904,25.661903,0.013635,0.002928,0.020691,1.570962,-0.047948,0.003075,0.000289,-0.000381,-0.005372,0.000051,0.005421,0.013681,0.179838,-0.033174,0.197134,0.197136,0.172433,0.566346,0.000000,0.000000,0.000000,0.000000,0.000000,0.000000,0.000000,0.000000,0.000000,0.000000,0.000000,0.000000,0.174430,3,0
990000,-0.013266,25.433466,0.005540,-0.047638,25.673721,0.013135,0.002992,0.021230,1.570962,-0.048942,0.003163,0.000399,-0.000396,-0.005547,0.000053,0.003984,0.013717,0.155828,-0.015712,0.197462,0.197463,0.172284,0.560107,0.000000,0.000000,0.000000,0.000000,0.000000,0.000000,0.000000,0.000000,0.000000,0.000000,0.000000,0.000000,0.151282,3,0
1000000,-0.013295,25.693291,0.004875,-0.047360,25.682114,0.012201,0.003055,0.021577,1.570953,-0.049537,0.003252,0.000600,-0.000411,-0.005653,0.000054,0.001541,0.013747,0.092722,-0.027748,0.197779,0.197780,0.172122,0.553971,0.000000,0.000000,0.000000,0.000000,0.000000,0.000000,0.000000,0.000000,0.000000,0.000000,0.000000,0.000000,0.090645,3,0
1010000,-0.013320,25.955780,0.004328,-0.047102,25.695021,0.011431,0.003117,0.022190,1.570955,-0.050636,0.003341,0.000766,-0.000427,-0.005852,0.000055,0.004817,0.013774,0.170755,-0.023180,0.198084,0.198085,0.171949,0.547939,0.000000,0.000000,0.000000,0.000000,0.000000,0.000000,0.000000,0.000000,0.000000,0.000000,0.000000,0.000000,0.165654,3,0
1020000,-0.013342,26.218269,0.003136,-0.046902,25.707790,0.009706,0.003177,0.022803,1.570955,-0.051712,0.003431,0.001101,-0.000443,-0.006050,0.000057,0.004836,0.013797,0.166559,-0.045439,0.198379,0.198380,0.171764,0.542011,0.000000,0.000000,0.000000,0.000000,0.000000,0.000000,0.000000,0.000000,0.000000,0.000000,0.000000,0.000000,0.161603,3,0
1030000,-0.013359,26.477463,0.003204,-0.046631,25.714611,0.009836,0.003248,0.023081,1.570953,-0.052120,0.003520,0.001106,-0.000460,-0.006126,0.000058,0.000670,0.013817,0.062975,-0.001013,0.198664,0.198664,0.171568,0.536188,0.000000,0.000000,0.000000,0.000000,0.000000,0.000000,0.000000,0.000000,0.000000,0.000000,0.000000,0.000000,0.062338,3,0
1040000,-0.013371,26.738016,0.004357,-0.046372,25.723680,0.011328,0.003310,0.023488,1.570952,-0.052780,0.003610,0.000820,-0.000477,-0.006250,0.000059,0.001926,0.013831,0.101896,0.037047,0.198938,0.198938,0.171361,0.530469,0.000000,0.000000,0.000000,0.000000,0.000000,0.000000,0.000000,0.000000,0.000000,0.000000,0.000000,0.000000,0.099423,3,0
1050000,-0.013381,26.999252,0.004348,-0.046143,25.733757,0.011411,0.003390,0.023960,1.570948,-0.053559,0.003700,0.000847,-0.000494,-0.006400,0.000061,0.002337,0.013841,0.119558,-0.004194,0.199203,0.199203,0.171143,0.524856,0.000000,0.000000,0.000000,0.000000,0.000000,0.000000,0.000000,0.000000,0.000000,0.000000,0.000000,0.000000,0.116361,3,0
1060000,-0.013387,27.261822,0.004535,-0.045844,25.746094,0.011535,0.003456,0.024569,1.570935,-0.054580,0.003791,0.000819,-0.000512,-0.006598,0.000063,0.003974,0.013848,0.156403,0.002804,0.199460,0.199459,0.170915,0.519349,0.000000,0.000000,0.000000,0.000000,0.000000,0.000000,0.000000,0.000000,0.000000,0.000000,0.000000,0.000000,0.151795,3,0
1070000,-0.013391,27.524382,0.003807,-0.045615,25.758305,0.010343,0.003525,0.025171,1.570940,-0.055576,0.003882,0.001041,-0.000530,-0.006796,0.000064,0.003900,0.013851,0.152136,-0.029379,0.199707,0.199706,0.170677,0.513947,0.000000,0.000000,0.000000,0.000000,0.000000,0.000000,0.000000,0.000000,0.000000,0.000000,0.000000,0.000000,0.147678,3,0
1080000,-0.013389,27.786924,0.004839,-0.045276,25.770248,0.011548,0.003598,0.025766,1.570935,-0.056544,0.003972,0.000776,-0.000548,-0.006990,0.000066,0.003730,0.013852,0.147879,0.032935,0.199947,0.199945,0.170430,0.508650,0.000000,0.000000,0.000000,0.000000,0.000000,0.000000,0.000000,0.000000,0.000000,0.000000,0.000000,0.000000,0.143578,3,0
1090000,-0.013386,28.046139,0.004263,-0.045007,25.776247,0.010782,0.003667,0.025997,1.570938,-0.056836,0.004064,0.000967,-0.000567,-0.007049,0.000067,0.000442,0.013847,0.044249,-0.024353,0.200178,0.200177,0.170174,0.503458,0.000000,0.000000,0.000000,0.000000,0.000000,0.000000,0.000000,0.000000,0.000000,0.000000,0.000000,0.000000,0.044816,3,0
1100000,-0.013380,28.308708,0.003315,-0.044677,25.788191,0.009577,0.003743,0.026588,1.570932,-0.057776,0.004156,0.001255,-0.000585,-0.007244,0.000069,0.003538,0.013841,0.142792,-0.037106,0.200403,0.200401,0.169909,0.498371,0.000000,0.000000,0.000000,0.000000,0.000000,0.000000,0.000000,0.000000,0.000000,0.000000,0.000000,0.000000,0.138667,3,0
1110000,-0.013369,28.570593,0.003522,-0.044358,25.798672,0.009705,0.003808,0.027092,1.570925,-0.058557,0.004247,0.001216,-0.000604,-0.007408,0.000070,0.002301,0.013832,0.118650,0.004154,0.200620,0.200618,0.169637,0.493387,0.000000,0.000000,0.000000,0.000000,0.000000,0.000000,0.000000,0.000000,0.000000,0.000000,0.000000,0.000000,0.115460,3,0
1120000,-0.013358,28.831804,0.002404,-0.044115,25.807911,0.008314,0.003887,0.027528,1.570919,-0.059186,0.004339,0.001558,-0.000623,-0.007542,0.000071,0.001790,0.013818,0.095209,-0.042963,0.200832,0.200829,0.169356,0.488508,0.000000,0.000000,0.000000,0.000000,0.000000,0.000000,0.000000,0.000000,0.000000,0.000000,0.000000,0.000000,0.092984,3,0
1130000,-0.013339,29.090347,0.003584,-0.043750,25.812294,0.009792,0.003963,0.027648,1.570922,-0.059269,0.004429,0.001241,-0.000643,-0.007560,0.000072,0.000303,0.013803,0.012814,0.038930,0.201037,0.201034,0.169068,0.483730,0.000000,0.000000,0.000000,0.000000,0.000000,0.000000,0.000000,0.000000,0.000000,0.000000,0.000000,0.000000,0.018203,3,0
1140000,-0.013318,29.354263,0.004281,-0.043424,25.826038,0.010601,0.004048,0.028378,1.570915,-0.060402,0.004520,0.001053,-0.000663,-0.007807,0.000074,0.004855,0.013782,0.171682,0.021692,0.201238,0.201234,0.168774,0.479055,0.000000,0.000000,0.000000,0.000000,0.000000,0.000000,0.000000,0.000000,0.000000,0.000000,0.000000,0.000000,0.166460,3,0
1150000,-0.013294,29.615463,0.005194,-0.043097,25.834896,0.011648,0.004124,0.028795,1.570920,-0.060973,0.004610,0.000809,-0.000684,-0.007934,0.000075,0.001372,0.013757,0.086538,0.028917,0.201433,0.201429,0.168472,0.474481,0.000000,0.000000,0.000000,0.000000,0.000000,0.000000,0.000000,0.000000,0.000000,0.000000,0.000000,0.000000,0.084685,3,0
1160000,-0.013267,29.877327,0.006029,-0.042743,25.844803,0.012778,0.004197,0.029280,1.570928,-0.061657,0.004701,0.000588,-0.000705,-0.008088,0.000077,0.001866,0.013730,0.103556,0.025824,0.201623,0.201619,0.168165,0.470007,0.000000,0.000000,0.000000,0.000000,0.000000,0.000000,0.000000,0.000000,0.000000,0.000000,0.000000,0.000000,0.100954,3,0
1170000,-0.013240,30.139181,0.005511,-0.042408,25.854643,0.012142,0.004278,0.029757,1.570920,-0.062318,0.004792,0.000774,-0.000725,-0.008239,0.000078,0.001727,0.013699,0.100016,-0.022936,0.201810,0.201804,0.167852,0.465633,0.000000,0.000000,0.000000,0.000000,0.000000,0.000000,0.000000,0.000000,0.000000,0.000000,0.000000,0.000000,0.097552,3,0
1180000,-0.013209,30.403025,0.004732,-0.041996,25.867729,0.010781,0.004363,0.030454,1.570905,-0.063351,0.004883,0.001031,-0.000746,-0.008480,0.000080,0.004120,0.013668,0.156128,-0.031793,0.201992,0.201986,0.167533,0.461356,0.000000,0.000000,0.000000,0.000000,0.000000,0.000000,0.000000,0.000000,0.000000,0.000000,0.000000,0.000000,0.151446,3,0
1190000,-0.013173,30.662794,0.005546,-0.041623,25.873524,0.011751,0.004443,0.030666,1.570918,-0.063557,0.004973,0.000814,-0.000767,-0.008528,0.000081,0.000292,0.013633,0.031305,0.025385,0.202171,0.202165,0.167210,0.457177,0.000000,0.000000,0.000000,0.000000,0.000000,0.000000,0.000000,0.000000,0.000000,0.000000,0.000000,0.000000,0.032996,3,0
1200000,-0.013136,30.921909,0.005164,-0.041330,25.878084,0.011225,0.004522,0.030792,1.570914,-0.063624,0.005063,0.000967,-0.000789,-0.008544,0.000081,0.000098,0.013594,0.010025,-0.017991,0.202347,0.202341,0.166882,0.453094,0.000000,0.000000,0.000000,0.000000,0.000000,0.000000,0.000000,0.000000,0.000000,0.000000,0.000000,0.000000,0.016321,3,0
1210000,-0.013097,31.185741,0.004302,-0.040917,25.890863,0.010158,0.004595,0.031493,1.570910,-0.064604,0.005153,0.001254,-0.000810,-0.008783,0.000083,0.003774,0.013553,0.148443,-0.034768,0.202521,0.202513,0.166549,0.449105,0.000000,0.000000,0.000000,0.000000,0.000000,0.000000,0.000000,0.000000,0.000000,0.000000,0.000000,0.000000,0.144027,3,0
1220000,-0.013055,31.444149,0.003603,-0.040486,25.894033,0.009305,0.004673,0.031521,1.570909,-0.064499,0.005243,0.001506,-0.000831,-0.008757,0.000083,0.000208,0.013510,-0.016125,-0.029042,0.202692,0.202684,0.166213,0.445211,0.000000,0.000000,0.000000,0.000000,0.000000,0.000000,0.000000,0.000000,0.000000,0.000000,0.000000,0.000000,0.020329,3,0
1230000,-0.013010,31.703259,0.003392,-0.040099,25.898315,0.009020,0.004752,0.031630,1.570924,-0.064524,0.005332,0.001602,-0.000853,-0.008764,0.000084,0.000051,0.013464,0.003740,-0.011041,0.202862,0.202853,0.165873,0.441408,0.000000,0.000000,0.000000,0.000000,0.000000,0.000000,0.000000,0.000000,0.000000,0.000000,0.000000,0.000000,0.013502,3,0
1240000,-0.012959,31.964401,0.003896,-0.039635,25.906183,0.009478,0.004831,0.031993,1.570925,-0.064935,0.005420,0.001464,-0.000876,-0.008868,0.000085,0.000699,0.013414,0.062651,0.015222,0.203029,0.203020,0.165530,0.437697,0.000000,0.000000,0.000000,0.000000,0.000000,0.000000,0.000000,0.000000,0.000000,0.000000,0.000000,0.000000,0.061903,3,0
1250000,-0.012908,32.226208,0.002988,-0.039182,25.915085,0.008122,0.004920,0.032435,1.570923,-0.065459,0.005509,0.001775,-0.000898,-0.009003,0.000086,0.001264,0.013359,0.079739,-0.036164,0.203196,0.203185,0.165184,0.434075,0.000000,0.000000,0.000000,0.000000,0.000000,0.000000,0.000000,0.000000,0.000000,0.000000,0.000000,0.000000,0.078108,3,0
1260000,-0.012851,32.485287,0.003811,-0.038715,25.919094,0.009257,0.005004,0.032504,1.570935,-0.065437,0.005595,0.001537,-0.000921,-0.008997,0.000086,0.000148,0.013304,-0.003250,0.026910,0.203361,0.203350,0.164836,0.430541,0.000000,0.000000,0.000000,0.000000,0.000000,0.000000,0.000000,0.000000,0.000000,0.000000,0.000000,0.000000,0.013228,3,0
1270000,-0.012793,32.746407,0.003871,-0.038270,25.926565,0.009415,0.005092,0.032830,1.570935,-0.065801,0.005682,0.001542,-0.000944,-0.009093,0.000087,0.000528,0.013242,0.055695,-0.001066,0.203526,0.203514,0.164485,0.427094,0.000000,0.000000,0.000000,0.000000,0.000000,0.000000,0.000000,0.000000,0.000000,0.000000,0.000000,0.000000,0.055306,3,0
1280000,-0.012735,33.009541,0.002690,-0.037939,25.937542,0.007737,0.005182,0.033427,1.570943,-0.066537,0.005769,0.001945,-0.000966,-0.009292,0.000089,0.002414,0.013180,0.112560,-0.046190,0.203690,0.203677,0.164133,0.423733,0.000000,0.000000,0.000000,0.000000,0.000000,0.000000,0.000000,0.000000,0.000000,0.000000,0.000000,0.000000,0.109477,3,0
1290000,-0.012669,33.273289,0.004015,-0.037471,25.949442,0.009481,0.005268,0.034079,1.570948,-0.067366,0.005853,0.001518,-0.000990,-0.009516,0.000091,0.002995,0.013117,0.127621,0.046125,0.203854,0.203841,0.163778,0.420456,0.000000,0.000000,0.000000,0.000000,0.000000,0.000000,0.000000,0.000000,0.000000,0.000000,0.000000,0.000000,0.123940,3,0
1300000,-0.012604,33.533600,0.004095,-0.037036,25.955173,0.009345,0.005353,0.034270,1.570958,-0.067514,0.005938,0.001520,-0.001014,-0.009557,0.000092,0.000111,0.013048,0.022785,-0.000448,0.204019,0.204004,0.163423,0.417262,0.000000,0.000000,0.000000,0.000000,0.000000,0.000000,0.000000,0.000000,0.000000,0.000000,0.000000,0.000000,0.025364,3,0
1310000,-0.012538,33.794586,0.002844,-0.036543,25.962009,0.007834,0.005435,0.034554,1.570972,-0.067780,0.006024,0.001965,-0.001037,-0.009633,0.000092,0.000690,0.012977,0.040722,-0.049390,0.204183,0.204167,0.163066,0.414149,0.000000,0.000000,0.000000,0.000000,0.000000,0.000000,0.000000,0.000000,0.000000,0.000000,0.000000,0.000000,0.041280,3,0
1320000,-0.012468,34.057583,0.001989,-0.036007,25.972361,0.006565,0.005513,0.035093,1.570962,-0.068412,0.006108,0.002266,-0.001060,-0.009813,0.000094,0.001751,0.012906,0.097729,-0.033978,0.204348,0.204331,0.162708,0.411116,0.000000,0.000000,0.000000,0.000000,0.000000,0.000000,0.000000,0.000000,0.000000,0.000000,0.000000,0.000000,0.095215,3,0
1330000,-0.012393,34.315781,0.002437,-0.035549,25.973961,0.007148,0.005607,0.034987,1.570972,-0.068115,0.006190,0.002143,-0.001084,-0.009727,0.000094,0.000400,0.012831,-0.046101,0.013879,0.204513,0.204496,0.162350,0.408162,0.000000,0.000000,0.000000,0.000000,0.000000,0.000000,0.000000,0.000000,0.000000,0.000000,0.000000,0.000000,0.046221,3,0
1340000,-0.012317,34.578751,0.001880,-0.035024,25.984200,0.006447,0.005690,0.035518,1.570975,-0.068714,0.006273,0.002345,-0.001107,-0.009903,0.000095,0.001512,0.012751,0.093266,-0.022916,0.204680,0.204661,0.161992,0.405285,0.000000,0.000000,0.000000,0.000000,0.000000,0.000000,0.000000,0.000000,0.000000,0.000000,0.000000,0.000000,0.090918,3,0
1350000,-0.012237,34.841663,0.002138,-0.034540,25.994030,0.006701,0.005786,0.036039,1.570977,-0.069280,0.006354,0.002265,-0.001132,-0.010071,0.000097,0.001299,0.012670,0.088615,0.007577,0.204847,0.204828,0.161634,0.402483,0.000000,0.000000,0.000000,0.000000,0.000000,0.000000,0.000000,0.000000,0.000000,0.000000,0.000000,0.000000,0.086461,3,0
1360000,-0.012158,35.101131,0.001028,-0.034070,25.997683,0.005458,0.005874,0.036072,1.570991,-0.069184,0.006436,0.002677,-0.001155,-0.010043,0.000097,0.000377,0.012586,-0.015362,-0.043956,0.205016,0.204995,0.161275,0.399755,0.000000,0.000000,0.000000,0.000000,0.000000,0.000000,0.000000,0.000000,0.000000,0.000000,0.000000,0.000000,0.019187,3,0
1370000,-0.012072,35.360588,0.001949,-0.033577,26.001316,0.006533,0.005960,0.036103,1.570999,-0.069078,0.006514,0.002377,-0.001180,-0.010010,0.000097,0.000237,0.012501,-0.016445,0.032202,0.205186,0.205164,0.160918,0.397100,0.000000,0.000000,0.000000,0.000000,0.000000,0.000000,0.000000,0.000000,0.000000,0.000000,0.000000,0.000000,0.019945,3,0
1380000,-0.011987,35.622772,0.001730,-0.033155,26.009703,0.006070,0.006045,0.036515,1.570994,-0.069470,0.006593,0.002467,-0.001204,-0.010132,0.000098,0.000661,0.012411,0.062008,-0.010314,0.205357,0.205335,0.160560,0.394516,0.000000,0.000000,0.000000,0.000000,0.000000,0.000000,0.000000,0.000000,0.000000,0.000000,0.000000,0.000000,0.061071,3,0
1390000,-0.011901,35.880829,0.000576,-0.032604,26.010506,0.004511,0.006130,0.036332,1.570995,-0.069088,0.006672,0.002910,-0.001228,-0.010013,0.000097,0.000966,0.012320,-0.061108,-0.045825,0.205530,0.205506,0.160204,0.392001,0.000000,0.000000,0.000000,0.000000,0.000000,0.000000,0.000000,0.000000,0.000000,0.000000,0.000000,0.000000,0.060209,3,0
1400000,-0.011812,36.141624,0.000312,-0.032183,26.016264,0.004246,0.006215,0.036529,1.571008,-0.069206,0.006749,0.003018,-0.001252,-0.010051,0.000098,0.000102,0.012230,0.018768,-0.011566,0.205705,0.205680,0.159849,0.389555,0.000000,0.000000,0.000000,0.000000,0.000000,0.000000,0.000000,0.000000,0.000000,0.000000,0.000000,0.000000,0.021633,3,0
1410000,-0.011717,36.399658,0.001348,-0.031617,26.016933,0.005738,0.006308,0.036318,1.571010,-0.068810,0.006823,0.002673,-0.001277,-0.009922,0.000097,0.000887,0.012135,-0.063175,0.036906,0.205881,0.205854,0.159495,0.387175,0.000000,0.000000,0.000000,0.000000,0.000000,0.000000,0.000000,0.000000,0.000000,0.000000,0.000000,0.000000,0.062116,3,0
1420000,-0.011621,36.661129,0.001903,-0.031070,26.023802,0.006281,0.006406,0.036610,1.571018,-0.069037,0.006897,0.002485,-0.001302,-0.009996,0.000098,0.000297,0.012035,0.036606,0.018955,0.206059,0.206031,0.159142,0.384860,0.000000,0.000000,0.000000,0.000000,0.000000,0.000000,0.000000,0.000000,0.000000,0.000000,0.000000,0.000000,0.037212,3,0
1430000,-0.011525,36.921204,0.000818,-0.030473,26.028004,0.004820,0.006499,0.036687,1.571018,-0.069000,0.006972,0.002906,-0.001326,-0.009985,0.000098,0.000335,0.011933,-0.006268,-0.043386,0.206238,0.206210,0.158791,0.382609,0.000000,0.000000,0.000000,0.000000,0.000000,0.000000,0.000000,0.000000,0.000000,0.000000,0.000000,0.000000,0.013020,3,0
1440000,-0.011426,37.179207,0.000314,-0.029911,26.028467,0.004280,0.006592,0.036445,1.571021,-0.068586,0.007046,0.003125,-0.001350,-0.009846,0.000097,0.000833,0.011831,-0.067596,-0.021441,0.206420,0.206390,0.158442,0.380420,0.000000,0.000000,0.000000,0.000000,0.000000,0.000000,0.000000,0.000000,0.000000,0.000000,0.000000,0.000000,0.066266,3,0
1450000,-0.011321,37.439270,0.001331,-0.029426,26.032495,0.005369,0.006689,0.036498,1.571037,-0.068538,0.007116,0.002765,-0.001375,-0.009828,0.000097,0.000253,0.011727,-0.007538,0.036970,0.206603,0.206572,0.158095,0.378292,0.000000,0.000000,0.000000,0.000000,0.000000,0.000000,0.000000,0.000000,0.000000,0.000000,0.000000,0.000000,0.013455,3,0
1460000,-0.011217,37.702747,0.001459,-0.028883,26.042723,0.005327,0.006787,0.037058,1.571048,-0.069085,0.007186,0.002717,-0.001399,-0.010019,0.000099,0.001332,0.011617,0.090179,0.003454,0.206788,0.206756,0.157749,0.376224,0.000000,0.000000,0.000000,0.000000,0.000000,0.000000,0.000000,0.000000,0.000000,0.000000,0.000000,0.000000,0.087794,3,0
1470000,-0.011108,37.965466,0.002289,-0.028279,26.051533,0.006218,0.006874,0.037494,1.571052,-0.069477,0.007254,0.002411,-0.001424,-0.010155,0.000100,0.000851,0.011507,0.065144,0.030053,0.206976,0.206942,0.157406,0.374215,0.000000,0.000000,0.000000,0.000000,0.000000,0.000000,0.000000,0.000000,0.000000,0.000000,0.000000,0.000000,0.063874,3,0
1480000,-0.010999,38.223320,0.002749,-0.027796,26.051306,0.006772,0.006966,0.037181,1.571054,-0.069006,0.007322,0.002279,-0.001449,-0.009986,0.000099,0.001044,0.011393,-0.078388,0.014569,0.207164,0.207129,0.157066,0.372262,0.000000,0.000000,0.000000,0.000000,0.000000,0.000000,0.000000,0.000000,0.000000,0.000000,0.000000,0.000000,0.076475,3,0
1490000,-0.010887,38.484615,0.003984,-0.027266,26.057205,0.008075,0.007057,0.037385,1.571059,-0.069133,0.007387,0.001828,-0.001474,-0.010030,0.000100,0.000422,0.011279,0.021580,0.044870,0.207355,0.207318,0.156728,0.370364,0.000000,0.000000,0.000000,0.000000,0.000000,0.000000,0.000000,0.000000,0.000000,0.000000,0.000000,0.000000,0.023515,3,0
1500000,-0.010777,38.747952,0.003018,-0.026765,26.066923,0.006912,0.007145,0.037908,1.571068,-0.069598,0.007455,0.002212,-0.001498,-0.010204,0.000101,0.001261,0.011161,0.078289,-0.039639,0.207548,0.207510,0.156392,0.368521,0.000000,0.000000,0.000000,0.000000,0.000000,0.000000,0.000000,0.000000,0.000000,0.000000,0.000000,0.000000,0.076338,3,0
1510000,-0.010664,39.006386,0.003725,-0.026309,26.067621,0.007911,0.007234,0.037669,1.571082,-0.069210,0.007518,0.001983,-0.001523,-0.010057,0.000100,0.000811,0.011047,-0.065872,0.023922,0.207742,0.207702,0.156060,0.366732,0.000000,0.000000,0.000000,0.000000,0.000000,0.000000,0.000000,0.000000,0.000000,0.000000,0.000000,0.000000,0.064475,3,0
1520000,-0.010547,39.266884,0.004808,-0.025724,26.071995,0.009118,0.007321,0.037735,1.571089,-0.069172,0.007580,0.001595,-0.001547,-0.010041,0.000101,0.000267,0.010928,-0.006248,0.038608,0.207938,0.207897,0.155730,0.364993,0.000000,0.000000,0.000000,0.000000,0.000000,0.000000,0.000000,0.000000,0.000000,0.000000,0.000000,0.000000,0.012146,3,0
1530000,-0.010432,39.530125,0.004373,-0.025196,26.081305,0.008637,0.007416,0.038224,1.571082,-0.069584,0.007644,0.001783,-0.001571,-0.010201,0.000102,0.000897,0.010806,0.071148,-0.019845,0.208136,0.208094,0.155403,0.363305,0.000000,0.000000,0.000000,0.000000,0.000000,0.000000,0.000000,0.000000,0.000000,0.000000,0.000000,0.000000,0.069464,3,0
1540000,-0.010313,39.791901,0.004912,-0.024691,26.087688,0.009207,0.007518,0.038475,1.571083,-0.069736,0.007704,0.001598,-0.001596,-0.010260,0.000103,0.000182,0.010686,0.026485,0.017698,0.208336,0.208292,0.155079,0.361664,0.000000,0.000000,0.000000,0.000000,0.000000,0.000000,0.000000,0.000000,0.000000,0.000000,0.000000,0.000000,0.027572,3,0
1550000,-0.010192,40.054314,0.005647,-0.024055,26.095276,0.009939,0.007612,0.038805,1.571089,-0.069980,0.007763,0.001332,-0.001620,-0.010355,0.000104,0.000419,0.010561,0.042950,0.025301,0.208537,0.208491,0.154759,0.360073,0.000000,0.000000,0.000000,0.000000,0.000000,0.000000,0.000000,0.000000,0.000000,0.000000,0.000000,0.000000,0.042696,3,0
1560000,-0.010071,40.315285,0.005915,-0.023535,26.100159,0.009986,0.007707,0.038905,1.571093,-0.069975,0.007822,0.001265,-0.001644,-0.010353,0.000104,0.000025,0.010434,-0.000874,0.006584,0.208739,0.208692,0.154441,0.358528,0.000000,0.000000,0.000000,0.000000,0.000000,0.000000,0.000000,0.000000,0.000000,0.000000,0.000000,0.000000,0.010106,3,0
1570000,-0.009948,40.572758,0.005796,-0.022900,26.098412,0.009870,0.007795,0.038434,1.571111,-0.069398,0.007880,0.001383,-0.001667,-0.010117,0.000102,0.001734,0.010306,-0.102863,-0.009515,0.208943,0.208894,0.154127,0.357027,0.000000,0.000000,0.000000,0.000000,0.000000,0.000000,0.000000,0.000000,0.000000,0.000000,0.000000,0.000000,0.099782,3,0
1580000,-0.009827,40.830944,0.004783,-0.022412,26.098066,0.008554,0.007890,0.038095,1.571128,-0.068943,0.007939,0.001857,-0.001690,-0.009930,0.000101,0.001415,0.010179,-0.082012,-0.044145,0.209148,0.209098,0.153817,0.355570,0.000000,0.000000,0.000000,0.000000,0.000000,0.000000,0.000000,0.000000,0.000000,0.000000,0.000000,0.000000,0.079774,3,0
1590000,-0.009700,41.093975,0.004715,-0.021791,26.106485,0.008207,0.007973,0.038527,1.571126,-0.069260,0.007995,0.001902,-0.001714,-0.010064,0.000103,0.000551,0.010051,0.057384,-0.005418,0.209354,0.209302,0.153510,0.354155,0.000000,0.000000,0.000000,0.000000,0.000000,0.000000,0.000000,0.000000,0.000000,0.000000,0.000000,0.000000,0.056225,3,0
1600000,-0.009573,41.356239,0.004015,-0.021144,26.113447,0.007236,0.008058,0.038832,1.571128,-0.069440,0.008051,0.002212,-0.001737,-0.010144,0.000103,0.000338,0.009918,0.032818,-0.030328,0.209561,0.209508,0.153206,0.352782,0.000000,0.000000,0.000000,0.000000,0.000000,0.000000,0.000000,0.000000,0.000000,0.000000,0.000000,0.000000,0.033081,3,0
1610000,-0.009441,41.616341,0.005028,-0.020577,26.116371,0.008215,0.008151,0.038766,1.571145,-0.069272,0.008102,0.001834,-0.001760,-0.010068,0.000103,0.000385,0.009785,-0.030731,0.036653,0.209769,0.209714,0.152906,0.351450,0.000000,0.000000,0.000000,0.000000,0.000000,0.000000,0.000000,0.000000,0.000000,0.000000,0.000000,0.000000,0.031115,3,0
1620000,-0.009308,41.876411,0.005537,-0.019920,26.119041,0.008838,0.008245,0.038686,1.571145,-0.069098,0.008153,0.001669,-0.001783,-0.009990,0.000103,0.000228,0.009647,-0.032433,0.016370,0.209977,0.209921,0.152610,0.350155,0.000000,0.000000,0.000000,0.000000,0.000000,0.000000,0.000000,0.000000,0.000000,0.000000,0.000000,0.000000,0.032647,3,0
1630000,-0.009173,42.138535,0.006548,-0.019344,26.125463,0.010054,0.008345,0.038939,1.571157,-0.069232,0.008201,0.001277,-0.001807,-0.010048,0.000103,0.000336,0.009508,0.025532,0.036542,0.210186,0.210128,0.152317,0.348899,0.000000,0.000000,0.000000,0.000000,0.000000,0.000000,0.000000,0.000000,0.000000,0.000000,0.000000,0.000000,0.026298,3,0
1640000,-0.009038,42.399902,0.006704,-0.018758,26.130373,0.010325,0.008430,0.039052,1.571166,-0.069242,0.008251,0.001254,-0.001829,-0.010052,0.000104,0.000015,0.009366,0.001892,0.002125,0.210396,0.210336,0.152029,0.347679,0.000000,0.000000,0.000000,0.000000,0.000000,0.000000,0.000000,0.000000,0.000000,0.000000,0.000000,0.000000,0.009221,3,0
1650000,-0.008903,42.660530,0.005939,-0.018089,26.133900,0.009198,0.008525,0.039036,1.571169,-0.069134,0.008301,0.001627,-0.001851,-0.010004,0.000104,0.000279,0.009225,-0.020977,-0.034555,0.210606,0.210545,0.151744,0.346496,0.000000,0.000000,0.000000,0.000000,0.000000,0.000000,0.000000,0.000000,0.000000,0.000000,0.000000,0.000000,0.022123,3,0
1660000,-0.008766,42.917614,0.005607,-0.017541,26.130911,0.008668,0.008613,0.038423,1.571187,-0.068502,0.008349,0.001850,-0.001873,-0.009708,0.000102,0.002485,0.009084,-0.122612,-0.018141,0.210817,0.210754,0.151463,0.345348,0.000000,0.000000,0.000000,0.000000,0.000000,0.000000,0.000000,0.000000,0.000000,0.000000,0.000000,0.000000,0.118633,3,0
1670000,-0.008628,43.175415,0.005035,-0.016871,26.129148,0.008201,0.008700,0.037930,1.571199,-0.067985,0.008396,0.002168,-0.001895,-0.009462,0.000100,0.001787,0.008941,-0.101360,-0.027407,0.211027,0.210962,0.151185,0.344232,0.000000,0.000000,0.000000,0.000000,0.000000,0.000000,0.000000,0.000000,0.000000,0.000000,0.000000,0.000000,0.098185,3,0
1680000,-0.008485,43.435997,0.005822,-0.016284,26.132502,0.009104,0.008792,0.037896,1.571210,-0.067877,0.008439,0.001875,-0.001917,-0.009408,0.000100,0.000210,0.008796,-0.021198,0.027733,0.211238,0.211171,0.150912,0.343148,0.000000,0.000000,0.000000,0.000000,0.000000,0.000000,0.000000,0.000000,0.000000,0.000000,0.000000,0.000000,0.022134,3,0
1690000,-0.008340,43.696533,0.006842,-0.015604,26.135714,0.010381,0.008888,0.037848,1.571218,-0.067759,0.008480,0.001485,-0.001938,-0.009347,0.000100,0.000318,0.008647,-0.023388,0.036618,0.211448,0.211380,0.150643,0.342096,0.000000,0.000000,0.000000,0.000000,0.000000,0.000000,0.000000,0.000000,0.000000,0.000000,0.000000,0.000000,0.024045,3,0
1700000,-0.008198,43.958447,0.006346,-0.015089,26.141365,0.009746,0.008982,0.038028,1.571221,-0.067830,0.008523,0.001740,-0.001959,-0.009384,0.000100,0.000136,0.008497,0.014225,-0.023820,0.211658,0.211588,0.150377,0.341073,0.000000,0.000000,0.000000,0.000000,0.000000,0.000000,0.000000,0.000000,0.000000,0.000000,0.000000,0.000000,0.015981,3,0
1710000,-0.008052,44.218876,0.006910,-0.014419,26.144249,0.010392,0.009067,0.037950,1.571232,-0.067688,0.008563,0.001549,-0.001980,-0.009310,0.000100,0.000201,0.008348,-0.029079,0.018242,0.211867,0.211796,0.150116,0.340080,0.000000,0.000000,0.000000,0.000000,0.000000,0.000000,0.000000,0.000000,0.000000,0.000000,0.000000,0.000000,0.029179,3,0
1720000,-0.007905,44.480667,0.007483,-0.013797,26.149605,0.011073,0.009156,0.038102,1.571239,-0.067729,0.008601,0.001340,-0.002001,-0.009330,0.000100,0.000081,0.008196,0.008648,0.018853,0.212076,0.212003,0.149859,0.339116,0.000000,0.000000,0.000000,0.000000,0.000000,0.000000,0.000000,0.000000,0.000000,0.000000,0.000000,0.000000,0.011496,3,0
