time_us,pos_x,pos_y,pos_z,vel_x,vel_y,vel_z,roll,pitch,yaw,bias_ax,bias_ay,bias_az,bias_gx,bias_gy,bias_gz,nis,innov_x,innov_y,innov_z,cov_pos_x,cov_pos_y,cov_pos_z,cov_yaw,des_speed,des_heading,des_climb,pid_speed,pid_yaw,pid_alt,speed_meas,yaw_meas,climb_meas,fwd_accel,yaw_rate,vert_accel,drift_m,nav_mode,mission_state
0,-0.000006,0.149999,-0.000001,-0.000949,24.999802,-0.000194,-0.000009,-0.000005,1.570809,0.000000,0.000000,0.000000,0.000000,0.000000,0.000000,0.006250,0.000009,-0.250001,0.000002,2.400038,2.400038,3.600017,1.000518,0.000000,0.000000,0.000000,0.000000,0.000000,0.000000,0.000000,0.000000,0.000000,0.000000,0.000000,0.000000,0.149999,1,0
10000,-0.000018,0.382266,0.005711,-0.001897,24.999765,-0.000422,-0.000026,-0.000006,1.570814,0.000000,0.000000,-0.000000,0.000000,0.000000,0.000000,0.000483,0.000025,-0.062056,0.015242,1.714420,1.714420,2.250079,1.001073,0.000000,0.000000,0.000000,0.000000,0.000000,0.000000,0.000000,0.000000,0.000000,0.000000,0.000000,0.000000,0.044324,3,0
20000,-0.000035,0.624286,0.025636,-0.002756,24.999830,-0.000593,-0.000053,0.000003,1.570814,0.000001,0.000000,-0.000001,-0.000000,0.000000,-0.000000,0.000814,0.000045,-0.035898,0.073077,1.333616,1.333616,1.636554,1.001655,0.000000,0.000000,0.000000,0.000000,0.000000,0.000000,0.000000,0.000000,0.000000,0.000000,0.000000,0.000000,0.027919,3,0
30000,-0.000058,0.877972,0.037335,-0.003631,25.000027,-0.000600,-0.000061,0.000006,1.570822,0.000000,0.000000,-0.000001,-0.000000,-0.000000,0.000000,0.000447,0.000071,0.020266,0.054616,1.091392,1.091392,1.286065,1.002257,0.000000,0.000000,0.000000,0.000000,0.000000,0.000000,0.000000,0.000000,0.000000,0.000000,0.000000,0.000000,0.016579,3,0
40000,-0.000088,1.134884,0.043737,-0.004550,25.000368,-0.000732,-0.000082,0.000001,1.570823,-0.000001,0.000000,-0.000002,-0.000000,-0.000000,0.000000,0.000465,0.000104,0.044882,0.036308,0.923811,0.923811,1.059385,1.002869,0.000000,0.000000,0.000000,0.000000,0.000000,0.000000,0.000000,0.000000,0.000000,0.000000,0.000000,0.000000,0.037972,3,0
50000,-0.000124,1.388428,0.050496,-0.005496,25.000553,-0.000542,-0.000092,0.000011,1.570827,-0.000002,0.000000,-0.000004,-0.000000,-0.000000,0.000000,0.000389,0.000143,0.026515,0.045070,0.801036,0.801036,0.900822,1.003484,0.000000,0.000000,0.000000,0.000000,0.000000,0.000000,0.000000,0.000000,0.000000,0.000000,0.000000,0.000000,0.022975,3,0
60000,-0.000166,1.642135,0.051632,-0.006473,25.000826,-0.000848,-0.000106,0.000018,1.570821,-0.000004,0.000000,-0.000005,-0.000000,-0.000000,0.000000,0.000156,0.000189,0.031394,0.008766,0.707270,0.707270,0.783741,1.004094,0.000000,0.000000,0.000000,0.000000,0.000000,0.000000,0.000000,0.000000,0.000000,0.000000,0.000000,0.000000,0.027694,3,0
70000,-0.000214,1.883366,0.048888,-0.007272,25.000404,-0.001280,-0.000116,0.000024,1.570823,0.000002,0.000000,-0.000003,-0.000000,0.000000,-0.000000,0.001113,0.000239,-0.083164,-0.023630,0.633370,0.633370,0.693801,1.004688,0.000000,0.000000,0.000000,0.000000,0.000000,0.000000,0.000000,0.000000,0.000000,0.000000,0.000000,0.000000,0.074385,3,0
80000,-0.000267,2.125164,0.045356,-0.008111,24.999844,-0.001927,-0.000127,0.000016,1.570832,0.000011,0.000000,0.000000,-0.000000,0.000000,-0.000000,0.001282,0.000295,-0.085843,-0.033874,0.573673,0.573673,0.622594,1.005260,0.000000,0.000000,0.000000,0.000000,0.000000,0.000000,0.000000,0.000000,0.000000,0.000000,0.000000,0.000000,0.077636,3,0
90000,-0.000326,2.377802,0.050120,-0.009090,25.000198,-0.001731,-0.000145,0.000016,1.570843,0.000007,0.000000,-0.000006,-0.000000,0.000000,-0.000000,0.000529,0.000358,0.030186,0.050829,0.524488,0.524488,0.564865,1.005801,0.000000,0.000000,0.000000,0.000000,0.000000,0.000000,0.000000,0.000000,0.000000,0.000000,0.000000,0.000000,0.027549,3,0
100000,-0.000391,2.633906,0.049528,-0.009899,25.001162,-0.002075,-0.000152,0.000019,1.570842,-0.000004,0.000000,-0.000005,-0.000000,-0.000000,0.000000,0.000885,0.000425,0.075727,-0.006632,0.483303,0.483303,0.517162,1.006302,0.000000,0.000000,0.000000,0.000000,0.000000,0.000000,0.000000,0.000000,0.000000,0.000000,0.000000,0.000000,0.069628,3,0
110000,-0.000462,2.882323,0.046062,-0.010782,25.001038,-0.002768,-0.000174,0.000021,1.570854,-0.000000,0.000000,0.000003,-0.000000,-0.000000,0.000000,0.000358,0.000499,-0.021355,-0.043291,0.448353,0.448353,0.477121,1.006755,0.000000,0.000000,0.000000,0.000000,0.000000,0.000000,0.000000,0.000000,0.000000,0.000000,0.000000,0.000000,0.019764,3,0
120000,-0.000538,3.132929,0.046646,-0.011680,25.001194,-0.002853,-0.000193,0.000016,1.570862,-0.000002,0.000000,0.000001,-0.000000,-0.000000,0.000000,0.000022,0.000579,0.008535,0.008299,0.418358,0.418358,0.443071,1.007151,0.000000,0.000000,0.000000,0.000000,0.000000,0.000000,0.000000,0.000000,0.000000,0.000000,0.000000,0.000000,0.007958,3,0
130000,-0.000621,3.387912,0.045588,-0.012616,25.002285,-0.003350,-0.000212,0.000030,1.570860,-0.000022,0.000001,0.000005,-0.000000,-0.000000,0.000000,0.000934,0.000665,0.075989,-0.014882,0.392369,0.392369,0.413797,1.007482,0.000000,0.000000,0.000000,0.000000,0.000000,0.000000,0.000000,0.000000,0.000000,0.000000,0.000000,0.000000,0.071022,3,0
140000,-0.000709,3.642830,0.044363,-0.013424,25.003489,-0.003640,-0.000234,0.000041,1.570855,-0.000045,0.000001,0.000010,-0.000000,-0.000001,0.000000,0.001039,0.000755,0.079421,-0.018399,0.369666,0.369666,0.388393,1.007740,0.000000,0.000000,0.000000,0.000000,0.000000,0.000000,0.000000,0.000000,0.000000,0.000000,0.000000,0.000000,0.074531,3,0
150000,-0.000802,3.890747,0.043815,-0.014220,25.003109,-0.004055,-0.000243,0.000045,1.570860,-0.000033,0.000001,0.000013,-0.000000,-0.000001,0.000000,0.000218,0.000851,-0.036356,-0.008318,0.349695,0.349695,0.366172,1.007917,0.000000,0.000000,0.000000,0.000000,0.000000,0.000000,0.000000,0.000000,0.000000,0.000000,0.000000,0.000000,0.034247,3,0
160000,-0.000899,4.141549,0.045037,-0.015030,25.003405,-0.003855,-0.000265,0.000049,1.570863,-0.000038,0.000001,0.000005,-0.000000,-0.000001,0.000000,0.000106,0.000952,0.013915,0.021866,0.332020,0.332020,0.346600,1.008004,0.000000,0.000000,0.000000,0.000000,0.000000,0.000000,0.000000,0.000000,0.000000,0.000000,0.000000,0.000000,0.013175,3,0
170000,-0.001003,4.396911,0.045973,-0.015931,25.005041,-0.003654,-0.000287,0.000068,1.570872,-0.000081,0.000002,-0.000003,-0.000000,-0.000002,0.000000,0.001662,0.001059,0.101051,0.017776,0.316297,0.316297,0.329260,1.007993,0.000000,0.000000,0.000000,0.000000,0.000000,0.000000,0.000000,0.000000,0.000000,0.000000,0.000000,0.000000,0.095729,3,0
180000,-0.001112,4.649202,0.044866,-0.016790,25.005886,-0.003997,-0.000308,0.000069,1.570866,-0.000103,0.000002,0.000007,-0.000000,-0.000002,0.000000,0.000379,0.001171,0.044461,-0.020474,0.302246,0.302246,0.313817,1.007877,0.000000,0.000000,0.000000,0.000000,0.000000,0.000000,0.000000,0.000000,0.000000,0.000000,0.000000,0.000000,0.042236,3,0
190000,-0.001226,4.906503,0.045656,-0.017634,25.008629,-0.003923,-0.000330,0.000100,1.570862,-0.000182,0.000003,-0.000002,-0.000000,-0.000004,0.000000,0.003612,0.001289,0.149982,0.016645,0.289641,0.289641,0.300003,1.007648,0.000000,0.000000,0.000000,0.000000,0.000000,0.000000,0.000000,0.000000,0.000000,0.000000,0.000000,0.000000,0.142747,3,0
200000,-0.001347,5.162676,0.045507,-0.018616,25.011152,-0.004320,-0.000344,0.000125,1.570856,-0.000258,0.000004,-0.000001,-0.000000,-0.000006,0.000000,0.002737,0.001413,0.131201,-0.002213,0.278295,0.278295,0.287598,1.007298,0.000000,0.000000,0.000000,0.000000,0.000000,0.000000,0.000000,0.000000,0.000000,0.000000,0.000000,0.000000,0.125123,3,0
210000,-0.001474,5.416086,0.047070,-0.019547,25.012770,-0.004008,-0.000366,0.000135,1.570859,-0.000306,0.000005,-0.000023,-0.000000,-0.000008,0.000000,0.001061,0.001543,0.073792,0.034929,0.268053,0.268053,0.276421,1.006819,0.000000,0.000000,0.000000,0.000000,0.000000,0.000000,0.000000,0.000000,0.000000,0.000000,0.000000,0.000000,0.070510,3,0
220000,-0.001607,5.672185,0.047757,-0.020458,25.015623,-0.003805,-0.000382,0.000159,1.570862,-0.000402,0.000006,-0.000034,-0.000000,-0.000011,0.000000,0.003099,0.001679,0.138429,0.016414,0.258786,0.258787,0.266321,1.006206,0.000000,0.000000,0.000000,0.000000,0.000000,0.000000,0.000000,0.000000,0.000000,0.000000,0.000000,0.000000,0.132468,3,0
230000,-0.001744,5.924067,0.048629,-0.021290,25.016605,-0.003665,-0.000389,0.000178,1.570858,-0.000434,0.000008,-0.000050,-0.000000,-0.000012,0.000000,0.000346,0.001820,0.041332,0.021303,0.250385,0.250385,0.257172,1.005450,0.000000,0.000000,0.000000,0.000000,0.000000,0.000000,0.000000,0.000000,0.000000,0.000000,0.000000,0.000000,0.039646,3,0
240000,-0.001887,6.176172,0.048995,-0.022207,25.017851,-0.003541,-0.000415,0.000186,1.570860,-0.000473,0.000009,-0.000058,-0.000000,-0.000013,0.000000,0.000382,0.001966,0.047865,0.009710,0.242755,0.242755,0.248866,1.004545,0.000000,0.000000,0.000000,0.000000,0.000000,0.000000,0.000000,0.000000,0.000000,0.000000,0.000000,0.000000,0.045968,3,0
250000,-0.002035,6.427700,0.050077,-0.023130,25.018721,-0.003281,-0.000436,0.000205,1.570865,-0.000504,0.000011,-0.000082,-0.000000,-0.000014,0.000000,0.000313,0.002119,0.034296,0.027867,0.235818,0.235818,0.241314,1.003485,0.000000,0.000000,0.000000,0.000000,0.000000,0.000000,0.000000,0.000000,0.000000,0.000000,0.000000,0.000000,0.033011,3,0
260000,-0.002189,6.680984,0.049100,-0.023971,25.020735,-0.003849,-0.000449,0.000224,1.570871,-0.000582,0.000013,-0.000059,-0.000000,-0.000017,0.000000,0.001144,0.002276,0.080944,-0.024145,0.229504,0.229504,0.234436,1.002263,0.000000,0.000000,0.000000,0.000000,0.000000,0.000000,0.000000,0.000000,0.000000,0.000000,0.000000,0.000000,0.077878,3,0
270000,-0.002346,6.932920,0.047258,-0.024791,25.022097,-0.004987,-0.000460,0.000244,1.570882,-0.000629,0.000016,-0.000011,-0.000000,-0.000019,0.000000,0.000706,0.002437,0.046306,-0.047419,0.223754,0.223754,0.228165,1.000874,0.000000,0.000000,0.000000,0.000000,0.000000,0.000000,0.000000,0.000000,0.000000,0.000000,0.000000,0.000000,0.044641,3,0
280000,-0.002509,7.187238,0.046192,-0.025711,25.025137,-0.005724,-0.000476,0.000285,1.570875,-0.000753,0.000019,0.000019,-0.000001,-0.000024,0.000000,0.002151,0.002604,0.112418,-0.027396,0.218515,0.218516,0.222443,0.999312,0.000000,0.000000,0.000000,0.000000,0.000000,0.000000,0.000000,0.000000,0.000000,0.000000,0.000000,0.000000,0.108353,3,0
290000,-0.002678,7.443058,0.045072,-0.026658,25.029411,-0.006718,-0.000501,0.000338,1.570868,-0.000938,0.000022,0.000053,-0.000001,-0.000031,0.000000,0.004063,0.002776,0.156255,-0.029272,0.213743,0.213744,0.217219,0.997573,0.000000,0.000000,0.000000,0.000000,0.000000,0.000000,0.000000,0.000000,0.000000,0.000000,0.000000,0.000000,0.150712,3,0
300000,-0.002851,7.695428,0.045977,-0.027533,25.031200,-0.006099,-0.000510,0.000361,1.570865,-0.001012,0.000026,0.000019,-0.000001,-0.000035,0.000000,0.000691,0.002954,0.059423,0.027490,0.209398,0.209398,0.212446,0.995651,0.000000,0.000000,0.000000,0.000000,0.000000,0.000000,0.000000,0.000000,0.000000,0.000000,0.000000,0.000000,0.057420,3,0
310000,-0.003027,7.947983,0.045484,-0.028286,25.033142,-0.006716,-0.000520,0.000387,1.570872,-0.001100,0.000030,0.000035,-0.000001,-0.000039,0.000000,0.000716,0.003134,0.065462,-0.012388,0.205443,0.205443,0.208087,0.993542,0.000000,0.000000,0.000000,0.000000,0.000000,0.000000,0.000000,0.000000,0.000000,0.000000,0.000000,0.000000,0.063292,3,0
320000,-0.003207,8.200047,0.047130,-0.029122,25.034800,-0.005719,-0.000527,0.000419,1.570881,-0.001172,0.000035,-0.000036,-0.000001,-0.000042,0.000000,0.000838,0.003319,0.051434,0.050464,0.201847,0.201847,0.204105,0.991243,0.000000,0.000000,0.000000,0.000000,0.000000,0.000000,0.000000,0.000000,0.000000,0.000000,0.000000,0.000000,0.049807,3,0
330000,-0.003392,8.457571,0.047336,-0.029917,25.041260,-0.005780,-0.000541,0.000532,1.570876,-0.001497,0.000040,-0.000047,-0.000002,-0.000057,0.000001,0.007588,0.003508,0.216812,0.007978,0.198581,0.198581,0.200469,0.988750,0.000000,0.000000,0.000000,0.000000,0.000000,0.000000,0.000000,0.000000,0.000000,0.000000,0.000000,0.000000,0.209664,3,0
340000,-0.003579,8.712489,0.048028,-0.030703,25.045679,-0.005495,-0.000552,0.000597,1.570881,-0.001716,0.000046,-0.000083,-0.000002,-0.000068,0.000001,0.003163,0.003700,0.138132,0.022913,0.195621,0.195621,0.197151,0.986060,0.000000,0.000000,0.000000,0.000000,0.000000,0.000000,0.000000,0.000000,0.000000,0.000000,0.000000,0.000000,0.133677,3,0
350000,-0.003770,8.966863,0.048298,-0.031537,25.049751,-0.005312,-0.000572,0.000674,1.570884,-0.001919,0.000052,-0.000100,-0.000002,-0.000078,0.000001,0.002409,0.003896,0.121716,0.010076,0.192943,0.192943,0.194125,0.983171,0.000000,0.000000,0.000000,0.000000,0.000000,0.000000,0.000000,0.000000,0.000000,0.000000,0.000000,0.000000,0.117862,3,0
360000,-0.003965,9.223249,0.048346,-0.032332,25.055920,-0.005503,-0.000578,0.000776,1.570887,-0.002244,0.000059,-0.000106,-0.000003,-0.000095,0.000001,0.005549,0.004095,0.185365,0.003280,0.190526,0.190526,0.191370,0.980080,0.000000,0.000000,0.000000,0.000000,0.000000,0.000000,0.000000,0.000000,0.000000,0.000000,0.000000,0.000000,0.179522,3,0
370000,-0.004163,9.476573,0.048152,-0.033157,25.059116,-0.005972,-0.000583,0.000839,1.570887,-0.002406,0.000067,-0.000098,-0.000003,-0.000104,0.000001,0.001255,0.004298,0.087947,-0.004309,0.188352,0.188352,0.188863,0.976787,0.000000,0.000000,0.000000,0.000000,0.000000,0.000000,0.000000,0.000000,0.000000,0.000000,0.000000,0.000000,0.085288,3,0
380000,-0.004364,9.729440,0.049650,-0.033983,25.061903,-0.004710,-0.000605,0.000896,1.570895,-0.002548,0.000076,-0.000195,-0.000004,-0.000111,0.000001,0.001273,0.004504,0.073138,0.050165,0.186403,0.186403,0.186586,0.973290,0.000000,0.000000,0.000000,0.000000,0.000000,0.000000,0.000000,0.000000,0.000000,0.000000,0.000000,0.000000,0.071000,3,0
390000,-0.004567,9.982482,0.051082,-0.034665,25.064751,-0.003378,-0.000619,0.000955,1.570891,-0.002707,0.000086,-0.000292,-0.000004,-0.000120,0.000001,0.001378,0.004713,0.078671,0.048166,0.184663,0.184664,0.184523,0.969589,0.000000,0.000000,0.000000,0.000000,0.000000,0.000000,0.000000,0.000000,0.000000,0.000000,0.000000,0.000000,0.076387,3,0
400000,-0.004773,10.236909,0.050255,-0.035369,25.069256,-0.004473,-0.000630,0.001045,1.570894,-0.002969,0.000096,-0.000237,-0.000005,-0.000136,0.000001,0.002589,0.004923,0.123784,-0.025959,0.183119,0.183119,0.182656,0.965684,0.000000,0.000000,0.000000,0.000000,0.000000,0.000000,0.000000,0.000000,0.000000,0.000000,0.000000,0.000000,0.120101,3,0
410000,-0.004981,10.490871,0.049305,-0.036229,25.073359,-0.005777,-0.000642,0.001135,1.570901,-0.003207,0.000107,-0.000171,-0.000005,-0.000150,0.000001,0.002029,0.005137,0.107859,-0.029919,0.181755,0.181756,0.180971,0.961576,0.000000,0.000000,0.000000,0.000000,0.000000,0.000000,0.000000,0.000000,0.000000,0.000000,0.000000,0.000000,0.104710,3,0
420000,-0.005192,10.744987,0.049114,-0.037036,25.077696,-0.006161,-0.000648,0.001216,1.570905,-0.003466,0.000120,-0.000161,-0.000006,-0.000166,0.000002,0.002046,0.005354,0.112281,-0.004353,0.180561,0.180562,0.179456,0.957265,0.000000,0.000000,0.000000,0.000000,0.000000,0.000000,0.000000,0.000000,0.000000,0.000000,0.000000,0.000000,0.109026,3,0
430000,-0.005406,11.002229,0.048302,-0.037853,25.086128,-0.007282,-0.000668,0.001400,1.570902,-0.003984,0.000133,-0.000101,-0.000007,-0.000198,0.000002,0.007647,0.005573,0.215940,-0.025200,0.179524,0.179525,0.178097,0.952753,0.000000,0.000000,0.000000,0.000000,0.000000,0.000000,0.000000,0.000000,0.000000,0.000000,0.000000,0.000000,0.209549,3,0
440000,-0.005621,11.260738,0.046947,-0.038506,25.096144,-0.008835,-0.000681,0.001624,1.570901,-0.004624,0.000148,0.000008,-0.000008,-0.000239,0.000002,0.010975,0.005794,0.256800,-0.043467,0.178633,0.178634,0.176883,0.948043,0.000000,0.000000,0.000000,0.000000,0.000000,0.000000,0.000000,0.000000,0.000000,0.000000,0.000000,0.000000,0.249217,3,0
450000,-0.005837,11.518721,0.045799,-0.039127,25.105631,-0.010351,-0.000689,0.001826,1.570894,-0.005238,0.000163,0.000101,-0.000009,-0.000280,0.000003,0.009280,0.006015,0.236737,-0.036082,0.177879,0.177880,0.175803,0.943137,0.000000,0.000000,0.000000,0.000000,0.000000,0.000000,0.000000,0.000000,0.000000,0.000000,0.000000,0.000000,0.229793,3,0
460000,-0.006054,11.775023,0.044683,-0.039911,25.112986,-0.011954,-0.000699,0.001986,1.570888,-0.005714,0.000180,0.000194,-0.000010,-0.000312,0.000003,0.005293,0.006238,0.177448,-0.034599,0.177252,0.177253,0.174847,0.938039,0.000000,0.000000,0.000000,0.000000,0.000000,0.000000,0.000000,0.000000,0.000000,0.000000,0.000000,0.000000,0.172312,3,0
470000,-0.006272,12.029102,0.044650,-0.040582,25.117466,-0.012183,-0.000713,0.002093,1.570883,-0.005993,0.000198,0.000185,-0.000011,-0.000331,0.000003,0.001625,0.006463,0.099982,0.003110,0.176743,0.176744,0.174007,0.932751,0.000000,0.000000,0.000000,0.000000,0.000000,0.000000,0.000000,0.000000,0.000000,0.000000,0.000000,0.000000,0.097240,3,0
480000,-0.006491,12.285682,0.044829,-0.041298,25.125341,-0.011855,-0.000727,0.002274,1.570875,-0.006522,0.000217,0.000155,-0.000012,-0.000369,0.000003,0.005490,0.006688,0.183800,0.010409,0.176343,0.176345,0.173272,0.927278,0.000000,0.000000,0.000000,0.000000,0.000000,0.000000,0.000000,0.000000,0.000000,0.000000,0.000000,0.000000,0.178516,3,0
490000,-0.006712,12.541800,0.043376,-0.042032,25.132566,-0.013926,-0.000738,0.002442,1.570881,-0.007016,0.000238,0.000293,-0.000014,-0.000405,0.000004,0.004795,0.006915,0.165689,-0.046230,0.176046,0.176047,0.172634,0.921625,0.000000,0.000000,0.000000,0.000000,0.000000,0.000000,0.000000,0.000000,0.000000,0.000000,0.000000,0.000000,0.160968,3,0
500000,-0.006932,12.799217,0.044715,-0.042633,25.141775,-0.012202,-0.000754,0.002677,1.570875,-0.007654,0.000260,0.000133,-0.000016,-0.000452,0.000004,0.007417,0.007141,0.207681,0.051618,0.175843,0.175844,0.172087,0.915796,0.000000,0.000000,0.000000,0.000000,0.000000,0.000000,0.000000,0.000000,0.000000,0.000000,0.000000,0.000000,0.201713,3,0
510000,-0.007152,13.055584,0.043679,-0.043270,25.149424,-0.013551,-0.000760,0.002876,1.570873,-0.008190,0.000283,0.000235,-0.000017,-0.000492,0.000005,0.004786,0.007367,0.168840,-0.031905,0.175727,0.175728,0.171623,0.909798,0.000000,0.000000,0.000000,0.000000,0.000000,0.000000,0.000000,0.000000,0.000000,0.000000,0.000000,0.000000,0.164052,3,0
520000,-0.007372,13.313250,0.043600,-0.043965,25.159054,-0.013787,-0.000767,0.003116,1.570878,-0.008878,0.000308,0.000228,-0.000019,-0.000546,0.000005,0.007184,0.007595,0.210580,0.002113,0.175692,0.175693,0.171234,0.903634,0.000000,0.000000,0.000000,0.000000,0.000000,0.000000,0.000000,0.000000,0.000000,0.000000,0.000000,0.000000,0.204546,3,0
530000,-0.007593,13.571614,0.042398,-0.044612,25.169727,-0.015438,-0.000772,0.003388,1.570872,-0.009656,0.000334,0.000354,-0.000021,-0.000607,0.000006,0.008877,0.007822,0.231123,-0.037289,0.175731,0.175733,0.170915,0.897313,0.000000,0.000000,0.000000,0.000000,0.000000,0.000000,0.000000,0.000000,0.000000,0.000000,0.000000,0.000000,0.224482,3,0
540000,-0.007812,13.828924,0.043525,-0.045156,25.178885,-0.013910,-0.000776,0.003622,1.570860,-0.010318,0.000362,0.000196,-0.000024,-0.000661,0.000006,0.006262,0.008048,0.191318,0.045157,0.175839,0.175840,0.170659,0.890840,0.000000,0.000000,0.000000,0.000000,0.000000,0.000000,0.000000,0.000000,0.000000,0.000000,0.000000,0.000000,0.185875,3,0
550000,-0.008030,14.088693,0.042825,-0.045679,25.191769,-0.014816,-0.000780,0.003965,1.570851,-0.011285,0.000392,0.000267,-0.000026,-0.000740,0.000007,0.012030,0.008273,0.271859,-0.019703,0.176009,0.176011,0.170460,0.884221,0.000000,0.000000,0.000000,0.000000,0.000000,0.000000,0.000000,0.000000,0.000000,0.000000,0.000000,0.000000,0.264007,3,0
560000,-0.008246,14.343888,0.042835,-0.046185,25.197573,-0.014887,-0.000780,0.004119,1.570843,-0.011692,0.000423,0.000246,-0.000029,-0.000774,0.000007,0.002023,0.008496,0.111355,0.005689,0.176237,0.176239,0.170314,0.877465,0.000000,0.000000,0.000000,0.000000,0.000000,0.000000,0.000000,0.000000,0.000000,0.000000,0.000000,0.000000,0.108398,3,0
570000,-0.008462,14.601579,0.042563,-0.046795,25.207222,-0.015301,-0.000791,0.004398,1.570833,-0.012419,0.000456,0.000261,-0.000031,-0.000837,0.000008,0.006106,0.008718,0.194044,-0.004245,0.176516,0.176519,0.170215,0.870577,0.000000,0.000000,0.000000,0.000000,0.000000,0.000000,0.000000,0.000000,0.000000,0.000000,0.000000,0.000000,0.188525,3,0
580000,-0.008675,14.858224,0.043364,-0.047306,25.215183,-0.014125,-0.000794,0.004620,1.570839,-0.013014,0.000490,0.000130,-0.000034,-0.000889,0.000008,0.004079,0.008939,0.154923,0.033698,0.176844,0.176846,0.170158,0.863566,0.000000,0.000000,0.000000,0.000000,0.000000,0.000000,0.000000,0.000000,0.000000,0.000000,0.000000,0.000000,0.150607,3,0
590000,-0.008888,15.116182,0.042574,-0.047840,25.225166,-0.015311,-0.000788,0.004904,1.570825,-0.013787,0.000526,0.000220,-0.000038,-0.000958,0.000009,0.006335,0.009158,0.196383,-0.022761,0.177213,0.177216,0.170138,0.856440,0.000000,0.000000,0.000000,0.000000,0.000000,0.000000,0.000000,0.000000,0.000000,0.000000,0.000000,0.000000,0.190790,3,0
600000,-0.009100,15.372499,0.041266,-0.048435,25.232464,-0.017153,-0.000785,0.005116,1.570827,-0.014339,0.000564,0.000387,-0.000041,-0.001008,0.000009,0.003322,0.009377,0.137115,-0.040645,0.177622,0.177624,0.170153,0.849205,0.000000,0.000000,0.000000,0.000000,0.000000,0.000000,0.000000,0.000000,0.000000,0.000000,0.000000,0.000000,0.133366,3,0
610000,-0.009309,15.630732,0.042122,-0.048949,25.242971,-0.015847,-0.000783,0.005436,1.570829,-0.015157,0.000603,0.000234,-0.000045,-0.001084,0.000010,0.006619,0.009594,0.198786,0.036305,0.178064,0.178066,0.170196,0.841871,0.000000,0.000000,0.000000,0.000000,0.000000,0.000000,0.000000,0.000000,0.000000,0.000000,0.000000,0.000000,0.193111,3,0
620000,-0.009516,15.889678,0.041938,-0.049458,25.254450,-0.016217,-0.000781,0.005793,1.570825,-0.016077,0.000645,0.000237,-0.000049,-0.001171,0.000011,0.007754,0.009808,0.218755,-0.000770,0.178536,0.178539,0.170265,0.834444,0.000000,0.000000,0.000000,0.000000,0.000000,0.000000,0.000000,0.000000,0.000000,0.000000,0.000000,0.000000,0.212458,3,0
630000,-0.009721,16.149332,0.042764,-0.049983,25.267103,-0.014883,-0.000773,0.006195,1.570811,-0.017100,0.000688,0.000083,-0.000053,-0.001269,0.000012,0.009372,0.010021,0.237995,0.034854,0.179036,0.179038,0.170356,0.826934,0.000000,0.000000,0.000000,0.000000,0.000000,0.000000,0.000000,0.000000,0.000000,0.000000,0.000000,0.000000,0.231099,3,0
640000,-0.009924,16.406713,0.042942,-0.050418,25.275837,-0.014691,-0.000763,0.006469,1.570801,-0.017788,0.000733,0.000030,-0.000057,-0.001337,0.000012,0.004030,0.010231,0.157125,0.011614,0.179558,0.179561,0.170466,0.819348,0.000000,0.000000,0.000000,0.000000,0.000000,0.000000,0.000000,0.000000,0.000000,0.000000,0.000000,0.000000,0.152747,3,0
650000,-0.010124,16.663033,0.043069,-0.050778,25.282681,-0.014517,-0.000769,0.006683,1.570802,-0.018317,0.000779,-0.000015,-0.000062,-0.001390,0.000013,0.002296,0.010437,0.118324,0.009731,0.180100,0.180103,0.170592,0.811695,0.000000,0.000000,0.000000,0.000000,0.000000,0.000000,0.000000,0.000000,0.000000,0.000000,0.000000,0.000000,0.115218,3,0
660000,-0.010321,16.922485,0.044408,-0.051251,25.294859,-0.012402,-0.000767,0.007079,1.570786,-0.019317,0.000828,-0.000260,-0.000067,-0.001492,0.000014,0.008266,0.010642,0.219757,0.052196,0.180659,0.180662,0.170730,0.803982,0.000000,0.000000,0.000000,0.000000,0.000000,0.000000,0.000000,0.000000,0.000000,0.000000,0.000000,0.000000,0.213390,3,0
670000,-0.010515,17.183847,0.043969,-0.051587,25.310150,-0.013125,-0.000771,0.007577,1.570768,-0.020607,0.000878,-0.000209,-0.000072,-0.001626,0.000015,0.012552,0.010842,0.278246,-0.010925,0.181232,0.181235,0.170878,0.796217,0.000000,0.000000,0.000000,0.000000,0.000000,0.000000,0.000000,0.000000,0.000000,0.000000,0.000000,0.000000,0.270047,3,0
680000,-0.010707,17.444094,0.042840,-0.052050,25.323385,-0.014703,-0.000766,0.008025,1.570748,-0.021718,0.000931,-0.000039,-0.000078,-0.001743,0.000016,0.009173,0.011041,0.235395,-0.034937,0.181815,0.181819,0.171034,0.788410,0.000000,0.000000,0.000000,0.000000,0.000000,0.000000,0.000000,0.000000,0.000000,0.000000,0.000000,0.000000,0.228513,3,0
690000,-0.010895,17.701416,0.043315,-0.052416,25.331533,-0.013865,-0.000751,0.008293,1.570741,-0.022361,0.000984,-0.000148,-0.000084,-0.001812,0.000017,0.003001,0.011237,0.134047,0.021851,0.182408,0.182411,0.171194,0.780566,0.000000,0.000000,0.000000,0.000000,0.000000,0.000000,0.000000,0.000000,0.000000,0.000000,0.000000,0.000000,0.130426,3,0
700000,-0.011081,17.960075,0.042483,-0.052851,25.341831,-0.014927,-0.000736,0.008646,1.570737,-0.023214,0.001040,-0.000027,-0.000090,-0.001905,0.000018,0.005055,0.011429,0.174829,-0.024255,0.183006,0.183010,0.171358,0.772696,0.000000,0.000000,0.000000,0.000000,0.000000,0.000000,0.000000,0.000000,0.000000,0.000000,0.000000,0.000000,0.169858,3,0
710000,-0.011265,18.218239,0.041304,-0.053220,25.351252,-0.016855,-0.000722,0.008971,1.570740,-0.023980,0.001098,0.000157,-0.000096,-0.001991,0.000019,0.004092,0.011620,0.154612,-0.035881,0.183608,0.183612,0.171523,0.764805,0.000000,0.000000,0.000000,0.000000,0.000000,0.000000,0.000000,0.000000,0.000000,0.000000,0.000000,0.000000,0.150302,3,0
720000,-0.011442,18.478956,0.042534,-0.053460,25.364887,-0.014920,-0.000707,0.009446,1.570722,-0.025158,0.001157,-0.000100,-0.000103,-0.002124,0.000020,0.009279,0.011806,0.234297,0.048984,0.184213,0.184217,0.171686,0.756901,0.000000,0.000000,0.000000,0.000000,0.000000,0.000000,0.000000,0.000000,0.000000,0.000000,0.000000,0.000000,0.227392,3,0
730000,-0.011616,18.737310,0.042943,-0.053669,25.374350,-0.014377,-0.000698,0.009782,1.570710,-0.025935,0.001219,-0.000206,-0.000110,-0.002214,0.000021,0.003835,0.011985,0.152351,0.019617,0.184817,0.184821,0.171847,0.748993,0.000000,0.000000,0.000000,0.000000,0.000000,0.000000,0.000000,0.000000,0.000000,0.000000,0.000000,0.000000,0.148115,3,0
740000,-0.011786,18.999462,0.042718,-0.053977,25.390371,-0.014747,-0.000693,0.010367,1.570701,-0.027341,0.001282,-0.000193,-0.000117,-0.002378,0.000022,0.011940,0.012162,0.271603,-0.002690,0.185420,0.185424,0.172004,0.741086,0.000000,0.000000,0.000000,0.000000,0.000000,0.000000,0.000000,0.000000,0.000000,0.000000,0.000000,0.000000,0.263472,3,0
750000,-0.011952,19.259830,0.044150,-0.054255,25.402943,-0.012536,-0.000674,0.010835,1.570696,-0.028432,0.001346,-0.000498,-0.000125,-0.002508,0.000023,0.007509,0.012335,0.208078,0.055114,0.186019,0.186023,0.172156,0.733189,0.000000,0.000000,0.000000,0.000000,0.000000,0.000000,0.000000,0.000000,0.000000,0.000000,0.000000,0.000000,0.201982,3,0
760000,-0.012114,19.521519,0.043555,-0.054438,25.417665,-0.013596,-0.000669,0.011392,1.570682,-0.029738,0.001413,-0.000409,-0.000133,-0.002667,0.000025,0.009821,0.012503,0.245768,-0.016174,0.186614,0.186618,0.172300,0.725306,0.000000,0.000000,0.000000,0.000000,0.000000,0.000000,0.000000,0.000000,0.000000,0.000000,0.000000,0.000000,0.238431,3,0
770000,-0.012272,19.780170,0.044979,-0.054684,25.427000,-0.011416,-0.000649,0.011741,1.570678,-0.030507,0.001481,-0.000719,-0.000142,-0.002762,0.000026,0.003805,0.012668,0.142963,0.054382,0.187202,0.187206,0.172437,0.717446,0.000000,0.000000,0.000000,0.000000,0.000000,0.000000,0.000000,0.000000,0.000000,0.000000,0.000000,0.000000,0.139047,3,0
780000,-0.012428,20.037676,0.043577,-0.054977,25.434233,-0.013728,-0.000630,0.012004,1.570672,-0.031067,0.001551,-0.000463,-0.000151,-0.002832,0.000027,0.002058,0.012828,0.102886,-0.044627,0.187783,0.187788,0.172564,0.709615,0.000000,0.000000,0.000000,0.000000,0.000000,0.000000,0.000000,0.000000,0.000000,0.000000,0.000000,0.000000,0.100438,3,0
790000,-0.012580,20.298412,0.043737,-0.055285,25.447104,-0.013480,-0.000611,0.012492,1.570666,-0.032186,0.001623,-0.000526,-0.000160,-0.002975,0.000028,0.006706,0.012988,0.203127,0.010449,0.188356,0.188361,0.172681,0.701818,0.000000,0.000000,0.000000,0.000000,0.000000,0.000000,0.000000,0.000000,0.000000,0.000000,0.000000,0.000000,0.197152,3,0
800000,-0.012727,20.558594,0.044700,-0.055451,25.458727,-0.012054,-0.000588,0.012937,1.570649,-0.033193,0.001696,-0.000754,-0.000170,-0.003105,0.000029,0.005541,0.013142,0.180809,0.038210,0.188920,0.188924,0.172788,0.694061,0.000000,0.000000,0.000000,0.000000,0.000000,0.000000,0.000000,0.000000,0.000000,0.000000,0.000000,0.000000,0.175577,3,0
810000,-0.012870,20.819477,0.045606,-0.055657,25.471518,-0.010727,-0.000565,0.013444,1.570640,-0.034311,0.001771,-0.000970,-0.000180,-0.003252,0.000031,0.006616,0.013291,0.198816,0.035774,0.189473,0.189478,0.172883,0.686350,0.000000,0.000000,0.000000,0.000000,0.000000,0.000000,0.000000,0.000000,0.000000,0.000000,0.000000,0.000000,0.192967,3,0
820000,-0.013009,21.077278,0.046479,-0.055799,25.478762,-0.009603,-0.000549,0.013709,1.570628,-0.034862,0.001847,-0.001179,-0.000190,-0.003326,0.000031,0.001731,0.013436,0.096834,0.034119,0.190016,0.190020,0.172966,0.678690,0.000000,0.000000,0.000000,0.000000,0.000000,0.000000,0.000000,0.000000,0.000000,0.000000,0.000000,0.000000,0.094665,3,0
830000,-0.013147,21.335178,0.045102,-0.056032,25.486111,-0.011594,-0.000533,0.013974,1.570620,-0.035421,0.001925,-0.000907,-0.000200,-0.003402,0.000032,0.001879,0.013577,0.097387,-0.044360,0.190547,0.190552,0.173036,0.671086,0.000000,0.000000,0.000000,0.000000,0.000000,0.000000,0.000000,0.000000,0.000000,0.000000,0.000000,0.000000,0.095206,3,0
840000,-0.013280,21.596338,0.044736,-0.056200,25.498945,-0.012321,-0.000513,0.014496,1.570605,-0.036564,0.002005,-0.000856,-0.000211,-0.003560,0.000034,0.006319,0.013717,0.197235,-0.008469,0.191066,0.191071,0.173093,0.663542,0.000000,0.000000,0.000000,0.000000,0.000000,0.000000,0.000000,0.000000,0.000000,0.000000,0.000000,0.000000,0.191415,3,0
850000,-0.013411,21.858189,0.043348,-0.056403,25.512949,-0.014233,-0.000487,0.015086,1.570591,-0.037818,0.002086,-0.000583,-0.000222,-0.003737,0.000035,0.007747,0.013852,0.214251,-0.043740,0.191573,0.191578,0.173137,0.656063,0.000000,0.000000,0.000000,0.000000,0.000000,0.000000,0.000000,0.000000,0.000000,0.000000,0.000000,0.000000,0.207842,3,0
860000,-0.013536,22.119444,0.042934,-0.056451,25.525608,-0.014758,-0.000460,0.015613,1.570584,-0.038943,0.002168,-0.000526,-0.000234,-0.003897,0.000037,0.005919,0.013983,0.190807,-0.009283,0.192067,0.192072,0.173167,0.648654,0.000000,0.000000,0.000000,0.000000,0.000000,0.000000,0.000000,0.000000,0.000000,0.000000,0.000000,0.000000,0.185195,3,0
870000,-0.013656,22.382662,0.042169,-0.056484,25.541567,-0.015971,-0.000438,0.016311,1.570574,-0.040415,0.002252,-0.000392,-0.000246,-0.004111,0.000039,0.009986,0.014109,0.247488,-0.021206,0.192548,0.192552,0.173183,0.641318,0.000000,0.000000,0.000000,0.000000,0.000000,0.000000,0.000000,0.000000,0.000000,0.000000,0.000000,0.000000,0.239935,3,0
880000,-0.013774,22.642063,0.040937,-0.056594,25.550621,-0.017794,-0.000412,0.016684,1.570574,-0.041154,0.002338,-0.000152,-0.000258,-0.004220,0.000040,0.002705,0.014230,0.123262,-0.036999,0.193015,0.193020,0.173185,0.634059,0.000000,0.000000,0.000000,0.000000,0.000000,0.000000,0.000000,0.000000,0.000000,0.000000,0.000000,0.000000,0.120090,3,0
890000,-0.013888,22.900890,0.039634,-0.056737,25.558578,-0.019784,-0.000379,0.017006,1.570561,-0.041772,0.002424,0.000103,-0.000271,-0.004313,0.000041,0.001966,0.014349,0.102316,-0.038823,0.193469,0.193474,0.173172,0.626880,0.000000,0.000000,0.000000,0.000000,0.000000,0.000000,0.000000,0.000000,0.000000,0.000000,0.000000,0.000000,0.099985,3,0
900000,-0.013994,23.163643,0.040697,-0.056717,25.573345,-0.018044,-0.000350,0.017659,1.570552,-0.043116,0.002512,-0.000194,-0.000285,-0.004517,0.000043,0.008229,0.014463,0.221107,0.043826,0.193910,0.193915,0.173146,0.619785,0.000000,0.000000,0.000000,0.000000,0.000000,0.000000,0.000000,0.000000,0.000000,0.000000,0.000000,0.000000,0.214420,3,0
910000,-0.014100,23.425772,0.039881,-0.056837,25.586847,-0.019295,-0.000319,0.018252,1.570537,-0.044321,0.002602,-0.000050,-0.000298,-0.004703,0.000045,0.006354,0.014571,0.196754,-0.021805,0.194337,0.194342,0.173105,0.612776,0.000000,0.000000,0.000000,0.000000,0.000000,0.000000,0.000000,0.000000,0.000000,0.000000,0.000000,0.000000,0.190903,3,0
920000,-0.014202,23.686636,0.038519,-0.056892,25.597994,-0.021185,-0.000293,0.018732,1.570530,-0.045265,0.002692,0.000223,-0.000312,-0.004852,0.000046,0.004081,0.014677,0.153156,-0.040373,0.194751,0.194756,0.173050,0.605857,0.000000,0.000000,0.000000,0.000000,0.000000,0.000000,0.000000,0.000000,0.000000,0.000000,0.000000,0.000000,0.148863,3,0
930000,-0.014298,23.945599,0.038929,-0.056948,25.605654,-0.020419,-0.000255,0.019042,1.570532,-0.045828,0.002784,0.000072,-0.000327,-0.004941,0.000047,0.001445,0.014780,0.090971,0.021646,0.195152,0.195157,0.172981,0.599029,0.000000,0.000000,0.000000,0.000000,0.000000,0.000000,0.000000,0.000000,0.000000,0.000000,0.000000,0.000000,0.089167,3,0
940000,-0.014392,24.205923,0.037845,-0.056906,25.615644,-0.021757,-0.000221,0.019480,1.570517,-0.046640,0.002877,0.000281,-0.000342,-0.005073,0.000048,0.002915,0.014876,0.130112,-0.030454,0.195539,0.195544,0.172898,0.592295,0.000000,0.000000,0.000000,0.000000,0.000000,0.000000,0.000000,0.000000,0.000000,0.000000,0.000000,0.000000,0.126690,3,0
950000,-0.014482,24.466290,0.036999,-0.056888,25.625481,-0.022931,-0.000198,0.019907,1.570509,-0.047444,0.002971,0.000431,-0.000357,-0.005205,0.000049,0.002758,0.014970,0.128113,-0.021633,0.195914,0.195919,0.172802,0.585657,0.000000,0.000000,0.000000,0.000000,0.000000,0.000000,0.000000,0.000000,0.000000,0.000000,0.000000,0.000000,0.124771,3,0
960000,-0.014566,24.727343,0.036828,-0.056875,25.636362,-0.023167,-0.000157,0.020399,1.570492,-0.048363,0.003065,0.000411,-0.000373,-0.005358,0.000051,0.003472,0.015059,0.145956,0.002247,0.196276,0.196281,0.172692,0.579116,0.000000,0.000000,0.000000,0.000000,0.000000,0.000000,0.000000,0.000000,0.000000,0.000000,0.000000,0.000000,0.141931,3,0
970000,-0.014644,24.988424,0.038243,-0.056761,25.647161,-0.021260,-0.000120,0.020880,1.570485,-0.049269,0.003161,-0.000005,-0.000390,-0.005511,0.000052,0.003878,0.015143,0.143217,0.057472,0.196625,0.196630,0.172569,0.572674,0.000000,0.000000,0.000000,0.000000,0.000000,0.000000,0.000000,0.000000,0.000000,0.000000,0.000000,0.000000,0.139297,3,0
980000,-0.014721,25.250187,0.037806,-0.056762,25.659021,-0.022028,-0.000090,0.021443,1.570483,-0.050289,0.003258,0.000045,-0.000406,-0.005687,0.000054,0.004190,0.015221,0.160334,-0.007501,0.196963,0.196967,0.172432,0.566333,0.000000,0.000000,0.000000,0.000000,0.000000,0.000000,0.000000,0.000000,0.000000,0.000000,0.000000,0.000000,0.155767,3,0
990000,-0.014794,25.510002,0.037659,-0.056771,25.667488,-0.022047,-0.000055,0.021813,1.570482,-0.050910,0.003356,0.000024,-0.000423,-0.005795,0.000055,0.001563,0.015298,0.097240,0.002646,0.197288,0.197293,0.172283,0.560094,0.000000,0.000000,0.000000,0.000000,0.000000,0.000000,0.000000,0.000000,0.000000,0.000000,0.000000,0.000000,0.095200,3,0
1000000,-0.014863,25.773787,0.038511,-0.056779,25.682806,-0.020850,-0.000017,0.022551,1.570466,-0.052288,0.003454,-0.000260,-0.000441,-0.006040,0.000058,0.007721,0.015371,0.215036,0.037685,0.197602,0.197607,0.172122,0.553958,0.000000,0.000000,0.000000,0.000000,0.000000,0.000000,0.000000,0.000000,0.000000,0.000000,0.000000,0.000000,0.208487,3,0
1010000,-0.014930,26.034277,0.037771,-0.056660,25.692074,-0.022043,0.000026,0.022972,1.570463,-0.052998,0.003554,-0.000128,-0.000459,-0.006167,0.000059,0.002047,0.015439,0.110132,-0.018291,0.197905,0.197909,0.171949,0.547925,0.000000,0.000000,0.000000,0.000000,0.000000,0.000000,0.000000,0.000000,0.000000,0.000000,0.000000,0.000000,0.107540,3,0
1020000,-0.014994,26.298079,0.036836,-0.056552,25.707108,-0.023376,0.000068,0.023712,1.570443,-0.054338,0.003654,0.000050,-0.000477,-0.006413,0.000061,0.007067,0.015505,0.207367,-0.024653,0.198197,0.198201,0.171764,0.541997,0.000000,0.000000,0.000000,0.000000,0.000000,0.000000,0.000000,0.000000,0.000000,0.000000,0.000000,0.000000,0.201076,3,0
1030000,-0.015052,26.556595,0.036810,-0.056493,25.712624,-0.023349,0.000116,0.023910,1.570448,-0.054616,0.003755,-0.000006,-0.000496,-0.006464,0.000062,0.000343,0.015568,0.042810,0.007369,0.198479,0.198483,0.171567,0.536173,0.000000,0.000000,0.000000,0.000000,0.000000,0.000000,0.000000,0.000000,0.000000,0.000000,0.000000,0.000000,0.044047,3,0
1040000,-0.015107,26.815823,0.037124,-0.056409,25.719320,-0.022654,0.000160,0.024181,1.570453,-0.055022,0.003856,-0.000155,-0.000515,-0.006540,0.000063,0.000730,0.015626,0.062546,0.019235,0.198750,0.198754,0.171360,0.530455,0.000000,0.000000,0.000000,0.000000,0.000000,0.000000,0.000000,0.000000,0.000000,0.000000,0.000000,0.000000,0.062333,3,0
1050000,-0.015161,27.079048,0.036321,-0.056378,25.732906,-0.023767,0.000210,0.024870,1.570446,-0.056202,0.003959,-0.000009,-0.000534,-0.006766,0.000065,0.005380,0.015680,0.180948,-0.019887,0.199013,0.199017,0.171142,0.524841,0.000000,0.000000,0.000000,0.000000,0.000000,0.000000,0.000000,0.000000,0.000000,0.000000,0.000000,0.000000,0.175602,3,0
1060000,-0.015207,27.338291,0.037332,-0.056202,25.739269,-0.022358,0.000254,0.025137,1.570452,-0.056572,0.004061,-0.000351,-0.000555,-0.006837,0.000065,0.000872,0.015732,0.056740,0.043984,0.199267,0.199270,0.170914,0.519333,0.000000,0.000000,0.000000,0.000000,0.000000,0.000000,0.000000,0.000000,0.000000,0.000000,0.000000,0.000000,0.056926,3,0
1070000,-0.015251,27.598234,0.037981,-0.056062,25.746857,-0.021550,0.000296,0.025463,1.570453,-0.057067,0.004164,-0.000595,-0.000575,-0.006934,0.000066,0.001119,0.015777,0.075735,0.030913,0.199512,0.199515,0.170676,0.513931,0.000000,0.000000,0.000000,0.000000,0.000000,0.000000,0.000000,0.000000,0.000000,0.000000,0.000000,0.000000,0.074789,3,0
1080000,-0.015290,27.859526,0.039093,-0.055868,25.756727,-0.019834,0.000339,0.025942,1.570443,-0.057813,0.004268,-0.000968,-0.000597,-0.007083,0.000068,0.002487,0.015819,0.113899,0.046913,0.199748,0.199752,0.170429,0.508633,0.000000,0.000000,0.000000,0.000000,0.000000,0.000000,0.000000,0.000000,0.000000,0.000000,0.000000,0.000000,0.111166,3,0
1090000,-0.015329,28.119499,0.038441,-0.055695,25.764246,-0.020643,0.000387,0.026279,1.570441,-0.058282,0.004372,-0.000846,-0.000618,-0.007178,0.000069,0.000897,0.015857,0.071177,-0.015853,0.199978,0.199981,0.170173,0.503441,0.000000,0.000000,0.000000,0.000000,0.000000,0.000000,0.000000,0.000000,0.000000,0.000000,0.000000,0.000000,0.070491,3,0
1100000,-0.015365,28.381487,0.037626,-0.055595,25.775148,-0.021851,0.000441,0.026824,1.570426,-0.059133,0.004477,-0.000682,-0.000639,-0.007353,0.000071,0.002802,0.015894,0.129192,-0.021190,0.200200,0.200202,0.169909,0.498353,0.000000,0.000000,0.000000,0.000000,0.000000,0.000000,0.000000,0.000000,0.000000,0.000000,0.000000,0.000000,0.125821,3,0
1110000,-0.015394,28.640806,0.038772,-0.055440,25.781235,-0.020134,0.000491,0.027065,1.570422,-0.059435,0.004582,-0.001072,-0.000661,-0.007416,0.000071,0.000760,0.015928,0.046003,0.048352,0.200415,0.200417,0.169636,0.493369,0.000000,0.000000,0.000000,0.000000,0.000000,0.000000,0.000000,0.000000,0.000000,0.000000,0.000000,0.000000,0.047059,3,0
1120000,-0.015421,28.900822,0.039579,-0.055247,25.788397,-0.019064,0.000542,0.027387,1.570421,-0.059863,0.004687,-0.001366,-0.000684,-0.007506,0.000072,0.000929,0.015956,0.064930,0.035906,0.200624,0.200626,0.169355,0.488489,0.000000,0.000000,0.000000,0.000000,0.000000,0.000000,0.000000,0.000000,0.000000,0.000000,0.000000,0.000000,0.064628,3,0
1130000,-0.015443,29.159525,0.040726,-0.055072,25.793251,-0.017467,0.000593,0.027558,1.570414,-0.060016,0.004792,-0.001754,-0.000708,-0.007539,0.000073,0.000496,0.015981,0.023506,0.047556,0.200828,0.200829,0.169067,0.483711,0.000000,0.000000,0.000000,0.000000,0.000000,0.000000,0.000000,0.000000,0.000000,0.000000,0.000000,0.000000,0.027474,3,0
1140000,-0.015465,29.420931,0.041480,-0.054972,25.802711,-0.016569,0.000647,0.028028,1.570409,-0.060694,0.004897,-0.002032,-0.000731,-0.007686,0.000074,0.001920,0.016003,0.102697,0.033321,0.201026,0.201027,0.168773,0.479035,0.000000,0.000000,0.000000,0.000000,0.000000,0.000000,0.000000,0.000000,0.000000,0.000000,0.000000,0.000000,0.100456,3,0
1150000,-0.015483,29.680998,0.042729,-0.054868,25.809769,-0.014922,0.000711,0.028325,1.570406,-0.061089,0.005003,-0.002453,-0.000755,-0.007773,0.000075,0.001032,0.016023,0.059866,0.050537,0.201219,0.201219,0.168471,0.474460,0.000000,0.000000,0.000000,0.000000,0.000000,0.000000,0.000000,0.000000,0.000000,0.000000,0.000000,0.000000,0.059897,3,0
1160000,-0.015502,29.941750,0.042638,-0.054774,25.817839,-0.015097,0.000764,0.028702,1.570398,-0.061605,0.005109,-0.002476,-0.000779,-0.007889,0.000076,0.001023,0.016040,0.078032,0.002297,0.201407,0.201407,0.168164,0.469985,0.000000,0.000000,0.000000,0.000000,0.000000,0.000000,0.000000,0.000000,0.000000,0.000000,0.000000,0.000000,0.076989,3,0
1170000,-0.015517,30.204510,0.042362,-0.054585,25.829460,-0.015360,0.000820,0.029303,1.570395,-0.062501,0.005215,-0.002449,-0.000803,-0.008093,0.000078,0.002991,0.016057,0.135260,-0.004165,0.201591,0.201591,0.167851,0.465610,0.000000,0.000000,0.000000,0.000000,0.000000,0.000000,0.000000,0.000000,0.000000,0.000000,0.000000,0.000000,0.131632,3,0
1180000,-0.015529,30.465902,0.042691,-0.054390,25.838432,-0.015080,0.000878,0.029745,1.570380,-0.063102,0.005321,-0.002602,-0.000828,-0.008232,0.000080,0.001427,0.016071,0.091053,0.017565,0.201772,0.201771,0.167532,0.461332,0.000000,0.000000,0.000000,0.000000,0.000000,0.000000,0.000000,0.000000,0.000000,0.000000,0.000000,0.000000,0.089352,3,0
1190000,-0.015539,30.728622,0.042949,-0.054264,25.849661,-0.014905,0.000943,0.030332,1.570369,-0.063947,0.005427,-0.002738,-0.000853,-0.008429,0.000082,0.002707,0.016082,0.127754,0.015093,0.201949,0.201948,0.167209,0.457152,0.000000,0.000000,0.000000,0.000000,0.000000,0.000000,0.000000,0.000000,0.000000,0.000000,0.000000,0.000000,0.124429,3,0
1200000,-0.015546,30.991978,0.043704,-0.054064,25.861837,-0.013904,0.001008,0.030991,1.570349,-0.064893,0.005533,-0.003028,-0.000879,-0.008654,0.000084,0.003521,0.016090,0.143229,0.032882,0.202124,0.202122,0.166881,0.453067,0.000000,0.000000,0.000000,0.000000,0.000000,0.000000,0.000000,0.000000,0.000000,0.000000,0.000000,0.000000,0.139277,3,0
1210000,-0.015553,31.253956,0.042540,-0.053881,25.871561,-0.015635,0.001064,0.031488,1.570334,-0.065545,0.005640,-0.002720,-0.000904,-0.008812,0.000086,0.001818,0.016094,0.098417,-0.036578,0.202295,0.202293,0.166548,0.449078,0.000000,0.000000,0.000000,0.000000,0.000000,0.000000,0.000000,0.000000,0.000000,0.000000,0.000000,0.000000,0.096360,3,0
1220000,-0.015557,31.517250,0.042073,-0.053707,25.883533,-0.016405,0.001120,0.032139,1.570328,-0.066433,0.005747,-0.002637,-0.000930,-0.009030,0.000088,0.002975,0.016100,0.134525,-0.010746,0.202465,0.202462,0.166212,0.445183,0.000000,0.000000,0.000000,0.000000,0.000000,0.000000,0.000000,0.000000,0.000000,0.000000,0.000000,0.000000,0.130913,3,0
1230000,-0.015558,31.779827,0.042044,-0.053493,25.893934,-0.016473,0.001174,0.032680,1.570328,-0.067156,0.005853,-0.002690,-0.000956,-0.009209,0.000090,0.001983,0.016102,0.109657,0.005244,0.202632,0.202629,0.165872,0.441380,0.000000,0.000000,0.000000,0.000000,0.000000,0.000000,0.000000,0.000000,0.000000,0.000000,0.000000,0.000000,0.107091,3,0
1240000,-0.015554,32.039009,0.042503,-0.053237,25.898294,-0.015802,0.001234,0.032803,1.570336,-0.067195,0.005958,-0.002888,-0.000984,-0.009219,0.000090,0.000130,0.016100,0.006004,0.022624,0.202798,0.202794,0.165529,0.437667,0.000000,0.000000,0.000000,0.000000,0.000000,0.000000,0.000000,0.000000,0.000000,0.000000,0.000000,0.000000,0.016601,3,0
1250000,-0.015547,32.297535,0.043513,-0.052985,25.901487,-0.014579,0.001294,0.032833,1.570344,-0.067096,0.006063,-0.003259,-0.001011,-0.009193,0.000090,0.000368,0.016094,-0.014675,0.042448,0.202963,0.202959,0.165183,0.434045,0.000000,0.000000,0.000000,0.000000,0.000000,0.000000,0.000000,0.000000,0.000000,0.000000,0.000000,0.000000,0.021039,3,0
1260000,-0.015540,32.558113,0.042511,-0.052665,25.908228,-0.015789,0.001354,0.033128,1.570338,-0.067392,0.006169,-0.002988,-0.001038,-0.009270,0.000091,0.000521,0.016083,0.044834,-0.031019,0.203127,0.203122,0.164834,0.430511,0.000000,0.000000,0.000000,0.000000,0.000000,0.000000,0.000000,0.000000,0.000000,0.000000,0.000000,0.000000,0.046016,3,0
1270000,-0.015531,32.817333,0.041340,-0.052363,25.912441,-0.017451,0.001411,0.033231,1.570344,-0.067412,0.006275,-0.002661,-0.001065,-0.009276,0.000091,0.000263,0.016073,0.002857,-0.036850,0.203290,0.203284,0.164484,0.427063,0.000000,0.000000,0.000000,0.000000,0.000000,0.000000,0.000000,0.000000,0.000000,0.000000,0.000000,0.000000,0.015774,3,0
1280000,-0.015517,33.078587,0.041265,-0.052148,25.920139,-0.017539,0.001481,0.033586,1.570348,-0.067815,0.006380,-0.002700,-0.001093,-0.009384,0.000092,0.000656,0.016062,0.061657,0.003883,0.203453,0.203447,0.164131,0.423701,0.000000,0.000000,0.000000,0.000000,0.000000,0.000000,0.000000,0.000000,0.000000,0.000000,0.000000,0.000000,0.061554,3,0
1290000,-0.015497,33.341843,0.042174,-0.051751,25.931351,-0.016457,0.001544,0.034202,1.570348,-0.068586,0.006484,-0.003072,-0.001122,-0.009591,0.000094,0.002561,0.016045,0.118389,0.040231,0.203616,0.203608,0.163777,0.420423,0.000000,0.000000,0.000000,0.000000,0.000000,0.000000,0.000000,0.000000,0.000000,0.000000,0.000000,0.000000,0.115421,3,0
1300000,-0.015480,33.601681,0.040879,-0.051459,25.936417,-0.018123,0.001613,0.034363,1.570357,-0.068679,0.006589,-0.002699,-0.001150,-0.009618,0.000094,0.000351,0.016022,0.014046,-0.041413,0.203778,0.203770,0.163421,0.417228,0.000000,0.000000,0.000000,0.000000,0.000000,0.000000,0.000000,0.000000,0.000000,0.000000,0.000000,0.000000,0.020583,3,0
1310000,-0.015455,33.860161,0.041744,-0.051203,25.938864,-0.017102,0.001681,0.034346,1.570360,-0.068501,0.006692,-0.003045,-0.001180,-0.009567,0.000094,0.000400,0.016002,-0.027172,0.038460,0.203941,0.203933,0.163064,0.414114,0.000000,0.000000,0.000000,0.000000,0.000000,0.000000,0.000000,0.000000,0.000000,0.000000,0.000000,0.000000,0.030458,3,0
1320000,-0.015433,34.123402,0.040437,-0.050898,25.949837,-0.019032,0.001739,0.034957,1.570357,-0.069227,0.006796,-0.002678,-0.001208,-0.009774,0.000096,0.002333,0.015974,0.111904,-0.041285,0.204105,0.204096,0.162707,0.411080,0.000000,0.000000,0.000000,0.000000,0.000000,0.000000,0.000000,0.000000,0.000000,0.000000,0.000000,0.000000,0.109189,3,0
1330000,-0.015403,34.381840,0.041761,-0.050641,25.952141,-0.017459,0.001804,0.034897,1.570359,-0.069017,0.006898,-0.003189,-0.001239,-0.009712,0.000096,0.000714,0.015949,-0.032173,0.055896,0.204269,0.204259,0.162349,0.408125,0.000000,0.000000,0.000000,0.000000,0.000000,0.000000,0.000000,0.000000,0.000000,0.000000,0.000000,0.000000,0.034679,3,0
1340000,-0.015371,34.645042,0.042350,-0.050234,25.962955,-0.016710,0.001874,0.035480,1.570347,-0.069703,0.007000,-0.003465,-0.001269,-0.009911,0.000098,0.002016,0.015915,0.106941,0.028771,0.204434,0.204423,0.161990,0.405247,0.000000,0.000000,0.000000,0.000000,0.000000,0.000000,0.000000,0.000000,0.000000,0.000000,0.000000,0.000000,0.104439,3,0
1350000,-0.015338,34.904133,0.041631,-0.049831,25.966309,-0.017708,0.001946,0.035504,1.570359,-0.069593,0.007102,-0.003273,-0.001299,-0.009879,0.000098,0.000156,0.015878,-0.017220,-0.020487,0.204601,0.204589,0.161632,0.402444,0.000000,0.000000,0.000000,0.000000,0.000000,0.000000,0.000000,0.000000,0.000000,0.000000,0.000000,0.000000,0.022628,3,0
1360000,-0.015305,35.167301,0.040701,-0.049590,25.976765,-0.018976,0.002024,0.036080,1.570350,-0.070242,0.007204,-0.003027,-0.001329,-0.010074,0.000100,0.001816,0.015844,0.101360,-0.027459,0.204768,0.204755,0.161273,0.399715,0.000000,0.000000,0.000000,0.000000,0.000000,0.000000,0.000000,0.000000,0.000000,0.000000,0.000000,0.000000,0.099086,3,0
1370000,-0.015266,35.427013,0.040748,-0.049247,25.980967,-0.019025,0.002087,0.036176,1.570355,-0.070223,0.007304,-0.003110,-0.001359,-0.010068,0.000100,0.000054,0.015807,-0.002884,0.008915,0.204937,0.204923,0.160916,0.397059,0.000000,0.000000,0.000000,0.000000,0.000000,0.000000,0.000000,0.000000,0.000000,0.000000,0.000000,0.000000,0.015518,3,0
1380000,-0.015226,35.689442,0.040135,-0.048831,25.989878,-0.019929,0.002149,0.036644,1.570344,-0.070701,0.007404,-0.002973,-0.001390,-0.010216,0.000102,0.000991,0.015764,0.075302,-0.015333,0.205107,0.205092,0.160558,0.394473,0.000000,0.000000,0.000000,0.000000,0.000000,0.000000,0.000000,0.000000,0.000000,0.000000,0.000000,0.000000,0.074304,3,0
1390000,-0.015180,35.951134,0.041456,-0.048521,25.997480,-0.018284,0.002220,0.037000,1.570340,-0.071022,0.007502,-0.003522,-0.001422,-0.010315,0.000103,0.000995,0.015721,0.051331,0.057210,0.205279,0.205263,0.160202,0.391958,0.000000,0.000000,0.000000,0.000000,0.000000,0.000000,0.000000,0.000000,0.000000,0.000000,0.000000,0.000000,0.051855,3,0
1400000,-0.015130,36.212788,0.042694,-0.048113,26.004814,-0.016980,0.002301,0.037335,1.570337,-0.071320,0.007599,-0.004040,-0.001454,-0.010408,0.000104,0.000878,0.015670,0.047993,0.053715,0.205453,0.205435,0.159847,0.389510,0.000000,0.000000,0.000000,0.000000,0.000000,0.000000,0.000000,0.000000,0.000000,0.000000,0.000000,0.000000,0.048763,3,0
1410000,-0.015081,36.473049,0.043004,-0.047731,26.009693,-0.016735,0.002368,0.037466,1.570334,-0.071350,0.007696,-0.004214,-0.001486,-0.010417,0.000104,0.000097,0.015617,0.004932,0.018164,0.205628,0.205610,0.159493,0.387130,0.000000,0.000000,0.000000,0.000000,0.000000,0.000000,0.000000,0.000000,0.000000,0.000000,0.000000,0.000000,0.015815,3,0
1420000,-0.015030,36.731937,0.042293,-0.047273,26.012014,-0.017754,0.002451,0.037399,1.570349,-0.071123,0.007793,-0.004010,-0.001517,-0.010343,0.000104,0.000325,0.015563,-0.036713,-0.020572,0.205805,0.205785,0.159140,0.384815,0.000000,0.000000,0.000000,0.000000,0.000000,0.000000,0.000000,0.000000,0.000000,0.000000,0.000000,0.000000,0.038512,3,0
1430000,-0.014975,36.991508,0.042547,-0.046835,26.015385,-0.017422,0.002537,0.037418,1.570356,-0.071015,0.007889,-0.004165,-0.001549,-0.010307,0.000104,0.000130,0.015508,-0.017319,0.016214,0.205983,0.205963,0.158789,0.382563,0.000000,0.000000,0.000000,0.000000,0.000000,0.000000,0.000000,0.000000,0.000000,0.000000,0.000000,0.000000,0.022448,3,0
1440000,-0.014918,37.252438,0.042098,-0.046384,26.021160,-0.018210,0.002613,0.037632,1.570357,-0.071146,0.007984,-0.004068,-0.001581,-0.010352,0.000104,0.000128,0.015448,0.021263,-0.010137,0.206164,0.206143,0.158440,0.380374,0.000000,0.000000,0.000000,0.000000,0.000000,0.000000,0.000000,0.000000,0.000000,0.000000,0.000000,0.000000,0.025378,3,0
1450000,-0.014856,37.511284,0.042610,-0.045958,26.023075,-0.017690,0.002683,0.037529,1.570359,-0.070894,0.008077,-0.004318,-0.001614,-0.010265,0.000104,0.000419,0.015387,-0.040939,0.026170,0.206347,0.206324,0.158092,0.378245,0.000000,0.000000,0.000000,0.000000,0.000000,0.000000,0.000000,0.000000,0.000000,0.000000,0.000000,0.000000,0.042228,3,0
1460000,-0.014797,37.772881,0.041524,-0.045627,26.029997,-0.019055,0.002766,0.037840,1.570364,-0.071128,0.008172,-0.003986,-0.001645,-0.010347,0.000105,0.000463,0.015322,0.038139,-0.034288,0.206531,0.206507,0.157747,0.376176,0.000000,0.000000,0.000000,0.000000,0.000000,0.000000,0.000000,0.000000,0.000000,0.000000,0.000000,0.000000,0.039682,3,0
1470000,-0.014730,38.035107,0.042490,-0.045247,26.037987,-0.017824,0.002853,0.038222,1.570364,-0.071457,0.008263,-0.004433,-0.001678,-0.010461,0.000106,0.000842,0.015259,0.054779,0.044476,0.206718,0.206693,0.157404,0.374167,0.000000,0.000000,0.000000,0.000000,0.000000,0.000000,0.000000,0.000000,0.000000,0.000000,0.000000,0.000000,0.054911,3,0
1480000,-0.014661,38.294537,0.043682,-0.044875,26.040802,-0.016350,0.002932,0.038172,1.570363,-0.071282,0.008352,-0.004945,-0.001712,-0.010397,0.000106,0.000611,0.015188,-0.028618,0.052194,0.206906,0.206880,0.157063,0.372214,0.000000,0.000000,0.000000,0.000000,0.000000,0.000000,0.000000,0.000000,0.000000,0.000000,0.000000,0.000000,0.031272,3,0
1490000,-0.014590,38.555332,0.044292,-0.044383,26.045940,-0.015681,0.003015,0.038326,1.570365,-0.071341,0.008442,-0.005242,-0.001745,-0.010417,0.000106,0.000197,0.015114,0.010109,0.029746,0.207097,0.207069,0.156725,0.370315,0.000000,0.000000,0.000000,0.000000,0.000000,0.000000,0.000000,0.000000,0.000000,0.000000,0.000000,0.000000,0.017557,3,0
1500000,-0.014522,38.818169,0.043304,-0.043977,26.054821,-0.016905,0.003087,0.038796,1.570360,-0.071743,0.008532,-0.004939,-0.001777,-0.010565,0.000108,0.000925,0.015039,0.067326,-0.031378,0.207289,0.207260,0.156390,0.368471,0.000000,0.000000,0.000000,0.000000,0.000000,0.000000,0.000000,0.000000,0.000000,0.000000,0.000000,0.000000,0.066597,3,0
1510000,-0.014452,39.078197,0.042192,-0.043562,26.058548,-0.018245,0.003160,0.038810,1.570368,-0.071646,0.008621,-0.004570,-0.001810,-0.010531,0.000108,0.000295,0.014967,-0.016693,-0.036341,0.207483,0.207453,0.156057,0.366681,0.000000,0.000000,0.000000,0.000000,0.000000,0.000000,0.000000,0.000000,0.000000,0.000000,0.000000,0.000000,0.021653,3,0
1520000,-0.014375,39.341625,0.043066,-0.043172,26.068233,-0.017304,0.003240,0.039344,1.570357,-0.072119,0.008707,-0.005001,-0.001843,-0.010708,0.000110,0.001371,0.014893,0.081062,0.041372,0.207679,0.207648,0.155727,0.364942,0.000000,0.000000,0.000000,0.000000,0.000000,0.000000,0.000000,0.000000,0.000000,0.000000,0.000000,0.000000,0.079575,3,0
1530000,-0.014300,39.599487,0.041918,-0.042635,26.067825,-0.018528,0.003326,0.039019,1.570368,-0.071638,0.008795,-0.004598,-0.001876,-0.010525,0.000108,0.001384,0.014810,-0.083073,-0.038288,0.207877,0.207844,0.155400,0.363253,0.000000,0.000000,0.000000,0.000000,0.000000,0.000000,0.000000,0.000000,0.000000,0.000000,0.000000,0.000000,0.081469,3,0
1540000,-0.014219,39.857349,0.042277,-0.042151,26.067303,-0.018085,0.003406,0.038679,1.570383,-0.071161,0.008879,-0.004791,-0.001909,-0.010338,0.000107,0.001198,0.014731,-0.082504,0.020461,0.208077,0.208042,0.155076,0.361613,0.000000,0.000000,0.000000,0.000000,0.000000,0.000000,0.000000,0.000000,0.000000,0.000000,0.000000,0.000000,0.080899,3,0
1550000,-0.014138,40.117992,0.041401,-0.041646,26.071747,-0.019217,0.003492,0.038775,1.570392,-0.071148,0.008964,-0.004515,-0.001942,-0.010334,0.000107,0.000153,0.014644,-0.002415,-0.026881,0.208278,0.208242,0.154756,0.360019,0.000000,0.000000,0.000000,0.000000,0.000000,0.000000,0.000000,0.000000,0.000000,0.000000,0.000000,0.000000,0.014330,3,0
1560000,-0.014051,40.376514,0.042174,-0.041175,26.072283,-0.018065,0.003571,0.038528,1.570391,-0.070781,0.009045,-0.004882,-0.001976,-0.010185,0.000106,0.000921,0.014559,-0.064316,0.036933,0.208481,0.208443,0.154438,0.358472,0.000000,0.000000,0.000000,0.000000,0.000000,0.000000,0.000000,0.000000,0.000000,0.000000,0.000000,0.000000,0.063643,3,0
1570000,-0.013963,40.634354,0.041929,-0.040619,26.071609,-0.018348,0.003648,0.038162,1.570406,-0.070306,0.009127,-0.004833,-0.002009,-0.009992,0.000104,0.001178,0.014466,-0.084293,-0.003168,0.208685,0.208646,0.154124,0.356970,0.000000,0.000000,0.000000,0.000000,0.000000,0.000000,0.000000,0.000000,0.000000,0.000000,0.000000,0.000000,0.082553,3,0
1580000,-0.013871,40.893574,0.043008,-0.040213,26.073387,-0.017082,0.003728,0.038011,1.570414,-0.070058,0.009205,-0.005332,-0.002043,-0.009887,0.000104,0.000732,0.014375,-0.043941,0.048930,0.208890,0.208850,0.153813,0.355512,0.000000,0.000000,0.000000,0.000000,0.000000,0.000000,0.000000,0.000000,0.000000,0.000000,0.000000,0.000000,0.044611,3,0
1590000,-0.013780,41.156261,0.042367,-0.039691,26.081509,-0.017864,0.003806,0.038429,1.570412,-0.070362,0.009285,-0.005156,-0.002076,-0.010015,0.000105,0.000565,0.014276,0.054638,-0.017850,0.209097,0.209055,0.153506,0.354096,0.000000,0.000000,0.000000,0.000000,0.000000,0.000000,0.000000,0.000000,0.000000,0.000000,0.000000,0.000000,0.054501,3,0
1600000,-0.013686,41.417484,0.042784,-0.039287,26.086842,-0.017361,0.003898,0.038588,1.570416,-0.070418,0.009362,-0.005402,-0.002110,-0.010038,0.000106,0.000140,0.014182,0.010540,0.023447,0.209305,0.209262,0.153203,0.352723,0.000000,0.000000,0.000000,0.000000,0.000000,0.000000,0.000000,0.000000,0.000000,0.000000,0.000000,0.000000,0.017055,3,0
1610000,-0.013593,41.677284,0.042047,-0.038783,26.089373,-0.018133,0.003977,0.038504,1.570416,-0.070245,0.009440,-0.005160,-0.002143,-0.009964,0.000105,0.000279,0.014082,-0.032070,-0.022385,0.209514,0.209469,0.152903,0.351388,0.000000,0.000000,0.000000,0.000000,0.000000,0.000000,0.000000,0.000000,0.000000,0.000000,0.000000,0.000000,0.033809,3,0
1620000,-0.013494,41.934967,0.042407,-0.038274,26.087952,-0.017552,0.004059,0.038073,1.570421,-0.069742,0.009514,-0.005355,-0.002177,-0.009742,0.000104,0.001493,0.013984,-0.093105,0.020368,0.209723,0.209677,0.152606,0.350092,0.000000,0.000000,0.000000,0.000000,0.000000,0.000000,0.000000,0.000000,0.000000,0.000000,0.000000,0.000000,0.090855,3,0
1630000,-0.013393,42.194744,0.042613,-0.037712,26.090401,-0.017460,0.004153,0.037984,1.570420,-0.069567,0.009588,-0.005504,-0.002210,-0.009663,0.000103,0.000239,0.013880,-0.032711,0.014834,0.209934,0.209886,0.152314,0.348834,0.000000,0.000000,0.000000,0.000000,0.000000,0.000000,0.000000,0.000000,0.000000,0.000000,0.000000,0.000000,0.034287,3,0
1640000,-0.013288,42.452404,0.043459,-0.037120,26.088943,-0.016507,0.004244,0.037530,1.570420,-0.069069,0.009659,-0.005902,-0.002244,-0.009434,0.000102,0.001695,0.013774,-0.093727,0.039415,0.210145,0.210096,0.152025,0.347613,0.000000,0.000000,0.000000,0.000000,0.000000,0.000000,0.000000,0.000000,0.000000,0.000000,0.000000,0.000000,0.091406,3,0
1650000,-0.013182,42.714252,0.043826,-0.036553,26.095114,-0.016332,0.004338,0.037777,1.570421,-0.069206,0.009730,-0.006136,-0.002277,-0.009496,0.000102,0.000216,0.013663,0.026333,0.021457,0.210356,0.210305,0.151740,0.346427,0.000000,0.000000,0.000000,0.000000,0.000000,0.000000,0.000000,0.000000,0.000000,0.000000,0.000000,0.000000,0.028632,3,0
1660000,-0.013079,42.976761,0.042538,-0.036059,26.102510,-0.017894,0.004431,0.038130,1.570415,-0.069429,0.009802,-0.005673,-0.002309,-0.009604,0.000104,0.000639,0.013551,0.042725,-0.044081,0.210567,0.210515,0.151459,0.345276,0.000000,0.000000,0.000000,0.000000,0.000000,0.000000,0.000000,0.000000,0.000000,0.000000,0.000000,0.000000,0.043240,3,0
1670000,-0.012968,43.238476,0.043328,-0.035545,26.108215,-0.017113,0.004512,0.038330,1.570411,-0.069524,0.009869,-0.006093,-0.002343,-0.009646,0.000105,0.000330,0.013443,0.018692,0.038772,0.210779,0.210725,0.151182,0.344159,0.000000,0.000000,0.000000,0.000000,0.000000,0.000000,0.000000,0.000000,0.000000,0.000000,0.000000,0.000000,0.022223,3,0
1680000,-0.012860,43.496655,0.042672,-0.035040,26.107353,-0.017928,0.004599,0.037933,1.570409,-0.069098,0.009938,-0.005856,-0.002375,-0.009442,0.000103,0.001231,0.013327,-0.084049,-0.020151,0.210991,0.210935,0.150908,0.343074,0.000000,0.000000,0.000000,0.000000,0.000000,0.000000,0.000000,0.000000,0.000000,0.000000,0.000000,0.000000,0.082114,3,0
1690000,-0.012750,43.754128,0.042454,-0.034550,26.105068,-0.017947,0.004677,0.037418,1.570412,-0.068578,0.010004,-0.005802,-0.002408,-0.009186,0.000101,0.001758,0.013214,-0.103672,-0.002716,0.211202,0.211145,0.150639,0.342019,0.000000,0.000000,0.000000,0.000000,0.000000,0.000000,0.000000,0.000000,0.000000,0.000000,0.000000,0.000000,0.100834,3,0
1700000,-0.012635,44.013702,0.042616,-0.033921,26.106785,-0.017601,0.004764,0.037247,1.570408,-0.068364,0.010069,-0.005933,-0.002441,-0.009078,0.000100,0.000354,0.013097,-0.043060,0.013133,0.211413,0.211355,0.150373,0.340995,0.000000,0.000000,0.000000,0.000000,0.000000,0.000000,0.000000,0.000000,0.000000,0.000000,0.000000,0.000000,0.043417,3,0
1710000,-0.012518,44.275352,0.042877,-0.033354,26.112249,-0.017176,0.004858,0.037435,1.570403,-0.068439,0.010131,-0.006128,-0.002474,-0.009115,0.000101,0.000116,0.012977,0.015411,0.017614,0.211624,0.211564,0.150112,0.340001,0.000000,0.000000,0.000000,0.000000,0.000000,0.000000,0.000000,0.000000,0.000000,0.000000,0.000000,0.000000,0.019440,3,0
