time_us,pos_x,pos_y,pos_z,vel_x,vel_y,vel_z,roll,pitch,yaw,bias_ax,bias_ay,bias_az,bias_gx,bias_gy,bias_gz,nis,innov_x,innov_y,innov_z,cov_pos_x,cov_pos_y,cov_pos_z,cov_yaw,des_speed,des_heading,des_climb,pid_speed,pid_yaw,pid_alt,speed_meas,yaw_meas,climb_meas,fwd_accel,yaw_rate,vert_accel,drift_m,nav_mode,mission_state
0,-0.000001,0.150002,-0.000001,-0.000212,25.000370,-0.000317,0.000011,0.000009,1.570810,0.000000,0.000000,0.000000,0.000000,0.000000,0.000000,0.006250,0.000002,-0.250006,0.000003,2.400038,2.400038,3.600017,1.000518,0.000000,0.000000,0.000000,0.000000,0.000000,0.000000,0.000000,0.000000,0.000000,0.000000,0.000000,0.000000,0.150002,1,0
10000,-0.000004,0.359555,0.010744,-0.000445,25.000643,-0.000563,0.000022,0.000016,1.570820,0.000000,0.000000,-0.000000,0.000000,0.000000,0.000000,0.002472,0.000006,-0.141585,0.028668,1.714420,1.714420,2.250079,1.001073,0.000000,0.000000,0.000000,0.000000,0.000000,0.000000,0.000000,0.000000,0.000000,0.000000,0.000000,0.000000,0.101129,3,0
20000,-0.000009,0.571286,0.030714,-0.000724,25.000748,-0.000819,0.000026,0.000036,1.570828,0.000002,0.000000,-0.000001,-0.000000,0.000000,-0.000000,0.004495,0.000011,-0.172231,0.073253,1.333616,1.333616,1.636554,1.001655,0.000000,0.000000,0.000000,0.000000,0.000000,0.000000,0.000000,0.000000,0.000000,0.000000,0.000000,0.000000,0.133949,3,0
30000,-0.000016,0.794847,0.028950,-0.001069,25.000696,-0.001372,0.000032,0.000058,1.570828,0.000004,0.000000,-0.000001,-0.000000,0.000000,-0.000000,0.002892,0.000020,-0.145415,-0.008167,1.091392,1.091392,1.286065,1.002257,0.000000,0.000000,0.000000,0.000000,0.000000,0.000000,0.000000,0.000000,0.000000,0.000000,0.000000,0.000000,0.118964,3,0
40000,-0.000025,1.024777,0.035612,-0.001380,25.000574,-0.001826,0.000050,0.000077,1.570845,0.000008,0.000000,-0.000002,-0.000000,0.000000,-0.000000,0.002595,0.000030,-0.130429,0.037845,0.923811,0.923811,1.059385,1.002869,0.000000,0.000000,0.000000,0.000000,0.000000,0.000000,0.000000,0.000000,0.000000,0.000000,0.000000,0.000000,0.110347,3,0
50000,-0.000037,1.263834,0.036168,-0.001730,25.000721,-0.002342,0.000050,0.000086,1.570850,0.000012,0.000000,-0.000002,-0.000000,0.000000,-0.000000,0.000974,0.000042,-0.082054,0.003860,0.801036,0.801036,0.900822,1.003484,0.000000,0.000000,0.000000,0.000000,0.000000,0.000000,0.000000,0.000000,0.000000,0.000000,0.000000,0.000000,0.071099,3,0
60000,-0.000051,1.501770,0.035019,-0.002062,25.000530,-0.002680,0.000062,0.000093,1.570862,0.000018,0.000000,-0.000001,-0.000000,0.000000,-0.000000,0.001554,0.000057,-0.102443,-0.008601,0.707270,0.707270,0.783741,1.004094,0.000000,0.000000,0.000000,0.000000,0.000000,0.000000,0.000000,0.000000,0.000000,0.000000,0.000000,0.000000,0.090367,3,0
70000,-0.000065,1.749426,0.033266,-0.002254,25.000982,-0.003049,0.000074,0.000099,1.570861,0.000020,0.000000,-0.000000,-0.000000,0.000000,-0.000000,0.000107,0.000073,-0.022316,-0.014899,0.633370,0.633370,0.693801,1.004688,0.000000,0.000000,0.000000,0.000000,0.000000,0.000000,0.000000,0.000000,0.000000,0.000000,0.000000,0.000000,0.019960,3,0
80000,-0.000082,2.005940,0.035193,-0.002567,25.002148,-0.003546,0.000085,0.000109,1.570873,0.000013,0.000000,-0.000002,-0.000000,0.000000,-0.000000,0.000750,0.000091,0.067966,0.018919,0.573673,0.573673,0.622594,1.005260,0.000000,0.000000,0.000000,0.000000,0.000000,0.000000,0.000000,0.000000,0.000000,0.000000,0.000000,0.000000,0.061467,3,0
90000,-0.000101,2.253385,0.035493,-0.002818,25.002356,-0.004168,0.000099,0.000123,1.570873,0.000017,0.000000,-0.000002,-0.000000,0.000000,-0.000000,0.000135,0.000111,-0.029528,0.003640,0.524488,0.524488,0.564865,1.005801,0.000000,0.000000,0.000000,0.000000,0.000000,0.000000,0.000000,0.000000,0.000000,0.000000,0.000000,0.000000,0.026947,3,0
100000,-0.000122,2.500319,0.039197,-0.003142,25.002590,-0.004380,0.000105,0.000138,1.570876,0.000022,0.000000,-0.000009,-0.000000,0.000000,-0.000000,0.000515,0.000132,-0.038429,0.043524,0.483303,0.483303,0.517162,1.006301,0.000000,0.000000,0.000000,0.000000,0.000000,0.000000,0.000000,0.000000,0.000000,0.000000,0.000000,0.000000,0.035334,3,0
110000,-0.000143,2.752794,0.037623,-0.003333,25.003489,-0.005063,0.000121,0.000149,1.570892,0.000016,0.000000,-0.000005,-0.000000,0.000000,-0.000000,0.000221,0.000155,0.032697,-0.019182,0.448353,0.448353,0.477121,1.006754,0.000000,0.000000,0.000000,0.000000,0.000000,0.000000,0.000000,0.000000,0.000000,0.000000,0.000000,0.000000,0.030254,3,0
120000,-0.000168,3.006916,0.040775,-0.003656,25.004791,-0.005216,0.000123,0.000164,1.570902,0.000004,0.000000,-0.000015,-0.000000,-0.000000,0.000000,0.000822,0.000180,0.058517,0.043452,0.418358,0.418358,0.443071,1.007150,0.000000,0.000000,0.000000,0.000000,0.000000,0.000000,0.000000,0.000000,0.000000,0.000000,0.000000,0.000000,0.054437,3,0
130000,-0.000193,3.263676,0.039759,-0.003946,25.006554,-0.005898,0.000134,0.000194,1.570906,-0.000023,0.000000,-0.000011,-0.000000,-0.000001,0.000000,0.001669,0.000207,0.102568,-0.013894,0.392369,0.392369,0.413797,1.007481,0.000000,0.000000,0.000000,0.000000,0.000000,0.000000,0.000000,0.000000,0.000000,0.000000,0.000000,0.000000,0.095861,3,0
140000,-0.000222,3.514044,0.041074,-0.004306,25.007135,-0.006168,0.000140,0.000209,1.570906,-0.000024,0.000000,-0.000017,-0.000000,-0.000001,0.000000,0.000074,0.000237,0.004821,0.021301,0.369666,0.369666,0.388393,1.007739,0.000000,0.000000,0.000000,0.000000,0.000000,0.000000,0.000000,0.000000,0.000000,0.000000,0.000000,0.000000,0.004529,3,0
150000,-0.000252,3.769506,0.040610,-0.004613,25.008987,-0.006844,0.000158,0.000240,1.570916,-0.000055,0.000000,-0.000015,-0.000000,-0.000001,0.000000,0.001346,0.000268,0.092388,-0.006502,0.349695,0.349695,0.366172,1.007915,0.000000,0.000000,0.000000,0.000000,0.000000,0.000000,0.000000,0.000000,0.000000,0.000000,0.000000,0.000000,0.087004,3,0
160000,-0.000285,4.020477,0.042044,-0.004908,25.009750,-0.006812,0.000174,0.000255,1.570929,-0.000061,0.000000,-0.000025,-0.000000,-0.000001,0.000000,0.000146,0.000302,0.015819,0.026069,0.332020,0.332020,0.346600,1.008002,0.000000,0.000000,0.000000,0.000000,0.000000,0.000000,0.000000,0.000000,0.000000,0.000000,0.000000,0.000000,0.014946,3,0
170000,-0.000320,4.277046,0.043109,-0.005235,25.012167,-0.007038,0.000188,0.000290,1.570934,-0.000114,0.000001,-0.000034,-0.000000,-0.000003,0.000000,0.002443,0.000337,0.122661,0.020758,0.316297,0.316297,0.329260,1.007991,0.000000,0.000000,0.000000,0.000000,0.000000,0.000000,0.000000,0.000000,0.000000,0.000000,0.000000,0.000000,0.116195,3,0
180000,-0.000355,4.529439,0.043861,-0.005467,25.013533,-0.007425,0.000202,0.000309,1.570942,-0.000135,0.000001,-0.000041,-0.000000,-0.000003,0.000000,0.000360,0.000374,0.044977,0.015838,0.302245,0.302245,0.313817,1.007875,0.000000,0.000000,0.000000,0.000000,0.000000,0.000000,0.000000,0.000000,0.000000,0.000000,0.000000,0.000000,0.042713,3,0
190000,-0.000393,4.781082,0.041834,-0.005748,25.014585,-0.008437,0.000203,0.000332,1.570941,-0.000151,0.000001,-0.000021,-0.000000,-0.000004,0.000000,0.000394,0.000413,0.031118,-0.038986,0.289640,0.289640,0.300003,1.007645,0.000000,0.000000,0.000000,0.000000,0.000000,0.000000,0.000000,0.000000,0.000000,0.000000,0.000000,0.000000,0.029618,3,0
200000,-0.000431,5.037601,0.042090,-0.005926,25.017612,-0.008894,0.000221,0.000374,1.570945,-0.000232,0.000001,-0.000025,-0.000000,-0.000006,0.000000,0.003004,0.000452,0.137285,0.007235,0.278294,0.278294,0.287598,1.007295,0.000000,0.000000,0.000000,0.000000,0.000000,0.000000,0.000000,0.000000,0.000000,0.000000,0.000000,0.000000,0.130918,3,0
210000,-0.000471,5.294888,0.040984,-0.006163,25.021183,-0.009916,0.000224,0.000425,1.570959,-0.000333,0.000002,-0.000011,-0.000000,-0.000009,0.000000,0.004104,0.000493,0.159041,-0.021947,0.268052,0.268052,0.276421,1.006816,0.000000,0.000000,0.000000,0.000000,0.000000,0.000000,0.000000,0.000000,0.000000,0.000000,0.000000,0.000000,0.151936,3,0
220000,-0.000513,5.547725,0.041216,-0.006481,25.022928,-0.010272,0.000242,0.000452,1.570969,-0.000376,0.000002,-0.000016,-0.000000,-0.000010,0.000000,0.000598,0.000536,0.060749,0.007574,0.258785,0.258785,0.266321,1.006202,0.000000,0.000000,0.000000,0.000000,0.000000,0.000000,0.000000,0.000000,0.000000,0.000000,0.000000,0.000000,0.058131,3,0
230000,-0.000556,5.802387,0.039562,-0.006722,25.025763,-0.011546,0.000255,0.000491,1.570975,-0.000456,0.000002,0.000011,-0.000000,-0.000013,0.000000,0.002005,0.000580,0.106078,-0.036054,0.250384,0.250384,0.257172,1.005447,0.000000,0.000000,0.000000,0.000000,0.000000,0.000000,0.000000,0.000000,0.000000,0.000000,0.000000,0.000000,0.101653,3,0
240000,-0.000600,6.054680,0.037851,-0.006877,25.027340,-0.012870,0.000261,0.000520,1.570987,-0.000498,0.000003,0.000042,-0.000000,-0.000014,0.000000,0.000638,0.000625,0.050177,-0.038349,0.242754,0.242754,0.248866,1.004541,0.000000,0.000000,0.000000,0.000000,0.000000,0.000000,0.000000,0.000000,0.000000,0.000000,0.000000,0.000000,0.048151,3,0
250000,-0.000644,6.308734,0.037954,-0.007035,25.030054,-0.013305,0.000264,0.000558,1.570993,-0.000584,0.000004,0.000037,-0.000000,-0.000017,0.000000,0.001483,0.000670,0.096053,0.005904,0.235816,0.235816,0.241314,1.003481,0.000000,0.000000,0.000000,0.000000,0.000000,0.000000,0.000000,0.000000,0.000000,0.000000,0.000000,0.000000,0.092280,3,0
260000,-0.000690,6.563641,0.038217,-0.007351,25.033491,-0.013578,0.000276,0.000601,1.571003,-0.000699,0.000004,0.000027,-0.000000,-0.000021,0.000000,0.002336,0.000717,0.120275,0.010262,0.229502,0.229502,0.234436,1.002259,0.000000,0.000000,0.000000,0.000000,0.000000,0.000000,0.000000,0.000000,0.000000,0.000000,0.000000,0.000000,0.115677,3,0
270000,-0.000737,6.820821,0.037883,-0.007494,25.038498,-0.014186,0.000284,0.000664,1.571001,-0.000888,0.000005,0.000032,-0.000000,-0.000029,0.000000,0.005401,0.000765,0.183397,-0.005077,0.223751,0.223751,0.228165,1.000870,0.000000,0.000000,0.000000,0.000000,0.000000,0.000000,0.000000,0.000000,0.000000,0.000000,0.000000,0.000000,0.176560,3,0
280000,-0.000785,7.072867,0.037397,-0.007735,25.040262,-0.014996,0.000285,0.000690,1.571011,-0.000938,0.000006,0.000042,-0.000000,-0.000031,0.000000,0.000345,0.000814,0.045440,-0.009114,0.218513,0.218512,0.222443,0.999308,0.000000,0.000000,0.000000,0.000000,0.000000,0.000000,0.000000,0.000000,0.000000,0.000000,0.000000,0.000000,0.043792,3,0
290000,-0.000834,7.327244,0.036490,-0.007966,25.043667,-0.016141,0.000304,0.000736,1.571015,-0.001070,0.000007,0.000066,-0.000000,-0.000036,0.000000,0.002065,0.000864,0.111440,-0.020745,0.213740,0.213740,0.217219,0.997568,0.000000,0.000000,0.000000,0.000000,0.000000,0.000000,0.000000,0.000000,0.000000,0.000000,0.000000,0.000000,0.107474,3,0
300000,-0.000883,7.583104,0.036931,-0.008155,25.048395,-0.016142,0.000305,0.000820,1.571015,-0.001265,0.000008,0.000045,-0.000000,-0.000044,0.000000,0.003922,0.000915,0.155212,0.017158,0.209394,0.209394,0.212446,0.995646,0.000000,0.000000,0.000000,0.000000,0.000000,0.000000,0.000000,0.000000,0.000000,0.000000,0.000000,0.000000,0.149798,3,0
310000,-0.000935,7.838314,0.035627,-0.008395,25.052851,-0.017270,0.000307,0.000885,1.571012,-0.001449,0.000009,0.000088,-0.000000,-0.000052,0.000000,0.003233,0.000968,0.137852,-0.032887,0.205438,0.205438,0.208087,0.993537,0.000000,0.000000,0.000000,0.000000,0.000000,0.000000,0.000000,0.000000,0.000000,0.000000,0.000000,0.000000,0.133135,3,0
320000,-0.000987,8.092924,0.034788,-0.008619,25.056986,-0.018415,0.000325,0.000952,1.571023,-0.001620,0.000011,0.000115,-0.000000,-0.000060,0.000000,0.002424,0.001021,0.121143,-0.019394,0.201842,0.201842,0.204105,0.991238,0.000000,0.000000,0.000000,0.000000,0.000000,0.000000,0.000000,0.000000,0.000000,0.000000,0.000000,0.000000,0.117072,3,0
330000,-0.001041,8.346319,0.034225,-0.008916,25.060167,-0.019165,0.000332,0.001014,1.571028,-0.001748,0.000013,0.000132,-0.000000,-0.000066,0.000000,0.001189,0.001076,0.085159,-0.011192,0.198576,0.198575,0.200469,0.988745,0.000000,0.000000,0.000000,0.000000,0.000000,0.000000,0.000000,0.000000,0.000000,0.000000,0.000000,0.000000,0.082348,3,0
340000,-0.001095,8.600515,0.035287,-0.009141,25.064209,-0.018684,0.000338,0.001077,1.571036,-0.001922,0.000014,0.000072,-0.000001,-0.000075,0.000000,0.002189,0.001132,0.110038,0.038337,0.195615,0.195614,0.197151,0.986055,0.000000,0.000000,0.000000,0.000000,0.000000,0.000000,0.000000,0.000000,0.000000,0.000000,0.000000,0.000000,0.106456,3,0
350000,-0.001152,8.856755,0.034884,-0.009406,25.070314,-0.019322,0.000357,0.001174,1.571052,-0.002212,0.000016,0.000082,-0.000001,-0.000089,0.000000,0.004883,0.001190,0.173863,-0.006531,0.192936,0.192936,0.194125,0.983165,0.000000,0.000000,0.000000,0.000000,0.000000,0.000000,0.000000,0.000000,0.000000,0.000000,0.000000,0.000000,0.168277,3,0
360000,-0.001208,9.109898,0.033582,-0.009540,25.073467,-0.020951,0.000371,0.001240,1.571054,-0.002346,0.000019,0.000143,-0.000001,-0.000096,0.000000,0.001140,0.001247,0.076593,-0.034573,0.190518,0.190518,0.191370,0.980075,0.000000,0.000000,0.000000,0.000000,0.000000,0.000000,0.000000,0.000000,0.000000,0.000000,0.000000,0.000000,0.074171,3,0
370000,-0.001264,9.366329,0.033116,-0.009704,25.080145,-0.021662,0.000376,0.001359,1.571065,-0.002680,0.000021,0.000157,-0.000001,-0.000114,0.000000,0.005313,0.001305,0.181240,-0.007984,0.188343,0.188343,0.188863,0.976781,0.000000,0.000000,0.000000,0.000000,0.000000,0.000000,0.000000,0.000000,0.000000,0.000000,0.000000,0.000000,0.175555,3,0
380000,-0.001321,9.623446,0.032752,-0.009868,25.087687,-0.022436,0.000388,0.001491,1.571076,-0.003073,0.000024,0.000166,-0.000001,-0.000136,0.000000,0.006661,0.001363,0.203047,-0.004530,0.186394,0.186393,0.186586,0.973284,0.000000,0.000000,0.000000,0.000000,0.000000,0.000000,0.000000,0.000000,0.000000,0.000000,0.000000,0.000000,0.196744,3,0
390000,-0.001378,9.880005,0.033520,-0.010051,25.094721,-0.021999,0.000393,0.001624,1.571087,-0.003446,0.000027,0.000100,-0.000001,-0.000157,0.000000,0.005663,0.001422,0.184402,0.032457,0.184653,0.184653,0.184522,0.969583,0.000000,0.000000,0.000000,0.000000,0.000000,0.000000,0.000000,0.000000,0.000000,0.000000,0.000000,0.000000,0.178732,3,0
400000,-0.001436,10.136035,0.035033,-0.010296,25.101250,-0.020584,0.000410,0.001758,1.571092,-0.003798,0.000030,-0.000020,-0.000001,-0.000177,0.000001,0.004996,0.001482,0.166319,0.057069,0.183107,0.183107,0.182656,0.965677,0.000000,0.000000,0.000000,0.000000,0.000000,0.000000,0.000000,0.000000,0.000000,0.000000,0.000000,0.000000,0.161250,3,0
410000,-0.001495,10.390357,0.034447,-0.010444,25.105963,-0.021321,0.000422,0.001861,1.571092,-0.004039,0.000033,0.000007,-0.000002,-0.000191,0.000001,0.001946,0.001541,0.109013,-0.012476,0.181743,0.181743,0.180971,0.961569,0.000000,0.000000,0.000000,0.000000,0.000000,0.000000,0.000000,0.000000,0.000000,0.000000,0.000000,0.000000,0.105722,3,0
420000,-0.001553,10.645425,0.034662,-0.010593,25.111605,-0.021233,0.000443,0.001971,1.571090,-0.004345,0.000037,-0.000026,-0.000002,-0.000210,0.000001,0.002891,0.001601,0.132948,0.014432,0.180548,0.180547,0.179456,0.957258,0.000000,0.000000,0.000000,0.000000,0.000000,0.000000,0.000000,0.000000,0.000000,0.000000,0.000000,0.000000,0.128957,3,0
430000,-0.001612,10.901219,0.033366,-0.010833,25.118206,-0.023012,0.000452,0.002105,1.571102,-0.004720,0.000041,0.000061,-0.000002,-0.000233,0.000001,0.004154,0.001662,0.156129,-0.036281,0.179509,0.179509,0.178097,0.952746,0.000000,0.000000,0.000000,0.000000,0.000000,0.000000,0.000000,0.000000,0.000000,0.000000,0.000000,0.000000,0.151466,3,0
440000,-0.001671,11.155358,0.032216,-0.010965,25.122795,-0.024688,0.000462,0.002194,1.571103,-0.004967,0.000045,0.000138,-0.000002,-0.000249,0.000001,0.001743,0.001723,0.099057,-0.031005,0.178618,0.178617,0.176883,0.948036,0.000000,0.000000,0.000000,0.000000,0.000000,0.000000,0.000000,0.000000,0.000000,0.000000,0.000000,0.000000,0.096123,3,0
450000,-0.001731,11.412012,0.033444,-0.011182,25.130604,-0.023396,0.000471,0.002376,1.571106,-0.005441,0.000050,0.000007,-0.000003,-0.000280,0.000001,0.005818,0.001784,0.182815,0.050503,0.177862,0.177862,0.175803,0.943130,0.000000,0.000000,0.000000,0.000000,0.000000,0.000000,0.000000,0.000000,0.000000,0.000000,0.000000,0.000000,0.177404,3,0
460000,-0.001792,11.668189,0.032318,-0.011439,25.137888,-0.025032,0.000472,0.002545,1.571117,-0.005883,0.000055,0.000088,-0.000003,-0.000310,0.000001,0.004534,0.001846,0.164629,-0.030402,0.177234,0.177233,0.174847,0.938031,0.000000,0.000000,0.000000,0.000000,0.000000,0.000000,0.000000,0.000000,0.000000,0.000000,0.000000,0.000000,0.159776,3,0
470000,-0.001852,11.926246,0.031901,-0.011563,25.147738,-0.025677,0.000475,0.002779,1.571129,-0.006513,0.000060,0.000104,-0.000003,-0.000354,0.000001,0.008300,0.001908,0.226441,-0.005548,0.176723,0.176723,0.174006,0.932743,0.000000,0.000000,0.000000,0.000000,0.000000,0.000000,0.000000,0.000000,0.000000,0.000000,0.000000,0.000000,0.219779,3,0
480000,-0.001912,12.184395,0.032854,-0.011748,25.157978,-0.024796,0.000479,0.003008,1.571144,-0.007166,0.000066,-0.000018,-0.000004,-0.000400,0.000001,0.008603,0.001970,0.226711,0.042135,0.176323,0.176322,0.173271,0.927270,0.000000,0.000000,0.000000,0.000000,0.000000,0.000000,0.000000,0.000000,0.000000,0.000000,0.000000,0.000000,0.220057,3,0
490000,-0.001972,12.440891,0.032056,-0.011834,25.165895,-0.025908,0.000490,0.003187,1.571149,-0.007664,0.000072,0.000038,-0.000004,-0.000436,0.000001,0.004584,0.002031,0.167249,-0.018938,0.176024,0.176023,0.172634,0.921617,0.000000,0.000000,0.000000,0.000000,0.000000,0.000000,0.000000,0.000000,0.000000,0.000000,0.000000,0.000000,0.162354,3,0
500000,-0.002031,12.697515,0.031442,-0.011933,25.173918,-0.026830,0.000507,0.003389,1.571158,-0.008184,0.000079,0.000075,-0.000005,-0.000474,0.000001,0.004651,0.002092,0.169100,-0.012215,0.175819,0.175818,0.172087,0.915788,0.000000,0.000000,0.000000,0.000000,0.000000,0.000000,0.000000,0.000000,0.000000,0.000000,0.000000,0.000000,0.164157,3,0
510000,-0.002089,12.956011,0.031088,-0.012083,25.184690,-0.027470,0.000519,0.003654,1.571166,-0.008915,0.000086,0.000084,-0.000005,-0.000529,0.000002,0.008595,0.002152,0.230458,-0.002753,0.175701,0.175701,0.171622,0.909789,0.000000,0.000000,0.000000,0.000000,0.000000,0.000000,0.000000,0.000000,0.000000,0.000000,0.000000,0.000000,0.223720,3,0
520000,-0.002148,13.215192,0.030364,-0.012253,25.196579,-0.028689,0.000533,0.003947,1.571171,-0.009733,0.000093,0.000134,-0.000006,-0.000592,0.000002,0.010164,0.002213,0.250158,-0.015483,0.175665,0.175664,0.171234,0.903625,0.000000,0.000000,0.000000,0.000000,0.000000,0.000000,0.000000,0.000000,0.000000,0.000000,0.000000,0.000000,0.242844,3,0
530000,-0.002206,13.470975,0.030987,-0.012359,25.203352,-0.027845,0.000553,0.004112,1.571174,-0.010171,0.000101,0.000025,-0.000006,-0.000627,0.000002,0.002902,0.002273,0.130011,0.032084,0.175702,0.175702,0.170914,0.897304,0.000000,0.000000,0.000000,0.000000,0.000000,0.000000,0.000000,0.000000,0.000000,0.000000,0.000000,0.000000,0.126223,3,0
540000,-0.002264,13.728650,0.030533,-0.012497,25.212904,-0.028573,0.000565,0.004367,1.571178,-0.010836,0.000109,0.000045,-0.000007,-0.000680,0.000002,0.005984,0.002332,0.192224,-0.005943,0.175808,0.175808,0.170658,0.890830,0.000000,0.000000,0.000000,0.000000,0.000000,0.000000,0.000000,0.000000,0.000000,0.000000,0.000000,0.000000,0.186605,3,0
550000,-0.002321,13.984697,0.030021,-0.012640,25.219980,-0.029263,0.000588,0.004560,1.571190,-0.011310,0.000118,0.000073,-0.000008,-0.000719,0.000002,0.002883,0.002391,0.133242,-0.007817,0.175977,0.175976,0.170460,0.884212,0.000000,0.000000,0.000000,0.000000,0.000000,0.000000,0.000000,0.000000,0.000000,0.000000,0.000000,0.000000,0.129354,3,0
560000,-0.002378,14.243222,0.030385,-0.012802,25.230858,-0.028977,0.000603,0.004860,1.571191,-0.012096,0.000127,-0.000014,-0.000009,-0.000785,0.000002,0.007572,0.002450,0.215065,0.023401,0.176203,0.176202,0.170314,0.877455,0.000000,0.000000,0.000000,0.000000,0.000000,0.000000,0.000000,0.000000,0.000000,0.000000,0.000000,0.000000,0.208763,3,0
570000,-0.002435,14.500108,0.029101,-0.012886,25.239265,-0.030717,0.000621,0.005094,1.571196,-0.012678,0.000136,0.000118,-0.000009,-0.000835,0.000002,0.004095,0.002508,0.155218,-0.034875,0.176481,0.176480,0.170214,0.870568,0.000000,0.000000,0.000000,0.000000,0.000000,0.000000,0.000000,0.000000,0.000000,0.000000,0.000000,0.000000,0.150673,3,0
580000,-0.002490,14.757715,0.027994,-0.013026,25.248751,-0.032459,0.000635,0.005358,1.571210,-0.013356,0.000146,0.000226,-0.000010,-0.000894,0.000003,0.005170,0.002566,0.176554,-0.027942,0.176806,0.176805,0.170157,0.863557,0.000000,0.000000,0.000000,0.000000,0.000000,0.000000,0.000000,0.000000,0.000000,0.000000,0.000000,0.000000,0.171369,3,0
590000,-0.002546,15.017797,0.028997,-0.013152,25.262169,-0.030834,0.000650,0.005749,1.571210,-0.014366,0.000157,0.000038,-0.000011,-0.000984,0.000003,0.011024,0.002623,0.256794,0.046972,0.177174,0.177173,0.170138,0.856430,0.000000,0.000000,0.000000,0.000000,0.000000,0.000000,0.000000,0.000000,0.000000,0.000000,0.000000,0.000000,0.249224,3,0
600000,-0.002600,15.275038,0.028442,-0.013212,25.270937,-0.031471,0.000656,0.006006,1.571213,-0.014993,0.000168,0.000072,-0.000012,-0.001041,0.000003,0.003929,0.002679,0.155606,-0.008569,0.177580,0.177579,0.170152,0.849196,0.000000,0.000000,0.000000,0.000000,0.000000,0.000000,0.000000,0.000000,0.000000,0.000000,0.000000,0.000000,0.151023,3,0
610000,-0.002652,15.531819,0.029860,-0.013262,25.278893,-0.029394,0.000666,0.006237,1.571226,-0.015556,0.000179,-0.000186,-0.000013,-0.001093,0.000003,0.003637,0.002734,0.136826,0.061304,0.178020,0.178019,0.170196,0.841862,0.000000,0.000000,0.000000,0.000000,0.000000,0.000000,0.000000,0.000000,0.000000,0.000000,0.000000,0.000000,0.132793,3,0
620000,-0.002704,15.791103,0.029475,-0.013301,25.290920,-0.030020,0.000688,0.006594,1.571234,-0.016473,0.000191,-0.000174,-0.000014,-0.001179,0.000003,0.007681,0.002787,0.217906,-0.002981,0.178491,0.178490,0.170265,0.834435,0.000000,0.000000,0.000000,0.000000,0.000000,0.000000,0.000000,0.000000,0.000000,0.000000,0.000000,0.000000,0.211441,3,0
630000,-0.002754,16.049904,0.030788,-0.013377,25.302002,-0.027975,0.000696,0.006931,1.571242,-0.017319,0.000203,-0.000425,-0.000016,-0.001260,0.000004,0.006806,0.002839,0.197050,0.056990,0.178988,0.178987,0.170356,0.826925,0.000000,0.000000,0.000000,0.000000,0.000000,0.000000,0.000000,0.000000,0.000000,0.000000,0.000000,0.000000,0.191191,3,0
640000,-0.002804,16.308819,0.031806,-0.013469,25.313238,-0.026628,0.000702,0.007278,1.571253,-0.018180,0.000216,-0.000632,-0.000017,-0.001344,0.000004,0.006590,0.002890,0.196562,0.045940,0.179509,0.179507,0.170466,0.819339,0.000000,0.000000,0.000000,0.000000,0.000000,0.000000,0.000000,0.000000,0.000000,0.000000,0.000000,0.000000,0.190702,3,0
650000,-0.002852,16.567844,0.030426,-0.013472,25.324480,-0.028702,0.000715,0.007639,1.571257,-0.019056,0.000229,-0.000455,-0.000018,-0.001432,0.000004,0.006455,0.002940,0.195963,-0.038947,0.180049,0.180047,0.170591,0.811686,0.000000,0.000000,0.000000,0.000000,0.000000,0.000000,0.000000,0.000000,0.000000,0.000000,0.000000,0.000000,0.190104,3,0
660000,-0.002899,16.828178,0.029450,-0.013526,25.337864,-0.030225,0.000739,0.008072,1.571263,-0.020127,0.000243,-0.000344,-0.000020,-0.001541,0.000004,0.009022,0.002988,0.235006,-0.023926,0.180606,0.180604,0.170729,0.803973,0.000000,0.000000,0.000000,0.000000,0.000000,0.000000,0.000000,0.000000,0.000000,0.000000,0.000000,0.000000,0.227950,3,0
670000,-0.002945,17.086807,0.029336,-0.013633,25.348297,-0.030360,0.000753,0.008395,1.571276,-0.020930,0.000257,-0.000378,-0.000021,-0.001624,0.000005,0.004865,0.003036,0.173325,0.006835,0.181176,0.181175,0.170877,0.796209,0.000000,0.000000,0.000000,0.000000,0.000000,0.000000,0.000000,0.000000,0.000000,0.000000,0.000000,0.000000,0.168117,3,0
680000,-0.002989,17.344341,0.029792,-0.013647,25.356771,-0.029798,0.000774,0.008663,1.571288,-0.021559,0.000272,-0.000510,-0.000023,-0.001690,0.000005,0.002989,0.003083,0.133263,0.026896,0.181758,0.181756,0.171033,0.788401,0.000000,0.000000,0.000000,0.000000,0.000000,0.000000,0.000000,0.000000,0.000000,0.000000,0.000000,0.000000,0.129261,3,0
690000,-0.003032,17.601997,0.030300,-0.013630,25.365261,-0.029099,0.000788,0.008946,1.571300,-0.022202,0.000287,-0.000652,-0.000024,-0.001759,0.000005,0.003038,0.003127,0.134069,0.028479,0.182348,0.182347,0.171194,0.780558,0.000000,0.000000,0.000000,0.000000,0.000000,0.000000,0.000000,0.000000,0.000000,0.000000,0.000000,0.000000,0.130031,3,0
700000,-0.003075,17.862198,0.029579,-0.013757,25.378046,-0.030187,0.000810,0.009374,1.571303,-0.023247,0.000303,-0.000579,-0.000026,-0.001873,0.000005,0.007456,0.003171,0.214270,-0.014803,0.182944,0.182943,0.171357,0.772688,0.000000,0.000000,0.000000,0.000000,0.000000,0.000000,0.000000,0.000000,0.000000,0.000000,0.000000,0.000000,0.207760,3,0
710000,-0.003117,18.118843,0.029981,-0.013868,25.384621,-0.029515,0.000825,0.009585,1.571302,-0.023709,0.000319,-0.000707,-0.000028,-0.001924,0.000005,0.001501,0.003215,0.093092,0.024801,0.183545,0.183543,0.171522,0.764797,0.000000,0.000000,0.000000,0.000000,0.000000,0.000000,0.000000,0.000000,0.000000,0.000000,0.000000,0.000000,0.090298,3,0
720000,-0.003157,18.378666,0.030612,-0.013875,25.396540,-0.028455,0.000851,0.009989,1.571309,-0.024685,0.000335,-0.000880,-0.000030,-0.002034,0.000006,0.006267,0.003257,0.194202,0.032590,0.184147,0.184145,0.171686,0.756894,0.000000,0.000000,0.000000,0.000000,0.000000,0.000000,0.000000,0.000000,0.000000,0.000000,0.000000,0.000000,0.188268,3,0
730000,-0.003195,18.636745,0.030753,-0.013816,25.405365,-0.028430,0.000863,0.010284,1.571313,-0.025364,0.000352,-0.000962,-0.000032,-0.002112,0.000006,0.002898,0.003297,0.133047,0.015144,0.184749,0.184747,0.171847,0.748986,0.000000,0.000000,0.000000,0.000000,0.000000,0.000000,0.000000,0.000000,0.000000,0.000000,0.000000,0.000000,0.128990,3,0
740000,-0.003232,18.898005,0.031504,-0.013800,25.419554,-0.027543,0.000887,0.010800,1.571313,-0.026569,0.000369,-0.001161,-0.000034,-0.002253,0.000006,0.008964,0.003335,0.232702,0.036479,0.185350,0.185348,0.172004,0.741080,0.000000,0.000000,0.000000,0.000000,0.000000,0.000000,0.000000,0.000000,0.000000,0.000000,0.000000,0.000000,0.225537,3,0
750000,-0.003266,19.156258,0.030846,-0.013718,25.428453,-0.028557,0.000907,0.011118,1.571326,-0.027252,0.000387,-0.001091,-0.000036,-0.002334,0.000007,0.002773,0.003371,0.130331,-0.013098,0.185947,0.185945,0.172155,0.733182,0.000000,0.000000,0.000000,0.000000,0.000000,0.000000,0.000000,0.000000,0.000000,0.000000,0.000000,0.000000,0.126334,3,0
760000,-0.003300,19.415234,0.030738,-0.013769,25.438501,-0.028943,0.000928,0.011474,1.571333,-0.028051,0.000406,-0.001129,-0.000038,-0.002431,0.000007,0.003656,0.003406,0.150293,0.006486,0.186539,0.186537,0.172300,0.725301,0.000000,0.000000,0.000000,0.000000,0.000000,0.000000,0.000000,0.000000,0.000000,0.000000,0.000000,0.000000,0.145658,3,0
770000,-0.003332,19.674925,0.030881,-0.013771,25.449705,-0.028927,0.000945,0.011883,1.571342,-0.028963,0.000424,-0.001218,-0.000040,-0.002543,0.000007,0.004681,0.003439,0.169521,0.015407,0.187126,0.187123,0.172436,0.717442,0.000000,0.000000,0.000000,0.000000,0.000000,0.000000,0.000000,0.000000,0.000000,0.000000,0.000000,0.000000,0.164268,3,0
780000,-0.003362,19.936567,0.031717,-0.013729,25.464088,-0.027675,0.000964,0.012419,1.571348,-0.030204,0.000443,-0.001448,-0.000043,-0.002698,0.000008,0.008630,0.003471,0.227779,0.039397,0.187705,0.187702,0.172563,0.709610,0.000000,0.000000,0.000000,0.000000,0.000000,0.000000,0.000000,0.000000,0.000000,0.000000,0.000000,0.000000,0.220679,3,0
790000,-0.003390,20.197645,0.032111,-0.013622,25.477266,-0.027104,0.000982,0.012916,1.571345,-0.031330,0.000463,-0.001588,-0.000045,-0.002841,0.000008,0.006846,0.003501,0.204540,0.023612,0.188275,0.188273,0.172681,0.701814,0.000000,0.000000,0.000000,0.000000,0.000000,0.000000,0.000000,0.000000,0.000000,0.000000,0.000000,0.000000,0.198151,3,0
800000,-0.003417,20.458164,0.030707,-0.013559,25.489326,-0.029290,0.000997,0.013382,1.571342,-0.032344,0.000483,-0.001360,-0.000048,-0.002972,0.000008,0.005588,0.003528,0.181877,-0.039045,0.188837,0.188834,0.172787,0.694057,0.000000,0.000000,0.000000,0.000000,0.000000,0.000000,0.000000,0.000000,0.000000,0.000000,0.000000,0.000000,0.176184,3,0
810000,-0.003441,20.720631,0.031587,-0.013456,25.504644,-0.027906,0.001014,0.013990,1.571339,-0.033691,0.000503,-0.001610,-0.000051,-0.003149,0.000009,0.009518,0.003554,0.239302,0.041033,0.189388,0.189386,0.172882,0.686347,0.000000,0.000000,0.000000,0.000000,0.000000,0.000000,0.000000,0.000000,0.000000,0.000000,0.000000,0.000000,0.231774,3,0
820000,-0.003464,20.980625,0.030786,-0.013346,25.515575,-0.028985,0.001042,0.014409,1.571343,-0.034576,0.000524,-0.001503,-0.000053,-0.003267,0.000009,0.003961,0.003577,0.155588,-0.017889,0.189929,0.189926,0.172965,0.678687,0.000000,0.000000,0.000000,0.000000,0.000000,0.000000,0.000000,0.000000,0.000000,0.000000,0.000000,0.000000,0.150703,3,0
830000,-0.003484,21.238165,0.030666,-0.013251,25.521959,-0.029322,0.001054,0.014638,1.571340,-0.035003,0.000544,-0.001543,-0.000056,-0.003325,0.000009,0.000901,0.003598,0.074394,0.006181,0.190458,0.190455,0.173036,0.671084,0.000000,0.000000,0.000000,0.000000,0.000000,0.000000,0.000000,0.000000,0.000000,0.000000,0.000000,0.000000,0.072117,3,0
840000,-0.003504,21.498964,0.030603,-0.013300,25.533993,-0.029523,0.001072,0.015116,1.571342,-0.036016,0.000566,-0.001597,-0.000059,-0.003465,0.000010,0.004933,0.003619,0.174612,0.008292,0.190975,0.190972,0.173093,0.663541,0.000000,0.000000,0.000000,0.000000,0.000000,0.000000,0.000000,0.000000,0.000000,0.000000,0.000000,0.000000,0.169090,3,0
850000,-0.003522,21.759188,0.029533,-0.013272,25.544857,-0.031108,0.001100,0.015542,1.571350,-0.036907,0.000587,-0.001432,-0.000062,-0.003590,0.000010,0.003856,0.003638,0.152237,-0.026559,0.191480,0.191477,0.173136,0.656063,0.000000,0.000000,0.000000,0.000000,0.000000,0.000000,0.000000,0.000000,0.000000,0.000000,0.000000,0.000000,0.147419,3,0
860000,-0.003539,22.017565,0.028337,-0.013157,25.552481,-0.032746,0.001129,0.015825,1.571349,-0.037442,0.000609,-0.001240,-0.000065,-0.003666,0.000010,0.001479,0.003656,0.090693,-0.030435,0.191972,0.191968,0.173166,0.648655,0.000000,0.000000,0.000000,0.000000,0.000000,0.000000,0.000000,0.000000,0.000000,0.000000,0.000000,0.000000,0.087861,3,0
870000,-0.003554,22.276024,0.027616,-0.013078,25.560068,-0.033943,0.001146,0.016116,1.571354,-0.037982,0.000631,-0.001155,-0.000068,-0.003744,0.000011,0.001357,0.003672,0.090666,-0.013348,0.192451,0.192447,0.173182,0.641320,0.000000,0.000000,0.000000,0.000000,0.000000,0.000000,0.000000,0.000000,0.000000,0.000000,0.000000,0.000000,0.087829,3,0
880000,-0.003568,22.533922,0.026804,-0.013024,25.566504,-0.035155,0.001163,0.016353,1.571364,-0.038406,0.000653,-0.001051,-0.000071,-0.003807,0.000011,0.000850,0.003687,0.070679,-0.016120,0.192917,0.192913,0.173184,0.634062,0.000000,0.000000,0.000000,0.000000,0.000000,0.000000,0.000000,0.000000,0.000000,0.000000,0.000000,0.000000,0.068498,3,0
890000,-0.003580,22.797029,0.027454,-0.012912,25.582098,-0.034152,0.001178,0.017023,1.571370,-0.039795,0.000676,-0.001289,-0.000075,-0.004014,0.000011,0.008747,0.003700,0.230171,0.035110,0.193369,0.193365,0.173172,0.626884,0.000000,0.000000,0.000000,0.000000,0.000000,0.000000,0.000000,0.000000,0.000000,0.000000,0.000000,0.000000,0.222784,3,0
900000,-0.003591,23.057587,0.027123,-0.012890,25.593027,-0.034466,0.001204,0.017468,1.571380,-0.040683,0.000699,-0.001296,-0.000078,-0.004148,0.000012,0.003432,0.003711,0.145819,0.000642,0.193808,0.193804,0.173146,0.619790,0.000000,0.000000,0.000000,0.000000,0.000000,0.000000,0.000000,0.000000,0.000000,0.000000,0.000000,0.000000,0.141155,3,0
910000,-0.003601,23.315617,0.027024,-0.012852,25.599304,-0.034725,0.001224,0.017694,1.571393,-0.041075,0.000722,-0.001357,-0.000082,-0.004209,0.000012,0.000677,0.003722,0.064062,0.008794,0.194233,0.194229,0.173105,0.612783,0.000000,0.000000,0.000000,0.000000,0.000000,0.000000,0.000000,0.000000,0.000000,0.000000,0.000000,0.000000,0.062093,3,0
920000,-0.003611,23.576303,0.027392,-0.012854,25.610245,-0.034349,0.001248,0.018163,1.571396,-0.041961,0.000745,-0.001533,-0.000085,-0.004347,0.000012,0.003445,0.003732,0.143911,0.025214,0.194646,0.194641,0.173050,0.605864,0.000000,0.000000,0.000000,0.000000,0.000000,0.000000,0.000000,0.000000,0.000000,0.000000,0.000000,0.000000,0.139291,3,0
930000,-0.003619,23.837681,0.027649,-0.012787,25.622181,-0.034093,0.001274,0.018686,1.571400,-0.042962,0.000768,-0.001684,-0.000089,-0.004506,0.000013,0.004277,0.003741,0.161417,0.021240,0.195044,0.195040,0.172981,0.599038,0.000000,0.000000,0.000000,0.000000,0.000000,0.000000,0.000000,0.000000,0.000000,0.000000,0.000000,0.000000,0.156212,3,0
940000,-0.003626,24.097792,0.028687,-0.012773,25.631809,-0.032455,0.001295,0.019084,1.571411,-0.043701,0.000792,-0.002023,-0.000093,-0.004625,0.000013,0.002645,0.003749,0.118589,0.048132,0.195430,0.195425,0.172898,0.592305,0.000000,0.000000,0.000000,0.000000,0.000000,0.000000,0.000000,0.000000,0.000000,0.000000,0.000000,0.000000,0.114786,3,0
950000,-0.003633,24.359898,0.027421,-0.012671,25.644812,-0.034311,0.001315,0.019666,1.571425,-0.044809,0.000816,-0.001801,-0.000097,-0.004807,0.000014,0.005190,0.003755,0.176443,-0.032297,0.195803,0.195797,0.172802,0.585668,0.000000,0.000000,0.000000,0.000000,0.000000,0.000000,0.000000,0.000000,0.000000,0.000000,0.000000,0.000000,0.170723,3,0
960000,-0.003638,24.622019,0.026859,-0.012606,25.657650,-0.035069,0.001332,0.020238,1.571437,-0.045897,0.000840,-0.001756,-0.000101,-0.004988,0.000014,0.004815,0.003761,0.172634,-0.007201,0.196163,0.196157,0.172692,0.579129,0.000000,0.000000,0.000000,0.000000,0.000000,0.000000,0.000000,0.000000,0.000000,0.000000,0.000000,0.000000,0.167030,3,0
970000,-0.003643,24.882851,0.026077,-0.012597,25.668016,-0.036079,0.001353,0.020698,1.571438,-0.046715,0.000864,-0.001655,-0.000105,-0.005126,0.000014,0.002722,0.003766,0.129051,-0.014653,0.196511,0.196505,0.172568,0.572688,0.000000,0.000000,0.000000,0.000000,0.000000,0.000000,0.000000,0.000000,0.000000,0.000000,0.000000,0.000000,0.124878,3,0
980000,-0.003646,25.146322,0.025923,-0.012513,25.683018,-0.036292,0.001369,0.021401,1.571443,-0.048027,0.000888,-0.001717,-0.000109,-0.005351,0.000015,0.006856,0.003770,0.206055,0.007662,0.196846,0.196840,0.172432,0.566349,0.000000,0.000000,0.000000,0.000000,0.000000,0.000000,0.000000,0.000000,0.000000,0.000000,0.000000,0.000000,0.199328,3,0
990000,-0.003650,25.407824,0.025377,-0.012532,25.694281,-0.037038,0.001382,0.021908,1.571456,-0.048929,0.000913,-0.001679,-0.000113,-0.005508,0.000015,0.003223,0.003774,0.141224,-0.005995,0.197170,0.197164,0.172283,0.560111,0.000000,0.000000,0.000000,0.000000,0.000000,0.000000,0.000000,0.000000,0.000000,0.000000,0.000000,0.000000,0.136632,3,0
1000000,-0.003652,25.668034,0.024287,-0.012400,25.703117,-0.038550,0.001402,0.022284,1.571454,-0.049561,0.000937,-0.001500,-0.000118,-0.005620,0.000016,0.001658,0.003776,0.098276,-0.024724,0.197483,0.197476,0.172122,0.553976,0.000000,0.000000,0.000000,0.000000,0.000000,0.000000,0.000000,0.000000,0.000000,0.000000,0.000000,0.000000,0.095111,3,0
1010000,-0.003653,25.929585,0.024575,-0.012321,25.714300,-0.038208,0.001423,0.022790,1.571452,-0.050438,0.000962,-0.001683,-0.000122,-0.005777,0.000016,0.003083,0.003777,0.136160,0.023946,0.197784,0.197777,0.171949,0.547946,0.000000,0.000000,0.000000,0.000000,0.000000,0.000000,0.000000,0.000000,0.000000,0.000000,0.000000,0.000000,0.131724,3,0
1020000,-0.003653,26.190491,0.024303,-0.012324,25.724136,-0.038549,0.001445,0.023229,1.571452,-0.051169,0.000986,-0.001719,-0.000126,-0.005910,0.000017,0.002065,0.003778,0.113047,0.004215,0.198075,0.198067,0.171764,0.542019,0.000000,0.000000,0.000000,0.000000,0.000000,0.000000,0.000000,0.000000,0.000000,0.000000,0.000000,0.000000,0.109377,3,0
1030000,-0.003653,26.451416,0.024513,-0.012314,25.733936,-0.038294,0.001463,0.023658,1.571460,-0.051885,0.001011,-0.001884,-0.000131,-0.006043,0.000017,0.002042,0.003779,0.110468,0.021215,0.198355,0.198347,0.171567,0.536197,0.000000,0.000000,0.000000,0.000000,0.000000,0.000000,0.000000,0.000000,0.000000,0.000000,0.000000,0.000000,0.106880,3,0
1040000,-0.003652,26.712358,0.024868,-0.012173,25.743586,-0.037904,0.001481,0.024100,1.571457,-0.052586,0.001036,-0.002089,-0.000136,-0.006174,0.000017,0.001989,0.003777,0.107868,0.026278,0.198626,0.198618,0.171360,0.530480,0.000000,0.000000,0.000000,0.000000,0.000000,0.000000,0.000000,0.000000,0.000000,0.000000,0.000000,0.000000,0.104363,3,0
1050000,-0.003650,26.971998,0.025582,-0.012097,25.750898,-0.036819,0.001503,0.024403,1.571464,-0.053012,0.001060,-0.002388,-0.000141,-0.006254,0.000018,0.000935,0.003775,0.065496,0.038598,0.198887,0.198878,0.171142,0.524869,0.000000,0.000000,0.000000,0.000000,0.000000,0.000000,0.000000,0.000000,0.000000,0.000000,0.000000,0.000000,0.063433,3,0
1060000,-0.003646,27.231012,0.025818,-0.011990,25.757019,-0.036516,0.001535,0.024623,1.571468,-0.053302,0.001085,-0.002557,-0.000145,-0.006310,0.000018,0.000394,0.003772,0.044333,0.021478,0.199139,0.199130,0.170914,0.519363,0.000000,0.000000,0.000000,0.000000,0.000000,0.000000,0.000000,0.000000,0.000000,0.000000,0.000000,0.000000,0.043017,3,0
1070000,-0.003641,27.492046,0.026842,-0.011865,25.766537,-0.034978,0.001562,0.025064,1.571483,-0.053978,0.001109,-0.002945,-0.000150,-0.006442,0.000018,0.002114,0.003767,0.103319,0.049155,0.199383,0.199374,0.170677,0.513962,0.000000,0.000000,0.000000,0.000000,0.000000,0.000000,0.000000,0.000000,0.000000,0.000000,0.000000,0.000000,0.099956,3,0
1080000,-0.003637,27.752430,0.027390,-0.011852,25.774738,-0.034299,0.001590,0.025414,1.571493,-0.054508,0.001134,-0.003201,-0.000155,-0.006547,0.000018,0.001218,0.003762,0.080736,0.032000,0.199619,0.199609,0.170430,0.508667,0.000000,0.000000,0.000000,0.000000,0.000000,0.000000,0.000000,0.000000,0.000000,0.000000,0.000000,0.000000,0.078137,3,0
1090000,-0.003631,28.015486,0.026240,-0.011677,25.787611,-0.036060,0.001615,0.026054,1.571500,-0.055550,0.001159,-0.002988,-0.000160,-0.006758,0.000019,0.004161,0.003756,0.158211,-0.027882,0.199847,0.199836,0.170174,0.503476,0.000000,0.000000,0.000000,0.000000,0.000000,0.000000,0.000000,0.000000,0.000000,0.000000,0.000000,0.000000,0.152982,3,0
1100000,-0.003624,28.277849,0.027040,-0.011645,25.798996,-0.034922,0.001637,0.026608,1.571502,-0.056429,0.001184,-0.003326,-0.000166,-0.006938,0.000019,0.003155,0.003749,0.133574,0.041472,0.200068,0.200057,0.169909,0.498390,0.000000,0.000000,0.000000,0.000000,0.000000,0.000000,0.000000,0.000000,0.000000,0.000000,0.000000,0.000000,0.129173,3,0
1110000,-0.003617,28.540865,0.026099,-0.011590,25.811550,-0.036169,0.001657,0.027243,1.571511,-0.057416,0.001209,-0.003171,-0.000171,-0.007144,0.000020,0.003665,0.003742,0.149399,-0.020407,0.200282,0.200271,0.169636,0.493408,0.000000,0.000000,0.000000,0.000000,0.000000,0.000000,0.000000,0.000000,0.000000,0.000000,0.000000,0.000000,0.144456,3,0
1120000,-0.003609,28.803188,0.025957,-0.011458,25.822739,-0.036435,0.001679,0.027780,1.571513,-0.058241,0.001234,-0.003245,-0.000176,-0.007318,0.000020,0.002523,0.003734,0.124805,0.008280,0.200490,0.200478,0.169356,0.488530,0.000000,0.000000,0.000000,0.000000,0.000000,0.000000,0.000000,0.000000,0.000000,0.000000,0.000000,0.000000,0.120690,3,0
1130000,-0.003599,29.062166,0.026354,-0.011262,25.827734,-0.035804,0.001698,0.027948,1.571523,-0.058381,0.001259,-0.003468,-0.000181,-0.007347,0.000021,0.000196,0.003724,0.021400,0.027229,0.200692,0.200680,0.169068,0.483754,0.000000,0.000000,0.000000,0.000000,0.000000,0.000000,0.000000,0.000000,0.000000,0.000000,0.000000,0.000000,0.020998,3,0
1140000,-0.003588,29.321840,0.027394,-0.011151,25.833982,-0.034451,0.001721,0.028190,1.571531,-0.058649,0.001283,-0.003881,-0.000187,-0.007404,0.000021,0.000674,0.003713,0.040678,0.050009,0.200889,0.200876,0.168774,0.479080,0.000000,0.000000,0.000000,0.000000,0.000000,0.000000,0.000000,0.000000,0.000000,0.000000,0.000000,0.000000,0.039483,3,0
1150000,-0.003577,29.585535,0.027441,-0.011122,25.847168,-0.034396,0.001755,0.028871,1.571543,-0.059700,0.001308,-0.004012,-0.000192,-0.007636,0.000021,0.004090,0.003701,0.158640,0.014551,0.201081,0.201068,0.168472,0.474508,0.000000,0.000000,0.000000,0.000000,0.000000,0.000000,0.000000,0.000000,0.000000,0.000000,0.000000,0.000000,0.153366,3,0
1160000,-0.003564,29.847181,0.028121,-0.010918,25.856539,-0.033455,0.001785,0.029311,1.571556,-0.060319,0.001332,-0.004325,-0.000198,-0.007774,0.000022,0.001634,0.003688,0.093601,0.036932,0.201269,0.201254,0.168165,0.470035,0.000000,0.000000,0.000000,0.000000,0.000000,0.000000,0.000000,0.000000,0.000000,0.000000,0.000000,0.000000,0.090536,3,0
1170000,-0.003552,30.106152,0.027069,-0.010846,25.861254,-0.034982,0.001808,0.029454,1.571559,-0.060391,0.001357,-0.004113,-0.000204,-0.007791,0.000022,0.000125,0.003675,0.010769,-0.025387,0.201452,0.201437,0.167852,0.465662,0.000000,0.000000,0.000000,0.000000,0.000000,0.000000,0.000000,0.000000,0.000000,0.000000,0.000000,0.000000,0.010994,3,0
1180000,-0.003538,30.367819,0.026513,-0.010711,25.870514,-0.035614,0.001840,0.029906,1.571566,-0.060985,0.001381,-0.004061,-0.000209,-0.007928,0.000022,0.001306,0.003661,0.089695,-0.006989,0.201632,0.201616,0.167533,0.461387,0.000000,0.000000,0.000000,0.000000,0.000000,0.000000,0.000000,0.000000,0.000000,0.000000,0.000000,0.000000,0.086752,3,0
1190000,-0.003523,30.630804,0.026668,-0.010562,25.882036,-0.035591,0.001871,0.030503,1.571581,-0.061820,0.001405,-0.004231,-0.000215,-0.008123,0.000023,0.002622,0.003646,0.126118,0.018980,0.201808,0.201792,0.167210,0.457209,0.000000,0.000000,0.000000,0.000000,0.000000,0.000000,0.000000,0.000000,0.000000,0.000000,0.000000,0.000000,0.121929,3,0
1200000,-0.003507,30.889740,0.025964,-0.010436,25.886345,-0.036674,0.001892,0.030600,1.571581,-0.061835,0.001430,-0.004127,-0.000221,-0.008126,0.000023,0.000027,0.003629,0.002171,-0.012263,0.201982,0.201965,0.166882,0.453127,0.000000,0.000000,0.000000,0.000000,0.000000,0.000000,0.000000,0.000000,0.000000,0.000000,0.000000,0.000000,0.004086,3,0
1210000,-0.003491,31.152050,0.025209,-0.010341,25.896578,-0.037555,0.001929,0.031105,1.571588,-0.062504,0.001454,-0.004019,-0.000226,-0.008288,0.000023,0.001675,0.003613,0.101011,-0.013501,0.202153,0.202135,0.166550,0.449141,0.000000,0.000000,0.000000,0.000000,0.000000,0.000000,0.000000,0.000000,0.000000,0.000000,0.000000,0.000000,0.097669,3,0
1220000,-0.003473,31.415665,0.026285,-0.010168,25.908869,-0.036404,0.001951,0.031754,1.571584,-0.063406,0.001477,-0.004490,-0.000232,-0.008507,0.000024,0.003473,0.003595,0.136782,0.053139,0.202321,0.202303,0.166214,0.445247,0.000000,0.000000,0.000000,0.000000,0.000000,0.000000,0.000000,0.000000,0.000000,0.000000,0.000000,0.000000,0.132221,3,0
1230000,-0.003454,31.678560,0.026045,-0.009974,25.919765,-0.036903,0.001988,0.032315,1.571589,-0.064143,0.001501,-0.004544,-0.000238,-0.008689,0.000024,0.002012,0.003575,0.111593,0.005136,0.202488,0.202469,0.165874,0.441446,0.000000,0.000000,0.000000,0.000000,0.000000,0.000000,0.000000,0.000000,0.000000,0.000000,0.000000,0.000000,0.107883,3,0
1240000,-0.003436,31.937389,0.024947,-0.009934,25.923388,-0.038318,0.002007,0.032364,1.571592,-0.064063,0.001525,-0.004313,-0.000244,-0.008670,0.000024,0.000138,0.003556,-0.012262,-0.026281,0.202653,0.202633,0.165531,0.437737,0.000000,0.000000,0.000000,0.000000,0.000000,0.000000,0.000000,0.000000,0.000000,0.000000,0.000000,0.000000,0.012338,3,0
1250000,-0.003418,32.197586,0.023752,-0.009860,25.929260,-0.039987,0.002033,0.032578,1.571594,-0.064242,0.001549,-0.004059,-0.000250,-0.008716,0.000025,0.000258,0.003537,0.027054,-0.029184,0.202817,0.202796,0.165185,0.434116,0.000000,0.000000,0.000000,0.000000,0.000000,0.000000,0.000000,0.000000,0.000000,0.000000,0.000000,0.000000,0.026357,3,0
1260000,-0.003398,32.459789,0.024172,-0.009785,25.938675,-0.039408,0.002064,0.033047,1.571606,-0.064799,0.001572,-0.004335,-0.000256,-0.008859,0.000025,0.001311,0.003517,0.084866,0.030361,0.202980,0.202958,0.164837,0.430584,0.000000,0.000000,0.000000,0.000000,0.000000,0.000000,0.000000,0.000000,0.000000,0.000000,0.000000,0.000000,0.082067,3,0
1270000,-0.003377,32.720612,0.024196,-0.009577,25.945631,-0.039482,0.002090,0.033317,1.571620,-0.065069,0.001595,-0.004479,-0.000262,-0.008930,0.000025,0.000316,0.003496,0.041233,0.015673,0.203143,0.203120,0.164486,0.427140,0.000000,0.000000,0.000000,0.000000,0.000000,0.000000,0.000000,0.000000,0.000000,0.000000,0.000000,0.000000,0.039984,3,0
1280000,-0.003356,32.980076,0.024115,-0.009455,25.949945,-0.039429,0.002127,0.033412,1.571637,-0.065062,0.001617,-0.004583,-0.000268,-0.008927,0.000025,0.000024,0.003474,-0.000988,0.011601,0.203305,0.203281,0.164133,0.423780,0.000000,0.000000,0.000000,0.000000,0.000000,0.000000,0.000000,0.000000,0.000000,0.000000,0.000000,0.000000,0.003489,3,0
1290000,-0.003335,33.238205,0.023147,-0.009320,25.951818,-0.040749,0.002153,0.033324,1.571638,-0.064789,0.001640,-0.004389,-0.000274,-0.008855,0.000025,0.000355,0.003451,-0.041828,-0.021016,0.203467,0.203442,0.163779,0.420505,0.000000,0.000000,0.000000,0.000000,0.000000,0.000000,0.000000,0.000000,0.000000,0.000000,0.000000,0.000000,0.040550,3,0
1300000,-0.003311,33.496353,0.024012,-0.009082,25.953800,-0.039660,0.002189,0.033232,1.571654,-0.064517,0.001661,-0.004808,-0.000280,-0.008778,0.000025,0.000634,0.003428,-0.041550,0.046734,0.203628,0.203603,0.163424,0.417313,0.000000,0.000000,0.000000,0.000000,0.000000,0.000000,0.000000,0.000000,0.000000,0.000000,0.000000,0.000000,0.040271,3,0
1310000,-0.003286,33.755886,0.023317,-0.008856,25.958141,-0.040707,0.002215,0.033329,1.571660,-0.064507,0.001684,-0.004710,-0.000287,-0.008776,0.000025,0.000021,0.003401,-0.001534,-0.010736,0.203791,0.203764,0.163067,0.414201,0.000000,0.000000,0.000000,0.000000,0.000000,0.000000,0.000000,0.000000,0.000000,0.000000,0.000000,0.000000,0.003605,3,0
1320000,-0.003259,34.018791,0.024262,-0.008657,25.968361,-0.039636,0.002249,0.033869,1.571672,-0.065132,0.001705,-0.005183,-0.000293,-0.008951,0.000026,0.001922,0.003374,0.096710,0.050555,0.203954,0.203926,0.162710,0.411169,0.000000,0.000000,0.000000,0.000000,0.000000,0.000000,0.000000,0.000000,0.000000,0.000000,0.000000,0.000000,0.093486,3,0
1330000,-0.003232,34.278950,0.023703,-0.008497,25.973597,-0.040256,0.002281,0.034020,1.571678,-0.065214,0.001727,-0.005131,-0.000299,-0.008974,0.000026,0.000033,0.003346,0.012615,-0.005793,0.204117,0.204088,0.162352,0.408216,0.000000,0.000000,0.000000,0.000000,0.000000,0.000000,0.000000,0.000000,0.000000,0.000000,0.000000,0.000000,0.012606,3,0
1340000,-0.003204,34.541130,0.023422,-0.008300,25.982393,-0.040468,0.002308,0.034442,1.571690,-0.065668,0.001748,-0.005186,-0.000305,-0.009106,0.000026,0.000805,0.003317,0.070461,0.005001,0.204281,0.204252,0.161994,0.405339,0.000000,0.000000,0.000000,0.000000,0.000000,0.000000,0.000000,0.000000,0.000000,0.000000,0.000000,0.000000,0.068137,3,0
1350000,-0.003175,34.800560,0.022607,-0.008066,25.986172,-0.041559,0.002342,0.034479,1.571702,-0.065585,0.001770,-0.005044,-0.000311,-0.009082,0.000026,0.000065,0.003287,-0.012894,-0.015070,0.204447,0.204416,0.161635,0.402538,0.000000,0.000000,0.000000,0.000000,0.000000,0.000000,0.000000,0.000000,0.000000,0.000000,0.000000,0.000000,0.012853,3,0
1360000,-0.003145,35.058632,0.022868,-0.007874,25.987387,-0.040987,0.002362,0.034325,1.571716,-0.065241,0.001790,-0.005271,-0.000318,-0.008978,0.000026,0.000567,0.003256,-0.053696,0.024982,0.204614,0.204582,0.161277,0.399811,0.000000,0.000000,0.000000,0.000000,0.000000,0.000000,0.000000,0.000000,0.000000,0.000000,0.000000,0.000000,0.051956,3,0
1370000,-0.003112,35.321472,0.023480,-0.007612,25.997150,-0.040289,0.002384,0.034826,1.571722,-0.065786,0.001810,-0.005647,-0.000324,-0.009142,0.000026,0.001431,0.003223,0.085800,0.038815,0.204782,0.204749,0.160919,0.397156,0.000000,0.000000,0.000000,0.000000,0.000000,0.000000,0.000000,0.000000,0.000000,0.000000,0.000000,0.000000,0.082937,3,0
1380000,-0.003079,35.580181,0.024755,-0.007425,25.999348,-0.038513,0.002406,0.034735,1.571732,-0.065542,0.001830,-0.006232,-0.000330,-0.009064,0.000026,0.000869,0.003188,-0.037987,0.062562,0.204952,0.204918,0.160562,0.394573,0.000000,0.000000,0.000000,0.000000,0.000000,0.000000,0.000000,0.000000,0.000000,0.000000,0.000000,0.000000,0.036807,3,0
1390000,-0.003045,35.842316,0.023545,-0.007190,26.007725,-0.040110,0.002430,0.035143,1.571731,-0.065930,0.001850,-0.005953,-0.000337,-0.009186,0.000027,0.000751,0.003152,0.061100,-0.030276,0.205124,0.205088,0.160206,0.392059,0.000000,0.000000,0.000000,0.000000,0.000000,0.000000,0.000000,0.000000,0.000000,0.000000,0.000000,0.000000,0.059084,3,0
1400000,-0.003010,36.105076,0.023787,-0.006974,26.017157,-0.039703,0.002467,0.035611,1.571736,-0.066414,0.001870,-0.006200,-0.000343,-0.009339,0.000027,0.001060,0.003117,0.077187,0.024752,0.205297,0.205260,0.159851,0.389614,0.000000,0.000000,0.000000,0.000000,0.000000,0.000000,0.000000,0.000000,0.000000,0.000000,0.000000,0.000000,0.074611,3,0
1410000,-0.002973,36.364376,0.024441,-0.006730,26.020224,-0.038697,0.002494,0.035572,1.571751,-0.066246,0.001888,-0.006575,-0.000349,-0.009283,0.000027,0.000369,0.003079,-0.026638,0.039487,0.205472,0.205434,0.159497,0.387236,0.000000,0.000000,0.000000,0.000000,0.000000,0.000000,0.000000,0.000000,0.000000,0.000000,0.000000,0.000000,0.025890,3,0
1420000,-0.002935,36.627083,0.024864,-0.006495,26.029247,-0.038154,0.002521,0.036024,1.571750,-0.066692,0.001907,-0.006885,-0.000356,-0.009427,0.000027,0.000990,0.003040,0.071854,0.031164,0.205649,0.205610,0.159145,0.384921,0.000000,0.000000,0.000000,0.000000,0.000000,0.000000,0.000000,0.000000,0.000000,0.000000,0.000000,0.000000,0.069459,3,0
1430000,-0.002896,36.888363,0.026001,-0.006300,26.035671,-0.036941,0.002557,0.036255,1.571767,-0.066862,0.001925,-0.007449,-0.000362,-0.009480,0.000028,0.000667,0.003000,0.027721,0.057809,0.205829,0.205788,0.158794,0.382672,0.000000,0.000000,0.000000,0.000000,0.000000,0.000000,0.000000,0.000000,0.000000,0.000000,0.000000,0.000000,0.026939,3,0
1440000,-0.002858,37.147575,0.024787,-0.006115,26.038315,-0.038507,0.002577,0.036201,1.571770,-0.066648,0.001943,-0.007132,-0.000368,-0.009410,0.000027,0.000363,0.002959,-0.034832,-0.032021,0.206009,0.205968,0.158445,0.380485,0.000000,0.000000,0.000000,0.000000,0.000000,0.000000,0.000000,0.000000,0.000000,0.000000,0.000000,0.000000,0.033763,3,0
1450000,-0.002818,37.410187,0.025691,-0.005914,26.047020,-0.037599,0.002612,0.036623,1.571778,-0.067038,0.001961,-0.007628,-0.000374,-0.009540,0.000028,0.001056,0.002919,0.063751,0.049648,0.206192,0.206149,0.158097,0.378359,0.000000,0.000000,0.000000,0.000000,0.000000,0.000000,0.000000,0.000000,0.000000,0.000000,0.000000,0.000000,0.061634,3,0
1460000,-0.002778,37.671387,0.024725,-0.005690,26.053076,-0.038644,0.002636,0.036828,1.571794,-0.067159,0.001979,-0.007413,-0.000380,-0.009583,0.000028,0.000144,0.002877,0.019722,-0.022178,0.206377,0.206332,0.157752,0.376293,0.000000,0.000000,0.000000,0.000000,0.000000,0.000000,0.000000,0.000000,0.000000,0.000000,0.000000,0.000000,0.019241,3,0
1470000,-0.002737,37.931179,0.024308,-0.005483,26.056412,-0.039068,0.002671,0.036823,1.571811,-0.067020,0.001996,-0.007397,-0.000386,-0.009534,0.000028,0.000086,0.002835,-0.022873,-0.001208,0.206564,0.206518,0.157409,0.374284,0.000000,0.000000,0.000000,0.000000,0.000000,0.000000,0.000000,0.000000,0.000000,0.000000,0.000000,0.000000,0.022256,3,0
1480000,-0.002695,38.190952,0.024193,-0.005256,26.059765,-0.039360,0.002702,0.036797,1.571818,-0.066873,0.002012,-0.007499,-0.000392,-0.009482,0.000028,0.000114,0.002791,-0.024273,0.010613,0.206753,0.206705,0.157069,0.372333,0.000000,0.000000,0.000000,0.000000,0.000000,0.000000,0.000000,0.000000,0.000000,0.000000,0.000000,0.000000,0.023588,3,0
1490000,-0.002651,38.451389,0.025311,-0.005025,26.064186,-0.038127,0.002730,0.036856,1.571835,-0.066837,0.002028,-0.008076,-0.000398,-0.009465,0.000028,0.000554,0.002747,-0.005775,0.058063,0.206943,0.206895,0.156731,0.370437,0.000000,0.000000,0.000000,0.000000,0.000000,0.000000,0.000000,0.000000,0.000000,0.000000,0.000000,0.000000,0.006165,3,0
1500000,-0.002608,38.713867,0.024770,-0.004828,26.072227,-0.038827,0.002752,0.037238,1.571836,-0.067145,0.002044,-0.008030,-0.000404,-0.009579,0.000028,0.000438,0.002701,0.051811,-0.005549,0.207136,0.207086,0.156396,0.368595,0.000000,0.000000,0.000000,0.000000,0.000000,0.000000,0.000000,0.000000,0.000000,0.000000,0.000000,0.000000,0.050090,3,0
1510000,-0.002564,38.971462,0.026038,-0.004643,26.071213,-0.037195,0.002791,0.036843,1.571849,-0.066602,0.002058,-0.008647,-0.000410,-0.009373,0.000028,0.001993,0.002656,-0.091473,0.063084,0.207330,0.207279,0.156063,0.366805,0.000000,0.000000,0.000000,0.000000,0.000000,0.000000,0.000000,0.000000,0.000000,0.000000,0.000000,0.000000,0.088336,3,0
1520000,-0.002518,39.234573,0.027167,-0.004403,26.080341,-0.036037,0.002811,0.037316,1.571865,-0.067001,0.002073,-0.009252,-0.000416,-0.009521,0.000028,0.001312,0.002609,0.068394,0.058645,0.207527,0.207474,0.155733,0.365067,0.000000,0.000000,0.000000,0.000000,0.000000,0.000000,0.000000,0.000000,0.000000,0.000000,0.000000,0.000000,0.066092,3,0
1530000,-0.002474,39.496929,0.028046,-0.004305,26.087967,-0.035124,0.002847,0.037643,1.571876,-0.067255,0.002087,-0.009752,-0.000422,-0.009615,0.000029,0.000690,0.002563,0.043739,0.048462,0.207725,0.207670,0.155407,0.363380,0.000000,0.000000,0.000000,0.000000,0.000000,0.000000,0.000000,0.000000,0.000000,0.000000,0.000000,0.000000,0.042309,3,0
1540000,-0.002429,39.755795,0.027208,-0.004114,26.089180,-0.035971,0.002870,0.037425,1.571894,-0.066910,0.002102,-0.009544,-0.000428,-0.009482,0.000028,0.000634,0.002516,-0.059662,-0.019240,0.207924,0.207868,0.155083,0.361741,0.000000,0.000000,0.000000,0.000000,0.000000,0.000000,0.000000,0.000000,0.000000,0.000000,0.000000,0.000000,0.057649,3,0
1550000,-0.002384,40.016720,0.026728,-0.003900,26.093992,-0.036589,0.002907,0.037536,1.571900,-0.066908,0.002116,-0.009498,-0.000433,-0.009481,0.000028,0.000004,0.002470,-0.000477,-0.004502,0.208126,0.208068,0.154763,0.360150,0.000000,0.000000,0.000000,0.000000,0.000000,0.000000,0.000000,0.000000,0.000000,0.000000,0.000000,0.000000,0.002429,3,0
1560000,-0.002338,40.278973,0.027321,-0.003632,26.101072,-0.035923,0.002944,0.037846,1.571898,-0.067116,0.002129,-0.009894,-0.000439,-0.009562,0.000029,0.000450,0.002422,0.036736,0.037790,0.208329,0.208269,0.154445,0.358604,0.000000,0.000000,0.000000,0.000000,0.000000,0.000000,0.000000,0.000000,0.000000,0.000000,0.000000,0.000000,0.035546,3,0
1570000,-0.002290,40.541161,0.027996,-0.003422,26.107988,-0.035346,0.002978,0.038129,1.571902,-0.067300,0.002142,-0.010322,-0.000444,-0.009635,0.000029,0.000445,0.002373,0.032837,0.040832,0.208533,0.208472,0.154131,0.357103,0.000000,0.000000,0.000000,0.000000,0.000000,0.000000,0.000000,0.000000,0.000000,0.000000,0.000000,0.000000,0.031790,3,0
1580000,-0.002243,40.799152,0.027534,-0.003146,26.107258,-0.035725,0.002995,0.037739,1.571907,-0.066794,0.002155,-0.010251,-0.000450,-0.009426,0.000029,0.001316,0.002323,-0.090271,-0.005013,0.208738,0.208676,0.153821,0.355648,0.000000,0.000000,0.000000,0.000000,0.000000,0.000000,0.000000,0.000000,0.000000,0.000000,0.000000,0.000000,0.087160,3,0
1590000,-0.002195,41.059216,0.027802,-0.003018,26.110157,-0.035311,0.003032,0.037682,1.571908,-0.066626,0.002167,-0.010497,-0.000455,-0.009354,0.000028,0.000243,0.002274,-0.030190,0.024249,0.208945,0.208882,0.153514,0.354234,0.000000,0.000000,0.000000,0.000000,0.000000,0.000000,0.000000,0.000000,0.000000,0.000000,0.000000,0.000000,0.029215,3,0
1600000,-0.002146,41.320644,0.027170,-0.002743,26.115515,-0.036217,0.003067,0.037840,1.571910,-0.066670,0.002179,-0.010387,-0.000460,-0.009373,0.000029,0.000029,0.002224,0.007900,-0.010623,0.209154,0.209088,0.153211,0.352861,0.000000,0.000000,0.000000,0.000000,0.000000,0.000000,0.000000,0.000000,0.000000,0.000000,0.000000,0.000000,0.007918,3,0
1610000,-0.002098,41.579945,0.026220,-0.002600,26.116941,-0.037262,0.003101,0.037646,1.571924,-0.066371,0.002192,-0.010129,-0.000465,-0.009246,0.000028,0.000573,0.002174,-0.054794,-0.023485,0.209363,0.209295,0.152911,0.351528,0.000000,0.000000,0.000000,0.000000,0.000000,0.000000,0.000000,0.000000,0.000000,0.000000,0.000000,0.000000,0.052932,3,0
1620000,-0.002049,41.841286,0.027139,-0.002483,26.121958,-0.036173,0.003118,0.037768,1.571924,-0.066391,0.002202,-0.010667,-0.000470,-0.009251,0.000028,0.000426,0.002124,0.003956,0.051012,0.209572,0.209504,0.152615,0.350234,0.000000,0.000000,0.000000,0.000000,0.000000,0.000000,0.000000,0.000000,0.000000,0.000000,0.000000,0.000000,0.004347,3,0
1630000,-0.002000,42.103966,0.027893,-0.002210,26.129375,-0.035544,0.003135,0.038090,1.571922,-0.066608,0.002212,-0.011148,-0.000475,-0.009345,0.000029,0.000592,0.002073,0.040749,0.044652,0.209783,0.209713,0.152322,0.348978,0.000000,0.000000,0.000000,0.000000,0.000000,0.000000,0.000000,0.000000,0.000000,0.000000,0.000000,0.000000,0.039388,3,0
1640000,-0.001950,42.361004,0.028606,-0.001978,26.126362,-0.034644,0.003170,0.037474,1.571931,-0.065957,0.002222,-0.011554,-0.000480,-0.009047,0.000028,0.002690,0.002021,-0.122612,0.040927,0.209994,0.209922,0.152034,0.347760,0.000000,0.000000,0.000000,0.000000,0.000000,0.000000,0.000000,0.000000,0.000000,0.000000,0.000000,0.000000,0.118325,3,0
1650000,-0.001901,42.618774,0.027543,-0.001828,26.124643,-0.035827,0.003190,0.036995,1.571933,-0.065426,0.002232,-0.011217,-0.000485,-0.008805,0.000028,0.001792,0.001969,-0.101311,-0.029357,0.210206,0.210132,0.151749,0.346575,0.000000,0.000000,0.000000,0.000000,0.000000,0.000000,0.000000,0.000000,0.000000,0.000000,0.000000,0.000000,0.097789,3,0
1660000,-0.001851,42.880726,0.026944,-0.001671,26.130741,-0.036560,0.003212,0.037204,1.571940,-0.065523,0.002243,-0.011124,-0.000490,-0.008851,0.000028,0.000070,0.001919,0.018631,-0.009135,0.210418,0.210343,0.151468,0.345427,0.000000,0.000000,0.000000,0.000000,0.000000,0.000000,0.000000,0.000000,0.000000,0.000000,0.000000,0.000000,0.018070,3,0
1670000,-0.001802,43.141907,0.027035,-0.001523,26.135311,-0.036598,0.003229,0.037280,1.571944,-0.065497,0.002252,-0.011319,-0.000494,-0.008838,0.000028,0.000059,0.001868,-0.004833,0.018301,0.210630,0.210553,0.151191,0.344312,0.000000,0.000000,0.000000,0.000000,0.000000,0.000000,0.000000,0.000000,0.000000,0.000000,0.000000,0.000000,0.004994,3,0
1680000,-0.001753,43.403042,0.026424,-0.001338,26.139662,-0.037199,0.003257,0.037330,1.571952,-0.065459,0.002261,-0.011213,-0.000499,-0.008820,0.000028,0.000025,0.001817,-0.007637,-0.009702,0.210842,0.210763,0.150918,0.343228,0.000000,0.000000,0.000000,0.000000,0.000000,0.000000,0.000000,0.000000,0.000000,0.000000,0.000000,0.000000,0.007576,3,0
1690000,-0.001704,43.662025,0.025808,-0.001155,26.139927,-0.037810,0.003284,0.037019,1.571968,-0.065106,0.002270,-0.011081,-0.000503,-0.008648,0.000028,0.000807,0.001766,-0.070023,-0.010462,0.211054,0.210974,0.150648,0.342176,0.000000,0.000000,0.000000,0.000000,0.000000,0.000000,0.000000,0.000000,0.000000,0.000000,0.000000,0.000000,0.067584,3,0
1700000,-0.001653,43.923779,0.026167,-0.000908,26.145369,-0.037281,0.003306,0.037172,1.571972,-0.065150,0.002278,-0.011406,-0.000507,-0.008667,0.000028,0.000156,0.001714,0.008930,0.029675,0.211265,0.211184,0.150383,0.341155,0.000000,0.000000,0.000000,0.000000,0.000000,0.000000,0.000000,0.000000,0.000000,0.000000,0.000000,0.000000,0.008782,3,0
1710000,-0.001603,44.186184,0.025281,-0.000717,26.151787,-0.038528,0.003328,0.037417,1.571985,-0.065276,0.002287,-0.011195,-0.000511,-0.008733,0.000028,0.000169,0.001661,0.025429,-0.019933,0.211477,0.211393,0.150122,0.340162,0.000000,0.000000,0.000000,0.000000,0.000000,0.000000,0.000000,0.000000,0.000000,0.000000,0.000000,0.000000,0.024577,3,0
1720000,-0.001553,44.447105,0.024630,-0.000582,26.155546,-0.039332,0.003352,0.037413,1.571995,-0.065187,0.002295,-0.011074,-0.000515,-0.008688,0.000028,0.000073,0.001610,-0.018372,-0.010690,0.211687,0.211602,0.149865,0.339199,0.000000,0.000000,0.000000,0.000000,0.000000,0.000000,0.000000,0.000000,0.000000,0.000000,0.000000,0.000000,0.017795,3,0
