time_us,pos_x,pos_y,pos_z,vel_x,vel_y,vel_z,roll,pitch,yaw,bias_ax,bias_ay,bias_az,bias_gx,bias_gy,bias_gz,nis,innov_x,innov_y,innov_z,cov_pos_x,cov_pos_y,cov_pos_z,cov_yaw,des_speed,des_heading,des_climb,pid_speed,pid_yaw,pid_alt,speed_meas,yaw_meas,climb_meas,fwd_accel,yaw_rate,vert_accel,drift_m,nav_mode,mission_state
0,-0.000002,0.150005,-0.000001,-0.000376,25.000788,-0.000314,0.000004,-0.000018,1.570787,0.000000,0.000000,0.000000,0.000000,0.000000,0.000000,0.006250,0.000004,-0.250010,0.000003,2.400038,2.400038,3.600017,1.000518,0.000000,0.000000,0.000000,0.000000,0.000000,0.000000,0.000000,0.000000,0.000000,0.000000,0.000000,0.000000,0.150005,1,0
10000,-0.000007,0.359562,0.003731,-0.000743,25.001402,-0.000607,-0.000005,-0.000046,1.570781,0.000000,0.000000,-0.000000,0.000000,0.000000,0.000000,0.002397,0.000010,-0.141595,0.009969,1.714420,1.714420,2.250079,1.001073,0.000000,0.000000,0.000000,0.000000,0.000000,0.000000,0.000000,0.000000,0.000000,0.000000,0.000000,0.000000,0.101136,3,0
20000,-0.000014,0.588975,0.003409,-0.001143,25.002209,-0.000929,-0.000004,-0.000064,1.570763,0.000001,0.000000,-0.000000,-0.000000,0.000000,-0.000000,0.001115,0.000018,-0.092735,-0.001146,1.333616,1.333616,1.636554,1.001655,0.000000,0.000000,0.000000,0.000000,0.000000,0.000000,0.000000,0.000000,0.000000,0.000000,0.000000,0.000000,0.072123,3,0
30000,-0.000025,0.849110,-0.001744,-0.001628,25.003359,-0.001359,-0.000011,-0.000093,1.570743,0.000000,0.000000,0.000000,0.000000,-0.000000,0.000000,0.000496,0.000031,0.055545,-0.023981,1.091392,1.091392,1.286065,1.002257,0.000000,0.000000,0.000000,0.000000,0.000000,0.000000,0.000000,0.000000,0.000000,0.000000,0.000000,0.000000,0.045441,3,0
40000,-0.000038,1.086015,0.011632,-0.001982,25.003962,-0.001449,-0.000009,-0.000108,1.570733,0.000003,0.000000,-0.000002,-0.000000,0.000000,-0.000000,0.001816,0.000045,-0.085329,0.075858,0.923811,0.923811,1.059385,1.002869,0.000000,0.000000,0.000000,0.000000,0.000000,0.000000,0.000000,0.000000,0.000000,0.000000,0.000000,0.000000,0.072191,3,0
50000,-0.000054,1.343469,0.015724,-0.002391,25.005276,-0.001441,-0.000020,-0.000119,1.570717,0.000000,0.000000,-0.000003,-0.000000,-0.000000,0.000000,0.000550,0.000062,0.055459,0.027360,0.801036,0.801036,0.900822,1.003484,0.000000,0.000000,0.000000,0.000000,0.000000,0.000000,0.000000,0.000000,0.000000,0.000000,0.000000,0.000000,0.048055,3,0
60000,-0.000071,1.588467,0.017950,-0.002730,25.006062,-0.001675,-0.000027,-0.000136,1.570714,0.000003,0.000000,-0.000004,-0.000000,0.000000,-0.000000,0.000314,0.000081,-0.042977,0.017176,0.707270,0.707270,0.783741,1.004094,0.000000,0.000000,0.000000,0.000000,0.000000,0.000000,0.000000,0.000000,0.000000,0.000000,0.000000,0.000000,0.037911,3,0
70000,-0.000091,1.833319,0.022812,-0.003059,25.006716,-0.001661,-0.000039,-0.000165,1.570693,0.000007,0.000000,-0.000007,-0.000000,0.000000,-0.000000,0.000627,0.000102,-0.049435,0.042208,0.633370,0.633370,0.693801,1.004688,0.000000,0.000000,0.000000,0.000000,0.000000,0.000000,0.000000,0.000000,0.000000,0.000000,0.000000,0.000000,0.044216,3,0
80000,-0.000114,2.081867,0.024137,-0.003527,25.007475,-0.001753,-0.000050,-0.000194,1.570688,0.000008,0.000000,-0.000008,-0.000000,0.000000,-0.000000,0.000064,0.000126,-0.015988,0.012955,0.573673,0.573673,0.622594,1.005260,0.000000,0.000000,0.000000,0.000000,0.000000,0.000000,0.000000,0.000000,0.000000,0.000000,0.000000,0.000000,0.014460,3,0
90000,-0.000141,2.340105,0.028651,-0.004018,25.009306,-0.001510,-0.000058,-0.000216,1.570680,-0.000003,0.000000,-0.000014,-0.000000,-0.000000,0.000000,0.001673,0.000155,0.093276,0.048147,0.524488,0.524488,0.564865,1.005801,0.000000,0.000000,0.000000,0.000000,0.000000,0.000000,0.000000,0.000000,0.000000,0.000000,0.000000,0.000000,0.085123,3,0
100000,-0.000170,2.599336,0.030131,-0.004431,25.011370,-0.001670,-0.000054,-0.000239,1.570662,-0.000021,0.000000,-0.000017,-0.000000,-0.000000,0.000000,0.002014,0.000185,0.113325,0.017384,0.483303,0.483303,0.517162,1.006302,0.000000,0.000000,0.000000,0.000000,0.000000,0.000000,0.000000,0.000000,0.000000,0.000000,0.000000,0.000000,0.104197,3,0
110000,-0.000202,2.856380,0.032755,-0.004768,25.013288,-0.001592,-0.000062,-0.000245,1.570643,-0.000038,0.000000,-0.000023,-0.000000,-0.000001,0.000000,0.001492,0.000218,0.092620,0.033236,0.448353,0.448353,0.477121,1.006755,0.000000,0.000000,0.000000,0.000000,0.000000,0.000000,0.000000,0.000000,0.000000,0.000000,0.000000,0.000000,0.085699,3,0
120000,-0.000236,3.104760,0.033192,-0.005165,25.014019,-0.001726,-0.000064,-0.000274,1.570638,-0.000033,0.000000,-0.000024,-0.000000,-0.000000,0.000000,0.000105,0.000254,-0.025291,0.006163,0.418358,0.418358,0.443071,1.007151,0.000000,0.000000,0.000000,0.000000,0.000000,0.000000,0.000000,0.000000,0.000000,0.000000,0.000000,0.000000,0.023529,3,0
130000,-0.000273,3.352612,0.032746,-0.005649,25.014482,-0.002203,-0.000064,-0.000298,1.570628,-0.000024,0.000000,-0.000023,-0.000000,-0.000000,0.000000,0.000198,0.000292,-0.035130,-0.006157,0.392369,0.392369,0.413797,1.007482,0.000000,0.000000,0.000000,0.000000,0.000000,0.000000,0.000000,0.000000,0.000000,0.000000,0.000000,0.000000,0.032834,3,0
140000,-0.000314,3.603702,0.033735,-0.006119,25.015589,-0.002420,-0.000063,-0.000315,1.570624,-0.000028,0.000000,-0.000027,-0.000000,-0.000000,0.000000,0.000074,0.000334,0.015197,0.015672,0.369666,0.369666,0.388393,1.007740,0.000000,0.000000,0.000000,0.000000,0.000000,0.000000,0.000000,0.000000,0.000000,0.000000,0.000000,0.000000,0.014264,3,0
150000,-0.000357,3.856338,0.031143,-0.006523,25.017113,-0.003145,-0.000077,-0.000327,1.570606,-0.000042,0.000000,-0.000013,-0.000000,-0.000001,0.000000,0.000559,0.000379,0.042400,-0.042039,0.349695,0.349695,0.366172,1.007917,0.000000,0.000000,0.000000,0.000000,0.000000,0.000000,0.000000,0.000000,0.000000,0.000000,0.000000,0.000000,0.039931,3,0
160000,-0.000403,4.110285,0.032323,-0.006946,25.019077,-0.003189,-0.000076,-0.000337,1.570589,-0.000068,0.000001,-0.000021,-0.000000,-0.000001,0.000000,0.000799,0.000427,0.068053,0.021034,0.332020,0.332020,0.346600,1.008004,0.000000,0.000000,0.000000,0.000000,0.000000,0.000000,0.000000,0.000000,0.000000,0.000000,0.000000,0.000000,0.064288,3,0
170000,-0.000451,4.363260,0.029609,-0.007355,25.020821,-0.004263,-0.000086,-0.000346,1.570578,-0.000091,0.000001,-0.000001,-0.000000,-0.000002,0.000000,0.000813,0.000477,0.052634,-0.048822,0.316297,0.316297,0.329260,1.007993,0.000000,0.000000,0.000000,0.000000,0.000000,0.000000,0.000000,0.000000,0.000000,0.000000,0.000000,0.000000,0.049862,3,0
180000,-0.000503,4.614400,0.030510,-0.007834,25.022099,-0.004051,-0.000084,-0.000370,1.570567,-0.000100,0.000001,-0.000009,-0.000000,-0.000002,0.000000,0.000105,0.000530,0.018310,0.018064,0.302246,0.302246,0.313817,1.007877,0.000000,0.000000,0.000000,0.000000,0.000000,0.000000,0.000000,0.000000,0.000000,0.000000,0.000000,0.000000,0.017395,3,0
190000,-0.000557,4.868743,0.031968,-0.008233,25.024471,-0.003892,-0.000085,-0.000375,1.570550,-0.000145,0.000001,-0.000025,-0.000000,-0.000003,0.000000,0.001295,0.000586,0.085220,0.030037,0.289641,0.289641,0.300003,1.007648,0.000000,0.000000,0.000000,0.000000,0.000000,0.000000,0.000000,0.000000,0.000000,0.000000,0.000000,0.000000,0.081109,3,0
200000,-0.000613,5.123139,0.033878,-0.008580,25.027132,-0.003224,-0.000092,-0.000374,1.570546,-0.000197,0.000002,-0.000048,-0.000000,-0.000005,0.000000,0.001529,0.000643,0.089278,0.040667,0.278295,0.278295,0.287598,1.007298,0.000000,0.000000,0.000000,0.000000,0.000000,0.000000,0.000000,0.000000,0.000000,0.000000,0.000000,0.000000,0.085139,3,0
210000,-0.000673,5.375811,0.034661,-0.009072,25.029060,-0.003124,-0.000096,-0.000389,1.570540,-0.000231,0.000002,-0.000059,-0.000000,-0.000006,0.000000,0.000506,0.000704,0.053524,0.017739,0.268053,0.268053,0.276421,1.006820,0.000000,0.000000,0.000000,0.000000,0.000000,0.000000,0.000000,0.000000,0.000000,0.000000,0.000000,0.000000,0.051138,3,0
220000,-0.000734,5.629523,0.032293,-0.009423,25.031481,-0.004381,-0.000104,-0.000386,1.570521,-0.000286,0.000003,-0.000023,-0.000000,-0.000007,0.000000,0.001439,0.000767,0.079139,-0.052587,0.258786,0.258786,0.266321,1.006206,0.000000,0.000000,0.000000,0.000000,0.000000,0.000000,0.000000,0.000000,0.000000,0.000000,0.000000,0.000000,0.075729,3,0
230000,-0.000799,5.886663,0.032368,-0.009899,25.035765,-0.004382,-0.000104,-0.000371,1.570505,-0.000411,0.000003,-0.000025,-0.000000,-0.000011,0.000000,0.004263,0.000833,0.163343,0.002792,0.250385,0.250385,0.257172,1.005450,0.000000,0.000000,0.000000,0.000000,0.000000,0.000000,0.000000,0.000000,0.000000,0.000000,0.000000,0.000000,0.156529,3,0
240000,-0.000866,6.140472,0.033861,-0.010354,25.038578,-0.003689,-0.000103,-0.000372,1.570487,-0.000481,0.000004,-0.000055,-0.000000,-0.000014,0.000000,0.001377,0.000902,0.085071,0.037051,0.242755,0.242755,0.248866,1.004545,0.000000,0.000000,0.000000,0.000000,0.000000,0.000000,0.000000,0.000000,0.000000,0.000000,0.000000,0.000000,0.081633,3,0
250000,-0.000936,6.395955,0.032127,-0.010807,25.042498,-0.004701,-0.000114,-0.000357,1.570483,-0.000596,0.000005,-0.000018,-0.000000,-0.000018,0.000000,0.002966,0.000974,0.129416,-0.042166,0.235817,0.235817,0.241314,1.003485,0.000000,0.000000,0.000000,0.000000,0.000000,0.000000,0.000000,0.000000,0.000000,0.000000,0.000000,0.000000,0.124334,3,0
260000,-0.001009,6.652971,0.030062,-0.011265,25.047485,-0.005941,-0.000121,-0.000315,1.570467,-0.000761,0.000006,0.000031,-0.000000,-0.000024,0.000000,0.005173,0.001049,0.172080,-0.051594,0.229503,0.229503,0.234436,1.002264,0.000000,0.000000,0.000000,0.000000,0.000000,0.000000,0.000000,0.000000,0.000000,0.000000,0.000000,0.000000,0.165500,3,0
270000,-0.001083,6.909923,0.031487,-0.011615,25.052605,-0.005226,-0.000127,-0.000278,1.570449,-0.000940,0.000007,-0.000009,-0.000000,-0.000031,0.000000,0.005071,0.001125,0.173439,0.039065,0.223753,0.223753,0.228165,1.000875,0.000000,0.000000,0.000000,0.000000,0.000000,0.000000,0.000000,0.000000,0.000000,0.000000,0.000000,0.000000,0.166975,3,0
280000,-0.001159,7.166103,0.032959,-0.011970,25.057413,-0.004361,-0.000133,-0.000236,1.570438,-0.001111,0.000008,-0.000054,-0.000000,-0.000037,0.000000,0.004129,0.001203,0.154983,0.041145,0.218515,0.218515,0.222443,0.999313,0.000000,0.000000,0.000000,0.000000,0.000000,0.000000,0.000000,0.000000,0.000000,0.000000,0.000000,0.000000,0.149343,3,0
290000,-0.001237,7.418038,0.031963,-0.012319,25.059448,-0.005072,-0.000133,-0.000234,1.570416,-0.001156,0.000010,-0.000023,-0.000000,-0.000039,0.000000,0.000342,0.001283,0.037906,-0.026277,0.213743,0.213743,0.217219,0.997574,0.000000,0.000000,0.000000,0.000000,0.000000,0.000000,0.000000,0.000000,0.000000,0.000000,0.000000,0.000000,0.036576,3,0
300000,-0.001318,7.670884,0.032650,-0.012787,25.062050,-0.004741,-0.000137,-0.000217,1.570406,-0.001237,0.000012,-0.000049,-0.000000,-0.000043,0.000000,0.000735,0.001365,0.064258,0.020899,0.209398,0.209397,0.212446,0.995652,0.000000,0.000000,0.000000,0.000000,0.000000,0.000000,0.000000,0.000000,0.000000,0.000000,0.000000,0.000000,0.062029,3,0
310000,-0.001401,7.923904,0.031422,-0.013238,25.064985,-0.005739,-0.000140,-0.000204,1.570394,-0.001330,0.000014,-0.000004,-0.000000,-0.000047,0.000000,0.000971,0.001450,0.069810,-0.034003,0.205442,0.205442,0.208087,0.993544,0.000000,0.000000,0.000000,0.000000,0.000000,0.000000,0.000000,0.000000,0.000000,0.000000,0.000000,0.000000,0.067435,3,0
320000,-0.001486,8.179101,0.032599,-0.013706,25.069891,-0.005043,-0.000153,-0.000168,1.570387,-0.001521,0.000016,-0.000055,-0.000001,-0.000056,0.000000,0.003141,0.001538,0.134822,0.036366,0.201846,0.201846,0.204105,0.991245,0.000000,0.000000,0.000000,0.000000,0.000000,0.000000,0.000000,0.000000,0.000000,0.000000,0.000000,0.000000,0.130295,3,0
330000,-0.001574,8.431746,0.030970,-0.014044,25.072662,-0.006551,-0.000162,-0.000166,1.570374,-0.001608,0.000018,0.000015,-0.000001,-0.000060,0.000000,0.000910,0.001627,0.058487,-0.047185,0.198581,0.198581,0.200469,0.988752,0.000000,0.000000,0.000000,0.000000,0.000000,0.000000,0.000000,0.000000,0.000000,0.000000,0.000000,0.000000,0.056573,3,0
340000,-0.001661,8.688465,0.029865,-0.014332,25.079088,-0.007598,-0.000167,-0.000086,1.570360,-0.001899,0.000021,0.000065,-0.000001,-0.000074,0.000000,0.005591,0.001717,0.183515,-0.031580,0.195621,0.195620,0.197151,0.986062,0.000000,0.000000,0.000000,0.000000,0.000000,0.000000,0.000000,0.000000,0.000000,0.000000,0.000000,0.000000,0.177539,3,0
350000,-0.001751,8.942025,0.031133,-0.014723,25.082827,-0.006610,-0.000164,-0.000066,1.570338,-0.002042,0.000024,-0.000004,-0.000001,-0.000081,0.000000,0.001466,0.001809,0.085761,0.041614,0.192942,0.192942,0.194125,0.983173,0.000000,0.000000,0.000000,0.000000,0.000000,0.000000,0.000000,0.000000,0.000000,0.000000,0.000000,0.000000,0.083022,3,0
360000,-0.001842,9.195740,0.031205,-0.015064,25.086706,-0.006590,-0.000161,-0.000040,1.570319,-0.002201,0.000027,-0.000012,-0.000001,-0.000089,0.000000,0.001328,0.001902,0.090590,0.004357,0.190526,0.190525,0.191370,0.980083,0.000000,0.000000,0.000000,0.000000,0.000000,0.000000,0.000000,0.000000,0.000000,0.000000,0.000000,0.000000,0.087734,3,0
370000,-0.001934,9.453352,0.032326,-0.015409,25.094707,-0.005480,-0.000165,0.000065,1.570298,-0.002596,0.000031,-0.000081,-0.000001,-0.000111,0.000000,0.007661,0.001997,0.214537,0.037750,0.188352,0.188351,0.188863,0.976790,0.000000,0.000000,0.000000,0.000000,0.000000,0.000000,0.000000,0.000000,0.000000,0.000000,0.000000,0.000000,0.207811,3,0
380000,-0.002027,9.709761,0.033683,-0.015745,25.101562,-0.004462,-0.000166,0.000149,1.570289,-0.002936,0.000035,-0.000168,-0.000002,-0.000129,0.000001,0.005310,0.002092,0.175512,0.045528,0.186403,0.186402,0.186586,0.973293,0.000000,0.000000,0.000000,0.000000,0.000000,0.000000,0.000000,0.000000,0.000000,0.000000,0.000000,0.000000,0.170072,3,0
390000,-0.002122,9.966861,0.031946,-0.016182,25.109322,-0.006564,-0.000169,0.000260,1.570282,-0.003335,0.000039,-0.000058,-0.000002,-0.000152,0.000001,0.006778,0.002190,0.197340,-0.054905,0.184663,0.184663,0.184523,0.969592,0.000000,0.000000,0.000000,0.000000,0.000000,0.000000,0.000000,0.000000,0.000000,0.000000,0.000000,0.000000,0.191278,3,0
400000,-0.002218,10.220385,0.032846,-0.016444,25.113085,-0.005600,-0.000165,0.000292,1.570267,-0.003503,0.000044,-0.000124,-0.000002,-0.000162,0.000001,0.001180,0.002287,0.079314,0.031743,0.183119,0.183118,0.182656,0.965687,0.000000,0.000000,0.000000,0.000000,0.000000,0.000000,0.000000,0.000000,0.000000,0.000000,0.000000,0.000000,0.076926,3,0
410000,-0.002314,10.476484,0.034078,-0.016826,25.119987,-0.004594,-0.000169,0.000392,1.570244,-0.003865,0.000049,-0.000219,-0.000002,-0.000183,0.000001,0.004629,0.002387,0.163693,0.042879,0.181756,0.181755,0.180971,0.961579,0.000000,0.000000,0.000000,0.000000,0.000000,0.000000,0.000000,0.000000,0.000000,0.000000,0.000000,0.000000,0.158752,3,0
420000,-0.002412,10.731491,0.034085,-0.017142,25.125574,-0.004869,-0.000180,0.000461,1.570231,-0.004156,0.000055,-0.000223,-0.000003,-0.000201,0.000001,0.002576,0.002487,0.126195,0.001874,0.180561,0.180561,0.179456,0.957268,0.000000,0.000000,0.000000,0.000000,0.000000,0.000000,0.000000,0.000000,0.000000,0.000000,0.000000,0.000000,0.122421,3,0
430000,-0.002510,10.987824,0.033464,-0.017467,25.133041,-0.005619,-0.000176,0.000581,1.570212,-0.004562,0.000061,-0.000177,-0.000003,-0.000226,0.000001,0.004696,0.002587,0.169313,-0.019226,0.179524,0.179523,0.178097,0.952757,0.000000,0.000000,0.000000,0.000000,0.000000,0.000000,0.000000,0.000000,0.000000,0.000000,0.000000,0.000000,0.164267,3,0
440000,-0.002609,11.246042,0.031940,-0.017791,25.142836,-0.007518,-0.000185,0.000749,1.570204,-0.005138,0.000067,-0.000053,-0.000004,-0.000264,0.000001,0.009027,0.002689,0.230969,-0.049685,0.178634,0.178633,0.176883,0.948047,0.000000,0.000000,0.000000,0.000000,0.000000,0.000000,0.000000,0.000000,0.000000,0.000000,0.000000,0.000000,0.224108,3,0
450000,-0.002709,11.501975,0.032061,-0.018151,25.149746,-0.007437,-0.000181,0.000864,1.570181,-0.005530,0.000075,-0.000070,-0.000004,-0.000289,0.000001,0.003724,0.002792,0.151564,0.006764,0.177880,0.177879,0.175803,0.943141,0.000000,0.000000,0.000000,0.000000,0.000000,0.000000,0.000000,0.000000,0.000000,0.000000,0.000000,0.000000,0.147095,3,0
460000,-0.002809,11.757445,0.030920,-0.018468,25.156126,-0.008957,-0.000188,0.000977,1.570166,-0.005891,0.000082,0.000028,-0.000005,-0.000314,0.000001,0.003126,0.002895,0.134108,-0.036493,0.177253,0.177252,0.174847,0.938043,0.000000,0.000000,0.000000,0.000000,0.000000,0.000000,0.000000,0.000000,0.000000,0.000000,0.000000,0.000000,0.130176,3,0
470000,-0.002909,12.014225,0.031342,-0.018721,25.164392,-0.008642,-0.000195,0.001121,1.570145,-0.006383,0.000090,-0.000022,-0.000005,-0.000348,0.000002,0.005106,0.002998,0.176759,0.017774,0.176744,0.176743,0.174007,0.932755,0.000000,0.000000,0.000000,0.000000,0.000000,0.000000,0.000000,0.000000,0.000000,0.000000,0.000000,0.000000,0.171576,3,0
480000,-0.003010,12.272291,0.031940,-0.019052,25.174538,-0.008088,-0.000198,0.001313,1.570128,-0.007011,0.000099,-0.000091,-0.000006,-0.000392,0.000002,0.007787,0.003101,0.218079,0.023857,0.176344,0.176343,0.173272,0.927283,0.000000,0.000000,0.000000,0.000000,0.000000,0.000000,0.000000,0.000000,0.000000,0.000000,0.000000,0.000000,0.211690,3,0
490000,-0.003112,12.529871,0.030380,-0.019431,25.183895,-0.010115,-0.000193,0.001508,1.570106,-0.007602,0.000109,0.000063,-0.000006,-0.000435,0.000002,0.006799,0.003205,0.198459,-0.051299,0.176047,0.176046,0.172634,0.921630,0.000000,0.000000,0.000000,0.000000,0.000000,0.000000,0.000000,0.000000,0.000000,0.000000,0.000000,0.000000,0.192661,3,0
500000,-0.003212,12.784647,0.030369,-0.019650,25.189360,-0.010327,-0.000186,0.001597,1.570091,-0.007909,0.000119,0.000053,-0.000007,-0.000458,0.000002,0.001615,0.003309,0.099815,0.003269,0.175844,0.175843,0.172087,0.915802,0.000000,0.000000,0.000000,0.000000,0.000000,0.000000,0.000000,0.000000,0.000000,0.000000,0.000000,0.000000,0.096944,3,0
510000,-0.003313,13.040747,0.028988,-0.019898,25.196798,-0.012115,-0.000196,0.001731,1.570073,-0.008363,0.000129,0.000195,-0.000008,-0.000492,0.000002,0.003640,0.003413,0.143167,-0.044605,0.175728,0.175727,0.171623,0.909803,0.000000,0.000000,0.000000,0.000000,0.000000,0.000000,0.000000,0.000000,0.000000,0.000000,0.000000,0.000000,0.139014,3,0
520000,-0.003413,13.298731,0.028414,-0.020143,25.206913,-0.013111,-0.000202,0.001949,1.570064,-0.009033,0.000141,0.000247,-0.000009,-0.000544,0.000002,0.006845,0.003516,0.205057,-0.015687,0.175693,0.175692,0.171234,0.903640,0.000000,0.000000,0.000000,0.000000,0.000000,0.000000,0.000000,0.000000,0.000000,0.000000,0.000000,0.000000,0.199082,3,0
530000,-0.003512,13.555663,0.029460,-0.020334,25.215448,-0.011566,-0.000201,0.002133,1.570039,-0.009591,0.000153,0.000106,-0.000010,-0.000588,0.000003,0.004719,0.003618,0.165640,0.041413,0.175733,0.175731,0.170915,0.897319,0.000000,0.000000,0.000000,0.000000,0.000000,0.000000,0.000000,0.000000,0.000000,0.000000,0.000000,0.000000,0.160827,3,0
540000,-0.003611,13.814474,0.029109,-0.020615,25.226963,-0.011974,-0.000209,0.002399,1.570022,-0.010375,0.000165,0.000135,-0.000011,-0.000652,0.000003,0.008326,0.003720,0.226684,-0.008178,0.175841,0.175839,0.170659,0.890846,0.000000,0.000000,0.000000,0.000000,0.000000,0.000000,0.000000,0.000000,0.000000,0.000000,0.000000,0.000000,0.220070,3,0
550000,-0.003708,14.072225,0.029485,-0.020791,25.236647,-0.011390,-0.000216,0.002616,1.570011,-0.011039,0.000179,0.000072,-0.000012,-0.000706,0.000003,0.005675,0.003820,0.186427,0.017540,0.176011,0.176009,0.170461,0.884228,0.000000,0.000000,0.000000,0.000000,0.000000,0.000000,0.000000,0.000000,0.000000,0.000000,0.000000,0.000000,0.180997,3,0
560000,-0.003806,14.331265,0.028986,-0.021127,25.248438,-0.012145,-0.000211,0.002902,1.569986,-0.011867,0.000193,0.000121,-0.000013,-0.000776,0.000003,0.008350,0.003921,0.226762,-0.013415,0.176239,0.176237,0.170314,0.877472,0.000000,0.000000,0.000000,0.000000,0.000000,0.000000,0.000000,0.000000,0.000000,0.000000,0.000000,0.000000,0.220134,3,0
570000,-0.003903,14.588657,0.027749,-0.021358,25.257462,-0.013837,-0.000216,0.003120,1.569962,-0.012490,0.000208,0.000270,-0.000014,-0.000829,0.000004,0.004730,0.004022,0.166393,-0.039206,0.176519,0.176517,0.170215,0.870584,0.000000,0.000000,0.000000,0.000000,0.000000,0.000000,0.000000,0.000000,0.000000,0.000000,0.000000,0.000000,0.161545,3,0
580000,-0.004000,14.846764,0.028658,-0.021631,25.267614,-0.012550,-0.000218,0.003364,1.569944,-0.013210,0.000223,0.000126,-0.000016,-0.000892,0.000004,0.005894,0.004122,0.187215,0.037053,0.176846,0.176844,0.170158,0.863574,0.000000,0.000000,0.000000,0.000000,0.000000,0.000000,0.000000,0.000000,0.000000,0.000000,0.000000,0.000000,0.181741,3,0
590000,-0.004096,15.103816,0.027698,-0.021839,25.276093,-0.014026,-0.000227,0.003560,1.569935,-0.013790,0.000240,0.000243,-0.000017,-0.000944,0.000004,0.003669,0.004220,0.147675,-0.029269,0.177216,0.177214,0.170139,0.856448,0.000000,0.000000,0.000000,0.000000,0.000000,0.000000,0.000000,0.000000,0.000000,0.000000,0.000000,0.000000,0.143371,3,0
600000,-0.004191,15.361001,0.028394,-0.022081,25.284719,-0.012938,-0.000228,0.003763,1.569926,-0.014390,0.000257,0.000121,-0.000019,-0.000999,0.000005,0.003734,0.004319,0.148964,0.029588,0.177625,0.177623,0.170153,0.849214,0.000000,0.000000,0.000000,0.000000,0.000000,0.000000,0.000000,0.000000,0.000000,0.000000,0.000000,0.000000,0.144615,3,0
610000,-0.004285,15.620090,0.027028,-0.022321,25.296478,-0.014878,-0.000228,0.004068,1.569914,-0.015254,0.000275,0.000303,-0.000020,-0.001079,0.000005,0.007424,0.004416,0.209754,-0.043418,0.178067,0.178065,0.170196,0.841880,0.000000,0.000000,0.000000,0.000000,0.000000,0.000000,0.000000,0.000000,0.000000,0.000000,0.000000,0.000000,0.203574,3,0
620000,-0.004378,15.878104,0.028194,-0.022486,25.306316,-0.013015,-0.000232,0.004317,1.569897,-0.015965,0.000294,0.000104,-0.000022,-0.001146,0.000005,0.004982,0.004512,0.169216,0.046400,0.178540,0.178538,0.170265,0.834455,0.000000,0.000000,0.000000,0.000000,0.000000,0.000000,0.000000,0.000000,0.000000,0.000000,0.000000,0.000000,0.164240,3,0
630000,-0.004469,16.138021,0.027343,-0.022641,25.319294,-0.014332,-0.000231,0.004677,1.569888,-0.016950,0.000313,0.000214,-0.000024,-0.001241,0.000006,0.008598,0.004606,0.229166,-0.025172,0.179040,0.179037,0.170356,0.826945,0.000000,0.000000,0.000000,0.000000,0.000000,0.000000,0.000000,0.000000,0.000000,0.000000,0.000000,0.000000,0.222373,3,0
640000,-0.004558,16.397446,0.026588,-0.022764,25.331255,-0.015495,-0.000227,0.005005,1.569880,-0.017860,0.000333,0.000310,-0.000026,-0.001331,0.000006,0.007050,0.004699,0.207666,-0.021318,0.179563,0.179560,0.170466,0.819360,0.000000,0.000000,0.000000,0.000000,0.000000,0.000000,0.000000,0.000000,0.000000,0.000000,0.000000,0.000000,0.201502,3,0
650000,-0.004646,16.656975,0.026162,-0.022883,25.343271,-0.016225,-0.000220,0.005350,1.569865,-0.018783,0.000355,0.000352,-0.000028,-0.001423,0.000006,0.006915,0.004790,0.206547,-0.009298,0.180105,0.180102,0.170592,0.811707,0.000000,0.000000,0.000000,0.000000,0.000000,0.000000,0.000000,0.000000,0.000000,0.000000,0.000000,0.000000,0.200400,3,0
660000,-0.004731,16.914812,0.026604,-0.023017,25.352455,-0.015413,-0.000219,0.005593,1.569851,-0.019446,0.000377,0.000252,-0.000030,-0.001490,0.000007,0.003508,0.004879,0.145685,0.021334,0.180664,0.180661,0.170730,0.803995,0.000000,0.000000,0.000000,0.000000,0.000000,0.000000,0.000000,0.000000,0.000000,0.000000,0.000000,0.000000,0.141377,3,0
670000,-0.004816,17.175171,0.026249,-0.023230,25.365757,-0.015817,-0.000222,0.005985,1.569825,-0.020493,0.000399,0.000284,-0.000033,-0.001599,0.000007,0.008245,0.004966,0.225698,-0.006882,0.181237,0.181234,0.170878,0.796231,0.000000,0.000000,0.000000,0.000000,0.000000,0.000000,0.000000,0.000000,0.000000,0.000000,0.000000,0.000000,0.218935,3,0
680000,-0.004900,17.435623,0.025514,-0.023453,25.379139,-0.016727,-0.000224,0.006379,1.569809,-0.021548,0.000423,0.000381,-0.000035,-0.001711,0.000008,0.008152,0.005053,0.223631,-0.020057,0.181821,0.181818,0.171034,0.788424,0.000000,0.000000,0.000000,0.000000,0.000000,0.000000,0.000000,0.000000,0.000000,0.000000,0.000000,0.000000,0.216909,3,0
690000,-0.004982,17.693144,0.026445,-0.023569,25.387392,-0.015203,-0.000227,0.006611,1.569794,-0.022133,0.000447,0.000189,-0.000038,-0.001773,0.000008,0.002654,0.005139,0.122076,0.038612,0.182414,0.182411,0.171195,0.780582,0.000000,0.000000,0.000000,0.000000,0.000000,0.000000,0.000000,0.000000,0.000000,0.000000,0.000000,0.000000,0.118471,3,0
700000,-0.005063,17.953211,0.026491,-0.023791,25.399914,-0.015287,-0.000215,0.006981,1.569783,-0.023121,0.000472,0.000152,-0.000041,-0.001881,0.000009,0.006633,0.005223,0.202414,0.007210,0.183013,0.183009,0.171358,0.772712,0.000000,0.000000,0.000000,0.000000,0.000000,0.000000,0.000000,0.000000,0.000000,0.000000,0.000000,0.000000,0.196305,3,0
710000,-0.005143,18.212763,0.025562,-0.023928,25.411438,-0.016506,-0.000206,0.007336,1.569773,-0.024016,0.000498,0.000290,-0.000044,-0.001981,0.000009,0.005402,0.005305,0.180769,-0.027000,0.183615,0.183612,0.171523,0.764822,0.000000,0.000000,0.000000,0.000000,0.000000,0.000000,0.000000,0.000000,0.000000,0.000000,0.000000,0.000000,0.175311,3,0
720000,-0.005220,18.470575,0.026887,-0.023976,25.419773,-0.014441,-0.000195,0.007579,1.569756,-0.024619,0.000525,0.000016,-0.000047,-0.002049,0.000009,0.002768,0.005386,0.119890,0.052227,0.184220,0.184217,0.171687,0.756920,0.000000,0.000000,0.000000,0.000000,0.000000,0.000000,0.000000,0.000000,0.000000,0.000000,0.000000,0.000000,0.116328,3,0
730000,-0.005296,18.729727,0.026189,-0.024132,25.430210,-0.015590,-0.000180,0.007910,1.569738,-0.025436,0.000552,0.000117,-0.000050,-0.002144,0.000010,0.004208,0.005464,0.160177,-0.019111,0.184825,0.184821,0.171848,0.749012,0.000000,0.000000,0.000000,0.000000,0.000000,0.000000,0.000000,0.000000,0.000000,0.000000,0.000000,0.000000,0.155333,3,0
740000,-0.005370,18.989588,0.025270,-0.024177,25.441910,-0.016888,-0.000185,0.008277,1.569715,-0.026364,0.000581,0.000259,-0.000053,-0.002253,0.000010,0.005306,0.005541,0.179226,-0.026407,0.185428,0.185424,0.172005,0.741107,0.000000,0.000000,0.000000,0.000000,0.000000,0.000000,0.000000,0.000000,0.000000,0.000000,0.000000,0.000000,0.173770,3,0
750000,-0.005443,19.248302,0.024080,-0.024367,25.451305,-0.018803,-0.000180,0.008580,1.569706,-0.027087,0.000610,0.000453,-0.000057,-0.002339,0.000011,0.003279,0.005617,0.137918,-0.035356,0.186028,0.186024,0.172156,0.733210,0.000000,0.000000,0.000000,0.000000,0.000000,0.000000,0.000000,0.000000,0.000000,0.000000,0.000000,0.000000,0.133753,3,0
760000,-0.005512,19.507114,0.025211,-0.024387,25.460926,-0.016986,-0.000179,0.008871,1.569682,-0.027818,0.000640,0.000194,-0.000060,-0.002427,0.000011,0.003404,0.005690,0.137531,0.046141,0.186623,0.186618,0.172301,0.725330,0.000000,0.000000,0.000000,0.000000,0.000000,0.000000,0.000000,0.000000,0.000000,0.000000,0.000000,0.000000,0.133369,3,0
770000,-0.005581,19.767881,0.025906,-0.024589,25.473785,-0.016047,-0.000164,0.009304,1.569658,-0.028876,0.000670,0.000021,-0.000064,-0.002558,0.000012,0.006401,0.005761,0.196688,0.030365,0.187211,0.187207,0.172437,0.717471,0.000000,0.000000,0.000000,0.000000,0.000000,0.000000,0.000000,0.000000,0.000000,0.000000,0.000000,0.000000,0.190633,3,0
780000,-0.005648,20.028719,0.026284,-0.024610,25.486563,-0.015516,-0.000153,0.009747,1.569631,-0.029934,0.000702,-0.000090,-0.000068,-0.002690,0.000012,0.006154,0.005830,0.194218,0.019009,0.187793,0.187788,0.172565,0.709641,0.000000,0.000000,0.000000,0.000000,0.000000,0.000000,0.000000,0.000000,0.000000,0.000000,0.000000,0.000000,0.188224,3,0
790000,-0.005711,20.289623,0.027336,-0.024626,25.499296,-0.013978,-0.000145,0.010180,1.569620,-0.030990,0.000734,-0.000338,-0.000072,-0.002825,0.000013,0.006225,0.005897,0.191677,0.042224,0.188366,0.188361,0.172682,0.701845,0.000000,0.000000,0.000000,0.000000,0.000000,0.000000,0.000000,0.000000,0.000000,0.000000,0.000000,0.000000,0.185749,3,0
800000,-0.005773,20.551218,0.027649,-0.024620,25.513117,-0.013472,-0.000133,0.010664,1.569591,-0.032153,0.000766,-0.000435,-0.000077,-0.002975,0.000014,0.007095,0.005961,0.208948,0.016006,0.188930,0.188925,0.172789,0.694089,0.000000,0.000000,0.000000,0.000000,0.000000,0.000000,0.000000,0.000000,0.000000,0.000000,0.000000,0.000000,0.202452,3,0
810000,-0.005832,20.813496,0.027941,-0.024648,25.528015,-0.012894,-0.000118,0.011200,1.569577,-0.033422,0.000800,-0.000528,-0.000081,-0.003142,0.000014,0.008251,0.006023,0.225519,0.015066,0.189484,0.189479,0.172884,0.686380,0.000000,0.000000,0.000000,0.000000,0.000000,0.000000,0.000000,0.000000,0.000000,0.000000,0.000000,0.000000,0.218475,3,0
820000,-0.005889,21.072666,0.028900,-0.024653,25.537180,-0.011555,-0.000103,0.011503,1.569567,-0.034117,0.000834,-0.000760,-0.000086,-0.003235,0.000015,0.002646,0.006082,0.122126,0.037965,0.190027,0.190022,0.172967,0.678721,0.000000,0.000000,0.000000,0.000000,0.000000,0.000000,0.000000,0.000000,0.000000,0.000000,0.000000,0.000000,0.118406,3,0
830000,-0.005944,21.331282,0.030016,-0.024687,25.545321,-0.009876,-0.000096,0.011768,1.569542,-0.034699,0.000869,-0.001025,-0.000091,-0.003314,0.000015,0.001963,0.006139,0.101410,0.042889,0.190558,0.190553,0.173037,0.671118,0.000000,0.000000,0.000000,0.000000,0.000000,0.000000,0.000000,0.000000,0.000000,0.000000,0.000000,0.000000,0.098370,3,0
840000,-0.005997,21.591248,0.028483,-0.024689,25.555592,-0.012374,-0.000091,0.012125,1.569521,-0.035516,0.000904,-0.000719,-0.000096,-0.003427,0.000016,0.003604,0.006194,0.140896,-0.049404,0.191078,0.191072,0.173094,0.663576,0.000000,0.000000,0.000000,0.000000,0.000000,0.000000,0.000000,0.000000,0.000000,0.000000,0.000000,0.000000,0.136540,3,0
850000,-0.006048,21.850004,0.028575,-0.024709,25.563623,-0.012216,-0.000085,0.012393,1.569503,-0.036098,0.000940,-0.000768,-0.000101,-0.003509,0.000016,0.001613,0.006248,0.099495,0.007629,0.191585,0.191579,0.173138,0.656099,0.000000,0.000000,0.000000,0.000000,0.000000,0.000000,0.000000,0.000000,0.000000,0.000000,0.000000,0.000000,0.096509,3,0
860000,-0.006099,22.112019,0.028228,-0.024827,25.577307,-0.012834,-0.000065,0.012926,1.569478,-0.037268,0.000977,-0.000723,-0.000106,-0.003676,0.000017,0.006371,0.006300,0.198479,-0.007420,0.192079,0.192073,0.173168,0.648691,0.000000,0.000000,0.000000,0.000000,0.000000,0.000000,0.000000,0.000000,0.000000,0.000000,0.000000,0.000000,0.192222,3,0
870000,-0.006147,22.370243,0.027354,-0.024873,25.584270,-0.014160,-0.000056,0.013140,1.569460,-0.037717,0.001015,-0.000558,-0.000111,-0.003742,0.000017,0.001032,0.006351,0.075478,-0.025648,0.192561,0.192554,0.173184,0.641357,0.000000,0.000000,0.000000,0.000000,0.000000,0.000000,0.000000,0.000000,0.000000,0.000000,0.000000,0.000000,0.073312,3,0
880000,-0.006193,22.629822,0.028455,-0.024829,25.593365,-0.012578,-0.000038,0.013459,1.569436,-0.038408,0.001053,-0.000843,-0.000117,-0.003843,0.000018,0.002457,0.006399,0.115368,0.043280,0.193029,0.193022,0.173186,0.634100,0.000000,0.000000,0.000000,0.000000,0.000000,0.000000,0.000000,0.000000,0.000000,0.000000,0.000000,0.000000,0.111830,3,0
890000,-0.006237,22.888180,0.028775,-0.024855,25.600182,-0.012028,-0.000031,0.013680,1.569426,-0.038857,0.001091,-0.000948,-0.000123,-0.003910,0.000018,0.000938,0.006445,0.074366,0.015563,0.193483,0.193476,0.173174,0.626923,0.000000,0.000000,0.000000,0.000000,0.000000,0.000000,0.000000,0.000000,0.000000,0.000000,0.000000,0.000000,0.072238,3,0
900000,-0.006279,23.146612,0.029106,-0.024795,25.607149,-0.011623,-0.000008,0.013897,1.569405,-0.039309,0.001130,-0.001055,-0.000129,-0.003979,0.000018,0.000939,0.006489,0.074366,0.015851,0.193924,0.193917,0.173147,0.619830,0.000000,0.000000,0.000000,0.000000,0.000000,0.000000,0.000000,0.000000,0.000000,0.000000,0.000000,0.000000,0.072236,3,0
910000,-0.006319,23.407692,0.028873,-0.024799,25.618565,-0.012037,0.000003,0.014344,1.569377,-0.040251,0.001170,-0.001032,-0.000135,-0.004124,0.000019,0.003824,0.006530,0.153807,-0.003751,0.194352,0.194344,0.173107,0.612822,0.000000,0.000000,0.000000,0.000000,0.000000,0.000000,0.000000,0.000000,0.000000,0.000000,0.000000,0.000000,0.148959,3,0
920000,-0.006356,23.670742,0.029301,-0.024735,25.633297,-0.011592,0.000024,0.014971,1.569361,-0.041549,0.001209,-0.001170,-0.000141,-0.004328,0.000020,0.007226,0.006570,0.210674,0.019470,0.194766,0.194758,0.173052,0.605904,0.000000,0.000000,0.000000,0.000000,0.000000,0.000000,0.000000,0.000000,0.000000,0.000000,0.000000,0.000000,0.203936,3,0
930000,-0.006393,23.930567,0.029707,-0.024805,25.642162,-0.011057,0.000030,0.015309,1.569338,-0.042209,0.001250,-0.001298,-0.000148,-0.004433,0.000021,0.001891,0.006608,0.106508,0.018349,0.195167,0.195159,0.172983,0.599078,0.000000,0.000000,0.000000,0.000000,0.000000,0.000000,0.000000,0.000000,0.000000,0.000000,0.000000,0.000000,0.103243,3,0
940000,-0.006428,24.191086,0.030556,-0.024912,25.652235,-0.010043,0.000036,0.015691,1.569313,-0.042987,0.001291,-0.001536,-0.000155,-0.004558,0.000021,0.002706,0.006646,0.124897,0.033662,0.195555,0.195547,0.172900,0.592346,0.000000,0.000000,0.000000,0.000000,0.000000,0.000000,0.000000,0.000000,0.000000,0.000000,0.000000,0.000000,0.121000,3,0
950000,-0.006463,24.454241,0.030515,-0.024946,25.666811,-0.010239,0.000058,0.016315,1.569290,-0.044255,0.001332,-0.001558,-0.000162,-0.004767,0.000022,0.006601,0.006682,0.202219,0.002509,0.195930,0.195921,0.172804,0.585710,0.000000,0.000000,0.000000,0.000000,0.000000,0.000000,0.000000,0.000000,0.000000,0.000000,0.000000,0.000000,0.195723,3,0
960000,-0.006496,24.716742,0.031560,-0.024961,25.679964,-0.008909,0.000067,0.016876,1.569278,-0.045373,0.001374,-0.001849,-0.000169,-0.004953,0.000023,0.005347,0.006717,0.177467,0.040284,0.196292,0.196283,0.172694,0.579171,0.000000,0.000000,0.000000,0.000000,0.000000,0.000000,0.000000,0.000000,0.000000,0.000000,0.000000,0.000000,0.171786,3,0
970000,-0.006528,24.975994,0.031852,-0.024894,25.687397,-0.008422,0.000081,0.017136,1.569261,-0.045841,0.001416,-0.001947,-0.000176,-0.005032,0.000023,0.000916,0.006749,0.073860,0.013380,0.196641,0.196632,0.172571,0.572731,0.000000,0.000000,0.000000,0.000000,0.000000,0.000000,0.000000,0.000000,0.000000,0.000000,0.000000,0.000000,0.071737,3,0
980000,-0.006558,25.237253,0.030737,-0.024805,25.698168,-0.010113,0.000097,0.017575,1.569239,-0.046684,0.001459,-0.001693,-0.000183,-0.005177,0.000024,0.003046,0.006780,0.132599,-0.035500,0.196979,0.196969,0.172434,0.566393,0.000000,0.000000,0.000000,0.000000,0.000000,0.000000,0.000000,0.000000,0.000000,0.000000,0.000000,0.000000,0.128412,3,0
990000,-0.006586,25.496571,0.029398,-0.024727,25.705437,-0.012096,0.000111,0.017822,1.569225,-0.047132,0.001502,-0.001382,-0.000191,-0.005256,0.000024,0.001095,0.006809,0.070019,-0.042894,0.197305,0.197295,0.172286,0.560156,0.000000,0.000000,0.000000,0.000000,0.000000,0.000000,0.000000,0.000000,0.000000,0.000000,0.000000,0.000000,0.068034,3,0
1000000,-0.006610,25.757893,0.030488,-0.024656,25.716040,-0.010816,0.000122,0.018252,1.569208,-0.047957,0.001545,-0.001700,-0.000198,-0.005402,0.000025,0.002971,0.006836,0.128693,0.042623,0.197619,0.197609,0.172124,0.554021,0.000000,0.000000,0.000000,0.000000,0.000000,0.000000,0.000000,0.000000,0.000000,0.000000,0.000000,0.000000,0.124632,3,0
1010000,-0.006635,26.019234,0.029959,-0.024700,25.726675,-0.011503,0.000137,0.018698,1.569196,-0.048767,0.001589,-0.001597,-0.000206,-0.005548,0.000026,0.002587,0.006861,0.125689,-0.014419,0.197922,0.197911,0.171951,0.547991,0.000000,0.000000,0.000000,0.000000,0.000000,0.000000,0.000000,0.000000,0.000000,0.000000,0.000000,0.000000,0.121723,3,0
1020000,-0.006658,26.282558,0.029308,-0.024647,25.740631,-0.012356,0.000146,0.019330,1.569181,-0.049945,0.001633,-0.001466,-0.000214,-0.005764,0.000027,0.005418,0.006886,0.182304,-0.018267,0.198214,0.198203,0.171766,0.542065,0.000000,0.000000,0.000000,0.000000,0.000000,0.000000,0.000000,0.000000,0.000000,0.000000,0.000000,0.000000,0.176407,3,0
1030000,-0.006680,26.543890,0.029459,-0.024651,25.750870,-0.012179,0.000170,0.019750,1.569164,-0.050707,0.001677,-0.001545,-0.000222,-0.005905,0.000028,0.002253,0.006909,0.117628,0.009922,0.198497,0.198485,0.171570,0.536243,0.000000,0.000000,0.000000,0.000000,0.000000,0.000000,0.000000,0.000000,0.000000,0.000000,0.000000,0.000000,0.113933,3,0
1040000,-0.006699,26.807859,0.030492,-0.024561,25.765484,-0.011014,0.000196,0.020434,1.569139,-0.051969,0.001721,-0.001865,-0.000231,-0.006142,0.000029,0.006354,0.006930,0.194136,0.041061,0.198769,0.198757,0.171363,0.530527,0.000000,0.000000,0.000000,0.000000,0.000000,0.000000,0.000000,0.000000,0.000000,0.000000,0.000000,0.000000,0.187827,3,0
1050000,-0.006718,27.071798,0.030787,-0.024585,25.779907,-0.010570,0.000221,0.021117,1.569113,-0.053197,0.001765,-0.001985,-0.000240,-0.006376,0.000030,0.005765,0.006949,0.188446,0.014688,0.199032,0.199020,0.171145,0.524916,0.000000,0.000000,0.000000,0.000000,0.000000,0.000000,0.000000,0.000000,0.000000,0.000000,0.000000,0.000000,0.182319,3,0
1060000,-0.006737,27.333065,0.029496,-0.024578,25.789425,-0.012459,0.000244,0.021510,1.569092,-0.053873,0.001810,-0.001669,-0.000248,-0.006508,0.000030,0.002002,0.006968,0.103271,-0.041282,0.199286,0.199273,0.170917,0.519410,0.000000,0.000000,0.000000,0.000000,0.000000,0.000000,0.000000,0.000000,0.000000,0.000000,0.000000,0.000000,0.100065,3,0
1070000,-0.006754,27.595654,0.029974,-0.024575,25.801161,-0.012032,0.000269,0.022050,1.569064,-0.054790,0.001855,-0.001844,-0.000257,-0.006688,0.000031,0.003246,0.006987,0.140091,0.021678,0.199531,0.199518,0.170680,0.514010,0.000000,0.000000,0.000000,0.000000,0.000000,0.000000,0.000000,0.000000,0.000000,0.000000,0.000000,0.000000,0.135602,3,0
1080000,-0.006771,27.856901,0.029135,-0.024556,25.810394,-0.013479,0.000296,0.022445,1.569041,-0.055421,0.001901,-0.001653,-0.000266,-0.006815,0.000032,0.001595,0.007004,0.096054,-0.024870,0.199769,0.199755,0.170433,0.508715,0.000000,0.000000,0.000000,0.000000,0.000000,0.000000,0.000000,0.000000,0.000000,0.000000,0.000000,0.000000,0.093100,3,0
1090000,-0.006785,28.118143,0.030114,-0.024470,25.819561,-0.012197,0.000313,0.022825,1.569022,-0.056033,0.001947,-0.001971,-0.000276,-0.006938,0.000032,0.001660,0.007020,0.093142,0.039589,0.199998,0.199984,0.170177,0.503525,0.000000,0.000000,0.000000,0.000000,0.000000,0.000000,0.000000,0.000000,0.000000,0.000000,0.000000,0.000000,0.090295,3,0
1100000,-0.006798,28.380714,0.029793,-0.024358,25.830933,-0.012803,0.000333,0.023339,1.569010,-0.056889,0.001992,-0.001925,-0.000285,-0.007114,0.000033,0.002737,0.007033,0.129990,-0.006527,0.200221,0.200206,0.169912,0.498440,0.000000,0.000000,0.000000,0.000000,0.000000,0.000000,0.000000,0.000000,0.000000,0.000000,0.000000,0.000000,0.125836,3,0
1110000,-0.006808,28.643923,0.030886,-0.024241,25.843401,-0.011347,0.000360,0.023924,1.568992,-0.057849,0.002038,-0.002282,-0.000295,-0.007313,0.000034,0.003733,0.007045,0.145607,0.043676,0.200436,0.200421,0.169639,0.493459,0.000000,0.000000,0.000000,0.000000,0.000000,0.000000,0.000000,0.000000,0.000000,0.000000,0.000000,0.000000,0.140912,3,0
1120000,-0.006819,28.902449,0.031073,-0.024243,25.847471,-0.011349,0.000393,0.023986,1.568988,-0.057859,0.002084,-0.002370,-0.000305,-0.007315,0.000034,0.000027,0.007055,0.001547,0.010771,0.200646,0.200630,0.169359,0.488581,0.000000,0.000000,0.000000,0.000000,0.000000,0.000000,0.000000,0.000000,0.000000,0.000000,0.000000,0.000000,0.006981,3,0
1130000,-0.006829,29.164337,0.031040,-0.024267,25.857327,-0.011575,0.000420,0.024412,1.568974,-0.058525,0.002130,-0.002402,-0.000315,-0.007458,0.000035,0.001647,0.007066,0.100803,0.003299,0.200849,0.200833,0.169071,0.483806,0.000000,0.000000,0.000000,0.000000,0.000000,0.000000,0.000000,0.000000,0.000000,0.000000,0.000000,0.000000,0.097668,3,0
1140000,-0.006838,29.424871,0.032189,-0.024280,25.864624,-0.010011,0.000446,0.024686,1.568953,-0.058905,0.002177,-0.002775,-0.000325,-0.007540,0.000036,0.000871,0.007076,0.057486,0.045183,0.201047,0.201030,0.168777,0.479133,0.000000,0.000000,0.000000,0.000000,0.000000,0.000000,0.000000,0.000000,0.000000,0.000000,0.000000,0.000000,0.055982,3,0
1150000,-0.006846,29.684742,0.033322,-0.024271,25.870588,-0.008722,0.000479,0.024883,1.568946,-0.059139,0.002223,-0.003142,-0.000336,-0.007591,0.000036,0.000526,0.007085,0.035421,0.044161,0.201241,0.201223,0.168476,0.474561,0.000000,0.000000,0.000000,0.000000,0.000000,0.000000,0.000000,0.000000,0.000000,0.000000,0.000000,0.000000,0.034915,3,0
1160000,-0.006855,29.945965,0.031887,-0.024141,25.878904,-0.010939,0.000504,0.025235,1.568923,-0.059627,0.002270,-0.002750,-0.000346,-0.007702,0.000036,0.001251,0.007092,0.073675,-0.047689,0.201429,0.201411,0.168168,0.470089,0.000000,0.000000,0.000000,0.000000,0.000000,0.000000,0.000000,0.000000,0.000000,0.000000,0.000000,0.000000,0.071527,3,0
1170000,-0.006859,30.208506,0.032463,-0.023967,25.889421,-0.010187,0.000529,0.025719,1.568907,-0.060359,0.002316,-0.002965,-0.000357,-0.007868,0.000037,0.002077,0.007098,0.110554,0.024921,0.201613,0.201595,0.167855,0.465716,0.000000,0.000000,0.000000,0.000000,0.000000,0.000000,0.000000,0.000000,0.000000,0.000000,0.000000,0.000000,0.107062,3,0
1180000,-0.006863,30.468344,0.031523,-0.023795,25.895067,-0.011561,0.000563,0.025881,1.568887,-0.060537,0.002363,-0.002716,-0.000368,-0.007910,0.000038,0.000268,0.007101,0.026817,-0.029835,0.201794,0.201775,0.167537,0.461441,0.000000,0.000000,0.000000,0.000000,0.000000,0.000000,0.000000,0.000000,0.000000,0.000000,0.000000,0.000000,0.026807,3,0
1190000,-0.006865,30.728188,0.031569,-0.023713,25.900717,-0.011790,0.000589,0.026040,1.568879,-0.060704,0.002410,-0.002769,-0.000379,-0.007949,0.000038,0.000118,0.007105,0.025347,0.006063,0.201971,0.201951,0.167214,0.457264,0.000000,0.000000,0.000000,0.000000,0.000000,0.000000,0.000000,0.000000,0.000000,0.000000,0.000000,0.000000,0.025438,3,0
1200000,-0.006864,30.990044,0.032653,-0.023522,25.909781,-0.010411,0.000621,0.026443,1.568853,-0.061256,0.002456,-0.003146,-0.000390,-0.008079,0.000039,0.001439,0.007105,0.083509,0.043592,0.202146,0.202125,0.166886,0.453182,0.000000,0.000000,0.000000,0.000000,0.000000,0.000000,0.000000,0.000000,0.000000,0.000000,0.000000,0.000000,0.080993,3,0
1210000,-0.006862,31.251879,0.033129,-0.023401,25.918797,-0.009821,0.000641,0.026832,1.568834,-0.061784,0.002502,-0.003335,-0.000401,-0.008206,0.000039,0.001112,0.007103,0.079988,0.021270,0.202317,0.202296,0.166554,0.449196,0.000000,0.000000,0.000000,0.000000,0.000000,0.000000,0.000000,0.000000,0.000000,0.000000,0.000000,0.000000,0.077597,3,0
1220000,-0.006860,31.513023,0.032137,-0.023266,25.926336,-0.011139,0.000672,0.027138,1.568821,-0.062158,0.002549,-0.003063,-0.000413,-0.008298,0.000040,0.000690,0.007099,0.056612,-0.031962,0.202487,0.202465,0.166217,0.445302,0.000000,0.000000,0.000000,0.000000,0.000000,0.000000,0.000000,0.000000,0.000000,0.000000,0.000000,0.000000,0.055126,3,0
1230000,-0.006856,31.772127,0.033219,-0.023197,25.930193,-0.009762,0.000698,0.027181,1.568809,-0.062120,0.002596,-0.003438,-0.000425,-0.008287,0.000040,0.000316,0.007097,-0.005819,0.043202,0.202655,0.202631,0.165878,0.441501,0.000000,0.000000,0.000000,0.000000,0.000000,0.000000,0.000000,0.000000,0.000000,0.000000,0.000000,0.000000,0.008863,3,0
1240000,-0.006852,32.031254,0.032366,-0.023060,25.934153,-0.011073,0.000724,0.027227,1.568789,-0.062077,0.002643,-0.003199,-0.000436,-0.008277,0.000040,0.000136,0.007091,-0.006538,-0.027297,0.202821,0.202797,0.165535,0.437792,0.000000,0.000000,0.000000,0.000000,0.000000,0.000000,0.000000,0.000000,0.000000,0.000000,0.000000,0.000000,0.009322,3,0
1250000,-0.006846,32.290394,0.031486,-0.022908,25.937960,-0.012230,0.000745,0.027259,1.568781,-0.062029,0.002689,-0.002952,-0.000448,-0.008266,0.000040,0.000143,0.007085,-0.007278,-0.027930,0.202986,0.202961,0.165189,0.434171,0.000000,0.000000,0.000000,0.000000,0.000000,0.000000,0.000000,0.000000,0.000000,0.000000,0.000000,0.000000,0.009816,3,0
1260000,-0.006839,32.550892,0.031217,-0.022790,25.944143,-0.012515,0.000768,0.027467,1.568766,-0.062238,0.002736,-0.002909,-0.000460,-0.008320,0.000041,0.000174,0.007078,0.031727,-0.005155,0.203150,0.203124,0.164841,0.430639,0.000000,0.000000,0.000000,0.000000,0.000000,0.000000,0.000000,0.000000,0.000000,0.000000,0.000000,0.000000,0.031405,3,0
1270000,-0.006829,32.809357,0.031570,-0.022617,25.946560,-0.012299,0.000790,0.027397,1.568751,-0.062041,0.002782,-0.003062,-0.000472,-0.008268,0.000040,0.000203,0.007069,-0.030041,0.017420,0.203313,0.203286,0.164490,0.427193,0.000000,0.000000,0.000000,0.000000,0.000000,0.000000,0.000000,0.000000,0.000000,0.000000,0.000000,0.000000,0.029815,3,0
1280000,-0.006819,33.070538,0.031779,-0.022537,25.953770,-0.012225,0.000812,0.027679,1.568744,-0.062364,0.002828,-0.003178,-0.000485,-0.008354,0.000041,0.000427,0.007059,0.049412,0.012522,0.203476,0.203448,0.164138,0.423833,0.000000,0.000000,0.000000,0.000000,0.000000,0.000000,0.000000,0.000000,0.000000,0.000000,0.000000,0.000000,0.048222,3,0
1290000,-0.006809,33.333054,0.030922,-0.022403,25.963354,-0.013510,0.000839,0.028123,1.568721,-0.062927,0.002873,-0.002949,-0.000497,-0.008507,0.000042,0.001321,0.007047,0.086338,-0.026363,0.203639,0.203610,0.163783,0.420558,0.000000,0.000000,0.000000,0.000000,0.000000,0.000000,0.000000,0.000000,0.000000,0.000000,0.000000,0.000000,0.083682,3,0
1300000,-0.006796,33.594845,0.031220,-0.022233,25.971544,-0.013399,0.000870,0.028463,1.568713,-0.063332,0.002919,-0.003103,-0.000509,-0.008618,0.000042,0.000676,0.007035,0.062275,0.016351,0.203801,0.203772,0.163428,0.417365,0.000000,0.000000,0.000000,0.000000,0.000000,0.000000,0.000000,0.000000,0.000000,0.000000,0.000000,0.000000,0.060544,3,0
1310000,-0.006781,33.854576,0.031879,-0.022082,25.975939,-0.012688,0.000909,0.028529,1.568709,-0.063327,0.002964,-0.003369,-0.000522,-0.008615,0.000043,0.000147,0.007021,-0.000813,0.029280,0.203964,0.203934,0.163071,0.414254,0.000000,0.000000,0.000000,0.000000,0.000000,0.000000,0.000000,0.000000,0.000000,0.000000,0.000000,0.000000,0.006826,3,0
1320000,-0.006765,34.114979,0.032712,-0.021871,25.981432,-0.011790,0.000946,0.028676,1.568691,-0.063441,0.003009,-0.003697,-0.000535,-0.008646,0.000043,0.000264,0.007004,0.017719,0.035615,0.204128,0.204096,0.162714,0.411222,0.000000,0.000000,0.000000,0.000000,0.000000,0.000000,0.000000,0.000000,0.000000,0.000000,0.000000,0.000000,0.018408,3,0
1330000,-0.006748,34.376724,0.032484,-0.021688,25.989166,-0.012253,0.000968,0.028994,1.568671,-0.063799,0.003053,-0.003669,-0.000548,-0.008749,0.000043,0.000505,0.006986,0.055447,-0.003667,0.204292,0.204260,0.162356,0.408268,0.000000,0.000000,0.000000,0.000000,0.000000,0.000000,0.000000,0.000000,0.000000,0.000000,0.000000,0.000000,0.053982,3,0
1340000,-0.006730,34.638435,0.032029,-0.021463,25.996744,-0.012922,0.001002,0.029308,1.568660,-0.064134,0.003098,-0.003564,-0.000561,-0.008847,0.000044,0.000467,0.006967,0.052048,-0.011918,0.204457,0.204424,0.161998,0.405390,0.000000,0.000000,0.000000,0.000000,0.000000,0.000000,0.000000,0.000000,0.000000,0.000000,0.000000,0.000000,0.050722,3,0
1350000,-0.006709,34.901463,0.032383,-0.021228,26.006618,-0.012669,0.001036,0.029793,1.568649,-0.064700,0.003142,-0.003747,-0.000574,-0.009013,0.000045,0.001323,0.006947,0.088444,0.018610,0.204623,0.204589,0.161640,0.402589,0.000000,0.000000,0.000000,0.000000,0.000000,0.000000,0.000000,0.000000,0.000000,0.000000,0.000000,0.000000,0.085693,3,0
1360000,-0.006688,35.159691,0.031465,-0.021018,26.007866,-0.013916,0.001059,0.029610,1.568644,-0.064347,0.003186,-0.003463,-0.000587,-0.008909,0.000045,0.000645,0.006923,-0.055408,-0.029712,0.204790,0.204755,0.161282,0.399862,0.000000,0.000000,0.000000,0.000000,0.000000,0.000000,0.000000,0.000000,0.000000,0.000000,0.000000,0.000000,0.053940,3,0
1370000,-0.006665,35.419289,0.030788,-0.020833,26.011442,-0.014815,0.001098,0.029602,1.568627,-0.064249,0.003231,-0.003273,-0.000600,-0.008880,0.000045,0.000112,0.006901,-0.015465,-0.020074,0.204959,0.204923,0.160924,0.397207,0.000000,0.000000,0.000000,0.000000,0.000000,0.000000,0.000000,0.000000,0.000000,0.000000,0.000000,0.000000,0.016358,3,0
1380000,-0.006641,35.680241,0.030133,-0.020615,26.017296,-0.015824,0.001126,0.029780,1.568612,-0.064395,0.003274,-0.003099,-0.000614,-0.008926,0.000045,0.000150,0.006876,0.023087,-0.018638,0.205129,0.205092,0.160567,0.394622,0.000000,0.000000,0.000000,0.000000,0.000000,0.000000,0.000000,0.000000,0.000000,0.000000,0.000000,0.000000,0.023261,3,0
1390000,-0.006616,35.943207,0.029114,-0.020405,26.026766,-0.017131,0.001148,0.030247,1.568602,-0.064901,0.003317,-0.002809,-0.000627,-0.009086,0.000046,0.001203,0.006849,0.080135,-0.031632,0.205301,0.205262,0.160211,0.392107,0.000000,0.000000,0.000000,0.000000,0.000000,0.000000,0.000000,0.000000,0.000000,0.000000,0.000000,0.000000,0.077671,3,0
1400000,-0.006589,36.202019,0.029551,-0.020301,26.028709,-0.016720,0.001181,0.030103,1.568584,-0.064626,0.003360,-0.003020,-0.000641,-0.008997,0.000046,0.000399,0.006823,-0.043774,0.022667,0.205474,0.205434,0.159856,0.389662,0.000000,0.000000,0.000000,0.000000,0.000000,0.000000,0.000000,0.000000,0.000000,0.000000,0.000000,0.000000,0.042781,3,0
1410000,-0.006563,36.462887,0.028563,-0.020202,26.034323,-0.018010,0.001219,0.030260,1.568573,-0.064723,0.003403,-0.002727,-0.000654,-0.009030,0.000046,0.000199,0.006795,0.015461,-0.030684,0.205649,0.205608,0.159502,0.387282,0.000000,0.000000,0.000000,0.000000,0.000000,0.000000,0.000000,0.000000,0.000000,0.000000,0.000000,0.000000,0.016306,3,0
1420000,-0.006535,36.725079,0.029360,-0.020095,26.042152,-0.017140,0.001260,0.030596,1.568555,-0.065050,0.003444,-0.003094,-0.000668,-0.009135,0.000047,0.000681,0.006768,0.052719,0.037346,0.205826,0.205784,0.159149,0.384968,0.000000,0.000000,0.000000,0.000000,0.000000,0.000000,0.000000,0.000000,0.000000,0.000000,0.000000,0.000000,0.051336,3,0
1430000,-0.006506,36.986538,0.029432,-0.019885,26.048645,-0.017198,0.001293,0.030815,1.568546,-0.065230,0.003485,-0.003191,-0.000682,-0.009194,0.000047,0.000157,0.006738,0.028996,0.009515,0.206005,0.205962,0.158798,0.382718,0.000000,0.000000,0.000000,0.000000,0.000000,0.000000,0.000000,0.000000,0.000000,0.000000,0.000000,0.000000,0.028750,3,0
1440000,-0.006476,37.246586,0.030169,-0.019709,26.052315,-0.016364,0.001323,0.030815,1.568532,-0.065144,0.003526,-0.003523,-0.000696,-0.009163,0.000047,0.000230,0.006707,-0.013863,0.034427,0.206186,0.206141,0.158449,0.380529,0.000000,0.000000,0.000000,0.000000,0.000000,0.000000,0.000000,0.000000,0.000000,0.000000,0.000000,0.000000,0.014863,3,0
1450000,-0.006445,37.504566,0.030522,-0.019532,26.052296,-0.015832,0.001350,0.030506,1.568522,-0.064684,0.003567,-0.003698,-0.000710,-0.009005,0.000047,0.000975,0.006675,-0.075157,0.019063,0.206368,0.206322,0.158102,0.378402,0.000000,0.000000,0.000000,0.000000,0.000000,0.000000,0.000000,0.000000,0.000000,0.000000,0.000000,0.000000,0.072853,3,0
1460000,-0.006416,37.768047,0.029438,-0.019419,26.062248,-0.017217,0.001376,0.031007,1.568513,-0.065198,0.003608,-0.003373,-0.000724,-0.009185,0.000048,0.001344,0.006644,0.084320,-0.034457,0.206553,0.206505,0.157757,0.376334,0.000000,0.000000,0.000000,0.000000,0.000000,0.000000,0.000000,0.000000,0.000000,0.000000,0.000000,0.000000,0.081662,3,0
1470000,-0.006383,38.030067,0.030062,-0.019230,26.069395,-0.016471,0.001421,0.031283,1.568506,-0.065436,0.003647,-0.003682,-0.000738,-0.009267,0.000048,0.000410,0.006612,0.039406,0.030727,0.206739,0.206691,0.157414,0.374325,0.000000,0.000000,0.000000,0.000000,0.000000,0.000000,0.000000,0.000000,0.000000,0.000000,0.000000,0.000000,0.038587,3,0
1480000,-0.006353,38.290676,0.029421,-0.019146,26.073837,-0.017179,0.001458,0.031336,1.568495,-0.065412,0.003687,-0.003501,-0.000752,-0.009259,0.000049,0.000063,0.006579,-0.004017,-0.018161,0.206928,0.206878,0.157074,0.372372,0.000000,0.000000,0.000000,0.000000,0.000000,0.000000,0.000000,0.000000,0.000000,0.000000,0.000000,0.000000,0.007446,3,0
1490000,-0.006319,38.552616,0.029472,-0.018878,26.080662,-0.017329,0.001486,0.031582,1.568475,-0.065612,0.003725,-0.003596,-0.000766,-0.009331,0.000049,0.000201,0.006546,0.033516,0.008950,0.207118,0.207067,0.156736,0.370474,0.000000,0.000000,0.000000,0.000000,0.000000,0.000000,0.000000,0.000000,0.000000,0.000000,0.000000,0.000000,0.032971,3,0
1500000,-0.006284,38.814495,0.030163,-0.018617,26.087214,-0.016500,0.001523,0.031812,1.568461,-0.065790,0.003763,-0.003936,-0.000781,-0.009394,0.000050,0.000333,0.006510,0.029934,0.033504,0.207311,0.207258,0.156401,0.368631,0.000000,0.000000,0.000000,0.000000,0.000000,0.000000,0.000000,0.000000,0.000000,0.000000,0.000000,0.000000,0.029583,3,0
1510000,-0.006250,39.072216,0.028712,-0.018480,26.086258,-0.018226,0.001559,0.031399,1.568450,-0.065242,0.003803,-0.003415,-0.000795,-0.009194,0.000049,0.001804,0.006472,-0.092861,-0.050195,0.207505,0.207451,0.156068,0.366841,0.000000,0.000000,0.000000,0.000000,0.000000,0.000000,0.000000,0.000000,0.000000,0.000000,0.000000,0.000000,0.089878,3,0
1520000,-0.006213,39.332684,0.029276,-0.018255,26.090235,-0.017723,0.001604,0.031408,1.568431,-0.065168,0.003840,-0.003704,-0.000809,-0.009164,0.000049,0.000167,0.006437,-0.012630,0.028793,0.207701,0.207646,0.155738,0.365102,0.000000,0.000000,0.000000,0.000000,0.000000,0.000000,0.000000,0.000000,0.000000,0.000000,0.000000,0.000000,0.013680,3,0
1530000,-0.006177,39.591057,0.028911,-0.018128,26.090258,-0.018313,0.001643,0.031084,1.568412,-0.064736,0.003878,-0.003611,-0.000824,-0.008998,0.000049,0.000906,0.006398,-0.074348,-0.007823,0.207899,0.207842,0.155412,0.363413,0.000000,0.000000,0.000000,0.000000,0.000000,0.000000,0.000000,0.000000,0.000000,0.000000,0.000000,0.000000,0.072039,3,0
1540000,-0.006141,39.850819,0.027722,-0.017926,26.092852,-0.019647,0.001686,0.030980,1.568399,-0.064537,0.003916,-0.003205,-0.000838,-0.008924,0.000048,0.000448,0.006360,-0.034534,-0.039188,0.208098,0.208040,0.155088,0.361772,0.000000,0.000000,0.000000,0.000000,0.000000,0.000000,0.000000,0.000000,0.000000,0.000000,0.000000,0.000000,0.033909,3,0
1550000,-0.006102,40.112606,0.028742,-0.017812,26.099062,-0.018308,0.001715,0.031163,1.568377,-0.064673,0.003951,-0.003695,-0.000852,-0.008974,0.000049,0.000463,0.006323,0.023739,0.047436,0.208299,0.208239,0.154767,0.360179,0.000000,0.000000,0.000000,0.000000,0.000000,0.000000,0.000000,0.000000,0.000000,0.000000,0.000000,0.000000,0.023725,3,0
1560000,-0.006065,40.375046,0.027654,-0.017604,26.106243,-0.019823,0.001754,0.031464,1.568369,-0.064901,0.003987,-0.003347,-0.000866,-0.009068,0.000050,0.000461,0.006282,0.040195,-0.034619,0.208501,0.208440,0.154450,0.358631,0.000000,0.000000,0.000000,0.000000,0.000000,0.000000,0.000000,0.000000,0.000000,0.000000,0.000000,0.000000,0.039263,3,0
1570000,-0.006026,40.635334,0.027513,-0.017464,26.109406,-0.019904,0.001784,0.031399,1.568354,-0.064769,0.004022,-0.003363,-0.000881,-0.009014,0.000050,0.000096,0.006243,-0.023529,0.002046,0.208705,0.208642,0.154136,0.357129,0.000000,0.000000,0.000000,0.000000,0.000000,0.000000,0.000000,0.000000,0.000000,0.000000,0.000000,0.000000,0.023495,3,0
1580000,-0.005987,40.896286,0.027143,-0.017295,26.113829,-0.020556,0.001822,0.031431,1.568343,-0.064738,0.004057,-0.003294,-0.000895,-0.009002,0.000050,0.000018,0.006203,-0.005547,-0.006570,0.208910,0.208846,0.153826,0.355671,0.000000,0.000000,0.000000,0.000000,0.000000,0.000000,0.000000,0.000000,0.000000,0.000000,0.000000,0.000000,0.008033,3,0
1590000,-0.005947,41.153713,0.027970,-0.017142,26.111666,-0.019648,0.001858,0.030893,1.568325,-0.064142,0.004092,-0.003681,-0.000910,-0.008748,0.000049,0.002116,0.006163,-0.107510,0.039344,0.209116,0.209051,0.153519,0.354255,0.000000,0.000000,0.000000,0.000000,0.000000,0.000000,0.000000,0.000000,0.000000,0.000000,0.000000,0.000000,0.103922,3,0
1600000,-0.005907,41.414627,0.027922,-0.016962,26.115889,-0.019620,0.001892,0.030926,1.568312,-0.064104,0.004125,-0.003740,-0.000924,-0.008731,0.000049,0.000020,0.006120,-0.007092,0.005793,0.209324,0.209257,0.153215,0.352880,0.000000,0.000000,0.000000,0.000000,0.000000,0.000000,0.000000,0.000000,0.000000,0.000000,0.000000,0.000000,0.009040,3,0
1610000,-0.005865,41.676876,0.028292,-0.016780,26.122431,-0.019196,0.001926,0.031159,1.568298,-0.064268,0.004157,-0.003984,-0.000939,-0.008800,0.000050,0.000235,0.006078,0.030132,0.022641,0.209532,0.209463,0.152915,0.351545,0.000000,0.000000,0.000000,0.000000,0.000000,0.000000,0.000000,0.000000,0.000000,0.000000,0.000000,0.000000,0.029673,3,0
1620000,-0.005826,41.938385,0.026965,-0.016619,26.127598,-0.020674,0.001958,0.031278,1.568289,-0.064302,0.004191,-0.003517,-0.000953,-0.008819,0.000050,0.000334,0.006035,0.006363,-0.044500,0.209741,0.209671,0.152619,0.350250,0.000000,0.000000,0.000000,0.000000,0.000000,0.000000,0.000000,0.000000,0.000000,0.000000,0.000000,0.000000,0.008454,3,0
1630000,-0.005783,42.198429,0.026853,-0.016325,26.129917,-0.020914,0.002004,0.031131,1.568283,-0.064107,0.004223,-0.003545,-0.000967,-0.008732,0.000050,0.000222,0.005993,-0.036526,0.003447,0.209951,0.209879,0.152327,0.348991,0.000000,0.000000,0.000000,0.000000,0.000000,0.000000,0.000000,0.000000,0.000000,0.000000,0.000000,0.000000,0.035719,3,0
1640000,-0.005740,42.457745,0.026458,-0.016107,26.130915,-0.021498,0.002051,0.030864,1.568274,-0.063800,0.004255,-0.003448,-0.000982,-0.008593,0.000049,0.000558,0.005948,-0.058044,-0.007869,0.210161,0.210088,0.152038,0.347771,0.000000,0.000000,0.000000,0.000000,0.000000,0.000000,0.000000,0.000000,0.000000,0.000000,0.000000,0.000000,0.056308,3,0
1650000,-0.005697,42.717049,0.025081,-0.015842,26.131708,-0.023241,0.002087,0.030597,1.568266,-0.063490,0.004288,-0.002939,-0.000996,-0.008455,0.000049,0.000916,0.005902,-0.058949,-0.046504,0.210372,0.210297,0.151753,0.346584,0.000000,0.000000,0.000000,0.000000,0.000000,0.000000,0.000000,0.000000,0.000000,0.000000,0.000000,0.000000,0.057181,3,0
1660000,-0.005650,42.975605,0.025809,-0.015599,26.131041,-0.022237,0.002123,0.030194,1.568260,-0.063078,0.004318,-0.003318,-0.001010,-0.008258,0.000049,0.001251,0.005857,-0.079712,0.037142,0.210582,0.210507,0.151472,0.345431,0.000000,0.000000,0.000000,0.000000,0.000000,0.000000,0.000000,0.000000,0.000000,0.000000,0.000000,0.000000,0.077112,3,0
1670000,-0.005603,43.236950,0.025580,-0.015297,26.135571,-0.022557,0.002167,0.030259,1.568254,-0.063076,0.004348,-0.003316,-0.001025,-0.008257,0.000049,0.000005,0.005807,-0.000317,-0.000157,0.210793,0.210716,0.151195,0.344312,0.000000,0.000000,0.000000,0.000000,0.000000,0.000000,0.000000,0.000000,0.000000,0.000000,0.000000,0.000000,0.005611,3,0
1680000,-0.005555,43.497532,0.025719,-0.015124,26.138533,-0.022494,0.002208,0.030176,1.568244,-0.062959,0.004377,-0.003465,-0.001039,-0.008199,0.000049,0.000125,0.005758,-0.023159,0.014360,0.211004,0.210926,0.150922,0.343225,0.000000,0.000000,0.000000,0.000000,0.000000,0.000000,0.000000,0.000000,0.000000,0.000000,0.000000,0.000000,0.023019,3,0
1690000,-0.005507,43.754578,0.025212,-0.014835,26.135015,-0.022858,0.002239,0.029499,1.568242,-0.062333,0.004407,-0.003295,-0.001053,-0.007892,0.000048,0.002534,0.005707,-0.124744,-0.012838,0.211215,0.211135,0.150653,0.342170,0.000000,0.000000,0.000000,0.000000,0.000000,0.000000,0.000000,0.000000,0.000000,0.000000,0.000000,0.000000,0.120483,3,0
1700000,-0.005457,44.016533,0.024868,-0.014580,26.140589,-0.023186,0.002276,0.029647,1.568229,-0.062411,0.004435,-0.003252,-0.001067,-0.007932,0.000048,0.000048,0.005656,0.015827,-0.004322,0.211425,0.211344,0.150387,0.341145,0.000000,0.000000,0.000000,0.000000,0.000000,0.000000,0.000000,0.000000,0.000000,0.000000,0.000000,0.000000,0.016212,3,0
1710000,-0.005407,44.274918,0.024149,-0.014331,26.139389,-0.023882,0.002318,0.029180,1.568227,-0.061984,0.004464,-0.003005,-0.001081,-0.007717,0.000048,0.001295,0.005604,-0.087154,-0.020577,0.211635,0.211552,0.150126,0.340148,0.000000,0.000000,0.000000,0.000000,0.000000,0.000000,0.000000,0.000000,0.000000,0.000000,0.000000,0.000000,0.084261,3,0
