time_us,pos_x,pos_y,pos_z,vel_x,vel_y,vel_z,roll,pitch,yaw,bias_ax,bias_ay,bias_az,bias_gx,bias_gy,bias_gz,nis,innov_x,innov_y,innov_z,cov_pos_x,cov_pos_y,cov_pos_z,cov_yaw,des_speed,des_heading,des_climb,pid_speed,pid_yaw,pid_alt,speed_meas,yaw_meas,climb_meas,fwd_accel,yaw_rate,vert_accel,drift_m,nav_mode,mission_state
0,-0.000004,0.149996,0.000003,-0.000708,24.999319,0.000805,-0.000013,-0.000013,1.570796,0.000000,0.000000,0.000000,0.000000,0.000000,0.000000,0.006250,0.000007,-0.249996,-0.000008,2.400038,2.400038,3.600017,1.000518,0.000000,0.000000,0.000000,0.000000,0.000000,0.000000,0.000000,0.000000,0.000000,0.000000,0.000000,0.000000,0.149996,1,0
10000,-0.000013,0.370897,0.001318,-0.001365,24.998793,0.001792,-0.000016,-0.000016,1.570796,0.000000,0.000000,-0.000000,0.000000,0.000000,0.000000,0.001235,0.000018,-0.101802,0.003458,1.714420,1.714420,2.250079,1.001073,0.000000,0.000000,0.000000,0.000000,0.000000,0.000000,0.000000,0.000000,0.000000,0.000000,0.000000,0.000000,0.072713,3,0
20000,-0.000027,0.606596,0.001863,-0.002148,24.998217,0.002800,-0.000029,-0.000024,1.570801,0.000001,0.000000,-0.000000,-0.000000,0.000000,-0.000000,0.000536,0.000034,-0.064271,0.001898,1.333616,1.333616,1.636554,1.001655,0.000000,0.000000,0.000000,0.000000,0.000000,0.000000,0.000000,0.000000,0.000000,0.000000,0.000000,0.000000,0.049986,3,0
30000,-0.000046,0.841787,0.008640,-0.002908,24.997576,0.003924,-0.000030,-0.000025,1.570802,0.000002,0.000000,-0.000001,-0.000000,0.000000,-0.000000,0.001031,0.000056,-0.081297,0.031435,1.091392,1.091392,1.286065,1.002257,0.000000,0.000000,0.000000,0.000000,0.000000,0.000000,0.000000,0.000000,0.000000,0.000000,0.000000,0.000000,0.066509,3,0
40000,-0.000070,1.098124,0.014192,-0.003681,24.997389,0.004778,-0.000042,-0.000034,1.570799,0.000001,0.000000,-0.000001,-0.000000,-0.000000,0.000000,0.000374,0.000082,0.041340,0.031185,0.923811,0.923811,1.059385,1.002869,0.000000,0.000000,0.000000,0.000000,0.000000,0.000000,0.000000,0.000000,0.000000,0.000000,0.000000,0.000000,0.034975,3,0
50000,-0.000098,1.351238,0.014583,-0.004379,24.997072,0.005831,-0.000058,-0.000028,1.570794,0.000000,0.000000,-0.000001,-0.000000,-0.000000,0.000000,0.000081,0.000114,0.023552,0.002213,0.801036,0.801036,0.900822,1.003484,0.000000,0.000000,0.000000,0.000000,0.000000,0.000000,0.000000,0.000000,0.000000,0.000000,0.000000,0.000000,0.020408,3,0
60000,-0.000132,1.609294,0.017075,-0.005123,24.997147,0.006959,-0.000074,-0.000040,1.570798,-0.000004,0.000000,-0.000003,-0.000000,-0.000000,0.000000,0.000742,0.000150,0.068624,0.018555,0.707270,0.707270,0.783741,1.004094,0.000000,0.000000,0.000000,0.000000,0.000000,0.000000,0.000000,0.000000,0.000000,0.000000,0.000000,0.000000,0.060535,3,0
70000,-0.000171,1.860249,0.015778,-0.005866,24.996830,0.007648,-0.000090,-0.000045,1.570799,-0.000005,0.000000,-0.000002,-0.000000,-0.000000,0.000000,0.000034,0.000191,0.009356,-0.011883,0.633370,0.633370,0.693801,1.004688,0.000000,0.000000,0.000000,0.000000,0.000000,0.000000,0.000000,0.000000,0.000000,0.000000,0.000000,0.000000,0.008371,3,0
80000,-0.000213,2.115625,0.018382,-0.006535,24.996948,0.008785,-0.000098,-0.000048,1.570806,-0.000011,0.000000,-0.000004,-0.000000,-0.000000,0.000000,0.000571,0.000236,0.056587,0.024262,0.573673,0.573673,0.622594,1.005260,0.000000,0.000000,0.000000,0.000000,0.000000,0.000000,0.000000,0.000000,0.000000,0.000000,0.000000,0.000000,0.051177,3,0
90000,-0.000261,2.360378,0.019762,-0.007295,24.996056,0.009964,-0.000098,-0.000050,1.570814,-0.000003,0.000000,-0.000006,-0.000000,-0.000000,0.000000,0.000569,0.000286,-0.059636,0.013611,0.524488,0.524488,0.564865,1.005801,0.000000,0.000000,0.000000,0.000000,0.000000,0.000000,0.000000,0.000000,0.000000,0.000000,0.000000,0.000000,0.054424,3,0
100000,-0.000314,2.606632,0.018625,-0.008034,24.995178,0.010896,-0.000100,-0.000053,1.570817,0.000004,0.000000,-0.000003,-0.000000,0.000000,-0.000000,0.000356,0.000342,-0.045954,-0.014469,0.483304,0.483304,0.517162,1.006301,0.000000,0.000000,0.000000,0.000000,0.000000,0.000000,0.000000,0.000000,0.000000,0.000000,0.000000,0.000000,0.042253,3,0
110000,-0.000372,2.862969,0.018829,-0.008796,24.995729,0.011678,-0.000110,-0.000045,1.570811,-0.000012,0.000000,-0.000004,-0.000000,-0.000000,0.000000,0.001128,0.000402,0.085499,0.001102,0.448354,0.448354,0.477121,1.006754,0.000000,0.000000,0.000000,0.000000,0.000000,0.000000,0.000000,0.000000,0.000000,0.000000,0.000000,0.000000,0.079111,3,0
120000,-0.000435,3.110713,0.015515,-0.009550,24.995007,0.012208,-0.000120,-0.000044,1.570822,-0.000005,0.000000,0.000006,-0.000000,-0.000000,0.000000,0.000491,0.000468,-0.031691,-0.046594,0.418359,0.418359,0.443071,1.007150,0.000000,0.000000,0.000000,0.000000,0.000000,0.000000,0.000000,0.000000,0.000000,0.000000,0.000000,0.000000,0.029485,3,0
130000,-0.000503,3.368385,0.013513,-0.010323,24.995979,0.012669,-0.000119,-0.000029,1.570832,-0.000035,0.000000,0.000014,-0.000000,-0.000001,0.000000,0.002323,0.000538,0.118151,-0.030922,0.392370,0.392370,0.413797,1.007481,0.000000,0.000000,0.000000,0.000000,0.000000,0.000000,0.000000,0.000000,0.000000,0.000000,0.000000,0.000000,0.110426,3,0
140000,-0.000575,3.618318,0.016644,-0.010955,24.995554,0.014078,-0.000125,-0.000036,1.570842,-0.000035,0.000001,0.000001,-0.000000,-0.000001,0.000000,0.000334,0.000613,-0.000378,0.046278,0.369667,0.369667,0.388393,1.007739,0.000000,0.000000,0.000000,0.000000,0.000000,0.000000,0.000000,0.000000,0.000000,0.000000,0.000000,0.000000,0.000676,3,0
150000,-0.000651,3.871059,0.017385,-0.011670,24.995741,0.015155,-0.000141,-0.000033,1.570851,-0.000051,0.000001,-0.000003,-0.000000,-0.000001,0.000000,0.000375,0.000692,0.047878,0.009683,0.349696,0.349696,0.366172,1.007915,0.000000,0.000000,0.000000,0.000000,0.000000,0.000000,0.000000,0.000000,0.000000,0.000000,0.000000,0.000000,0.045092,3,0
160000,-0.000732,4.126177,0.020086,-0.012315,24.996740,0.016633,-0.000144,-0.000031,1.570862,-0.000087,0.000001,-0.000019,-0.000000,-0.000002,0.000000,0.001675,0.000775,0.093318,0.043978,0.332022,0.332022,0.346600,1.008003,0.000000,0.000000,0.000000,0.000000,0.000000,0.000000,0.000000,0.000000,0.000000,0.000000,0.000000,0.000000,0.088156,3,0
170000,-0.000816,4.375995,0.019073,-0.012950,24.996382,0.017199,-0.000148,-0.000026,1.570866,-0.000085,0.000002,-0.000010,-0.000000,-0.000002,0.000000,0.000075,0.000861,-0.002779,-0.021644,0.316299,0.316299,0.329260,1.007992,0.000000,0.000000,0.000000,0.000000,0.000000,0.000000,0.000000,0.000000,0.000000,0.000000,0.000000,0.000000,0.002757,3,0
180000,-0.000905,4.628252,0.020202,-0.013638,24.996778,0.018299,-0.000162,-0.000028,1.570860,-0.000107,0.000002,-0.000018,-0.000000,-0.000002,0.000000,0.000381,0.000953,0.045590,0.018148,0.302248,0.302248,0.313817,1.007876,0.000000,0.000000,0.000000,0.000000,0.000000,0.000000,0.000000,0.000000,0.000000,0.000000,0.000000,0.000000,0.043303,3,0
190000,-0.000998,4.885513,0.022204,-0.014341,24.999077,0.019829,-0.000166,-0.000011,1.570868,-0.000187,0.000003,-0.000037,-0.000000,-0.000004,0.000000,0.003831,0.001048,0.151150,0.036183,0.289644,0.289644,0.300003,1.007647,0.000000,0.000000,0.000000,0.000000,0.000000,0.000000,0.000000,0.000000,0.000000,0.000000,0.000000,0.000000,0.143857,3,0
200000,-0.001095,5.137953,0.020486,-0.015046,24.999636,0.019838,-0.000169,-0.000012,1.570874,-0.000218,0.000003,-0.000014,-0.000000,-0.000005,0.000000,0.000700,0.001148,0.052897,-0.040128,0.278298,0.278298,0.287598,1.007296,0.000000,0.000000,0.000000,0.000000,0.000000,0.000000,0.000000,0.000000,0.000000,0.000000,0.000000,0.000000,0.050456,3,0
210000,-0.001197,5.387910,0.019613,-0.015816,24.999126,0.020240,-0.000185,-0.000019,1.570885,-0.000217,0.000004,0.000001,-0.000000,-0.000005,0.000000,0.000088,0.001253,-0.000758,-0.023429,0.268058,0.268058,0.276421,1.006818,0.000000,0.000000,0.000000,0.000000,0.000000,0.000000,0.000000,0.000000,0.000000,0.000000,0.000000,0.000000,0.001399,3,0
220000,-0.001305,5.638229,0.018738,-0.016579,24.998793,0.020707,-0.000199,-0.000029,1.570886,-0.000223,0.000005,0.000017,-0.000000,-0.000005,0.000000,0.000105,0.001363,0.007716,-0.024472,0.258792,0.258792,0.266321,1.006204,0.000000,0.000000,0.000000,0.000000,0.000000,0.000000,0.000000,0.000000,0.000000,0.000000,0.000000,0.000000,0.007497,3,0
230000,-0.001417,5.893022,0.017995,-0.017346,25.000774,0.021283,-0.000206,0.000003,1.570895,-0.000310,0.000006,0.000034,-0.000000,-0.000008,0.000000,0.002201,0.001478,0.115220,-0.022419,0.250391,0.250391,0.257172,1.005449,0.000000,0.000000,0.000000,0.000000,0.000000,0.000000,0.000000,0.000000,0.000000,0.000000,0.000000,0.000000,0.110420,3,0
240000,-0.001533,6.149443,0.019623,-0.018042,25.003845,0.022880,-0.000216,0.000039,1.570887,-0.000441,0.000007,0.000007,-0.000000,-0.000013,0.000000,0.004206,0.001598,0.158591,0.033908,0.242762,0.242762,0.248866,1.004544,0.000000,0.000000,0.000000,0.000000,0.000000,0.000000,0.000000,0.000000,0.000000,0.000000,0.000000,0.000000,0.152182,3,0
250000,-0.001652,6.403443,0.020638,-0.018676,25.005651,0.024017,-0.000218,0.000063,1.570890,-0.000531,0.000009,-0.000010,-0.000000,-0.000016,0.000000,0.001692,0.001720,0.100929,0.019371,0.235826,0.235826,0.241314,1.003483,0.000000,0.000000,0.000000,0.000000,0.000000,0.000000,0.000000,0.000000,0.000000,0.000000,0.000000,0.000000,0.096977,3,0
260000,-0.001776,6.658286,0.020719,-0.019392,25.008232,0.024701,-0.000218,0.000105,1.570882,-0.000651,0.000011,-0.000006,-0.000000,-0.000020,0.000000,0.002517,0.001847,0.125214,-0.004277,0.229513,0.229513,0.234436,1.002261,0.000000,0.000000,0.000000,0.000000,0.000000,0.000000,0.000000,0.000000,0.000000,0.000000,0.000000,0.000000,0.120437,3,0
270000,-0.001904,6.911683,0.020586,-0.020069,25.009905,0.025505,-0.000233,0.000124,1.570889,-0.000743,0.000013,0.000004,-0.000000,-0.000024,0.000000,0.001289,0.001977,0.089015,-0.010257,0.223764,0.223764,0.228165,1.000872,0.000000,0.000000,0.000000,0.000000,0.000000,0.000000,0.000000,0.000000,0.000000,0.000000,0.000000,0.000000,0.085717,3,0
280000,-0.002034,7.163031,0.019742,-0.020702,25.010355,0.025728,-0.000245,0.000135,1.570893,-0.000781,0.000015,0.000037,-0.000000,-0.000025,0.000000,0.000334,0.002111,0.034389,-0.029901,0.218528,0.218528,0.222443,0.999310,0.000000,0.000000,0.000000,0.000000,0.000000,0.000000,0.000000,0.000000,0.000000,0.000000,0.000000,0.000000,0.033199,3,0
290000,-0.002168,7.415315,0.021125,-0.021359,25.011528,0.027544,-0.000250,0.000153,1.570897,-0.000853,0.000018,0.000001,-0.000001,-0.000028,0.000000,0.000758,0.002248,0.061343,0.030781,0.213757,0.213758,0.217219,0.997571,0.000000,0.000000,0.000000,0.000000,0.000000,0.000000,0.000000,0.000000,0.000000,0.000000,0.000000,0.000000,0.059198,3,0
300000,-0.002307,7.668476,0.022779,-0.022132,25.013489,0.029531,-0.000260,0.000184,1.570897,-0.000963,0.000021,-0.000047,-0.000001,-0.000033,0.000000,0.001468,0.002390,0.087351,0.038647,0.209414,0.209414,0.212446,0.995649,0.000000,0.000000,0.000000,0.000000,0.000000,0.000000,0.000000,0.000000,0.000000,0.000000,0.000000,0.000000,0.084334,3,0
310000,-0.002449,7.925180,0.022185,-0.022826,25.018343,0.029729,-0.000258,0.000274,1.570901,-0.001219,0.000024,-0.000013,-0.000001,-0.000045,0.000000,0.006042,0.002536,0.191992,-0.025875,0.205461,0.205461,0.208087,0.993540,0.000000,0.000000,0.000000,0.000000,0.000000,0.000000,0.000000,0.000000,0.000000,0.000000,0.000000,0.000000,0.185433,3,0
320000,-0.002595,8.179869,0.021846,-0.023564,25.021713,0.030231,-0.000258,0.000326,1.570895,-0.001409,0.000028,0.000014,-0.000001,-0.000053,0.000000,0.002953,0.002685,0.134027,-0.019012,0.201867,0.201867,0.204105,0.991241,0.000000,0.000000,0.000000,0.000000,0.000000,0.000000,0.000000,0.000000,0.000000,0.000000,0.000000,0.000000,0.129544,3,0
330000,-0.002745,8.433326,0.023192,-0.024321,25.024294,0.031866,-0.000272,0.000362,1.570888,-0.001556,0.000032,-0.000032,-0.000001,-0.000061,0.000000,0.001703,0.002839,0.097972,0.031013,0.198604,0.198604,0.200469,0.988748,0.000000,0.000000,0.000000,0.000000,0.000000,0.000000,0.000000,0.000000,0.000000,0.000000,0.000000,0.000000,0.094769,3,0
340000,-0.002898,8.690162,0.022931,-0.024955,25.030079,0.032094,-0.000284,0.000465,1.570895,-0.001876,0.000037,-0.000004,-0.000002,-0.000076,0.000001,0.006652,0.002996,0.202311,-0.017891,0.195646,0.195646,0.197151,0.986058,0.000000,0.000000,0.000000,0.000000,0.000000,0.000000,0.000000,0.000000,0.000000,0.000000,0.000000,0.000000,0.195735,3,0
350000,-0.003054,8.945736,0.022700,-0.025653,25.034782,0.032516,-0.000288,0.000553,1.570888,-0.002150,0.000042,0.000025,-0.000002,-0.000090,0.000001,0.004393,0.003155,0.164085,-0.017338,0.192971,0.192971,0.194125,0.983169,0.000000,0.000000,0.000000,0.000000,0.000000,0.000000,0.000000,0.000000,0.000000,0.000000,0.000000,0.000000,0.158837,3,0
360000,-0.003212,9.201380,0.024185,-0.026284,25.039686,0.034351,-0.000288,0.000655,1.570887,-0.002443,0.000048,-0.000038,-0.000002,-0.000106,0.000001,0.004707,0.003318,0.166890,0.036117,0.190557,0.190557,0.191370,0.980079,0.000000,0.000000,0.000000,0.000000,0.000000,0.000000,0.000000,0.000000,0.000000,0.000000,0.000000,0.000000,0.161622,3,0
370000,-0.003374,9.458972,0.023141,-0.026938,25.046898,0.034102,-0.000296,0.000794,1.570882,-0.002865,0.000055,0.000043,-0.000002,-0.000128,0.000001,0.008806,0.003483,0.229259,-0.044434,0.188386,0.188386,0.188863,0.976785,0.000000,0.000000,0.000000,0.000000,0.000000,0.000000,0.000000,0.000000,0.000000,0.000000,0.000000,0.000000,0.222086,3,0
380000,-0.003537,9.714733,0.024742,-0.027605,25.052349,0.036277,-0.000294,0.000896,1.570876,-0.003195,0.000062,-0.000034,-0.000003,-0.000147,0.000001,0.004951,0.003651,0.170382,0.040222,0.186441,0.186441,0.186586,0.973288,0.000000,0.000000,0.000000,0.000000,0.000000,0.000000,0.000000,0.000000,0.000000,0.000000,0.000000,0.000000,0.165126,3,0
390000,-0.003703,9.971803,0.023896,-0.028219,25.059277,0.035775,-0.000296,0.001043,1.570864,-0.003625,0.000069,0.000045,-0.000003,-0.000171,0.000001,0.007567,0.003821,0.212752,-0.039568,0.184705,0.184705,0.184523,0.969587,0.000000,0.000000,0.000000,0.000000,0.000000,0.000000,0.000000,0.000000,0.000000,0.000000,0.000000,0.000000,0.206236,3,0
400000,-0.003872,10.224678,0.023067,-0.028915,25.061550,0.035500,-0.000300,0.001100,1.570870,-0.003784,0.000078,0.000128,-0.000004,-0.000181,0.000001,0.001158,0.003994,0.074886,-0.039295,0.183164,0.183164,0.182656,0.965682,0.000000,0.000000,0.000000,0.000000,0.000000,0.000000,0.000000,0.000000,0.000000,0.000000,0.000000,0.000000,0.072704,3,0
410000,-0.004043,10.481944,0.024437,-0.029567,25.069223,0.037642,-0.000299,0.001267,1.570862,-0.004269,0.000087,0.000055,-0.000004,-0.000210,0.000002,0.007973,0.004169,0.219565,0.033276,0.181805,0.181805,0.180971,0.961574,0.000000,0.000000,0.000000,0.000000,0.000000,0.000000,0.000000,0.000000,0.000000,0.000000,0.000000,0.000000,0.212951,3,0
420000,-0.004215,10.739276,0.025520,-0.030117,25.077023,0.039498,-0.000300,0.001441,1.570858,-0.004777,0.000097,0.000001,-0.000005,-0.000241,0.000002,0.007961,0.004346,0.220649,0.023266,0.180615,0.180615,0.179456,0.957263,0.000000,0.000000,0.000000,0.000000,0.000000,0.000000,0.000000,0.000000,0.000000,0.000000,0.000000,0.000000,0.214048,3,0
430000,-0.004389,10.994893,0.025149,-0.030756,25.082779,0.039694,-0.000296,0.001571,1.570851,-0.005166,0.000108,0.000064,-0.000006,-0.000266,0.000002,0.004359,0.004524,0.162028,-0.026178,0.179583,0.179583,0.178097,0.952751,0.000000,0.000000,0.000000,0.000000,0.000000,0.000000,0.000000,0.000000,0.000000,0.000000,0.000000,0.000000,0.157240,3,0
440000,-0.004563,11.252401,0.023961,-0.031268,25.091063,0.038689,-0.000306,0.001761,1.570841,-0.005726,0.000120,0.000199,-0.000006,-0.000302,0.000002,0.008620,0.004703,0.224417,-0.054075,0.178697,0.178697,0.176883,0.948041,0.000000,0.000000,0.000000,0.000000,0.000000,0.000000,0.000000,0.000000,0.000000,0.000000,0.000000,0.000000,0.217781,3,0
450000,-0.004739,11.506454,0.024555,-0.031847,25.095087,0.040000,-0.000314,0.001849,1.570835,-0.006000,0.000132,0.000182,-0.000007,-0.000321,0.000002,0.001827,0.004884,0.105976,0.006687,0.177948,0.177949,0.175803,0.943135,0.000000,0.000000,0.000000,0.000000,0.000000,0.000000,0.000000,0.000000,0.000000,0.000000,0.000000,0.000000,0.102942,3,0
460000,-0.004915,11.764777,0.024148,-0.032346,25.104860,0.040049,-0.000310,0.002074,1.570822,-0.006670,0.000146,0.000257,-0.000008,-0.000367,0.000003,0.010197,0.005064,0.249461,-0.028053,0.177326,0.177327,0.174847,0.938036,0.000000,0.000000,0.000000,0.000000,0.000000,0.000000,0.000000,0.000000,0.000000,0.000000,0.000000,0.000000,0.242138,3,0
470000,-0.005091,12.022003,0.024308,-0.032897,25.113108,0.040749,-0.000312,0.002275,1.570812,-0.007254,0.000161,0.000281,-0.000009,-0.000407,0.000003,0.007130,0.005246,0.209710,-0.008674,0.176823,0.176823,0.174006,0.932748,0.000000,0.000000,0.000000,0.000000,0.000000,0.000000,0.000000,0.000000,0.000000,0.000000,0.000000,0.000000,0.203594,3,0
480000,-0.005269,12.276994,0.023720,-0.033502,25.118322,0.040540,-0.000316,0.002405,1.570807,-0.007632,0.000176,0.000382,-0.000010,-0.000434,0.000003,0.002991,0.005428,0.131311,-0.034850,0.176430,0.176430,0.173272,0.927275,0.000000,0.000000,0.000000,0.000000,0.000000,0.000000,0.000000,0.000000,0.000000,0.000000,0.000000,0.000000,0.127559,3,0
490000,-0.005446,12.534464,0.024855,-0.033994,25.127102,0.042498,-0.000326,0.002627,1.570802,-0.008270,0.000193,0.000307,-0.000011,-0.000481,0.000004,0.007529,0.005611,0.214211,0.024997,0.176138,0.176139,0.172634,0.921622,0.000000,0.000000,0.000000,0.000000,0.000000,0.000000,0.000000,0.000000,0.000000,0.000000,0.000000,0.000000,0.207993,3,0
500000,-0.005625,12.789710,0.025163,-0.034563,25.132853,0.043067,-0.000328,0.002777,1.570795,-0.008686,0.000211,0.000321,-0.000013,-0.000512,0.000004,0.002981,0.005795,0.135560,-0.004375,0.175942,0.175942,0.172087,0.915793,0.000000,0.000000,0.000000,0.000000,0.000000,0.000000,0.000000,0.000000,0.000000,0.000000,0.000000,0.000000,0.131705,3,0
510000,-0.005803,13.046850,0.024041,-0.035012,25.141394,0.041817,-0.000329,0.003007,1.570794,-0.009315,0.000230,0.000495,-0.000014,-0.000560,0.000004,0.006851,0.005977,0.198319,-0.054563,0.175832,0.175833,0.171623,0.909793,0.000000,0.000000,0.000000,0.000000,0.000000,0.000000,0.000000,0.000000,0.000000,0.000000,0.000000,0.000000,0.192595,3,0
520000,-0.005979,13.302362,0.022780,-0.035407,25.147490,0.040365,-0.000334,0.003174,1.570794,-0.009773,0.000250,0.000689,-0.000016,-0.000596,0.000004,0.003739,0.006159,0.139885,-0.059160,0.175804,0.175805,0.171234,0.903630,0.000000,0.000000,0.000000,0.000000,0.000000,0.000000,0.000000,0.000000,0.000000,0.000000,0.000000,0.000000,0.135918,3,0
530000,-0.006155,13.558602,0.022495,-0.035892,25.154617,0.040171,-0.000335,0.003367,1.570793,-0.010320,0.000271,0.000772,-0.000017,-0.000640,0.000005,0.004381,0.006341,0.162615,-0.024436,0.175850,0.175851,0.170915,0.897308,0.000000,0.000000,0.000000,0.000000,0.000000,0.000000,0.000000,0.000000,0.000000,0.000000,0.000000,0.000000,0.157969,3,0
540000,-0.006330,13.817312,0.022565,-0.036298,25.165655,0.040590,-0.000341,0.003668,1.570785,-0.011165,0.000294,0.000814,-0.000019,-0.000709,0.000005,0.009681,0.006521,0.244245,-0.012030,0.175965,0.175966,0.170659,0.890834,0.000000,0.000000,0.000000,0.000000,0.000000,0.000000,0.000000,0.000000,0.000000,0.000000,0.000000,0.000000,0.237166,3,0
550000,-0.006504,14.073793,0.023798,-0.036828,25.173119,0.042713,-0.000348,0.003889,1.570782,-0.011750,0.000318,0.000710,-0.000021,-0.000758,0.000006,0.004510,0.006701,0.164335,0.028763,0.176143,0.176144,0.170460,0.884216,0.000000,0.000000,0.000000,0.000000,0.000000,0.000000,0.000000,0.000000,0.000000,0.000000,0.000000,0.000000,0.159643,3,0
560000,-0.006678,14.328658,0.023627,-0.037262,25.178129,0.042620,-0.000344,0.004023,1.570779,-0.012139,0.000343,0.000789,-0.000023,-0.000791,0.000006,0.001919,0.006880,0.106567,-0.021355,0.176378,0.176379,0.170314,0.877459,0.000000,0.000000,0.000000,0.000000,0.000000,0.000000,0.000000,0.000000,0.000000,0.000000,0.000000,0.000000,0.103650,3,0
570000,-0.006851,14.586609,0.023022,-0.037743,25.188074,0.042198,-0.000339,0.004316,1.570778,-0.012924,0.000369,0.000929,-0.000025,-0.000859,0.000006,0.007325,0.007059,0.209473,-0.036759,0.176666,0.176667,0.170215,0.870571,0.000000,0.000000,0.000000,0.000000,0.000000,0.000000,0.000000,0.000000,0.000000,0.000000,0.000000,0.000000,0.203421,3,0
580000,-0.007023,14.842923,0.022021,-0.038101,25.195396,0.040926,-0.000333,0.004537,1.570768,-0.013500,0.000397,0.001125,-0.000028,-0.000910,0.000007,0.004071,0.007236,0.150210,-0.050479,0.177001,0.177002,0.170158,0.863559,0.000000,0.000000,0.000000,0.000000,0.000000,0.000000,0.000000,0.000000,0.000000,0.000000,0.000000,0.000000,0.145949,3,0
590000,-0.007192,15.098204,0.023504,-0.038471,25.200907,0.043502,-0.000325,0.004710,1.570761,-0.013943,0.000426,0.000975,-0.000030,-0.000950,0.000007,0.002283,0.007411,0.112494,0.037492,0.177379,0.177380,0.170138,0.856433,0.000000,0.000000,0.000000,0.000000,0.000000,0.000000,0.000000,0.000000,0.000000,0.000000,0.000000,0.000000,0.109405,3,0
600000,-0.007360,15.357173,0.023942,-0.038900,25.212370,0.044446,-0.000316,0.005062,1.570754,-0.014888,0.000457,0.000976,-0.000033,-0.001037,0.000008,0.008930,0.007584,0.234856,-0.000285,0.177796,0.177797,0.170152,0.849198,0.000000,0.000000,0.000000,0.000000,0.000000,0.000000,0.000000,0.000000,0.000000,0.000000,0.000000,0.000000,0.228015,3,0
610000,-0.007526,15.615076,0.024353,-0.039278,25.222151,0.045105,-0.000315,0.005371,1.570744,-0.015688,0.000489,0.000982,-0.000036,-0.001112,0.000008,0.006124,0.007756,0.194439,-0.001454,0.178246,0.178248,0.170196,0.841863,0.000000,0.000000,0.000000,0.000000,0.000000,0.000000,0.000000,0.000000,0.000000,0.000000,0.000000,0.000000,0.188813,3,0
620000,-0.007690,15.872512,0.023149,-0.039559,25.231020,0.043407,-0.000305,0.005654,1.570747,-0.016424,0.000522,0.001233,-0.000039,-0.001182,0.000009,0.005518,0.007925,0.174986,-0.058614,0.178728,0.178729,0.170265,0.834436,0.000000,0.000000,0.000000,0.000000,0.000000,0.000000,0.000000,0.000000,0.000000,0.000000,0.000000,0.000000,0.169948,3,0
630000,-0.007852,16.131266,0.022376,-0.039977,25.242088,0.042580,-0.000293,0.006003,1.570742,-0.017349,0.000557,0.001421,-0.000042,-0.001272,0.000009,0.007827,0.008093,0.215645,-0.042892,0.179236,0.179237,0.170356,0.826925,0.000000,0.000000,0.000000,0.000000,0.000000,0.000000,0.000000,0.000000,0.000000,0.000000,0.000000,0.000000,0.209351,3,0
640000,-0.008013,16.389542,0.021194,-0.040322,25.252317,0.040889,-0.000283,0.006340,1.570742,-0.018205,0.000593,0.001676,-0.000046,-0.001357,0.000010,0.006703,0.008260,0.195326,-0.056884,0.179767,0.179768,0.170466,0.819338,0.000000,0.000000,0.000000,0.000000,0.000000,0.000000,0.000000,0.000000,0.000000,0.000000,0.000000,0.000000,0.189643,3,0
650000,-0.008170,16.646149,0.021269,-0.040642,25.259676,0.041359,-0.000270,0.006574,1.570738,-0.018811,0.000631,0.001732,-0.000050,-0.001419,0.000010,0.003014,0.008423,0.135736,-0.012113,0.180318,0.180319,0.170591,0.811684,0.000000,0.000000,0.000000,0.000000,0.000000,0.000000,0.000000,0.000000,0.000000,0.000000,0.000000,0.000000,0.131910,3,0
660000,-0.008326,16.904692,0.020154,-0.040939,25.270105,0.039915,-0.000263,0.006926,1.570727,-0.019708,0.000670,0.001984,-0.000053,-0.001511,0.000011,0.006766,0.008584,0.197119,-0.054045,0.180886,0.180887,0.170729,0.803970,0.000000,0.000000,0.000000,0.000000,0.000000,0.000000,0.000000,0.000000,0.000000,0.000000,0.000000,0.000000,0.191357,3,0
670000,-0.008479,17.160948,0.021220,-0.041297,25.276621,0.041779,-0.000251,0.007152,1.570731,-0.020252,0.000711,0.001874,-0.000058,-0.001568,0.000011,0.002325,0.008744,0.117380,0.023066,0.181467,0.181469,0.170878,0.796205,0.000000,0.000000,0.000000,0.000000,0.000000,0.000000,0.000000,0.000000,0.000000,0.000000,0.000000,0.000000,0.114146,3,0
680000,-0.008630,17.417948,0.020780,-0.041571,25.284397,0.041251,-0.000234,0.007411,1.570730,-0.020909,0.000753,0.002021,-0.000062,-0.001638,0.000012,0.003301,0.008899,0.139364,-0.030383,0.182060,0.182062,0.171033,0.788396,0.000000,0.000000,0.000000,0.000000,0.000000,0.000000,0.000000,0.000000,0.000000,0.000000,0.000000,0.000000,0.135411,3,0
690000,-0.008778,17.675079,0.020980,-0.041936,25.292204,0.041877,-0.000220,0.007683,1.570732,-0.021584,0.000796,0.002059,-0.000067,-0.001712,0.000012,0.003223,0.009054,0.140715,-0.007797,0.182661,0.182663,0.171194,0.780552,0.000000,0.000000,0.000000,0.000000,0.000000,0.000000,0.000000,0.000000,0.000000,0.000000,0.000000,0.000000,0.136713,3,0
700000,-0.008924,17.932343,0.021996,-0.042275,25.300280,0.043594,-0.000215,0.007965,1.570735,-0.022276,0.000841,0.001955,-0.000072,-0.001788,0.000013,0.003337,0.009206,0.141928,0.020566,0.183269,0.183271,0.171358,0.772681,0.000000,0.000000,0.000000,0.000000,0.000000,0.000000,0.000000,0.000000,0.000000,0.000000,0.000000,0.000000,0.137881,3,0
710000,-0.009069,18.189734,0.021093,-0.042574,25.308403,0.042553,-0.000202,0.008262,1.570721,-0.022984,0.000887,0.002197,-0.000077,-0.001868,0.000014,0.003679,0.009355,0.143011,-0.047192,0.183881,0.183882,0.171522,0.764789,0.000000,0.000000,0.000000,0.000000,0.000000,0.000000,0.000000,0.000000,0.000000,0.000000,0.000000,0.000000,0.138924,3,0
720000,-0.009210,18.449696,0.020984,-0.042738,25.320919,0.042633,-0.000188,0.008729,1.570717,-0.024107,0.000935,0.002296,-0.000082,-0.001997,0.000015,0.008141,0.009502,0.223478,-0.019044,0.184494,0.184496,0.171686,0.756884,0.000000,0.000000,0.000000,0.000000,0.000000,0.000000,0.000000,0.000000,0.000000,0.000000,0.000000,0.000000,0.216802,3,0
730000,-0.009346,18.707302,0.021490,-0.042887,25.329302,0.043766,-0.000176,0.009028,1.570719,-0.024832,0.000984,0.002283,-0.000088,-0.002081,0.000015,0.003287,0.009644,0.142302,0.002355,0.185108,0.185110,0.171847,0.748975,0.000000,0.000000,0.000000,0.000000,0.000000,0.000000,0.000000,0.000000,0.000000,0.000000,0.000000,0.000000,0.138227,3,0
740000,-0.009479,18.966877,0.022765,-0.043090,25.341042,0.045878,-0.000153,0.009458,1.570712,-0.025880,0.001035,0.002125,-0.000094,-0.002205,0.000016,0.006785,0.009782,0.202671,0.028885,0.185719,0.185721,0.172004,0.741067,0.000000,0.000000,0.000000,0.000000,0.000000,0.000000,0.000000,0.000000,0.000000,0.000000,0.000000,0.000000,0.196626,3,0
750000,-0.009609,19.225933,0.023887,-0.043307,25.351656,0.047610,-0.000138,0.009854,1.570711,-0.026831,0.001087,0.001999,-0.000101,-0.002320,0.000017,0.005421,0.009918,0.181526,0.022789,0.186328,0.186330,0.172155,0.733169,0.000000,0.000000,0.000000,0.000000,0.000000,0.000000,0.000000,0.000000,0.000000,0.000000,0.000000,0.000000,0.176150,3,0
760000,-0.009737,19.486948,0.025407,-0.043582,25.365517,0.050030,-0.000126,0.010389,1.570700,-0.028106,0.001140,0.001797,-0.000107,-0.002477,0.000018,0.009560,0.010051,0.240427,0.036003,0.186932,0.186934,0.172300,0.725286,0.000000,0.000000,0.000000,0.000000,0.000000,0.000000,0.000000,0.000000,0.000000,0.000000,0.000000,0.000000,0.233140,3,0
770000,-0.009862,19.747419,0.025222,-0.043745,25.378265,0.049737,-0.000106,0.010901,1.570689,-0.029277,0.001195,0.001932,-0.000114,-0.002623,0.000019,0.007772,0.010180,0.217821,-0.024144,0.187529,0.187532,0.172436,0.717425,0.000000,0.000000,0.000000,0.000000,0.000000,0.000000,0.000000,0.000000,0.000000,0.000000,0.000000,0.000000,0.211244,3,0
780000,-0.009983,20.005480,0.026633,-0.043894,25.386665,0.051893,-0.000079,0.011234,1.570680,-0.030017,0.001251,0.001750,-0.000121,-0.002717,0.000020,0.003169,0.010307,0.136131,0.031429,0.188120,0.188122,0.172563,0.709592,0.000000,0.000000,0.000000,0.000000,0.000000,0.000000,0.000000,0.000000,0.000000,0.000000,0.000000,0.000000,0.132240,3,0
790000,-0.010101,20.264273,0.026720,-0.044016,25.396307,0.052238,-0.000057,0.011626,1.570677,-0.030877,0.001308,0.001839,-0.000129,-0.002828,0.000021,0.003999,0.010429,0.156290,-0.015390,0.188701,0.188704,0.172681,0.701794,0.000000,0.000000,0.000000,0.000000,0.000000,0.000000,0.000000,0.000000,0.000000,0.000000,0.000000,0.000000,0.151711,3,0
800000,-0.010216,20.526926,0.027644,-0.044146,25.412678,0.053878,-0.000035,0.012294,1.570673,-0.032407,0.001367,0.001757,-0.000136,-0.003028,0.000022,0.012263,0.010549,0.275099,0.013534,0.189274,0.189277,0.172787,0.694035,0.000000,0.000000,0.000000,0.000000,0.000000,0.000000,0.000000,0.000000,0.000000,0.000000,0.000000,0.000000,0.266616,3,0
810000,-0.010329,20.784597,0.026595,-0.044338,25.420120,0.052240,-0.000020,0.012579,1.570665,-0.033035,0.001427,0.002089,-0.000144,-0.003112,0.000023,0.002528,0.010665,0.111677,-0.055405,0.189837,0.189839,0.172882,0.686323,0.000000,0.000000,0.000000,0.000000,0.000000,0.000000,0.000000,0.000000,0.000000,0.000000,0.000000,0.000000,0.108637,3,0
820000,-0.010438,21.042376,0.026454,-0.044450,25.427593,0.051919,-0.000003,0.012870,1.570652,-0.033673,0.001488,0.002229,-0.000152,-0.003199,0.000023,0.002144,0.010779,0.112356,-0.023262,0.190388,0.190391,0.172965,0.678661,0.000000,0.000000,0.000000,0.000000,0.000000,0.000000,0.000000,0.000000,0.000000,0.000000,0.000000,0.000000,0.109291,3,0
830000,-0.010543,21.301521,0.026000,-0.044531,25.437426,0.051151,0.000021,0.013279,1.570648,-0.034549,0.001551,0.002438,-0.000161,-0.003319,0.000024,0.003968,0.010889,0.152687,-0.034014,0.190928,0.190931,0.173035,0.671055,0.000000,0.000000,0.000000,0.000000,0.000000,0.000000,0.000000,0.000000,0.000000,0.000000,0.000000,0.000000,0.148205,3,0
840000,-0.010644,21.560755,0.026988,-0.044553,25.447168,0.052608,0.000039,0.013698,1.570648,-0.035427,0.001615,0.002335,-0.000170,-0.003442,0.000025,0.003783,0.010995,0.151869,0.016210,0.191456,0.191459,0.173092,0.663510,0.000000,0.000000,0.000000,0.000000,0.000000,0.000000,0.000000,0.000000,0.000000,0.000000,0.000000,0.000000,0.147407,3,0
850000,-0.010742,21.822613,0.026812,-0.044663,25.461441,0.052538,0.000056,0.014321,1.570639,-0.036773,0.001680,0.002489,-0.000179,-0.003633,0.000027,0.008689,0.011097,0.230480,-0.024710,0.191971,0.191974,0.173136,0.656030,0.000000,0.000000,0.000000,0.000000,0.000000,0.000000,0.000000,0.000000,0.000000,0.000000,0.000000,0.000000,0.223365,3,0
860000,-0.010837,22.083883,0.028283,-0.044788,25.474632,0.054608,0.000086,0.014892,1.570619,-0.037991,0.001745,0.002279,-0.000188,-0.003810,0.000028,0.007105,0.011197,0.207024,0.032468,0.192474,0.192476,0.173166,0.648619,0.000000,0.000000,0.000000,0.000000,0.000000,0.000000,0.000000,0.000000,0.000000,0.000000,0.000000,0.000000,0.200675,3,0
870000,-0.010929,22.344566,0.028194,-0.044797,25.486488,0.054399,0.000100,0.015413,1.570613,-0.039085,0.001813,0.002421,-0.000198,-0.003970,0.000029,0.005572,0.011291,0.184168,-0.022283,0.192963,0.192966,0.173182,0.641281,0.000000,0.000000,0.000000,0.000000,0.000000,0.000000,0.000000,0.000000,0.000000,0.000000,0.000000,0.000000,0.178580,3,0
880000,-0.011016,22.604027,0.028611,-0.044791,25.496166,0.054988,0.000132,0.015822,1.570610,-0.039934,0.001881,0.002450,-0.000208,-0.004097,0.000030,0.003278,0.011383,0.142033,-0.004694,0.193439,0.193442,0.173184,0.634021,0.000000,0.000000,0.000000,0.000000,0.000000,0.000000,0.000000,0.000000,0.000000,0.000000,0.000000,0.000000,0.137894,3,0
890000,-0.011101,22.867411,0.029210,-0.044902,25.512518,0.055707,0.000148,0.016579,1.570589,-0.041502,0.001950,0.002437,-0.000219,-0.004334,0.000032,0.010939,0.011472,0.260176,0.001423,0.193901,0.193904,0.173171,0.626840,0.000000,0.000000,0.000000,0.000000,0.000000,0.000000,0.000000,0.000000,0.000000,0.000000,0.000000,0.000000,0.252013,3,0
900000,-0.011183,23.130171,0.028512,-0.044906,25.527639,0.054592,0.000180,0.017279,1.570586,-0.042930,0.002020,0.002727,-0.000229,-0.004554,0.000033,0.009251,0.011557,0.235172,-0.043772,0.194350,0.194353,0.173145,0.619743,0.000000,0.000000,0.000000,0.000000,0.000000,0.000000,0.000000,0.000000,0.000000,0.000000,0.000000,0.000000,0.227829,3,0
910000,-0.011262,23.389080,0.029284,-0.044976,25.535751,0.055874,0.000204,0.017629,1.570585,-0.043610,0.002091,0.002675,-0.000240,-0.004660,0.000034,0.002033,0.011640,0.111416,0.007502,0.194785,0.194788,0.173104,0.612732,0.000000,0.000000,0.000000,0.000000,0.000000,0.000000,0.000000,0.000000,0.000000,0.000000,0.000000,0.000000,0.108386,3,0
920000,-0.011336,23.651295,0.030643,-0.044979,25.549643,0.057843,0.000238,0.018274,1.570578,-0.044902,0.002163,0.002484,-0.000252,-0.004865,0.000036,0.007271,0.011718,0.210245,0.027428,0.195207,0.195210,0.173049,0.605811,0.000000,0.000000,0.000000,0.000000,0.000000,0.000000,0.000000,0.000000,0.000000,0.000000,0.000000,0.000000,0.203721,3,0
930000,-0.011410,23.912888,0.030976,-0.045059,25.562197,0.058436,0.000270,0.018865,1.570565,-0.046055,0.002236,0.002543,-0.000264,-0.005051,0.000037,0.005639,0.011794,0.186438,-0.008869,0.195615,0.195618,0.172980,0.598981,0.000000,0.000000,0.000000,0.000000,0.000000,0.000000,0.000000,0.000000,0.000000,0.000000,0.000000,0.000000,0.180719,3,0
940000,-0.011481,24.174513,0.029666,-0.045059,25.574755,0.056536,0.000293,0.019457,1.570551,-0.047195,0.002310,0.003000,-0.000275,-0.005238,0.000038,0.006136,0.011867,0.183144,-0.066039,0.196010,0.196013,0.172897,0.592245,0.000000,0.000000,0.000000,0.000000,0.000000,0.000000,0.000000,0.000000,0.000000,0.000000,0.000000,0.000000,0.177532,3,0
950000,-0.011549,24.434866,0.029187,-0.045090,25.584930,0.055742,0.000332,0.019930,1.570547,-0.048072,0.002385,0.003254,-0.000287,-0.005384,0.000039,0.003401,0.011939,0.140060,-0.036513,0.196392,0.196395,0.172800,0.585604,0.000000,0.000000,0.000000,0.000000,0.000000,0.000000,0.000000,0.000000,0.000000,0.000000,0.000000,0.000000,0.135967,3,0
960000,-0.011615,24.693308,0.028846,-0.045142,25.591612,0.055458,0.000372,0.020211,1.570546,-0.048565,0.002461,0.003477,-0.000300,-0.005467,0.000040,0.001176,0.012008,0.078394,-0.031608,0.196761,0.196764,0.172690,0.579062,0.000000,0.000000,0.000000,0.000000,0.000000,0.000000,0.000000,0.000000,0.000000,0.000000,0.000000,0.000000,0.076707,3,0
970000,-0.011676,24.957043,0.029906,-0.045090,25.607458,0.056874,0.000406,0.020988,1.570535,-0.050064,0.002537,0.003348,-0.000313,-0.005724,0.000042,0.009152,0.012073,0.237343,0.017353,0.197118,0.197121,0.172567,0.572618,0.000000,0.000000,0.000000,0.000000,0.000000,0.000000,0.000000,0.000000,0.000000,0.000000,0.000000,0.000000,0.229842,3,0
980000,-0.011734,25.218155,0.031082,-0.045081,25.618540,0.058592,0.000436,0.021508,1.570521,-0.051030,0.002614,0.003195,-0.000327,-0.005892,0.000043,0.003835,0.012134,0.152357,0.020814,0.197462,0.197465,0.172431,0.566274,0.000000,0.000000,0.000000,0.000000,0.000000,0.000000,0.000000,0.000000,0.000000,0.000000,0.000000,0.000000,0.147809,3,0
990000,-0.011789,25.477983,0.031390,-0.044983,25.627247,0.058882,0.000464,0.021915,1.570508,-0.051729,0.002692,0.003265,-0.000340,-0.006016,0.000044,0.001983,0.012191,0.109802,-0.009931,0.197795,0.197797,0.172282,0.560033,0.000000,0.000000,0.000000,0.000000,0.000000,0.000000,0.000000,0.000000,0.000000,0.000000,0.000000,0.000000,0.106835,3,0
1000000,-0.011841,25.741795,0.032766,-0.044993,25.642876,0.060588,0.000507,0.022697,1.570487,-0.053184,0.002770,0.003059,-0.000355,-0.006277,0.000046,0.008492,0.012246,0.227585,0.027245,0.198116,0.198118,0.172120,0.553894,0.000000,0.000000,0.000000,0.000000,0.000000,0.000000,0.000000,0.000000,0.000000,0.000000,0.000000,0.000000,0.220388,3,0
1010000,-0.011891,26.004932,0.032719,-0.044857,25.656981,0.060552,0.000532,0.023421,1.570473,-0.054482,0.002849,0.003225,-0.000369,-0.006513,0.000048,0.006697,0.012297,0.202164,-0.023069,0.198425,0.198428,0.171947,0.547859,0.000000,0.000000,0.000000,0.000000,0.000000,0.000000,0.000000,0.000000,0.000000,0.000000,0.000000,0.000000,0.195840,3,0
1020000,-0.011938,26.266747,0.031928,-0.044768,25.668732,0.059457,0.000576,0.023995,1.570463,-0.055498,0.002929,0.003589,-0.000383,-0.006701,0.000049,0.004414,0.012346,0.157553,-0.049056,0.198724,0.198727,0.171762,0.541928,0.000000,0.000000,0.000000,0.000000,0.000000,0.000000,0.000000,0.000000,0.000000,0.000000,0.000000,0.000000,0.152801,3,0
1030000,-0.011982,26.527908,0.031265,-0.044587,25.679077,0.058359,0.000620,0.024509,1.570457,-0.056366,0.003009,0.003919,-0.000398,-0.006864,0.000050,0.003242,0.012391,0.134169,-0.044188,0.199012,0.199015,0.171565,0.536102,0.000000,0.000000,0.000000,0.000000,0.000000,0.000000,0.000000,0.000000,0.000000,0.000000,0.000000,0.000000,0.130271,3,0
1040000,-0.012021,26.791069,0.031608,-0.044436,25.692919,0.058864,0.000654,0.025226,1.570439,-0.057604,0.003090,0.003980,-0.000413,-0.007100,0.000052,0.005913,0.012434,0.190966,-0.008692,0.199291,0.199293,0.171358,0.530380,0.000000,0.000000,0.000000,0.000000,0.000000,0.000000,0.000000,0.000000,0.000000,0.000000,0.000000,0.000000,0.185013,3,0
1050000,-0.012056,27.050909,0.032194,-0.044289,25.700607,0.059726,0.000684,0.025596,1.570429,-0.058167,0.003171,0.003981,-0.000429,-0.007209,0.000053,0.001236,0.012471,0.086695,-0.000400,0.199560,0.199562,0.171140,0.524764,0.000000,0.000000,0.000000,0.000000,0.000000,0.000000,0.000000,0.000000,0.000000,0.000000,0.000000,0.000000,0.084674,3,0
1060000,-0.012089,27.311443,0.032761,-0.044204,25.709530,0.060290,0.000722,0.026024,1.570420,-0.058852,0.003252,0.003987,-0.000445,-0.007343,0.000054,0.001805,0.012506,0.105082,-0.001247,0.199819,0.199822,0.170912,0.519254,0.000000,0.000000,0.000000,0.000000,0.000000,0.000000,0.000000,0.000000,0.000000,0.000000,0.000000,0.000000,0.102298,3,0
1070000,-0.012122,27.570673,0.032143,-0.044151,25.716099,0.059454,0.000769,0.026312,1.570423,-0.059265,0.003334,0.004322,-0.000460,-0.007426,0.000054,0.000969,0.012538,0.063126,-0.043184,0.200070,0.200073,0.170674,0.513849,0.000000,0.000000,0.000000,0.000000,0.000000,0.000000,0.000000,0.000000,0.000000,0.000000,0.000000,0.000000,0.062212,3,0
1080000,-0.012151,27.833923,0.031852,-0.044075,25.729548,0.059032,0.000812,0.027022,1.570409,-0.060453,0.003417,0.004563,-0.000477,-0.007666,0.000056,0.005494,0.012570,0.181532,-0.031412,0.200313,0.200315,0.170426,0.508549,0.000000,0.000000,0.000000,0.000000,0.000000,0.000000,0.000000,0.000000,0.000000,0.000000,0.000000,0.000000,0.175891,3,0
1090000,-0.012177,28.092499,0.033148,-0.044004,25.734600,0.060836,0.000865,0.027224,1.570410,-0.060698,0.003499,0.004367,-0.000494,-0.007716,0.000056,0.000349,0.012599,0.037420,0.024590,0.200548,0.200551,0.170170,0.503354,0.000000,0.000000,0.000000,0.000000,0.000000,0.000000,0.000000,0.000000,0.000000,0.000000,0.000000,0.000000,0.038164,3,0
1100000,-0.012201,28.353115,0.033896,-0.043905,25.743271,0.061806,0.000904,0.027641,1.570404,-0.061333,0.003582,0.004326,-0.000511,-0.007848,0.000057,0.001540,0.012623,0.096853,0.004706,0.200776,0.200778,0.169905,0.498263,0.000000,0.000000,0.000000,0.000000,0.000000,0.000000,0.000000,0.000000,0.000000,0.000000,0.000000,0.000000,0.094404,3,0
1110000,-0.012224,28.613747,0.033168,-0.043791,25.751713,0.060706,0.000937,0.028070,1.570399,-0.061956,0.003665,0.004707,-0.000528,-0.007980,0.000058,0.001837,0.012646,0.094578,-0.047824,0.200997,0.200999,0.169632,0.493276,0.000000,0.000000,0.000000,0.000000,0.000000,0.000000,0.000000,0.000000,0.000000,0.000000,0.000000,0.000000,0.092222,3,0
1120000,-0.012242,28.877054,0.034447,-0.043587,25.764944,0.062185,0.000986,0.028776,1.570392,-0.063084,0.003748,0.004508,-0.000546,-0.008222,0.000060,0.004871,0.012668,0.171803,0.023687,0.201212,0.201214,0.169352,0.488393,0.000000,0.000000,0.000000,0.000000,0.000000,0.000000,0.000000,0.000000,0.000000,0.000000,0.000000,0.000000,0.166493,3,0
1130000,-0.012257,29.136328,0.035460,-0.043386,25.770802,0.063360,0.001040,0.029030,1.570389,-0.063396,0.003832,0.004395,-0.000565,-0.008290,0.000061,0.000420,0.012683,0.047514,0.013681,0.201421,0.201422,0.169064,0.483612,0.000000,0.000000,0.000000,0.000000,0.000000,0.000000,0.000000,0.000000,0.000000,0.000000,0.000000,0.000000,0.047527,3,0
1140000,-0.012270,29.395634,0.036415,-0.043224,25.776764,0.064468,0.001091,0.029285,1.570385,-0.063703,0.003915,0.004301,-0.000583,-0.008358,0.000061,0.000396,0.012697,0.046608,0.011194,0.201624,0.201625,0.168769,0.478934,0.000000,0.000000,0.000000,0.000000,0.000000,0.000000,0.000000,0.000000,0.000000,0.000000,0.000000,0.000000,0.046683,3,0
1150000,-0.012280,29.659649,0.037559,-0.043073,25.790895,0.065859,0.001133,0.030068,1.570371,-0.064919,0.003999,0.004147,-0.000602,-0.008630,0.000063,0.005578,0.012708,0.184820,0.017665,0.201822,0.201823,0.168467,0.474356,0.000000,0.000000,0.000000,0.000000,0.000000,0.000000,0.000000,0.000000,0.000000,0.000000,0.000000,0.000000,0.179026,3,0
1160000,-0.012290,29.918266,0.036327,-0.042814,25.795292,0.063938,0.001179,0.030223,1.570375,-0.065055,0.004083,0.004709,-0.000620,-0.008661,0.000063,0.000833,0.012715,0.020058,-0.067679,0.202015,0.202016,0.168160,0.469878,0.000000,0.000000,0.000000,0.000000,0.000000,0.000000,0.000000,0.000000,0.000000,0.000000,0.000000,0.000000,0.022949,3,0
1170000,-0.012298,30.181612,0.035579,-0.042668,25.808022,0.063002,0.001228,0.030929,1.570363,-0.066104,0.004168,0.005118,-0.000639,-0.008904,0.000065,0.004498,0.012724,0.158972,-0.049782,0.202204,0.202204,0.167847,0.465500,0.000000,0.000000,0.000000,0.000000,0.000000,0.000000,0.000000,0.000000,0.000000,0.000000,0.000000,0.000000,0.154104,3,0
1180000,-0.012303,30.440895,0.035077,-0.042516,25.813326,0.062404,0.001269,0.031150,1.570361,-0.066334,0.004252,0.005460,-0.000658,-0.008958,0.000066,0.000490,0.012730,0.034655,-0.040837,0.202389,0.202389,0.167528,0.461220,0.000000,0.000000,0.000000,0.000000,0.000000,0.000000,0.000000,0.000000,0.000000,0.000000,0.000000,0.000000,0.035672,3,0
1190000,-0.012304,30.701542,0.035208,-0.042312,25.820980,0.062624,0.001313,0.031541,1.570354,-0.066819,0.004336,0.005608,-0.000678,-0.009073,0.000066,0.000948,0.012733,0.073502,-0.017935,0.202571,0.202571,0.167204,0.457036,0.000000,0.000000,0.000000,0.000000,0.000000,0.000000,0.000000,0.000000,0.000000,0.000000,0.000000,0.000000,0.072078,3,0
1200000,-0.012305,30.963537,0.033852,-0.042015,25.831034,0.060896,0.001371,0.032075,1.570349,-0.067552,0.004421,0.006212,-0.000697,-0.009250,0.000068,0.002837,0.012732,0.110960,-0.071480,0.202749,0.202749,0.166876,0.452949,0.000000,0.000000,0.000000,0.000000,0.000000,0.000000,0.000000,0.000000,0.000000,0.000000,0.000000,0.000000,0.107912,3,0
1210000,-0.012299,31.224165,0.035152,-0.041805,25.838554,0.062491,0.001429,0.032438,1.570350,-0.067995,0.004504,0.005996,-0.000718,-0.009358,0.000069,0.000859,0.012730,0.067532,0.024713,0.202926,0.202925,0.166543,0.448957,0.000000,0.000000,0.000000,0.000000,0.000000,0.000000,0.000000,0.000000,0.000000,0.000000,0.000000,0.000000,0.066397,3,0
1220000,-0.012291,31.483448,0.036094,-0.041530,25.843636,0.063687,0.001475,0.032627,1.570342,-0.068162,0.004587,0.005898,-0.000739,-0.009399,0.000069,0.000151,0.012722,0.025496,0.011211,0.203099,0.203098,0.166207,0.445059,0.000000,0.000000,0.000000,0.000000,0.000000,0.000000,0.000000,0.000000,0.000000,0.000000,0.000000,0.000000,0.027529,3,0
1230000,-0.012282,31.745447,0.036182,-0.041398,25.853354,0.063762,0.001532,0.033146,1.570342,-0.068845,0.004671,0.006066,-0.000760,-0.009572,0.000070,0.001836,0.012712,0.104105,-0.020015,0.203271,0.203269,0.165867,0.441252,0.000000,0.000000,0.000000,0.000000,0.000000,0.000000,0.000000,0.000000,0.000000,0.000000,0.000000,0.000000,0.101324,3,0
1240000,-0.012273,32.004726,0.035865,-0.041214,25.858250,0.063361,0.001577,0.033319,1.570341,-0.068984,0.004755,0.006370,-0.000781,-0.009607,0.000070,0.000294,0.012702,0.020916,-0.034916,0.203441,0.203439,0.165523,0.437537,0.000000,0.000000,0.000000,0.000000,0.000000,0.000000,0.000000,0.000000,0.000000,0.000000,0.000000,0.000000,0.023642,3,0
1250000,-0.012259,32.265373,0.036927,-0.040990,25.865406,0.064634,0.001622,0.033675,1.570330,-0.069374,0.004838,0.006231,-0.000802,-0.009708,0.000071,0.000640,0.012691,0.059772,0.015396,0.203610,0.203607,0.165177,0.433911,0.000000,0.000000,0.000000,0.000000,0.000000,0.000000,0.000000,0.000000,0.000000,0.000000,0.000000,0.000000,0.059030,3,0
1260000,-0.012245,32.527367,0.036504,-0.040709,25.874985,0.064131,0.001680,0.034182,1.570332,-0.070011,0.004921,0.006570,-0.000823,-0.009876,0.000072,0.001796,0.012674,0.097240,-0.039087,0.203778,0.203775,0.164829,0.430374,0.000000,0.000000,0.000000,0.000000,0.000000,0.000000,0.000000,0.000000,0.000000,0.000000,0.000000,0.000000,0.094732,3,0
1270000,-0.012227,32.786633,0.037777,-0.040538,25.879601,0.065838,0.001732,0.034337,1.570325,-0.070101,0.005003,0.006367,-0.000846,-0.009900,0.000073,0.000141,0.012658,0.014057,0.022698,0.203945,0.203941,0.164478,0.426924,0.000000,0.000000,0.000000,0.000000,0.000000,0.000000,0.000000,0.000000,0.000000,0.000000,0.000000,0.000000,0.018274,3,0
1280000,-0.012207,33.045910,0.038657,-0.040256,25.884029,0.066689,0.001791,0.034486,1.570330,-0.070186,0.005085,0.006296,-0.000868,-0.009923,0.000073,0.000064,0.012637,0.013172,0.007899,0.204111,0.204107,0.164125,0.423559,0.000000,0.000000,0.000000,0.000000,0.000000,0.000000,0.000000,0.000000,0.000000,0.000000,0.000000,0.000000,0.017634,3,0
1290000,-0.012185,33.305206,0.039089,-0.039959,25.888422,0.067231,0.001846,0.034638,1.570338,-0.070266,0.005167,0.006375,-0.000890,-0.009945,0.000073,0.000063,0.012614,0.012276,-0.008887,0.204277,0.204273,0.163770,0.420278,0.000000,0.000000,0.000000,0.000000,0.000000,0.000000,0.000000,0.000000,0.000000,0.000000,0.000000,0.000000,0.017001,3,0
1300000,-0.012160,33.564518,0.039363,-0.039597,25.892778,0.067370,0.001909,0.034777,1.570347,-0.070341,0.005248,0.006509,-0.000913,-0.009966,0.000073,0.000082,0.012589,0.011360,-0.014857,0.204444,0.204439,0.163414,0.417079,0.000000,0.000000,0.000000,0.000000,0.000000,0.000000,0.000000,0.000000,0.000000,0.000000,0.000000,0.000000,0.016378,3,0
1310000,-0.012135,33.824520,0.038525,-0.039260,25.898380,0.066279,0.001970,0.035021,1.570349,-0.070539,0.005331,0.007015,-0.000935,-0.010022,0.000074,0.000680,0.012561,0.030312,-0.055887,0.204610,0.204604,0.163057,0.413962,0.000000,0.000000,0.000000,0.000000,0.000000,0.000000,0.000000,0.000000,0.000000,0.000000,0.000000,0.000000,0.031690,3,0
1320000,-0.012105,34.087234,0.039478,-0.039027,25.908695,0.067347,0.002035,0.035622,1.570334,-0.071234,0.005411,0.006908,-0.000958,-0.010221,0.000075,0.001928,0.012533,0.108192,0.010689,0.204777,0.204771,0.162699,0.410925,0.000000,0.000000,0.000000,0.000000,0.000000,0.000000,0.000000,0.000000,0.000000,0.000000,0.000000,0.000000,0.105199,3,0
1330000,-0.012072,34.349903,0.040085,-0.038675,25.918941,0.068005,0.002086,0.036208,1.570331,-0.071899,0.005491,0.006923,-0.000981,-0.010415,0.000076,0.001761,0.012499,0.103802,-0.002487,0.204944,0.204937,0.162341,0.407967,0.000000,0.000000,0.000000,0.000000,0.000000,0.000000,0.000000,0.000000,0.000000,0.000000,0.000000,0.000000,0.100982,3,0
1340000,-0.012038,34.613213,0.040394,-0.038362,25.930231,0.068173,0.002143,0.036861,1.570319,-0.072662,0.005571,0.007039,-0.001005,-0.010640,0.000078,0.002348,0.012463,0.119335,-0.013694,0.205112,0.205105,0.161982,0.405085,0.000000,0.000000,0.000000,0.000000,0.000000,0.000000,0.000000,0.000000,0.000000,0.000000,0.000000,0.000000,0.115880,3,0
1350000,-0.012002,34.871708,0.040639,-0.038060,25.932673,0.068393,0.002213,0.036853,1.570328,-0.072505,0.005650,0.007196,-0.001028,-0.010593,0.000078,0.000168,0.012426,-0.024815,-0.016565,0.205281,0.205273,0.161624,0.402279,0.000000,0.000000,0.000000,0.000000,0.000000,0.000000,0.000000,0.000000,0.000000,0.000000,0.000000,0.000000,0.026805,3,0
1360000,-0.011962,35.134987,0.041891,-0.037729,25.943697,0.069737,0.002281,0.037496,1.570325,-0.073228,0.005728,0.006987,-0.001052,-0.010812,0.000079,0.002198,0.012387,0.114243,0.021202,0.205452,0.205443,0.161265,0.399548,0.000000,0.000000,0.000000,0.000000,0.000000,0.000000,0.000000,0.000000,0.000000,0.000000,0.000000,0.000000,0.110979,3,0
1370000,-0.011923,35.398895,0.040488,-0.037327,25.955694,0.067729,0.002331,0.038213,1.570320,-0.074048,0.005808,0.007709,-0.001075,-0.011066,0.000081,0.003700,0.012342,0.129162,-0.078152,0.205623,0.205614,0.160907,0.396888,0.000000,0.000000,0.000000,0.000000,0.000000,0.000000,0.000000,0.000000,0.000000,0.000000,0.000000,0.000000,0.125298,3,0
1380000,-0.011881,35.659325,0.040217,-0.036985,25.961302,0.067423,0.002399,0.038440,1.570319,-0.074202,0.005886,0.008044,-0.001099,-0.011115,0.000082,0.000325,0.012301,0.024162,-0.035705,0.205796,0.205786,0.160550,0.394300,0.000000,0.000000,0.000000,0.000000,0.000000,0.000000,0.000000,0.000000,0.000000,0.000000,0.000000,0.000000,0.026181,3,0
1390000,-0.011834,35.919735,0.041459,-0.036738,25.966803,0.068898,0.002456,0.038657,1.570324,-0.074339,0.005962,0.007842,-0.001123,-0.011158,0.000082,0.000174,0.012256,0.022102,0.021023,0.205970,0.205959,0.160193,0.391782,0.000000,0.000000,0.000000,0.000000,0.000000,0.000000,0.000000,0.000000,0.000000,0.000000,0.000000,0.000000,0.024408,3,0
1400000,-0.011785,36.181499,0.042328,-0.036378,25.974697,0.069944,0.002519,0.039048,1.570317,-0.074711,0.006038,0.007773,-0.001148,-0.011277,0.000083,0.000607,0.012205,0.059822,0.006613,0.206146,0.206135,0.159838,0.389333,0.000000,0.000000,0.000000,0.000000,0.000000,0.000000,0.000000,0.000000,0.000000,0.000000,0.000000,0.000000,0.058956,3,0
1410000,-0.011736,36.443916,0.042068,-0.035951,25.983551,0.069613,0.002574,0.039546,1.570315,-0.075187,0.006114,0.008112,-0.001172,-0.011433,0.000084,0.001172,0.012152,0.076283,-0.036158,0.206324,0.206311,0.159483,0.386949,0.000000,0.000000,0.000000,0.000000,0.000000,0.000000,0.000000,0.000000,0.000000,0.000000,0.000000,0.000000,0.074583,3,0
1420000,-0.011686,36.707649,0.041544,-0.035614,25.994719,0.068830,0.002633,0.040209,1.570312,-0.075880,0.006190,0.008541,-0.001196,-0.011664,0.000086,0.002382,0.012100,0.111961,-0.045832,0.206503,0.206490,0.159130,0.384631,0.000000,0.000000,0.000000,0.000000,0.000000,0.000000,0.000000,0.000000,0.000000,0.000000,0.000000,0.000000,0.108734,3,0
1430000,-0.011633,36.965836,0.041185,-0.035243,25.995810,0.068278,0.002703,0.040064,1.570316,-0.075561,0.006265,0.008936,-0.001220,-0.011557,0.000085,0.000728,0.012046,-0.052494,-0.040125,0.206684,0.206670,0.158779,0.382378,0.000000,0.000000,0.000000,0.000000,0.000000,0.000000,0.000000,0.000000,0.000000,0.000000,0.000000,0.000000,0.052007,3,0
1440000,-0.011578,37.226097,0.040925,-0.034942,26.000582,0.067674,0.002774,0.040221,1.570308,-0.075608,0.006339,0.009285,-0.001245,-0.011574,0.000085,0.000241,0.011990,0.007370,-0.035889,0.206867,0.206852,0.158429,0.380187,0.000000,0.000000,0.000000,0.000000,0.000000,0.000000,0.000000,0.000000,0.000000,0.000000,0.000000,0.000000,0.013588,3,0
1450000,-0.011524,37.484283,0.039893,-0.034592,26.001472,0.066212,0.002842,0.040057,1.570313,-0.075284,0.006413,0.009930,-0.001269,-0.011463,0.000085,0.001188,0.011932,-0.054146,-0.065355,0.207052,0.207036,0.158082,0.378056,0.000000,0.000000,0.000000,0.000000,0.000000,0.000000,0.000000,0.000000,0.000000,0.000000,0.000000,0.000000,0.053539,3,0
1460000,-0.011463,37.746601,0.040640,-0.034212,26.009869,0.066968,0.002908,0.040504,1.570312,-0.075678,0.006484,0.009891,-0.001294,-0.011601,0.000086,0.000712,0.011873,0.065357,0.003243,0.207238,0.207221,0.157736,0.375985,0.000000,0.000000,0.000000,0.000000,0.000000,0.000000,0.000000,0.000000,0.000000,0.000000,0.000000,0.000000,0.064132,3,0
1470000,-0.011400,38.008865,0.041345,-0.033840,26.018015,0.067844,0.002965,0.040932,1.570312,-0.076046,0.006555,0.009870,-0.001320,-0.011732,0.000087,0.000629,0.011809,0.061378,0.001284,0.207426,0.207409,0.157393,0.373973,0.000000,0.000000,0.000000,0.000000,0.000000,0.000000,0.000000,0.000000,0.000000,0.000000,0.000000,0.000000,0.060344,3,0
1480000,-0.011335,38.271763,0.042363,-0.033431,26.027212,0.068819,0.003032,0.041448,1.570302,-0.076506,0.006625,0.009731,-0.001345,-0.011899,0.000088,0.001013,0.011742,0.077343,0.013129,0.207617,0.207598,0.157052,0.372017,0.000000,0.000000,0.000000,0.000000,0.000000,0.000000,0.000000,0.000000,0.000000,0.000000,0.000000,0.000000,0.075524,3,0
1490000,-0.011269,38.531158,0.042842,-0.033047,26.029980,0.069208,0.003106,0.041429,1.570300,-0.076349,0.006694,0.009818,-0.001370,-0.011841,0.000088,0.000147,0.011673,-0.026619,-0.008426,0.207808,0.207788,0.156714,0.370118,0.000000,0.000000,0.000000,0.000000,0.000000,0.000000,0.000000,0.000000,0.000000,0.000000,0.000000,0.000000,0.028062,3,0
1500000,-0.011205,38.789864,0.041484,-0.032631,26.031395,0.067517,0.003162,0.041297,1.570298,-0.076076,0.006765,0.010618,-0.001395,-0.011741,0.000087,0.001404,0.011602,-0.047493,-0.079244,0.208002,0.207981,0.156378,0.368272,0.000000,0.000000,0.000000,0.000000,0.000000,0.000000,0.000000,0.000000,0.000000,0.000000,0.000000,0.000000,0.047206,3,0
1510000,-0.011133,39.049946,0.042226,-0.032175,26.035414,0.068323,0.003234,0.041373,1.570303,-0.076029,0.006832,0.010597,-0.001420,-0.011723,0.000087,0.000033,0.011534,-0.008034,0.002211,0.208197,0.208175,0.156045,0.366480,0.000000,0.000000,0.000000,0.000000,0.000000,0.000000,0.000000,0.000000,0.000000,0.000000,0.000000,0.000000,0.013568,3,0
1520000,-0.011061,39.312080,0.042803,-0.031801,26.043102,0.068950,0.003298,0.041762,1.570292,-0.076318,0.006899,0.010632,-0.001446,-0.011834,0.000088,0.000425,0.011459,0.049911,-0.004128,0.208394,0.208371,0.155715,0.364740,0.000000,0.000000,0.000000,0.000000,0.000000,0.000000,0.000000,0.000000,0.000000,0.000000,0.000000,0.000000,0.049429,3,0
1530000,-0.010988,39.570015,0.043340,-0.031477,26.042994,0.069351,0.003360,0.041484,1.570305,-0.075898,0.006964,0.010710,-0.001471,-0.011671,0.000087,0.000889,0.011383,-0.073147,-0.006592,0.208593,0.208568,0.155388,0.363049,0.000000,0.000000,0.000000,0.000000,0.000000,0.000000,0.000000,0.000000,0.000000,0.000000,0.000000,0.000000,0.071456,3,0
1540000,-0.010911,39.832108,0.044513,-0.031043,26.050364,0.070501,0.003437,0.041852,1.570311,-0.076163,0.007028,0.010514,-0.001497,-0.011775,0.000088,0.000426,0.011305,0.046616,0.018620,0.208793,0.208767,0.155064,0.361407,0.000000,0.000000,0.000000,0.000000,0.000000,0.000000,0.000000,0.000000,0.000000,0.000000,0.000000,0.000000,0.046302,3,0
1550000,-0.010834,40.092766,0.044678,-0.030614,26.055023,0.070416,0.003500,0.041978,1.570322,-0.076182,0.007093,0.010730,-0.001522,-0.011783,0.000088,0.000095,0.011224,0.003120,-0.021191,0.208994,0.208967,0.154743,0.359812,0.000000,0.000000,0.000000,0.000000,0.000000,0.000000,0.000000,0.000000,0.000000,0.000000,0.000000,0.000000,0.011245,3,0
1560000,-0.010757,40.351315,0.044450,-0.030169,26.055763,0.070161,0.003568,0.041764,1.570334,-0.075854,0.007157,0.011120,-0.001547,-0.011651,0.000087,0.000798,0.011143,-0.058796,-0.036937,0.209197,0.209169,0.154425,0.358264,0.000000,0.000000,0.000000,0.000000,0.000000,0.000000,0.000000,0.000000,0.000000,0.000000,0.000000,0.000000,0.057762,3,0
1570000,-0.010675,40.611248,0.045108,-0.029747,26.058943,0.070640,0.003634,0.041777,1.570342,-0.075748,0.007218,0.011144,-0.001573,-0.011607,0.000087,0.000079,0.011061,-0.019169,-0.002061,0.209401,0.209372,0.154111,0.356761,0.000000,0.000000,0.000000,0.000000,0.000000,0.000000,0.000000,0.000000,0.000000,0.000000,0.000000,0.000000,0.021360,3,0
1580000,-0.010596,40.870480,0.044122,-0.029359,26.060843,0.069498,0.003692,0.041678,1.570355,-0.075528,0.007282,0.011843,-0.001597,-0.011516,0.000086,0.001007,0.010976,-0.040588,-0.066707,0.209606,0.209576,0.153800,0.355302,0.000000,0.000000,0.000000,0.000000,0.000000,0.000000,0.000000,0.000000,0.000000,0.000000,0.000000,0.000000,0.040592,3,0
1590000,-0.010516,41.133175,0.042856,-0.028870,26.069147,0.067861,0.003761,0.042132,1.570343,-0.075851,0.007344,0.012629,-0.001622,-0.011656,0.000087,0.001511,0.010892,0.057980,-0.076530,0.209812,0.209781,0.153492,0.353886,0.000000,0.000000,0.000000,0.000000,0.000000,0.000000,0.000000,0.000000,0.000000,0.000000,0.000000,0.000000,0.056919,3,0
1600000,-0.010428,41.392307,0.043735,-0.028418,26.070686,0.068673,0.003825,0.041982,1.570339,-0.075602,0.007402,0.012562,-0.001647,-0.011548,0.000086,0.000364,0.010807,-0.045765,0.007261,0.210019,0.209987,0.153188,0.352511,0.000000,0.000000,0.000000,0.000000,0.000000,0.000000,0.000000,0.000000,0.000000,0.000000,0.000000,0.000000,0.045377,3,0
1610000,-0.010344,41.653538,0.042508,-0.027991,26.076159,0.066980,0.003896,0.042171,1.570340,-0.075679,0.007463,0.013349,-0.001672,-0.011584,0.000087,0.000967,0.010715,0.013149,-0.075282,0.210227,0.210193,0.152888,0.351177,0.000000,0.000000,0.000000,0.000000,0.000000,0.000000,0.000000,0.000000,0.000000,0.000000,0.000000,0.000000,0.016358,3,0
1620000,-0.010259,41.914719,0.041479,-0.027660,26.081337,0.065660,0.003956,0.042361,1.570342,-0.075738,0.007522,0.014054,-0.001696,-0.011613,0.000087,0.000765,0.010627,0.010288,-0.067014,0.210436,0.210400,0.152592,0.349881,0.000000,0.000000,0.000000,0.000000,0.000000,0.000000,0.000000,0.000000,0.000000,0.000000,0.000000,0.000000,0.014266,3,0
1630000,-0.010171,42.175159,0.040234,-0.027164,26.085186,0.064114,0.004023,0.042416,1.570340,-0.075678,0.007581,0.014853,-0.001720,-0.011588,0.000087,0.000964,0.010537,-0.012398,-0.075322,0.210645,0.210608,0.152299,0.348624,0.000000,0.000000,0.000000,0.000000,0.000000,0.000000,0.000000,0.000000,0.000000,0.000000,0.000000,0.000000,0.015714,3,0
1640000,-0.010080,42.434856,0.040318,-0.026717,26.087532,0.064184,0.004095,0.042326,1.570341,-0.075501,0.007636,0.015099,-0.001745,-0.011507,0.000087,0.000290,0.010445,-0.034328,-0.022591,0.210854,0.210817,0.152010,0.347404,0.000000,0.000000,0.000000,0.000000,0.000000,0.000000,0.000000,0.000000,0.000000,0.000000,0.000000,0.000000,0.034626,3,0
1650000,-0.009985,42.698025,0.040678,-0.026214,26.096296,0.064360,0.004171,0.042804,1.570348,-0.075831,0.007690,0.015203,-0.001770,-0.011662,0.000088,0.000690,0.010349,0.063770,-0.010848,0.211064,0.211025,0.151725,0.346219,0.000000,0.000000,0.000000,0.000000,0.000000,0.000000,0.000000,0.000000,0.000000,0.000000,0.000000,0.000000,0.062328,3,0
1660000,-0.009888,42.959709,0.041521,-0.025798,26.102201,0.065358,0.004233,0.043031,1.570352,-0.075929,0.007742,0.015117,-0.001795,-0.011708,0.000088,0.000086,0.010250,0.019184,0.007743,0.211274,0.211234,0.151443,0.345070,0.000000,0.000000,0.000000,0.000000,0.000000,0.000000,0.000000,0.000000,0.000000,0.000000,0.000000,0.000000,0.020985,3,0
1670000,-0.009794,43.217140,0.041204,-0.025431,26.100052,0.064956,0.004306,0.042550,1.570357,-0.075408,0.007795,0.015565,-0.001820,-0.011458,0.000087,0.001993,0.010149,-0.103405,-0.039768,0.211484,0.211442,0.151166,0.343954,0.000000,0.000000,0.000000,0.000000,0.000000,0.000000,0.000000,0.000000,0.000000,0.000000,0.000000,0.000000,0.100249,3,0
1680000,-0.009701,43.476696,0.040137,-0.025076,26.101809,0.063462,0.004379,0.042426,1.570364,-0.075199,0.007849,0.016316,-0.001843,-0.011357,0.000086,0.001081,0.010051,-0.042755,-0.068860,0.211694,0.211651,0.150892,0.342869,0.000000,0.000000,0.000000,0.000000,0.000000,0.000000,0.000000,0.000000,0.000000,0.000000,0.000000,0.000000,0.042389,3,0
1690000,-0.009604,43.739727,0.039793,-0.024561,26.109957,0.062692,0.004446,0.042863,1.570372,-0.075476,0.007900,0.016723,-0.001867,-0.011497,0.000087,0.000754,0.009953,0.055492,-0.038669,0.211904,0.211859,0.150623,0.341816,0.000000,0.000000,0.000000,0.000000,0.000000,0.000000,0.000000,0.000000,0.000000,0.000000,0.000000,0.000000,0.054379,3,0
1700000,-0.009506,43.998463,0.039536,-0.024184,26.110121,0.062288,0.004509,0.042581,1.570384,-0.075144,0.007949,0.017131,-0.001892,-0.011330,0.000086,0.000982,0.009852,-0.068470,-0.036196,0.212112,0.212066,0.150357,0.340795,0.000000,0.000000,0.000000,0.000000,0.000000,0.000000,0.000000,0.000000,0.000000,0.000000,0.000000,0.000000,0.066740,3,0
1710000,-0.009405,44.257877,0.040381,-0.023772,26.111368,0.063025,0.004572,0.042388,1.570381,-0.074907,0.007996,0.017053,-0.001916,-0.011207,0.000085,0.000411,0.009750,-0.048901,0.008187,0.212321,0.212273,0.150095,0.339801,0.000000,0.000000,0.000000,0.000000,0.000000,0.000000,0.000000,0.000000,0.000000,0.000000,0.000000,0.000000,0.048097,3,0
1720000,-0.009306,44.520100,0.039994,-0.023389,26.117985,0.062368,0.004639,0.042680,1.570388,-0.075051,0.008044,0.017491,-0.001940,-0.011284,0.000086,0.000425,0.009645,0.029610,-0.040666,0.212528,0.212479,0.149838,0.338837,0.000000,0.000000,0.000000,0.000000,0.000000,0.000000,0.000000,0.000000,0.000000,0.000000,0.000000,0.000000,0.030028,3,0
