time_us,pos_x,pos_y,pos_z,vel_x,vel_y,vel_z,roll,pitch,yaw,bias_ax,bias_ay,bias_az,bias_gx,bias_gy,bias_gz,nis,innov_x,innov_y,innov_z,cov_pos_x,cov_pos_y,cov_pos_z,cov_yaw,des_speed,des_heading,des_climb,pid_speed,pid_yaw,pid_alt,speed_meas,yaw_meas,climb_meas,fwd_accel,yaw_rate,vert_accel,drift_m,nav_mode,mission_state
0,0.000001,0.149999,-0.000004,0.000116,24.999836,-0.001055,-0.000011,-0.000020,1.570806,0.000000,0.000000,0.000000,0.000000,0.000000,0.000000,0.006250,-0.000001,-0.250001,0.000011,2.400038,2.400038,3.600017,1.000518,0.000000,0.000000,0.000000,0.000000,0.000000,0.000000,0.000000,0.000000,0.000000,0.000000,0.000000,0.000000,0.149999,1,0
10000,0.000001,0.348186,0.015956,0.000059,24.999592,-0.002000,-0.000014,-0.000034,1.570822,0.000001,-0.000000,-0.000000,0.000000,0.000000,0.000000,0.004103,-0.000001,-0.181330,0.042614,1.714420,1.714420,2.250079,1.001073,0.000000,0.000000,0.000000,0.000000,0.000000,0.000000,0.000000,0.000000,0.000000,0.000000,0.000000,0.000000,0.129518,3,0
20000,0.000002,0.571268,0.024689,0.000161,24.999306,-0.002806,-0.000021,-0.000048,1.570829,0.000002,-0.000000,-0.000000,-0.000000,0.000000,-0.000000,0.002026,-0.000003,-0.121088,0.032123,1.333616,1.333616,1.636554,1.001655,0.000000,0.000000,0.000000,0.000000,0.000000,0.000000,0.000000,0.000000,0.000000,0.000000,0.000000,0.000000,0.094174,3,0
30000,0.000003,0.798433,0.018033,0.000221,24.998896,-0.003836,-0.000030,-0.000077,1.570844,0.000004,-0.000000,0.000000,-0.000000,0.000000,0.000000,0.002272,-0.000004,-0.125499,-0.030878,1.091392,1.091392,1.286065,1.002257,0.000000,0.000000,0.000000,0.000000,0.000000,0.000000,0.000000,0.000000,0.000000,0.000000,0.000000,0.000000,0.102671,3,0
40000,0.000005,1.049218,0.008673,0.000300,24.999075,-0.004866,-0.000033,-0.000093,1.570857,0.000004,-0.000000,0.000002,-0.000000,0.000000,0.000000,0.000386,-0.000006,0.005159,-0.052747,0.923811,0.923811,1.059385,1.002869,0.000000,0.000000,0.000000,0.000000,0.000000,0.000000,0.000000,0.000000,0.000000,0.000000,0.000000,0.000000,0.004364,3,0
50000,0.000007,1.292958,0.006534,0.000296,24.999054,-0.005805,-0.000037,-0.000107,1.570873,0.000006,-0.000000,0.000002,-0.000000,0.000000,0.000000,0.000344,-0.000008,-0.046840,-0.013866,0.801036,0.801036,0.900822,1.003484,0.000000,0.000000,0.000000,0.000000,0.000000,0.000000,0.000000,0.000000,0.000000,0.000000,0.000000,0.000000,0.040586,3,0
60000,0.000008,1.534474,0.008724,0.000224,24.998819,-0.006625,-0.000055,-0.000127,1.570874,0.000010,-0.000000,0.000001,0.000000,0.000000,0.000000,0.000804,-0.000010,-0.071911,0.017279,0.707270,0.707270,0.783741,1.004094,0.000000,0.000000,0.000000,0.000000,0.000000,0.000000,0.000000,0.000000,0.000000,0.000000,0.000000,0.000000,0.063434,3,0
70000,0.000009,1.780757,0.013049,0.000219,24.998745,-0.007395,-0.000066,-0.000150,1.570876,0.000013,-0.000000,-0.000002,0.000000,0.000000,0.000000,0.000397,-0.000011,-0.035119,0.038065,0.633370,0.633370,0.693801,1.004688,0.000000,0.000000,0.000000,0.000000,0.000000,0.000000,0.000000,0.000000,0.000000,0.000000,0.000000,0.000000,0.031412,3,0
80000,0.000010,2.036151,0.012926,0.000163,24.999304,-0.008551,-0.000076,-0.000178,1.570880,0.000007,-0.000000,-0.000002,0.000000,0.000000,0.000000,0.000482,-0.000011,0.056541,-0.000367,0.573673,0.573673,0.622594,1.005260,0.000000,0.000000,0.000000,0.000000,0.000000,0.000000,0.000000,0.000000,0.000000,0.000000,0.000000,0.000000,0.051135,3,0
90000,0.000012,2.291352,0.017002,0.000278,24.999863,-0.009307,-0.000087,-0.000195,1.570881,-0.000001,-0.000000,-0.000007,0.000000,-0.000000,0.000000,0.000836,-0.000013,0.059567,0.044328,0.524488,0.524488,0.564865,1.005801,0.000000,0.000000,0.000000,0.000000,0.000000,0.000000,0.000000,0.000000,0.000000,0.000000,0.000000,0.000000,0.054360,3,0
100000,0.000013,2.536801,0.020223,0.000247,24.999371,-0.009776,-0.000096,-0.000219,1.570889,0.000008,-0.000000,-0.000013,0.000000,0.000000,0.000000,0.000715,-0.000014,-0.056486,0.038544,0.483303,0.483303,0.517162,1.006301,0.000000,0.000000,0.000000,0.000000,0.000000,0.000000,0.000000,0.000000,0.000000,0.000000,0.000000,0.000000,0.051936,3,0
110000,0.000015,2.792458,0.021320,0.000290,25.000292,-0.010788,-0.000112,-0.000234,1.570898,-0.000006,-0.000000,-0.000016,0.000000,-0.000000,-0.000000,0.000921,-0.000016,0.075768,0.015164,0.448353,0.448353,0.477121,1.006754,0.000000,0.000000,0.000000,0.000000,0.000000,0.000000,0.000000,0.000000,0.000000,0.000000,0.000000,0.000000,0.070106,3,0
120000,0.000017,3.036849,0.022656,0.000314,24.999500,-0.011623,-0.000117,-0.000266,1.570902,0.000012,-0.000000,-0.000020,0.000000,0.000000,0.000000,0.001065,-0.000018,-0.080503,0.019695,0.418358,0.418358,0.443071,1.007150,0.000000,0.000000,0.000000,0.000000,0.000000,0.000000,0.000000,0.000000,0.000000,0.000000,0.000000,0.000000,0.074890,3,0
130000,0.000018,3.288999,0.019453,0.000301,25.000107,-0.013027,-0.000125,-0.000275,1.570904,0.000003,-0.000000,-0.000009,0.000000,-0.000000,0.000000,0.000478,-0.000020,0.032933,-0.044626,0.392369,0.392369,0.413797,1.007481,0.000000,0.000000,0.000000,0.000000,0.000000,0.000000,0.000000,0.000000,0.000000,0.000000,0.000000,0.000000,0.030780,3,0
140000,0.000020,3.535294,0.017476,0.000248,24.999475,-0.014264,-0.000133,-0.000291,1.570907,0.000021,-0.000000,-0.000001,0.000000,0.000000,0.000000,0.000692,-0.000021,-0.060192,-0.028395,0.369666,0.369666,0.388393,1.007739,0.000000,0.000000,0.000000,0.000000,0.000000,0.000000,0.000000,0.000000,0.000000,0.000000,0.000000,0.000000,0.056483,3,0
150000,0.000021,3.782488,0.019119,0.000226,24.998882,-0.014717,-0.000134,-0.000318,1.570922,0.000037,-0.000000,-0.000010,0.000000,0.000001,0.000000,0.000498,-0.000022,-0.048053,0.029406,0.349694,0.349694,0.366172,1.007915,0.000000,0.000000,0.000000,0.000000,0.000000,0.000000,0.000000,0.000000,0.000000,0.000000,0.000000,0.000000,0.045252,3,0
160000,0.000022,4.034842,0.016375,0.000278,24.999725,-0.016301,-0.000153,-0.000328,1.570938,0.000021,-0.000000,0.000006,0.000000,0.000000,0.000000,0.000602,-0.000023,0.042699,-0.044799,0.332020,0.332020,0.346600,1.008002,0.000000,0.000000,0.000000,0.000000,0.000000,0.000000,0.000000,0.000000,0.000000,0.000000,0.000000,0.000000,0.040336,3,0
170000,0.000024,4.287411,0.013736,0.000338,25.000578,-0.018019,-0.000171,-0.000341,1.570939,0.000000,-0.000000,0.000025,0.000000,-0.000000,0.000000,0.000693,-0.000025,0.048764,-0.044919,0.316296,0.316296,0.329260,1.007991,0.000000,0.000000,0.000000,0.000000,0.000000,0.000000,0.000000,0.000000,0.000000,0.000000,0.000000,0.000000,0.046193,3,0
180000,0.000027,4.544174,0.014239,0.000448,25.002825,-0.018672,-0.000186,-0.000344,1.570940,-0.000064,-0.000000,0.000019,0.000000,-0.000002,-0.000000,0.002875,-0.000029,0.134129,0.013225,0.302245,0.302245,0.313817,1.007875,0.000000,0.000000,0.000000,0.000000,0.000000,0.000000,0.000000,0.000000,0.000000,0.000000,0.000000,0.000000,0.127372,3,0
190000,0.000031,4.796919,0.012814,0.000536,25.003986,-0.020085,-0.000188,-0.000361,1.570938,-0.000093,-0.000000,0.000032,0.000000,-0.000003,-0.000000,0.000597,-0.000032,0.056252,-0.024556,0.289639,0.289639,0.300003,1.007645,0.000000,0.000000,0.000000,0.000000,0.000000,0.000000,0.000000,0.000000,0.000000,0.000000,0.000000,0.000000,0.053536,3,0
200000,0.000034,5.048911,0.011087,0.000449,25.004951,-0.021475,-0.000206,-0.000369,1.570942,-0.000118,-0.000000,0.000050,0.000000,-0.000003,-0.000000,0.000440,-0.000035,0.042041,-0.031661,0.278293,0.278293,0.287598,1.007295,0.000000,0.000000,0.000000,0.000000,0.000000,0.000000,0.000000,0.000000,0.000000,0.000000,0.000000,0.000000,0.040092,3,0
210000,0.000036,5.302016,0.010389,0.000365,25.006454,-0.022473,-0.000220,-0.000381,1.570951,-0.000162,-0.000000,0.000056,0.000000,-0.000005,-0.000000,0.000761,-0.000037,0.068345,-0.010326,0.268051,0.268051,0.276421,1.006816,0.000000,0.000000,0.000000,0.000000,0.000000,0.000000,0.000000,0.000000,0.000000,0.000000,0.000000,0.000000,0.065292,3,0
220000,0.000038,5.558687,0.010467,0.000374,25.009583,-0.023208,-0.000231,-0.000366,1.570953,-0.000269,-0.000000,0.000052,0.000000,-0.000008,-0.000000,0.003749,-0.000040,0.153168,0.007021,0.258783,0.258783,0.266321,1.006202,0.000000,0.000000,0.000000,0.000000,0.000000,0.000000,0.000000,0.000000,0.000000,0.000000,0.000000,0.000000,0.146562,3,0
230000,0.000041,5.813590,0.008368,0.000453,25.012173,-0.025092,-0.000235,-0.000366,1.570962,-0.000356,-0.000000,0.000084,0.000000,-0.000011,-0.000000,0.002416,-0.000042,0.115132,-0.043323,0.250381,0.250381,0.257172,1.005446,0.000000,0.000000,0.000000,0.000000,0.000000,0.000000,0.000000,0.000000,0.000000,0.000000,0.000000,0.000000,0.110327,3,0
240000,0.000044,6.065294,0.009051,0.000529,25.013073,-0.025710,-0.000240,-0.000384,1.570960,-0.000389,-0.000000,0.000066,0.000000,-0.000012,-0.000000,0.000328,-0.000046,0.039115,0.022785,0.242751,0.242751,0.248866,1.004541,0.000000,0.000000,0.000000,0.000000,0.000000,0.000000,0.000000,0.000000,0.000000,0.000000,0.000000,0.000000,0.037533,3,0
250000,0.000048,6.317226,0.010189,0.000555,25.014153,-0.026107,-0.000249,-0.000383,1.570976,-0.000430,-0.000000,0.000035,0.000000,-0.000013,-0.000000,0.000532,-0.000050,0.045828,0.034977,0.235813,0.235813,0.241314,1.003481,0.000000,0.000000,0.000000,0.000000,0.000000,0.000000,0.000000,0.000000,0.000000,0.000000,0.000000,0.000000,0.044027,3,0
260000,0.000051,6.569370,0.010695,0.000497,25.015528,-0.026645,-0.000264,-0.000386,1.570979,-0.000480,-0.000000,0.000016,0.000000,-0.000015,-0.000000,0.000502,-0.000053,0.052310,0.019872,0.229498,0.229498,0.234436,1.002258,0.000000,0.000000,0.000000,0.000000,0.000000,0.000000,0.000000,0.000000,0.000000,0.000000,0.000000,0.000000,0.050309,3,0
270000,0.000053,6.824677,0.012195,0.000423,25.019032,-0.026386,-0.000266,-0.000354,1.570992,-0.000622,-0.000000,-0.000032,0.000000,-0.000020,-0.000000,0.003409,-0.000055,0.138093,0.046670,0.223747,0.223747,0.228165,1.000869,0.000000,0.000000,0.000000,0.000000,0.000000,0.000000,0.000000,0.000000,0.000000,0.000000,0.000000,0.000000,0.132944,3,0
280000,0.000055,7.077839,0.013083,0.000457,25.021271,-0.026452,-0.000277,-0.000341,1.570996,-0.000712,-0.000000,-0.000066,0.000000,-0.000024,-0.000000,0.001225,-0.000057,0.081541,0.031284,0.218508,0.218508,0.222443,0.999307,0.000000,0.000000,0.000000,0.000000,0.000000,0.000000,0.000000,0.000000,0.000000,0.000000,0.000000,0.000000,0.078571,3,0
290000,0.000058,7.331145,0.011915,0.000510,25.023710,-0.028098,-0.000281,-0.000327,1.571009,-0.000815,-0.000000,-0.000037,0.000000,-0.000028,-0.000000,0.001308,-0.000060,0.086782,-0.024663,0.213735,0.213735,0.217219,0.997567,0.000000,0.000000,0.000000,0.000000,0.000000,0.000000,0.000000,0.000000,0.000000,0.000000,0.000000,0.000000,0.083691,3,0
300000,0.000061,7.584589,0.011464,0.000444,25.026211,-0.029260,-0.000283,-0.000307,1.571022,-0.000930,-0.000001,-0.000031,0.000000,-0.000033,-0.000000,0.001361,-0.000063,0.091879,-0.004518,0.209388,0.209388,0.212446,0.995645,0.000000,0.000000,0.000000,0.000000,0.000000,0.000000,0.000000,0.000000,0.000000,0.000000,0.000000,0.000000,0.088673,3,0
310000,0.000063,7.840891,0.012701,0.000447,25.031307,-0.029289,-0.000299,-0.000245,1.571036,-0.001165,-0.000001,-0.000090,0.000000,-0.000043,-0.000000,0.005324,-0.000065,0.176350,0.044448,0.205431,0.205431,0.208087,0.993536,0.000000,0.000000,0.000000,0.000000,0.000000,0.000000,0.000000,0.000000,0.000000,0.000000,0.000000,0.000000,0.170312,3,0
320000,0.000065,8.095870,0.013613,0.000411,25.035429,-0.029308,-0.000315,-0.000198,1.571039,-0.001362,-0.000001,-0.000140,0.000000,-0.000052,-0.000000,0.003302,-0.000067,0.138666,0.035698,0.201834,0.201834,0.204105,0.991236,0.000000,0.000000,0.000000,0.000000,0.000000,0.000000,0.000000,0.000000,0.000000,0.000000,0.000000,0.000000,0.134002,3,0
330000,0.000066,8.351586,0.013913,0.000332,25.040373,-0.029814,-0.000327,-0.000138,1.571039,-0.001604,-0.000001,-0.000167,0.000000,-0.000064,-0.000000,0.004279,-0.000068,0.161949,0.018077,0.198566,0.198566,0.200469,0.988743,0.000000,0.000000,0.000000,0.000000,0.000000,0.000000,0.000000,0.000000,0.000000,0.000000,0.000000,0.000000,0.156590,3,0
340000,0.000066,8.606710,0.014403,0.000286,25.044878,-0.030289,-0.000328,-0.000077,1.571043,-0.001833,-0.000001,-0.000205,0.000000,-0.000075,-0.000000,0.003473,-0.000069,0.144732,0.024325,0.195604,0.195604,0.197151,0.986053,0.000000,0.000000,0.000000,0.000000,0.000000,0.000000,0.000000,0.000000,0.000000,0.000000,0.000000,0.000000,0.140013,3,0
350000,0.000067,8.863196,0.014871,0.000288,25.050762,-0.030724,-0.000336,-0.000006,1.571055,-0.002146,-0.000001,-0.000245,0.000000,-0.000090,-0.000000,0.005780,-0.000069,0.187747,0.024174,0.192924,0.192924,0.194125,0.983163,0.000000,0.000000,0.000000,0.000000,0.000000,0.000000,0.000000,0.000000,0.000000,0.000000,0.000000,0.000000,0.181710,3,0
360000,0.000067,9.117203,0.013570,0.000184,25.054483,-0.032454,-0.000354,0.000034,1.571060,-0.002340,-0.000001,-0.000191,0.000000,-0.000100,-0.000000,0.002111,-0.000069,0.110111,-0.030886,0.190506,0.190506,0.191370,0.980072,0.000000,0.000000,0.000000,0.000000,0.000000,0.000000,0.000000,0.000000,0.000000,0.000000,0.000000,0.000000,0.106615,3,0
370000,0.000067,9.373837,0.013211,0.000197,25.060919,-0.033591,-0.000364,0.000120,1.571062,-0.002697,-0.000001,-0.000190,0.000000,-0.000119,-0.000000,0.006077,-0.000069,0.194011,-0.000731,0.188329,0.188329,0.188863,0.976778,0.000000,0.000000,0.000000,0.000000,0.000000,0.000000,0.000000,0.000000,0.000000,0.000000,0.000000,0.000000,0.187922,3,0
380000,0.000067,9.631146,0.013335,0.000257,25.068375,-0.033947,-0.000378,0.000236,1.571072,-0.003114,-0.000001,-0.000218,0.000000,-0.000142,-0.000000,0.007544,-0.000069,0.215615,0.015029,0.186378,0.186378,0.186586,0.973281,0.000000,0.000000,0.000000,0.000000,0.000000,0.000000,0.000000,0.000000,0.000000,0.000000,0.000000,0.000000,0.208918,3,0
390000,0.000066,9.884829,0.012685,0.000155,25.071892,-0.035108,-0.000379,0.000278,1.571077,-0.003311,-0.000001,-0.000199,0.000000,-0.000153,-0.000000,0.001548,-0.000069,0.097384,-0.009802,0.184636,0.184636,0.184522,0.969579,0.000000,0.000000,0.000000,0.000000,0.000000,0.000000,0.000000,0.000000,0.000000,0.000000,0.000000,0.000000,0.094388,3,0
400000,0.000066,10.139272,0.012497,0.000127,25.076391,-0.036044,-0.000388,0.000349,1.571089,-0.003570,-0.000001,-0.000211,0.000000,-0.000168,-0.000000,0.002409,-0.000068,0.121971,0.005705,0.183089,0.183089,0.182656,0.965674,0.000000,0.000000,0.000000,0.000000,0.000000,0.000000,0.000000,0.000000,0.000000,0.000000,0.000000,0.000000,0.118249,3,0
410000,0.000065,10.393249,0.011341,0.000109,25.080343,-0.037987,-0.000402,0.000401,1.571096,-0.003804,-0.000001,-0.000153,0.000000,-0.000182,-0.000000,0.001926,-0.000067,0.106030,-0.026011,0.181723,0.181723,0.180971,0.961565,0.000000,0.000000,0.000000,0.000000,0.000000,0.000000,0.000000,0.000000,0.000000,0.000000,0.000000,0.000000,0.102819,3,0
420000,0.000064,10.650369,0.011164,0.000165,25.088314,-0.038931,-0.000419,0.000536,1.571105,-0.004287,-0.000002,-0.000170,0.000000,-0.000211,-0.000000,0.007126,-0.000066,0.209833,0.007212,0.180525,0.180525,0.179456,0.957254,0.000000,0.000000,0.000000,0.000000,0.000000,0.000000,0.000000,0.000000,0.000000,0.000000,0.000000,0.000000,0.203520,3,0
430000,0.000065,10.906974,0.011133,0.000219,25.095766,-0.039348,-0.000429,0.000676,1.571120,-0.004746,-0.000002,-0.000199,0.000000,-0.000240,-0.000000,0.005934,-0.000067,0.191180,0.012333,0.179485,0.179485,0.178097,0.952742,0.000000,0.000000,0.000000,0.000000,0.000000,0.000000,0.000000,0.000000,0.000000,0.000000,0.000000,0.000000,0.185461,3,0
440000,0.000065,11.163084,0.011358,0.000243,25.102551,-0.039483,-0.000446,0.000792,1.571129,-0.005178,-0.000002,-0.000252,0.000000,-0.000267,-0.000000,0.004916,-0.000067,0.173049,0.021280,0.178591,0.178591,0.176883,0.948031,0.000000,0.000000,0.000000,0.000000,0.000000,0.000000,0.000000,0.000000,0.000000,0.000000,0.000000,0.000000,0.167898,3,0
450000,0.000066,11.419309,0.012495,0.000260,25.109657,-0.038493,-0.000460,0.000917,1.571145,-0.005632,-0.000002,-0.000388,0.000000,-0.000297,-0.000000,0.005417,-0.000068,0.175295,0.052561,0.177834,0.177834,0.175803,0.943125,0.000000,0.000000,0.000000,0.000000,0.000000,0.000000,0.000000,0.000000,0.000000,0.000000,0.000000,0.000000,0.170099,3,0
460000,0.000067,11.676822,0.011886,0.000309,25.118469,-0.039745,-0.000477,0.001103,1.571155,-0.006215,-0.000002,-0.000368,0.000000,-0.000336,-0.000000,0.007638,-0.000069,0.217184,-0.007331,0.177203,0.177203,0.174847,0.938025,0.000000,0.000000,0.000000,0.000000,0.000000,0.000000,0.000000,0.000000,0.000000,0.000000,0.000000,0.000000,0.210770,3,0
470000,0.000068,11.933258,0.011223,0.000345,25.125912,-0.041034,-0.000495,0.001248,1.571166,-0.006712,-0.000002,-0.000344,0.000000,-0.000370,-0.000000,0.005152,-0.000070,0.178251,-0.008812,0.176690,0.176690,0.174006,0.932737,0.000000,0.000000,0.000000,0.000000,0.000000,0.000000,0.000000,0.000000,0.000000,0.000000,0.000000,0.000000,0.173002,3,0
480000,0.000070,12.190397,0.010927,0.000382,25.134367,-0.041714,-0.000502,0.001435,1.571165,-0.007288,-0.000002,-0.000356,0.000000,-0.000411,-0.000000,0.006477,-0.000072,0.200046,0.004264,0.176287,0.176287,0.173271,0.927264,0.000000,0.000000,0.000000,0.000000,0.000000,0.000000,0.000000,0.000000,0.000000,0.000000,0.000000,0.000000,0.194168,3,0
490000,0.000071,12.444149,0.011759,0.000345,25.138140,-0.041275,-0.000504,0.001498,1.571180,-0.007532,-0.000002,-0.000487,0.000000,-0.000428,-0.000000,0.001398,-0.000073,0.081972,0.043812,0.175986,0.175986,0.172634,0.921610,0.000000,0.000000,0.000000,0.000000,0.000000,0.000000,0.000000,0.000000,0.000000,0.000000,0.000000,0.000000,0.079568,3,0
500000,0.000072,12.698071,0.010164,0.000298,25.142176,-0.043913,-0.000522,0.001581,1.571189,-0.007798,-0.000003,-0.000361,0.000000,-0.000448,-0.000000,0.001484,-0.000074,0.086609,-0.040836,0.175778,0.175778,0.172087,0.915781,0.000000,0.000000,0.000000,0.000000,0.000000,0.000000,0.000000,0.000000,0.000000,0.000000,0.000000,0.000000,0.084071,3,0
510000,0.000072,12.952163,0.009550,0.000242,25.146364,-0.044987,-0.000536,0.001660,1.571204,-0.008087,-0.000003,-0.000342,0.000000,-0.000469,-0.000000,0.001347,-0.000075,0.091073,-0.005809,0.175658,0.175658,0.171622,0.909781,0.000000,0.000000,0.000000,0.000000,0.000000,0.000000,0.000000,0.000000,0.000000,0.000000,0.000000,0.000000,0.088407,3,0
520000,0.000072,13.206421,0.009563,0.000130,25.150824,-0.045279,-0.000539,0.001745,1.571208,-0.008399,-0.000003,-0.000396,0.000000,-0.000493,-0.000000,0.001516,-0.000074,0.095366,0.016554,0.175619,0.175619,0.171234,0.903618,0.000000,0.000000,0.000000,0.000000,0.000000,0.000000,0.000000,0.000000,0.000000,0.000000,0.000000,0.000000,0.092574,3,0
530000,0.000070,13.465502,0.010311,0.000066,25.162687,-0.044702,-0.000549,0.002022,1.571209,-0.009269,-0.000003,-0.000541,0.000000,-0.000562,-0.000000,0.011105,-0.000072,0.258518,0.042531,0.175653,0.175653,0.170914,0.897295,0.000000,0.000000,0.000000,0.000000,0.000000,0.000000,0.000000,0.000000,0.000000,0.000000,0.000000,0.000000,0.250950,3,0
540000,0.000069,13.722936,0.008734,0.000079,25.171934,-0.047130,-0.000550,0.002248,1.571212,-0.009955,-0.000003,-0.000403,0.000000,-0.000616,-0.000000,0.006601,-0.000071,0.198109,-0.039399,0.175756,0.175756,0.170658,0.890822,0.000000,0.000000,0.000000,0.000000,0.000000,0.000000,0.000000,0.000000,0.000000,0.000000,0.000000,0.000000,0.192306,3,0
550000,0.000067,13.982243,0.008591,0.000025,25.184093,-0.047756,-0.000559,0.002555,1.571223,-0.010876,-0.000003,-0.000446,0.000000,-0.000692,-0.000000,0.010846,-0.000069,0.258645,0.011942,0.175922,0.175922,0.170460,0.884203,0.000000,0.000000,0.000000,0.000000,0.000000,0.000000,0.000000,0.000000,0.000000,0.000000,0.000000,0.000000,0.251061,3,0
560000,0.000065,14.237568,0.006893,-0.000024,25.190041,-0.050305,-0.000575,0.002686,1.571225,-0.011308,-0.000004,-0.000288,0.000000,-0.000728,-0.000000,0.002566,-0.000067,0.118488,-0.042681,0.176144,0.176144,0.170314,0.877445,0.000000,0.000000,0.000000,0.000000,0.000000,0.000000,0.000000,0.000000,0.000000,0.000000,0.000000,0.000000,0.115009,3,0
570000,0.000063,14.493047,0.007666,-0.000047,25.196157,-0.049538,-0.000592,0.002845,1.571226,-0.011764,-0.000004,-0.000460,0.000000,-0.000767,-0.000000,0.002723,-0.000065,0.121530,0.045372,0.176419,0.176419,0.170214,0.870557,0.000000,0.000000,0.000000,0.000000,0.000000,0.000000,0.000000,0.000000,0.000000,0.000000,0.000000,0.000000,0.117956,3,0
580000,0.000060,14.752192,0.007739,-0.000119,25.208122,-0.049679,-0.000596,0.003160,1.571228,-0.012700,-0.000004,-0.000540,0.000000,-0.000848,-0.000000,0.009673,-0.000062,0.243690,0.020405,0.176741,0.176741,0.170157,0.863546,0.000000,0.000000,0.000000,0.000000,0.000000,0.000000,0.000000,0.000000,0.000000,0.000000,0.000000,0.000000,0.236511,3,0
590000,0.000056,15.009100,0.007714,-0.000159,25.216516,-0.049814,-0.000611,0.003386,1.571238,-0.013343,-0.000004,-0.000607,0.000000,-0.000905,-0.000000,0.004361,-0.000058,0.163333,0.016930,0.177105,0.177105,0.170138,0.856419,0.000000,0.000000,0.000000,0.000000,0.000000,0.000000,0.000000,0.000000,0.000000,0.000000,0.000000,0.000000,0.158512,3,0
600000,0.000053,15.266146,0.008005,-0.000155,25.225082,-0.049573,-0.000623,0.003607,1.571245,-0.014007,-0.000004,-0.000723,0.000000,-0.000965,-0.000000,0.004519,-0.000055,0.164767,0.028160,0.177508,0.177508,0.170152,0.849184,0.000000,0.000000,0.000000,0.000000,0.000000,0.000000,0.000000,0.000000,0.000000,0.000000,0.000000,0.000000,0.159893,3,0
610000,0.000050,15.521559,0.007344,-0.000175,25.230820,-0.050905,-0.000641,0.003748,1.571246,-0.014445,-0.000004,-0.000700,0.000000,-0.001005,-0.000000,0.001837,-0.000052,0.106426,-0.005425,0.177945,0.177945,0.170195,0.841849,0.000000,0.000000,0.000000,0.000000,0.000000,0.000000,0.000000,0.000000,0.000000,0.000000,0.000000,0.000000,0.103270,3,0
620000,0.000047,15.779490,0.005806,-0.000127,25.240751,-0.053325,-0.000646,0.004024,1.571247,-0.015240,-0.000004,-0.000546,0.000000,-0.001080,-0.000000,0.005979,-0.000049,0.188896,-0.035929,0.178412,0.178412,0.170264,0.834422,0.000000,0.000000,0.000000,0.000000,0.000000,0.000000,0.000000,0.000000,0.000000,0.000000,0.000000,0.000000,0.183279,3,0
630000,0.000044,16.037548,0.006132,-0.000214,25.250778,-0.052907,-0.000657,0.004313,1.571256,-0.016053,-0.000004,-0.000680,0.000000,-0.001157,-0.000000,0.005945,-0.000045,0.189291,0.030582,0.178906,0.178906,0.170355,0.826911,0.000000,0.000000,0.000000,0.000000,0.000000,0.000000,0.000000,0.000000,0.000000,0.000000,0.000000,0.000000,0.183647,3,0
640000,0.000041,16.296326,0.007059,-0.000184,25.262045,-0.051882,-0.000658,0.004650,1.571270,-0.016971,-0.000004,-0.000912,0.000000,-0.001247,-0.000000,0.007524,-0.000042,0.209436,0.051663,0.179422,0.179422,0.170465,0.819324,0.000000,0.000000,0.000000,0.000000,0.000000,0.000000,0.000000,0.000000,0.000000,0.000000,0.000000,0.000000,0.203175,3,0
650000,0.000037,16.552837,0.006812,-0.000251,25.269405,-0.052565,-0.000658,0.004857,1.571269,-0.017550,-0.000004,-0.000958,0.000000,-0.001304,-0.000000,0.002725,-0.000038,0.129456,0.009964,0.179958,0.179958,0.170591,0.811670,0.000000,0.000000,0.000000,0.000000,0.000000,0.000000,0.000000,0.000000,0.000000,0.000000,0.000000,0.000000,0.125572,3,0
660000,0.000034,16.809488,0.007379,-0.000222,25.276834,-0.051942,-0.000674,0.005070,1.571278,-0.018148,-0.000004,-0.001140,0.000000,-0.001365,-0.000000,0.003030,-0.000035,0.131300,0.038788,0.180511,0.180511,0.170729,0.803956,0.000000,0.000000,0.000000,0.000000,0.000000,0.000000,0.000000,0.000000,0.000000,0.000000,0.000000,0.000000,0.127350,3,0
670000,0.000030,17.066879,0.007016,-0.000330,25.285471,-0.052825,-0.000679,0.005330,1.571280,-0.018857,-0.000004,-0.001168,0.000000,-0.001438,-0.000000,0.003783,-0.000031,0.152876,0.005903,0.181078,0.181078,0.170877,0.796191,0.000000,0.000000,0.000000,0.000000,0.000000,0.000000,0.000000,0.000000,0.000000,0.000000,0.000000,0.000000,0.148262,3,0
680000,0.000025,17.326807,0.007227,-0.000432,25.298271,-0.052840,-0.000683,0.005738,1.571283,-0.019958,-0.000004,-0.001297,0.000000,-0.001553,-0.000000,0.008913,-0.000025,0.233341,0.026374,0.181656,0.181655,0.171033,0.788383,0.000000,0.000000,0.000000,0.000000,0.000000,0.000000,0.000000,0.000000,0.000000,0.000000,0.000000,0.000000,0.226276,3,0
690000,0.000020,17.585024,0.008260,-0.000433,25.308027,-0.051645,-0.000693,0.006047,1.571284,-0.020784,-0.000004,-0.001571,0.000000,-0.001641,-0.000000,0.005277,-0.000020,0.172075,0.055132,0.182242,0.182242,0.171193,0.780539,0.000000,0.000000,0.000000,0.000000,0.000000,0.000000,0.000000,0.000000,0.000000,0.000000,0.000000,0.000000,0.166849,3,0
700000,0.000015,17.843966,0.007890,-0.000469,25.319056,-0.052309,-0.000707,0.006394,1.571281,-0.021722,-0.000004,-0.001599,0.000000,-0.001743,-0.000000,0.005966,-0.000015,0.192064,0.005486,0.182834,0.182834,0.171357,0.772667,0.000000,0.000000,0.000000,0.000000,0.000000,0.000000,0.000000,0.000000,0.000000,0.000000,0.000000,0.000000,0.186213,3,0
710000,0.000009,18.101196,0.006389,-0.000541,25.326941,-0.054662,-0.000710,0.006645,1.571287,-0.022375,-0.000004,-0.001425,0.000000,-0.001815,-0.000000,0.002993,-0.000009,0.131800,-0.033886,0.183430,0.183430,0.171521,0.764776,0.000000,0.000000,0.000000,0.000000,0.000000,0.000000,0.000000,0.000000,0.000000,0.000000,0.000000,0.000000,0.127769,3,0
720000,0.000003,18.357944,0.007465,-0.000604,25.333975,-0.053117,-0.000729,0.006872,1.571289,-0.022944,-0.000003,-0.001724,0.000000,-0.001879,-0.000000,0.002591,-0.000003,0.113035,0.057036,0.184028,0.184028,0.171685,0.756872,0.000000,0.000000,0.000000,0.000000,0.000000,0.000000,0.000000,0.000000,0.000000,0.000000,0.000000,0.000000,0.109568,3,0
730000,-0.000003,18.615435,0.008113,-0.000588,25.342262,-0.052495,-0.000745,0.007143,1.571286,-0.023631,-0.000003,-0.001946,0.000000,-0.001957,-0.000000,0.003203,0.000003,0.134523,0.041587,0.184626,0.184626,0.171846,0.748962,0.000000,0.000000,0.000000,0.000000,0.000000,0.000000,0.000000,0.000000,0.000000,0.000000,0.000000,0.000000,0.130384,3,0
740000,-0.000009,18.873661,0.007938,-0.000576,25.351631,-0.053020,-0.000746,0.007467,1.571294,-0.024434,-0.000003,-0.002015,0.000000,-0.002051,-0.000000,0.003919,0.000009,0.155256,0.012619,0.185222,0.185222,0.172003,0.741055,0.000000,0.000000,0.000000,0.000000,0.000000,0.000000,0.000000,0.000000,0.000000,0.000000,0.000000,0.000000,0.150463,3,0
750000,-0.000014,19.135078,0.006342,-0.000613,25.366446,-0.055609,-0.000747,0.008009,1.571304,-0.025772,-0.000003,-0.001813,0.000000,-0.002209,-0.000000,0.010701,0.000015,0.254757,-0.036756,0.185815,0.185815,0.172154,0.733156,0.000000,0.000000,0.000000,0.000000,0.000000,0.000000,0.000000,0.000000,0.000000,0.000000,0.000000,0.000000,0.246866,3,0
760000,-0.000019,19.395336,0.005506,-0.000577,25.379011,-0.057031,-0.000761,0.008459,1.571314,-0.026898,-0.000002,-0.001762,0.000000,-0.002344,-0.000000,0.007262,0.000020,0.211857,-0.009339,0.186403,0.186403,0.172299,0.725273,0.000000,0.000000,0.000000,0.000000,0.000000,0.000000,0.000000,0.000000,0.000000,0.000000,0.000000,0.000000,0.205275,3,0
770000,-0.000025,19.657539,0.004192,-0.000634,25.394888,-0.059031,-0.000760,0.009040,1.571329,-0.028350,-0.000002,-0.001618,0.000000,-0.002522,-0.000000,0.011836,0.000026,0.269535,-0.025495,0.186985,0.186985,0.172435,0.717413,0.000000,0.000000,0.000000,0.000000,0.000000,0.000000,0.000000,0.000000,0.000000,0.000000,0.000000,0.000000,0.261135,3,0
780000,-0.000031,19.917320,0.002512,-0.000716,25.406414,-0.061620,-0.000764,0.009453,1.571328,-0.029364,-0.000001,-0.001403,0.000000,-0.002648,-0.000000,0.005818,0.000032,0.186081,-0.037517,0.187560,0.187560,0.172562,0.709580,0.000000,0.000000,0.000000,0.000000,0.000000,0.000000,0.000000,0.000000,0.000000,0.000000,0.000000,0.000000,0.180264,3,0
790000,-0.000038,20.177811,0.000990,-0.000830,25.418934,-0.064062,-0.000782,0.009916,1.571335,-0.030491,-0.000001,-0.001223,0.000000,-0.002791,-0.000000,0.006907,0.000039,0.204491,-0.031029,0.188127,0.188126,0.172680,0.701782,0.000000,0.000000,0.000000,0.000000,0.000000,0.000000,0.000000,0.000000,0.000000,0.000000,0.000000,0.000000,0.198078,3,0
800000,-0.000046,20.439001,0.001690,-0.000975,25.432615,-0.063215,-0.000788,0.010428,1.571334,-0.031730,-0.000000,-0.001502,-0.000000,-0.002950,-0.000000,0.008326,0.000048,0.222179,0.046988,0.188684,0.188683,0.172786,0.694025,0.000000,0.000000,0.000000,0.000000,0.000000,0.000000,0.000000,0.000000,0.000000,0.000000,0.000000,0.000000,0.215193,3,0
810000,-0.000055,20.700886,0.000721,-0.001010,25.447348,-0.064570,-0.000802,0.010994,1.571335,-0.033077,0.000000,-0.001436,-0.000000,-0.003126,-0.000000,0.009253,0.000057,0.239157,-0.011324,0.189231,0.189230,0.172881,0.686313,0.000000,0.000000,0.000000,0.000000,0.000000,0.000000,0.000000,0.000000,0.000000,0.000000,0.000000,0.000000,0.231613,3,0
820000,-0.000063,20.961565,0.001778,-0.000985,25.459665,-0.062903,-0.000813,0.011479,1.571350,-0.034191,0.000001,-0.001799,-0.000000,-0.003274,-0.000000,0.006759,0.000065,0.195793,0.059443,0.189767,0.189767,0.172964,0.678652,0.000000,0.000000,0.000000,0.000000,0.000000,0.000000,0.000000,0.000000,0.000000,0.000000,0.000000,0.000000,0.189602,3,0
830000,-0.000071,21.221050,0.002316,-0.001070,25.469778,-0.062264,-0.000823,0.011863,1.571353,-0.035074,0.000002,-0.002052,-0.000000,-0.003393,-0.000000,0.004081,0.000073,0.153658,0.040878,0.190292,0.190292,0.173034,0.671046,0.000000,0.000000,0.000000,0.000000,0.000000,0.000000,0.000000,0.000000,0.000000,0.000000,0.000000,0.000000,0.148785,3,0
840000,-0.000079,21.479982,0.001786,-0.001054,25.478893,-0.063105,-0.000836,0.012212,1.571365,-0.035844,0.000003,-0.002075,-0.000000,-0.003499,-0.000000,0.002840,0.000082,0.132616,0.003603,0.190805,0.190804,0.173091,0.663502,0.000000,0.000000,0.000000,0.000000,0.000000,0.000000,0.000000,0.000000,0.000000,0.000000,0.000000,0.000000,0.128399,3,0
850000,-0.000087,21.742802,0.002075,-0.001084,25.494629,-0.062936,-0.000852,0.012853,1.571378,-0.037315,0.000004,-0.002282,-0.000000,-0.003704,-0.000000,0.010359,0.000090,0.251293,0.032407,0.191305,0.191305,0.173135,0.656022,0.000000,0.000000,0.000000,0.000000,0.000000,0.000000,0.000000,0.000000,0.000000,0.000000,0.000000,0.000000,0.243280,3,0
860000,-0.000096,22.005018,0.002249,-0.001171,25.509176,-0.062906,-0.000858,0.013444,1.571385,-0.038654,0.000005,-0.002465,-0.000001,-0.003893,-0.000000,0.008433,0.000099,0.226862,0.028305,0.191793,0.191793,0.173165,0.648612,0.000000,0.000000,0.000000,0.000000,0.000000,0.000000,0.000000,0.000000,0.000000,0.000000,0.000000,0.000000,0.219610,3,0
870000,-0.000104,22.266634,0.001531,-0.001204,25.522448,-0.063972,-0.000866,0.013993,1.571389,-0.039863,0.000005,-0.002450,-0.000001,-0.004067,-0.000000,0.006652,0.000108,0.203049,-0.002660,0.192268,0.192267,0.173181,0.641275,0.000000,0.000000,0.000000,0.000000,0.000000,0.000000,0.000000,0.000000,0.000000,0.000000,0.000000,0.000000,0.196543,3,0
880000,-0.000113,22.527655,0.001475,-0.001284,25.534548,-0.064153,-0.000884,0.014486,1.571392,-0.040942,0.000007,-0.002587,-0.000001,-0.004225,-0.000000,0.005287,0.000117,0.179846,0.020653,0.192729,0.192729,0.173183,0.634015,0.000000,0.000000,0.000000,0.000000,0.000000,0.000000,0.000000,0.000000,0.000000,0.000000,0.000000,0.000000,0.174068,3,0
890000,-0.000122,22.790003,0.002055,-0.001269,25.548870,-0.063244,-0.000899,0.015095,1.571392,-0.042253,0.000008,-0.002872,-0.000001,-0.004419,-0.000000,0.007883,0.000126,0.216887,0.042712,0.193177,0.193177,0.173170,0.626836,0.000000,0.000000,0.000000,0.000000,0.000000,0.000000,0.000000,0.000000,0.000000,0.000000,0.000000,0.000000,0.209904,3,0
900000,-0.000132,23.051737,0.000976,-0.001413,25.561790,-0.064876,-0.000899,0.015654,1.571391,-0.043428,0.000009,-0.002774,-0.000001,-0.004597,-0.000000,0.006041,0.000136,0.192942,-0.015033,0.193612,0.193611,0.173144,0.619740,0.000000,0.000000,0.000000,0.000000,0.000000,0.000000,0.000000,0.000000,0.000000,0.000000,0.000000,0.000000,0.186716,3,0
910000,-0.000142,23.314146,0.001501,-0.001498,25.575762,-0.064028,-0.000899,0.016270,1.571391,-0.044711,0.000010,-0.003054,-0.000001,-0.004793,-0.000000,0.007344,0.000147,0.209383,0.041088,0.194033,0.194033,0.173103,0.612730,0.000000,0.000000,0.000000,0.000000,0.000000,0.000000,0.000000,0.000000,0.000000,0.000000,0.000000,0.000000,0.202612,3,0
920000,-0.000152,23.575932,0.001619,-0.001524,25.588474,-0.063847,-0.000908,0.016817,1.571397,-0.045855,0.000012,-0.003239,-0.000002,-0.004971,-0.000000,0.005658,0.000158,0.185379,0.026730,0.194441,0.194440,0.173048,0.605809,0.000000,0.000000,0.000000,0.000000,0.000000,0.000000,0.000000,0.000000,0.000000,0.000000,0.000000,0.000000,0.179373,3,0
930000,-0.000163,23.835163,0.000981,-0.001568,25.596605,-0.064813,-0.000910,0.017149,1.571394,-0.046490,0.000013,-0.003244,-0.000002,-0.005071,-0.000000,0.001690,0.000168,0.102375,0.000396,0.194836,0.194835,0.172979,0.598981,0.000000,0.000000,0.000000,0.000000,0.000000,0.000000,0.000000,0.000000,0.000000,0.000000,0.000000,0.000000,0.099051,3,0
940000,-0.000173,24.097689,0.000327,-0.001605,25.610373,-0.065804,-0.000924,0.017765,1.571394,-0.047745,0.000014,-0.003249,-0.000002,-0.005273,-0.000000,0.006507,0.000179,0.200882,0.000279,0.195218,0.195217,0.172896,0.592246,0.000000,0.000000,0.000000,0.000000,0.000000,0.000000,0.000000,0.000000,0.000000,0.000000,0.000000,0.000000,0.194346,3,0
950000,-0.000183,24.356985,0.000820,-0.001593,25.618198,-0.064971,-0.000937,0.018079,1.571410,-0.048355,0.000016,-0.003534,-0.000002,-0.005372,-0.000000,0.001788,0.000189,0.097252,0.040279,0.195587,0.195586,0.172800,0.585606,0.000000,0.000000,0.000000,0.000000,0.000000,0.000000,0.000000,0.000000,0.000000,0.000000,0.000000,0.000000,0.094082,3,0
960000,-0.000193,24.615688,-0.000071,-0.001652,25.624985,-0.066154,-0.000943,0.018336,1.571425,-0.048837,0.000017,-0.003478,-0.000002,-0.005452,-0.000000,0.000952,0.000200,0.076422,-0.008003,0.195943,0.195942,0.172690,0.579064,0.000000,0.000000,0.000000,0.000000,0.000000,0.000000,0.000000,0.000000,0.000000,0.000000,0.000000,0.000000,0.073925,3,0
970000,-0.000203,24.873800,0.000818,-0.001718,25.630686,-0.064819,-0.000949,0.018548,1.571426,-0.049193,0.000019,-0.003868,-0.000003,-0.005511,-0.000000,0.000985,0.000210,0.056196,0.054229,0.196287,0.196286,0.172566,0.572622,0.000000,0.000000,0.000000,0.000000,0.000000,0.000000,0.000000,0.000000,0.000000,0.000000,0.000000,0.000000,0.054360,3,0
980000,-0.000213,25.132633,0.001914,-0.001680,25.637615,-0.063454,-0.000952,0.018819,1.571432,-0.049679,0.000021,-0.004312,-0.000003,-0.005594,-0.000000,0.001545,0.000220,0.076334,0.061149,0.196619,0.196618,0.172430,0.566280,0.000000,0.000000,0.000000,0.000000,0.000000,0.000000,0.000000,0.000000,0.000000,0.000000,0.000000,0.000000,0.073834,3,0
990000,-0.000223,25.394785,0.002154,-0.001783,25.650225,-0.063283,-0.000961,0.019400,1.571433,-0.050800,0.000023,-0.004542,-0.000003,-0.005788,-0.000000,0.005106,0.000231,0.175251,0.030958,0.196939,0.196938,0.172281,0.560040,0.000000,0.000000,0.000000,0.000000,0.000000,0.000000,0.000000,0.000000,0.000000,0.000000,0.000000,0.000000,0.169500,3,0
1000000,-0.000234,25.656296,0.000845,-0.001852,25.661530,-0.065331,-0.000970,0.019926,1.571440,-0.051775,0.000024,-0.004375,-0.000004,-0.005959,-0.000000,0.003787,0.000242,0.151520,-0.023071,0.197248,0.197246,0.172119,0.553902,0.000000,0.000000,0.000000,0.000000,0.000000,0.000000,0.000000,0.000000,0.000000,0.000000,0.000000,0.000000,0.146538,3,0
1010000,-0.000244,25.914547,0.000814,-0.001814,25.666897,-0.065358,-0.000982,0.020125,1.571440,-0.052090,0.000026,-0.004541,-0.000004,-0.006015,-0.000000,0.000465,0.000252,0.048927,0.022107,0.197546,0.197544,0.171946,0.547868,0.000000,0.000000,0.000000,0.000000,0.000000,0.000000,0.000000,0.000000,0.000000,0.000000,0.000000,0.000000,0.047318,3,0
1020000,-0.000254,26.177448,-0.000735,-0.001800,25.680374,-0.067439,-0.000981,0.020784,1.571451,-0.053309,0.000028,-0.004314,-0.000004,-0.006236,-0.000000,0.005862,0.000262,0.188200,-0.030835,0.197833,0.197831,0.171761,0.541938,0.000000,0.000000,0.000000,0.000000,0.000000,0.000000,0.000000,0.000000,0.000000,0.000000,0.000000,0.000000,0.181994,3,0
1030000,-0.000264,26.439684,-0.000886,-0.001890,25.692537,-0.067869,-0.000992,0.021368,1.571454,-0.054372,0.000030,-0.004461,-0.000005,-0.006432,-0.000000,0.004377,0.000273,0.163712,0.018885,0.198110,0.198107,0.171565,0.536113,0.000000,0.000000,0.000000,0.000000,0.000000,0.000000,0.000000,0.000000,0.000000,0.000000,0.000000,0.000000,0.158306,3,0
1040000,-0.000275,26.699945,-0.000837,-0.002018,25.701052,-0.068015,-0.000994,0.021739,1.571466,-0.055024,0.000033,-0.004662,-0.000005,-0.006553,-0.000000,0.001725,0.000284,0.100142,0.025972,0.198377,0.198374,0.171357,0.530393,0.000000,0.000000,0.000000,0.000000,0.000000,0.000000,0.000000,0.000000,0.000000,0.000000,0.000000,0.000000,0.096833,3,0
1050000,-0.000287,26.960896,-0.002210,-0.002162,25.710777,-0.069935,-0.000994,0.022182,1.571465,-0.055797,0.000035,-0.004482,-0.000005,-0.006700,-0.000000,0.002339,0.000296,0.118099,-0.023815,0.198635,0.198632,0.171139,0.524779,0.000000,0.000000,0.000000,0.000000,0.000000,0.000000,0.000000,0.000000,0.000000,0.000000,0.000000,0.000000,0.114190,3,0
1060000,-0.000298,27.219883,-0.002568,-0.002147,25.716978,-0.070402,-0.001004,0.022422,1.571475,-0.056162,0.000037,-0.004580,-0.000006,-0.006770,-0.000000,0.000527,0.000308,0.055841,0.012387,0.198883,0.198880,0.170911,0.519270,0.000000,0.000000,0.000000,0.000000,0.000000,0.000000,0.000000,0.000000,0.000000,0.000000,0.000000,0.000000,0.053992,3,0
1070000,-0.000310,27.483532,-0.002042,-0.002247,25.731239,-0.069716,-0.001012,0.023148,1.571490,-0.057438,0.000040,-0.004927,-0.000006,-0.007019,-0.000000,0.006398,0.000321,0.194368,0.043813,0.199124,0.199121,0.170673,0.513866,0.000000,0.000000,0.000000,0.000000,0.000000,0.000000,0.000000,0.000000,0.000000,0.000000,0.000000,0.000000,0.187920,3,0
1080000,-0.000322,27.745831,-0.001360,-0.002247,25.742880,-0.068837,-0.001029,0.023728,1.571505,-0.058419,0.000042,-0.005318,-0.000007,-0.007212,-0.000000,0.003980,0.000333,0.149246,0.049105,0.199356,0.199353,0.170426,0.508568,0.000000,0.000000,0.000000,0.000000,0.000000,0.000000,0.000000,0.000000,0.000000,0.000000,0.000000,0.000000,0.144289,3,0
1090000,-0.000334,28.005474,-0.000305,-0.002350,25.749739,-0.067643,-0.001038,0.024012,1.571517,-0.058851,0.000045,-0.005811,-0.000007,-0.007299,-0.000000,0.001318,0.000345,0.065739,0.061959,0.199581,0.199577,0.170170,0.503374,0.000000,0.000000,0.000000,0.000000,0.000000,0.000000,0.000000,0.000000,0.000000,0.000000,0.000000,0.000000,0.063556,3,0
1100000,-0.000346,28.268459,-0.001624,-0.002377,25.762386,-0.069635,-0.001051,0.024648,1.571531,-0.059934,0.000048,-0.005640,-0.000008,-0.007520,-0.000000,0.004404,0.000358,0.163849,-0.022086,0.199799,0.199795,0.169905,0.498284,0.000000,0.000000,0.000000,0.000000,0.000000,0.000000,0.000000,0.000000,0.000000,0.000000,0.000000,0.000000,0.158392,3,0
1110000,-0.000358,28.530758,-0.002749,-0.002483,25.773628,-0.071082,-0.001049,0.025219,1.571533,-0.060855,0.000050,-0.005528,-0.000008,-0.007710,-0.000000,0.003160,0.000371,0.139282,-0.014627,0.200010,0.200005,0.169632,0.493299,0.000000,0.000000,0.000000,0.000000,0.000000,0.000000,0.000000,0.000000,0.000000,0.000000,0.000000,0.000000,0.134638,3,0
1120000,-0.000371,28.791052,-0.003522,-0.002467,25.781296,-0.072290,-0.001055,0.025551,1.571537,-0.061356,0.000053,-0.005518,-0.000009,-0.007816,-0.000000,0.000923,0.000383,0.075659,-0.001682,0.200214,0.200210,0.169352,0.488417,0.000000,0.000000,0.000000,0.000000,0.000000,0.000000,0.000000,0.000000,0.000000,0.000000,0.000000,0.000000,0.073134,3,0
1130000,-0.000383,29.052021,-0.002829,-0.002595,25.789949,-0.071257,-0.001061,0.025946,1.571545,-0.061976,0.000056,-0.005934,-0.000010,-0.007947,-0.000000,0.001828,0.000397,0.093596,0.050705,0.200413,0.200408,0.169064,0.483638,0.000000,0.000000,0.000000,0.000000,0.000000,0.000000,0.000000,0.000000,0.000000,0.000000,0.000000,0.000000,0.090472,3,0
1140000,-0.000397,29.315651,-0.002503,-0.002686,25.803316,-0.070798,-0.001074,0.026654,1.571543,-0.063106,0.000059,-0.006249,-0.000010,-0.008191,-0.000000,0.004910,0.000411,0.170481,0.037513,0.200607,0.200602,0.168769,0.478961,0.000000,0.000000,0.000000,0.000000,0.000000,0.000000,0.000000,0.000000,0.000000,0.000000,0.000000,0.000000,0.164784,3,0
1150000,-0.000410,29.577246,-0.001442,-0.002692,25.812893,-0.069405,-0.001081,0.027118,1.571543,-0.063804,0.000063,-0.006778,-0.000011,-0.008343,-0.000000,0.002447,0.000424,0.105503,0.063523,0.200796,0.200790,0.168468,0.474384,0.000000,0.000000,0.000000,0.000000,0.000000,0.000000,0.000000,0.000000,0.000000,0.000000,0.000000,0.000000,0.101977,3,0
1160000,-0.000422,29.838831,-0.000839,-0.002716,25.822369,-0.068704,-0.001090,0.027578,1.571559,-0.064482,0.000066,-0.007173,-0.000012,-0.008494,-0.000000,0.002039,0.000437,0.102238,0.046851,0.200980,0.200974,0.168160,0.469909,0.000000,0.000000,0.000000,0.000000,0.000000,0.000000,0.000000,0.000000,0.000000,0.000000,0.000000,0.000000,0.098817,3,0
1170000,-0.000435,30.097742,-0.001668,-0.002789,25.827023,-0.070064,-0.001096,0.027712,1.571567,-0.064611,0.000069,-0.007135,-0.000012,-0.008523,-0.000000,0.000065,0.000451,0.019466,-0.004611,0.201161,0.201154,0.167847,0.465532,0.000000,0.000000,0.000000,0.000000,0.000000,0.000000,0.000000,0.000000,0.000000,0.000000,0.000000,0.000000,0.018819,3,0
1180000,-0.000448,30.358017,-0.002053,-0.002792,25.834066,-0.070459,-0.001099,0.028013,1.571578,-0.065001,0.000072,-0.007236,-0.000013,-0.008612,-0.000000,0.000577,0.000464,0.058695,0.011683,0.201337,0.201330,0.167528,0.461254,0.000000,0.000000,0.000000,0.000000,0.000000,0.000000,0.000000,0.000000,0.000000,0.000000,0.000000,0.000000,0.056728,3,0
1190000,-0.000461,30.620302,-0.001951,-0.002903,25.844517,-0.070289,-0.001115,0.028540,1.571587,-0.065773,0.000076,-0.007493,-0.000014,-0.008791,-0.000000,0.002324,0.000477,0.116411,0.029533,0.201511,0.201503,0.167205,0.457073,0.000000,0.000000,0.000000,0.000000,0.000000,0.000000,0.000000,0.000000,0.000000,0.000000,0.000000,0.000000,0.112504,3,0
1200000,-0.000474,30.881897,-0.003157,-0.002879,25.853617,-0.072148,-0.001130,0.028983,1.571589,-0.066388,0.000080,-0.007349,-0.000015,-0.008936,-0.000000,0.001430,0.000490,0.092567,-0.017458,0.201681,0.201673,0.166876,0.452988,0.000000,0.000000,0.000000,0.000000,0.000000,0.000000,0.000000,0.000000,0.000000,0.000000,0.000000,0.000000,0.089456,3,0
1210000,-0.000486,31.140800,-0.004127,-0.002842,25.857916,-0.073566,-0.001128,0.029084,1.571595,-0.066453,0.000083,-0.007276,-0.000015,-0.008952,-0.000000,0.000027,0.000503,0.009792,-0.008550,0.201849,0.201841,0.166544,0.448997,0.000000,0.000000,0.000000,0.000000,0.000000,0.000000,0.000000,0.000000,0.000000,0.000000,0.000000,0.000000,0.009475,3,0
1220000,-0.000497,31.401066,-0.003763,-0.002821,25.864544,-0.073283,-0.001125,0.029358,1.571600,-0.066777,0.000087,-0.007626,-0.000016,-0.009030,-0.000000,0.000650,0.000514,0.049028,0.040231,0.202015,0.202006,0.166208,0.445101,0.000000,0.000000,0.000000,0.000000,0.000000,0.000000,0.000000,0.000000,0.000000,0.000000,0.000000,0.000000,0.047383,3,0
1230000,-0.000509,31.664017,-0.004839,-0.002918,25.875675,-0.074559,-0.001136,0.029944,1.571601,-0.067615,0.000090,-0.007532,-0.000017,-0.009237,-0.000000,0.002605,0.000526,0.126640,-0.011792,0.202179,0.202170,0.165868,0.441296,0.000000,0.000000,0.000000,0.000000,0.000000,0.000000,0.000000,0.000000,0.000000,0.000000,0.000000,0.000000,0.122373,3,0
1240000,-0.000520,31.926920,-0.004437,-0.002936,25.886581,-0.073907,-0.001150,0.030531,1.571602,-0.068421,0.000094,-0.007908,-0.000018,-0.009437,-0.000000,0.002686,0.000538,0.122002,0.042198,0.202341,0.202332,0.165524,0.437581,0.000000,0.000000,0.000000,0.000000,0.000000,0.000000,0.000000,0.000000,0.000000,0.000000,0.000000,0.000000,0.117892,3,0
1250000,-0.000531,32.187099,-0.004109,-0.002905,25.892641,-0.073502,-0.001157,0.030773,1.571610,-0.068670,0.000098,-0.008256,-0.000019,-0.009499,-0.000000,0.000481,0.000549,0.037895,0.039241,0.202503,0.202492,0.165178,0.433957,0.000000,0.000000,0.000000,0.000000,0.000000,0.000000,0.000000,0.000000,0.000000,0.000000,0.000000,0.000000,0.036625,3,0
1260000,-0.000543,32.445934,-0.003116,-0.003052,25.896206,-0.072206,-0.001164,0.030821,1.571619,-0.068643,0.000102,-0.008815,-0.000020,-0.009491,-0.000000,0.000650,0.000562,-0.003674,0.063230,0.202664,0.202652,0.164830,0.430422,0.000000,0.000000,0.000000,0.000000,0.000000,0.000000,0.000000,0.000000,0.000000,0.000000,0.000000,0.000000,0.003585,3,0
1270000,-0.000555,32.708153,-0.002441,-0.003167,25.905781,-0.071599,-0.001170,0.031308,1.571620,-0.069268,0.000107,-0.009281,-0.000021,-0.009653,-0.000000,0.001895,0.000575,0.095276,0.051665,0.202824,0.202812,0.164479,0.426973,0.000000,0.000000,0.000000,0.000000,0.000000,0.000000,0.000000,0.000000,0.000000,0.000000,0.000000,0.000000,0.092062,3,0
1280000,-0.000567,32.970337,-0.002247,-0.003149,25.915041,-0.071277,-0.001174,0.031786,1.571629,-0.069867,0.000111,-0.009591,-0.000022,-0.009811,-0.000000,0.001531,0.000587,0.091389,0.033849,0.202983,0.202971,0.164126,0.423610,0.000000,0.000000,0.000000,0.000000,0.000000,0.000000,0.000000,0.000000,0.000000,0.000000,0.000000,0.000000,0.088301,3,0
1290000,-0.000578,33.231815,-0.002078,-0.003116,25.922937,-0.070976,-0.001173,0.032154,1.571638,-0.070309,0.000115,-0.009891,-0.000023,-0.009929,-0.000000,0.000912,0.000598,0.067657,0.032799,0.203143,0.203130,0.163772,0.420330,0.000000,0.000000,0.000000,0.000000,0.000000,0.000000,0.000000,0.000000,0.000000,0.000000,0.000000,0.000000,0.065371,3,0
1300000,-0.000589,33.491249,-0.002732,-0.003105,25.927128,-0.071680,-0.001184,0.032260,1.571651,-0.070341,0.000119,-0.009913,-0.000025,-0.009937,-0.000000,0.000005,0.000610,0.004887,0.002361,0.203303,0.203289,0.163416,0.417134,0.000000,0.000000,0.000000,0.000000,0.000000,0.000000,0.000000,0.000000,0.000000,0.000000,0.000000,0.000000,0.004759,3,0
1310000,-0.000599,33.749336,-0.001819,-0.003060,25.928930,-0.070566,-0.001189,0.032178,1.571664,-0.070105,0.000123,-0.010457,-0.000026,-0.009871,-0.000000,0.000796,0.000620,-0.035919,0.060212,0.203463,0.203449,0.163059,0.414019,0.000000,0.000000,0.000000,0.000000,0.000000,0.000000,0.000000,0.000000,0.000000,0.000000,0.000000,0.000000,0.034700,3,0
1320000,-0.000609,34.008808,-0.003058,-0.003116,25.933153,-0.072313,-0.001205,0.032272,1.571671,-0.070133,0.000127,-0.010282,-0.000027,-0.009879,-0.000000,0.000063,0.000630,0.004158,-0.019241,0.203624,0.203609,0.162701,0.410983,0.000000,0.000000,0.000000,0.000000,0.000000,0.000000,0.000000,0.000000,0.000000,0.000000,0.000000,0.000000,0.004063,3,0
1330000,-0.000620,34.268963,-0.004426,-0.003202,25.938551,-0.074168,-0.001204,0.032449,1.571682,-0.070282,0.000132,-0.010069,-0.000028,-0.009922,-0.000000,0.000174,0.000641,0.022953,-0.023385,0.203786,0.203770,0.162343,0.408026,0.000000,0.000000,0.000000,0.000000,0.000000,0.000000,0.000000,0.000000,0.000000,0.000000,0.000000,0.000000,0.022180,3,0
1340000,-0.000631,34.528435,-0.005992,-0.003344,25.942625,-0.076151,-0.001204,0.032538,1.571685,-0.070292,0.000136,-0.009790,-0.000029,-0.009926,-0.000000,0.000148,0.000653,0.001289,-0.030149,0.203949,0.203932,0.161985,0.405146,0.000000,0.000000,0.000000,0.000000,0.000000,0.000000,0.000000,0.000000,0.000000,0.000000,0.000000,0.000000,0.001395,3,0
1350000,-0.000643,34.789265,-0.007493,-0.003419,25.949083,-0.078112,-0.001213,0.032796,1.571699,-0.070550,0.000140,-0.009543,-0.000030,-0.010002,-0.000000,0.000375,0.000666,0.039959,-0.026939,0.204113,0.204095,0.161626,0.402341,0.000000,0.000000,0.000000,0.000000,0.000000,0.000000,0.000000,0.000000,0.000000,0.000000,0.000000,0.000000,0.038602,3,0
1360000,-0.000654,35.048717,-0.008059,-0.003382,25.952940,-0.078625,-0.001226,0.032871,1.571706,-0.070535,0.000144,-0.009621,-0.000032,-0.009997,-0.000000,0.000012,0.000678,-0.002266,0.008301,0.204278,0.204260,0.161268,0.399610,0.000000,0.000000,0.000000,0.000000,0.000000,0.000000,0.000000,0.000000,0.000000,0.000000,0.000000,0.000000,0.002285,3,0
1370000,-0.000665,35.310207,-0.008738,-0.003334,25.960340,-0.079684,-0.001224,0.033211,1.571713,-0.070895,0.000149,-0.009670,-0.000033,-0.010105,-0.000000,0.000514,0.000688,0.056301,0.004680,0.204445,0.204426,0.160910,0.396952,0.000000,0.000000,0.000000,0.000000,0.000000,0.000000,0.000000,0.000000,0.000000,0.000000,0.000000,0.000000,0.054386,3,0
1380000,-0.000675,35.571663,-0.009024,-0.003337,25.967594,-0.079950,-0.001221,0.033554,1.571721,-0.071233,0.000154,-0.009861,-0.000035,-0.010208,-0.000000,0.000518,0.000699,0.053169,0.019656,0.204613,0.204593,0.160552,0.394364,0.000000,0.000000,0.000000,0.000000,0.000000,0.000000,0.000000,0.000000,0.000000,0.000000,0.000000,0.000000,0.051362,3,0
1390000,-0.000684,35.832401,-0.008311,-0.003296,25.973509,-0.079011,-0.001229,0.033776,1.571718,-0.071422,0.000159,-0.010407,-0.000036,-0.010265,-0.000000,0.000676,0.000708,0.030186,0.057137,0.204783,0.204762,0.160196,0.391846,0.000000,0.000000,0.000000,0.000000,0.000000,0.000000,0.000000,0.000000,0.000000,0.000000,0.000000,0.000000,0.029171,3,0
1400000,-0.000694,36.095837,-0.007821,-0.003419,25.984129,-0.078492,-0.001224,0.034367,1.571717,-0.072098,0.000164,-0.010886,-0.000038,-0.010476,-0.000000,0.002244,0.000718,0.107327,0.048971,0.204955,0.204933,0.159841,0.389397,0.000000,0.000000,0.000000,0.000000,0.000000,0.000000,0.000000,0.000000,0.000000,0.000000,0.000000,0.000000,0.103671,3,0
1410000,-0.000704,36.357849,-0.007166,-0.003520,25.992231,-0.077783,-0.001229,0.034743,1.571717,-0.072488,0.000169,-0.011419,-0.000039,-0.010598,-0.000000,0.001117,0.000729,0.062454,0.054871,0.205128,0.205106,0.159486,0.387015,0.000000,0.000000,0.000000,0.000000,0.000000,0.000000,0.000000,0.000000,0.000000,0.000000,0.000000,0.000000,0.060330,3,0
1420000,-0.000715,36.618458,-0.006387,-0.003575,25.997599,-0.077008,-0.001230,0.034920,1.571716,-0.072604,0.000174,-0.011991,-0.000041,-0.010634,-0.000000,0.000627,0.000740,0.019028,0.059203,0.205304,0.205280,0.159134,0.384698,0.000000,0.000000,0.000000,0.000000,0.000000,0.000000,0.000000,0.000000,0.000000,0.000000,0.000000,0.000000,0.018397,3,0
1430000,-0.000726,36.876331,-0.007678,-0.003639,25.997990,-0.078664,-0.001240,0.034690,1.571715,-0.072215,0.000178,-0.011794,-0.000042,-0.010507,-0.000000,0.000696,0.000752,-0.062721,-0.019603,0.205481,0.205457,0.158782,0.382445,0.000000,0.000000,0.000000,0.000000,0.000000,0.000000,0.000000,0.000000,0.000000,0.000000,0.000000,0.000000,0.060582,3,0
1440000,-0.000737,37.138988,-0.007552,-0.003692,26.007042,-0.078549,-0.001240,0.035165,1.571727,-0.072690,0.000183,-0.012147,-0.000044,-0.010664,-0.000000,0.001157,0.000763,0.076977,0.035368,0.205660,0.205635,0.158433,0.380254,0.000000,0.000000,0.000000,0.000000,0.000000,0.000000,0.000000,0.000000,0.000000,0.000000,0.000000,0.000000,0.074348,3,0
1450000,-0.000748,37.399548,-0.008028,-0.003727,26.012186,-0.079031,-0.001243,0.035323,1.571738,-0.072770,0.000188,-0.012268,-0.000045,-0.010691,-0.000000,0.000051,0.000775,0.013020,0.012131,0.205842,0.205815,0.158085,0.378125,0.000000,0.000000,0.000000,0.000000,0.000000,0.000000,0.000000,0.000000,0.000000,0.000000,0.000000,0.000000,0.012595,3,0
1460000,-0.000760,37.661449,-0.008431,-0.003830,26.019585,-0.079733,-0.001245,0.035672,1.571752,-0.073079,0.000193,-0.012426,-0.000047,-0.010796,-0.000000,0.000451,0.000787,0.050591,0.015474,0.206025,0.205998,0.157740,0.376055,0.000000,0.000000,0.000000,0.000000,0.000000,0.000000,0.000000,0.000000,0.000000,0.000000,0.000000,0.000000,0.048861,3,0
1470000,-0.000771,37.921253,-0.008745,-0.003804,26.023115,-0.080087,-0.001248,0.035696,1.571766,-0.073001,0.000198,-0.012609,-0.000049,-0.010768,-0.000000,0.000082,0.000798,-0.012596,0.018716,0.206210,0.206182,0.157397,0.374043,0.000000,0.000000,0.000000,0.000000,0.000000,0.000000,0.000000,0.000000,0.000000,0.000000,0.000000,0.000000,0.012186,3,0
1480000,-0.000781,38.182407,-0.008381,-0.003787,26.029102,-0.079663,-0.001246,0.035905,1.571764,-0.073155,0.000203,-0.013059,-0.000051,-0.010821,-0.000000,0.000436,0.000809,0.025745,0.045022,0.206398,0.206368,0.157056,0.372089,0.000000,0.000000,0.000000,0.000000,0.000000,0.000000,0.000000,0.000000,0.000000,0.000000,0.000000,0.000000,0.024880,3,0
1490000,-0.000791,38.444206,-0.007653,-0.003775,26.036016,-0.078940,-0.001251,0.036216,1.571761,-0.073411,0.000209,-0.013653,-0.000053,-0.010910,0.000000,0.000862,0.000820,0.042839,0.059090,0.206587,0.206557,0.156718,0.370189,0.000000,0.000000,0.000000,0.000000,0.000000,0.000000,0.000000,0.000000,0.000000,0.000000,0.000000,0.000000,0.041382,3,0
1500000,-0.000801,38.702538,-0.007861,-0.003772,26.036697,-0.079247,-0.001249,0.035996,1.571772,-0.073051,0.000214,-0.013868,-0.000054,-0.010779,0.000000,0.000660,0.000829,-0.059994,0.022322,0.206779,0.206747,0.156382,0.368344,0.000000,0.000000,0.000000,0.000000,0.000000,0.000000,0.000000,0.000000,0.000000,0.000000,0.000000,0.000000,0.057928,3,0
1510000,-0.000810,38.964306,-0.007888,-0.003761,26.043550,-0.079313,-0.001250,0.036281,1.571771,-0.073284,0.000219,-0.014176,-0.000056,-0.010863,0.000000,0.000398,0.000839,0.039486,0.030065,0.206972,0.206939,0.156049,0.366551,0.000000,0.000000,0.000000,0.000000,0.000000,0.000000,0.000000,0.000000,0.000000,0.000000,0.000000,0.000000,0.038136,3,0
1520000,-0.000818,39.224648,-0.007325,-0.003716,26.047693,-0.078618,-0.001253,0.036334,1.571771,-0.073260,0.000224,-0.014707,-0.000058,-0.010852,0.000000,0.000452,0.000847,-0.003685,0.052620,0.207167,0.207133,0.155719,0.364811,0.000000,0.000000,0.000000,0.000000,0.000000,0.000000,0.000000,0.000000,0.000000,0.000000,0.000000,0.000000,0.003641,3,0
1530000,-0.000827,39.487724,-0.008362,-0.003786,26.056677,-0.079991,-0.001255,0.036828,1.571775,-0.073693,0.000229,-0.014629,-0.000060,-0.011017,0.000000,0.000891,0.000856,0.073875,-0.008790,0.207364,0.207329,0.155392,0.363119,0.000000,0.000000,0.000000,0.000000,0.000000,0.000000,0.000000,0.000000,0.000000,0.000000,0.000000,0.000000,0.071324,3,0
1540000,-0.000836,39.747978,-0.009084,-0.003903,26.060577,-0.081015,-0.001253,0.036858,1.571784,-0.073633,0.000234,-0.014662,-0.000062,-0.010994,0.000000,0.000019,0.000866,-0.010384,0.003387,0.207563,0.207526,0.155068,0.361478,0.000000,0.000000,0.000000,0.000000,0.000000,0.000000,0.000000,0.000000,0.000000,0.000000,0.000000,0.000000,0.010060,3,0
1550000,-0.000845,40.010948,-0.008721,-0.003894,26.069229,-0.080757,-0.001253,0.037314,1.571794,-0.074019,0.000240,-0.015148,-0.000064,-0.011143,0.000000,0.001078,0.000876,0.067265,0.046429,0.207763,0.207726,0.154747,0.359884,0.000000,0.000000,0.000000,0.000000,0.000000,0.000000,0.000000,0.000000,0.000000,0.000000,0.000000,0.000000,0.064951,3,0
1560000,-0.000855,40.271095,-0.008929,-0.003941,26.072758,-0.081122,-0.001254,0.037301,1.571805,-0.073921,0.000245,-0.015387,-0.000066,-0.011103,0.000000,0.000136,0.000885,-0.016884,0.023590,0.207965,0.207926,0.154430,0.358338,0.000000,0.000000,0.000000,0.000000,0.000000,0.000000,0.000000,0.000000,0.000000,0.000000,0.000000,0.000000,0.016315,3,0
1570000,-0.000865,40.531910,-0.009435,-0.004053,26.077343,-0.081854,-0.001265,0.037389,1.571812,-0.073928,0.000250,-0.015515,-0.000068,-0.011105,0.000000,0.000025,0.000896,0.001244,0.012336,0.208168,0.208128,0.154116,0.356835,0.000000,0.000000,0.000000,0.000000,0.000000,0.000000,0.000000,0.000000,0.000000,0.000000,0.000000,0.000000,0.001480,3,0
1580000,-0.000875,40.789230,-0.009390,-0.004142,26.075481,-0.081569,-0.001264,0.036924,1.571820,-0.073360,0.000255,-0.015842,-0.000070,-0.010871,0.000000,0.001807,0.000907,-0.100586,0.033198,0.208373,0.208332,0.153805,0.355377,0.000000,0.000000,0.000000,0.000000,0.000000,0.000000,0.000000,0.000000,0.000000,0.000000,0.000000,0.000000,0.097092,3,0
1590000,-0.000886,41.046558,-0.008648,-0.004255,26.073568,-0.080737,-0.001273,0.036447,1.571821,-0.072802,0.000260,-0.016454,-0.000072,-0.010636,0.000000,0.002185,0.000918,-0.099461,0.060473,0.208579,0.208536,0.153498,0.353960,0.000000,0.000000,0.000000,0.000000,0.000000,0.000000,0.000000,0.000000,0.000000,0.000000,0.000000,0.000000,0.095993,3,0
1600000,-0.000896,41.308762,-0.009670,-0.004233,26.080566,-0.081901,-0.001275,0.036767,1.571828,-0.073029,0.000266,-0.016380,-0.000075,-0.010732,0.000000,0.000278,0.000929,0.040806,-0.007702,0.208786,0.208742,0.153194,0.352585,0.000000,0.000000,0.000000,0.000000,0.000000,0.000000,0.000000,0.000000,0.000000,0.000000,0.000000,0.000000,0.039393,3,0
1610000,-0.000907,41.570210,-0.010838,-0.004250,26.086050,-0.083054,-0.001281,0.036950,1.571841,-0.073123,0.000271,-0.016245,-0.000077,-0.010773,0.000000,0.000076,0.000940,0.017082,-0.013234,0.208994,0.208949,0.152894,0.351249,0.000000,0.000000,0.000000,0.000000,0.000000,0.000000,0.000000,0.000000,0.000000,0.000000,0.000000,0.000000,0.016508,3,0
1620000,-0.000916,41.830894,-0.010054,-0.004225,26.090162,-0.082217,-0.001276,0.036996,1.571854,-0.073089,0.000276,-0.016916,-0.000079,-0.010754,0.000000,0.000668,0.000950,-0.005878,0.063856,0.209203,0.209157,0.152597,0.349954,0.000000,0.000000,0.000000,0.000000,0.000000,0.000000,0.000000,0.000000,0.000000,0.000000,0.000000,0.000000,0.005731,3,0
1630000,-0.000926,42.091545,-0.009630,-0.004260,26.094110,-0.081470,-0.001282,0.037030,1.571859,-0.073043,0.000282,-0.017436,-0.000082,-0.010731,0.000000,0.000405,0.000960,-0.008175,0.049282,0.209413,0.209366,0.152305,0.348697,0.000000,0.000000,0.000000,0.000000,0.000000,0.000000,0.000000,0.000000,0.000000,0.000000,0.000000,0.000000,0.007932,3,0
1640000,-0.000935,42.352856,-0.009717,-0.004225,26.099287,-0.081401,-0.001275,0.037177,1.571873,-0.073092,0.000287,-0.017747,-0.000084,-0.010752,0.000000,0.000153,0.000969,0.009438,0.029159,0.209624,0.209575,0.152016,0.347477,0.000000,0.000000,0.000000,0.000000,0.000000,0.000000,0.000000,0.000000,0.000000,0.000000,0.000000,0.000000,0.009161,3,0
1650000,-0.000944,42.612728,-0.010179,-0.004286,26.101709,-0.081941,-0.001282,0.037068,1.571889,-0.072916,0.000292,-0.017889,-0.000086,-0.010671,0.000000,0.000210,0.000978,-0.033257,0.013987,0.209836,0.209785,0.151731,0.346293,0.000000,0.000000,0.000000,0.000000,0.000000,0.000000,0.000000,0.000000,0.000000,0.000000,0.000000,0.000000,0.032103,3,0
1660000,-0.000954,42.874649,-0.009597,-0.004409,26.107826,-0.081142,-0.001280,0.037294,1.571900,-0.073044,0.000298,-0.018494,-0.000089,-0.010727,0.000000,0.000611,0.000989,0.024910,0.056089,0.210047,0.209996,0.151449,0.345143,0.000000,0.000000,0.000000,0.000000,0.000000,0.000000,0.000000,0.000000,0.000000,0.000000,0.000000,0.000000,0.024071,3,0
1670000,-0.000963,43.133739,-0.010674,-0.004392,26.108646,-0.082219,-0.001288,0.037042,1.571910,-0.072744,0.000303,-0.018367,-0.000091,-0.010586,0.000000,0.000563,0.000998,-0.058163,-0.010784,0.210260,0.210206,0.151172,0.344027,0.000000,0.000000,0.000000,0.000000,0.000000,0.000000,0.000000,0.000000,0.000000,0.000000,0.000000,0.000000,0.056138,3,0
1680000,-0.000973,43.394890,-0.010527,-0.004485,26.113232,-0.081963,-0.001281,0.037129,1.571914,-0.072747,0.000308,-0.018786,-0.000094,-0.010585,0.000000,0.000246,0.001009,0.000801,0.038902,0.210472,0.210417,0.150898,0.342943,0.000000,0.000000,0.000000,0.000000,0.000000,0.000000,0.000000,0.000000,0.000000,0.000000,0.000000,0.000000,0.001249,3,0
1690000,-0.000982,43.652500,-0.010396,-0.004440,26.111052,-0.081730,-0.001285,0.036604,1.571923,-0.072232,0.000313,-0.019166,-0.000096,-0.010333,0.000000,0.001876,0.001018,-0.101360,0.037166,0.210684,0.210628,0.150629,0.341889,0.000000,0.000000,0.000000,0.000000,0.000000,0.000000,0.000000,0.000000,0.000000,0.000000,0.000000,0.000000,0.097799,3,0
1700000,-0.000992,43.910126,-0.011628,-0.004528,26.108921,-0.083156,-0.001297,0.036100,1.571932,-0.071729,0.000318,-0.018958,-0.000099,-0.010085,0.000000,0.001673,0.001028,-0.100525,-0.017201,0.210896,0.210839,0.150363,0.340866,0.000000,0.000000,0.000000,0.000000,0.000000,0.000000,0.000000,0.000000,0.000000,0.000000,0.000000,0.000000,0.097001,3,0
1710000,-0.001002,44.169128,-0.010660,-0.004583,26.109308,-0.082011,-0.001309,0.035806,1.571947,-0.071431,0.000323,-0.019725,-0.000101,-0.009931,0.000000,0.001413,0.001039,-0.059944,0.071690,0.211108,0.211049,0.150102,0.339871,0.000000,0.000000,0.000000,0.000000,0.000000,0.000000,0.000000,0.000000,0.000000,0.000000,0.000000,0.000000,0.057824,3,0
