time_us,pos_x,pos_y,pos_z,vel_x,vel_y,vel_z,roll,pitch,yaw,bias_ax,bias_ay,bias_az,bias_gx,bias_gy,bias_gz,nis,innov_x,innov_y,innov_z,cov_pos_x,cov_pos_y,cov_pos_z,cov_yaw,des_speed,des_heading,des_climb,pid_speed,pid_yaw,pid_alt,speed_meas,yaw_meas,climb_meas,fwd_accel,yaw_rate,vert_accel,drift_m,nav_mode,mission_state
0,-0.000002,0.149998,-0.000000,-0.000307,24.999718,-0.000110,-0.000001,0.000000,1.570774,0.000000,0.000000,0.000000,0.000000,0.000000,0.000000,0.006250,0.000003,-0.250000,0.000001,2.400038,2.400038,3.600017,1.000518,0.000000,0.000000,0.000000,0.000000,0.000000,0.000000,0.000000,0.000000,0.000000,0.000000,0.000000,0.000000,0.149998,1,0
10000,-0.000006,0.342503,0.006201,-0.000679,24.999228,-0.000060,0.000007,0.000005,1.570764,0.000001,0.000000,-0.000000,0.000000,0.000000,0.000000,0.004848,0.000009,-0.201205,0.016538,1.714420,1.714420,2.250079,1.001073,0.000000,0.000000,0.000000,0.000000,0.000000,0.000000,0.000000,0.000000,0.000000,0.000000,0.000000,0.000000,0.143713,3,0
20000,-0.000013,0.562425,0.019574,-0.001035,24.998699,-0.000131,0.000005,0.000000,1.570747,0.000002,0.000000,-0.000000,-0.000000,0.000000,-0.000000,0.002664,0.000017,-0.135278,0.049038,1.333616,1.333616,1.636554,1.001655,0.000000,0.000000,0.000000,0.000000,0.000000,0.000000,0.000000,0.000000,0.000000,0.000000,0.000000,0.000000,0.105210,3,0
30000,-0.000021,0.787577,0.028204,-0.001288,24.998121,0.000097,0.000011,-0.000005,1.570728,0.000004,0.000000,-0.000001,-0.000000,0.000000,-0.000000,0.002754,0.000026,-0.136528,0.040263,1.091392,1.091392,1.286065,1.002257,0.000000,0.000000,0.000000,0.000000,0.000000,0.000000,0.000000,0.000000,0.000000,0.000000,0.000000,0.000000,0.111694,3,0
40000,-0.000031,1.027782,0.020763,-0.001616,24.997757,-0.000120,0.000022,-0.000014,1.570718,0.000006,0.000000,0.000000,0.000000,0.000000,-0.000000,0.000812,0.000037,-0.063491,-0.042143,0.923811,0.923811,1.059385,1.002869,0.000000,0.000000,0.000000,0.000000,0.000000,0.000000,0.000000,0.000000,0.000000,0.000000,0.000000,0.000000,0.053715,3,0
50000,-0.000044,1.266408,0.029245,-0.001926,24.997232,0.000243,0.000020,-0.000020,1.570698,0.000010,0.000000,-0.000002,-0.000000,0.000000,-0.000000,0.001496,0.000051,-0.085024,0.056498,0.801036,0.801036,0.900822,1.003484,0.000000,0.000000,0.000000,0.000000,0.000000,0.000000,0.000000,0.000000,0.000000,0.000000,0.000000,0.000000,0.073673,3,0
60000,-0.000058,1.518064,0.031850,-0.002205,24.997166,0.000156,0.000017,-0.000016,1.570689,0.000009,0.000000,-0.000003,-0.000000,0.000000,-0.000000,0.000088,0.000066,0.014298,0.019934,0.707270,0.707270,0.783741,1.004094,0.000000,0.000000,0.000000,0.000000,0.000000,0.000000,0.000000,0.000000,0.000000,0.000000,0.000000,0.000000,0.012613,3,0
70000,-0.000074,1.761865,0.036447,-0.002457,24.996716,0.000289,0.000011,-0.000011,1.570670,0.000013,0.000000,-0.000006,-0.000000,0.000000,-0.000000,0.000742,0.000083,-0.058448,0.039753,0.633370,0.633370,0.693801,1.004688,0.000000,0.000000,0.000000,0.000000,0.000000,0.000000,0.000000,0.000000,0.000000,0.000000,0.000000,0.000000,0.052278,3,0
80000,-0.000092,2.011443,0.037785,-0.002751,24.996555,0.000261,0.000023,-0.000016,1.570646,0.000014,0.000000,-0.000008,-0.000000,0.000000,-0.000000,0.000027,0.000102,-0.004061,0.012880,0.573673,0.573673,0.622594,1.005260,0.000000,0.000000,0.000000,0.000000,0.000000,0.000000,0.000000,0.000000,0.000000,0.000000,0.000000,0.000000,0.003674,3,0
90000,-0.000113,2.256614,0.036711,-0.003157,24.996094,0.000048,0.000035,-0.000015,1.570631,0.000021,0.000000,-0.000006,-0.000000,0.000000,-0.000000,0.000477,0.000123,-0.054849,-0.011418,0.524488,0.524488,0.564865,1.005801,0.000000,0.000000,0.000000,0.000000,0.000000,0.000000,0.000000,0.000000,0.000000,0.000000,0.000000,0.000000,0.050054,3,0
100000,-0.000136,2.501623,0.039082,-0.003563,24.995413,0.000281,0.000036,-0.000010,1.570610,0.000030,0.000000,-0.000010,-0.000000,0.000000,-0.000000,0.000694,0.000148,-0.061467,0.027501,0.483304,0.483304,0.517162,1.006301,0.000000,0.000000,0.000000,0.000000,0.000000,0.000000,0.000000,0.000000,0.000000,0.000000,0.000000,0.000000,0.056516,3,0
110000,-0.000162,2.749472,0.042357,-0.003892,24.995119,0.000689,0.000037,-0.000015,1.570596,0.000036,0.000000,-0.000018,-0.000000,0.000000,-0.000000,0.000382,0.000175,-0.028166,0.041146,0.448354,0.448354,0.477121,1.006754,0.000000,0.000000,0.000000,0.000000,0.000000,0.000000,0.000000,0.000000,0.000000,0.000000,0.000000,0.000000,0.026061,3,0
120000,-0.000190,2.999582,0.042350,-0.004202,24.995001,0.000627,0.000037,-0.000013,1.570573,0.000035,0.000000,-0.000018,-0.000000,0.000000,-0.000000,0.000001,0.000204,0.002294,-0.000184,0.418359,0.418359,0.443071,1.007150,0.000000,0.000000,0.000000,0.000000,0.000000,0.000000,0.000000,0.000000,0.000000,0.000000,0.000000,0.000000,0.002143,3,0
130000,-0.000219,3.248924,0.044018,-0.004470,24.994722,0.000958,0.000046,-0.000012,1.570548,0.000038,0.000000,-0.000024,-0.000000,0.000000,-0.000000,0.000103,0.000235,-0.009267,0.024098,0.392369,0.392369,0.413797,1.007481,0.000000,0.000000,0.000000,0.000000,0.000000,0.000000,0.000000,0.000000,0.000000,0.000000,0.000000,0.000000,0.008664,3,0
140000,-0.000250,3.500084,0.041641,-0.004735,24.994879,0.000470,0.000046,-0.000008,1.570536,0.000032,0.000000,-0.000013,-0.000000,0.000000,-0.000000,0.000273,0.000267,0.019698,-0.036873,0.369666,0.369666,0.388393,1.007739,0.000000,0.000000,0.000000,0.000000,0.000000,0.000000,0.000000,0.000000,0.000000,0.000000,0.000000,0.000000,0.018486,3,0
150000,-0.000283,3.755079,0.043567,-0.005065,24.995995,0.000708,0.000048,-0.000006,1.570523,0.000003,0.000000,-0.000024,-0.000000,-0.000000,0.000000,0.001332,0.000301,0.086599,0.031506,0.349695,0.349695,0.366172,1.007915,0.000000,0.000000,0.000000,0.000000,0.000000,0.000000,0.000000,0.000000,0.000000,0.000000,0.000000,0.000000,0.081552,3,0
160000,-0.000318,4.011120,0.042037,-0.005308,24.997536,0.000123,0.000057,0.000003,1.570509,-0.000039,0.000001,-0.000014,-0.000000,-0.000001,0.000000,0.002012,0.000337,0.109898,-0.026555,0.332021,0.332021,0.346600,1.008002,0.000000,0.000000,0.000000,0.000000,0.000000,0.000000,0.000000,0.000000,0.000000,0.000000,0.000000,0.000000,0.103817,3,0
170000,-0.000356,4.263869,0.044193,-0.005727,24.998343,0.000541,0.000056,0.000004,1.570501,-0.000062,0.000001,-0.000030,-0.000000,-0.000002,0.000000,0.000680,0.000375,0.052629,0.039279,0.316297,0.316297,0.329260,1.007991,0.000000,0.000000,0.000000,0.000000,0.000000,0.000000,0.000000,0.000000,0.000000,0.000000,0.000000,0.000000,0.049856,3,0
180000,-0.000395,4.514787,0.045350,-0.006056,24.998665,0.000889,0.000066,0.000013,1.570480,-0.000071,0.000001,-0.000040,-0.000000,-0.000002,0.000000,0.000131,0.000416,0.018540,0.022022,0.302246,0.302246,0.313817,1.007875,0.000000,0.000000,0.000000,0.000000,0.000000,0.000000,0.000000,0.000000,0.000000,0.000000,0.000000,0.000000,0.017610,3,0
190000,-0.000437,4.767949,0.045139,-0.006350,24.999645,0.000870,0.000061,0.000024,1.570469,-0.000105,0.000001,-0.000038,-0.000000,-0.000003,0.000000,0.000690,0.000459,0.065804,-0.004401,0.289641,0.289641,0.300003,1.007645,0.000000,0.000000,0.000000,0.000000,0.000000,0.000000,0.000000,0.000000,0.000000,0.000000,0.000000,0.000000,0.062629,3,0
200000,-0.000481,5.019397,0.043941,-0.006755,25.000170,0.000555,0.000072,0.000034,1.570452,-0.000124,0.000001,-0.000024,-0.000000,-0.000003,0.000000,0.000256,0.000504,0.031300,-0.025195,0.278295,0.278295,0.287598,1.007295,0.000000,0.000000,0.000000,0.000000,0.000000,0.000000,0.000000,0.000000,0.000000,0.000000,0.000000,0.000000,0.029851,3,0
210000,-0.000527,5.271996,0.044201,-0.007095,25.001152,0.000693,0.000076,0.000054,1.570434,-0.000161,0.000002,-0.000027,-0.000000,-0.000005,0.000000,0.000543,0.000552,0.058152,0.005497,0.268054,0.268054,0.276421,1.006816,0.000000,0.000000,0.000000,0.000000,0.000000,0.000000,0.000000,0.000000,0.000000,0.000000,0.000000,0.000000,0.055556,3,0
220000,-0.000576,5.525624,0.045583,-0.007410,25.002861,0.001293,0.000070,0.000080,1.570411,-0.000219,0.000002,-0.000048,-0.000000,-0.000006,0.000000,0.001274,0.000601,0.083847,0.030981,0.258787,0.258787,0.266321,1.006202,0.000000,0.000000,0.000000,0.000000,0.000000,0.000000,0.000000,0.000000,0.000000,0.000000,0.000000,0.000000,0.080232,3,0
230000,-0.000626,5.776861,0.046173,-0.007744,25.003370,0.001372,0.000083,0.000081,1.570389,-0.000241,0.000003,-0.000059,-0.000000,-0.000007,0.000000,0.000163,0.000653,0.028992,0.013508,0.250386,0.250386,0.257172,1.005446,0.000000,0.000000,0.000000,0.000000,0.000000,0.000000,0.000000,0.000000,0.000000,0.000000,0.000000,0.000000,0.027789,3,0
240000,-0.000677,6.033988,0.043856,-0.008000,25.007093,0.000009,0.000090,0.000134,1.570374,-0.000386,0.000003,-0.000013,-0.000000,-0.000012,0.000000,0.005420,0.000706,0.175328,-0.056145,0.242756,0.242756,0.248866,1.004541,0.000000,0.000000,0.000000,0.000000,0.000000,0.000000,0.000000,0.000000,0.000000,0.000000,0.000000,0.000000,0.168236,3,0
250000,-0.000732,6.290998,0.043742,-0.008403,25.010937,-0.000046,0.000100,0.000183,1.570354,-0.000544,0.000004,-0.000010,-0.000000,-0.000017,0.000000,0.004994,0.000762,0.176590,-0.002823,0.235819,0.235819,0.241314,1.003481,0.000000,0.000000,0.000000,0.000000,0.000000,0.000000,0.000000,0.000000,0.000000,0.000000,0.000000,0.000000,0.169652,3,0
260000,-0.000788,6.543352,0.044807,-0.008780,25.012337,0.000530,0.000106,0.000206,1.570333,-0.000600,0.000005,-0.000036,-0.000000,-0.000020,0.000000,0.000671,0.000820,0.058693,0.027262,0.229505,0.229505,0.234436,1.002258,0.000000,0.000000,0.000000,0.000000,0.000000,0.000000,0.000000,0.000000,0.000000,0.000000,0.000000,0.000000,0.056453,3,0
270000,-0.000848,6.800339,0.044499,-0.009190,25.016853,0.000278,0.000103,0.000255,1.570322,-0.000790,0.000006,-0.000028,-0.000000,-0.000027,0.000000,0.005445,0.000880,0.184024,-0.008214,0.223755,0.223755,0.228165,1.000869,0.000000,0.000000,0.000000,0.000000,0.000000,0.000000,0.000000,0.000000,0.000000,0.000000,0.000000,0.000000,0.177163,3,0
280000,-0.000908,7.052916,0.045266,-0.009456,25.018444,0.000875,0.000115,0.000271,1.570307,-0.000863,0.000007,-0.000050,-0.000000,-0.000030,0.000000,0.000771,0.000942,0.066145,0.020567,0.218517,0.218517,0.222443,0.999307,0.000000,0.000000,0.000000,0.000000,0.000000,0.000000,0.000000,0.000000,0.000000,0.000000,0.000000,0.000000,0.063743,3,0
290000,-0.000970,7.307788,0.043403,-0.009795,25.021776,-0.000402,0.000112,0.000323,1.570290,-0.001018,0.000008,0.000010,-0.000000,-0.000036,0.000000,0.003213,0.001006,0.131616,-0.051676,0.213746,0.213746,0.217219,0.997567,0.000000,0.000000,0.000000,0.000000,0.000000,0.000000,0.000000,0.000000,0.000000,0.000000,0.000000,0.000000,0.126931,3,0
300000,-0.001035,7.560641,0.044232,-0.010136,25.023848,0.000110,0.000111,0.000359,1.570282,-0.001113,0.000009,-0.000019,-0.000000,-0.000040,0.000000,0.001006,0.001072,0.075498,0.023538,0.209400,0.209400,0.212446,0.995645,0.000000,0.000000,0.000000,0.000000,0.000000,0.000000,0.000000,0.000000,0.000000,0.000000,0.000000,0.000000,0.072870,3,0
310000,-0.001101,7.814336,0.045032,-0.010488,25.026686,0.000579,0.000118,0.000392,1.570273,-0.001247,0.000011,-0.000050,-0.000000,-0.000046,0.000000,0.001726,0.001140,0.100929,0.023082,0.205445,0.205445,0.208087,0.993536,0.000000,0.000000,0.000000,0.000000,0.000000,0.000000,0.000000,0.000000,0.000000,0.000000,0.000000,0.000000,0.097479,3,0
320000,-0.001169,8.071500,0.043775,-0.010861,25.032446,-0.000517,0.000127,0.000488,1.570262,-0.001538,0.000012,0.000002,-0.000000,-0.000059,0.000000,0.006992,0.001210,0.205028,-0.037100,0.201850,0.201850,0.204105,0.991237,0.000000,0.000000,0.000000,0.000000,0.000000,0.000000,0.000000,0.000000,0.000000,0.000000,0.000000,0.000000,0.198133,3,0
330000,-0.001239,8.325361,0.043616,-0.011151,25.035664,-0.000748,0.000132,0.000536,1.570247,-0.001698,0.000014,0.000009,-0.000001,-0.000067,0.000000,0.001843,0.001281,0.106835,-0.004556,0.198584,0.198584,0.200469,0.988743,0.000000,0.000000,0.000000,0.000000,0.000000,0.000000,0.000000,0.000000,0.000000,0.000000,0.000000,0.000000,0.103307,3,0
340000,-0.001310,8.579998,0.042111,-0.011538,25.039675,-0.002242,0.000137,0.000611,1.570228,-0.001905,0.000016,0.000080,-0.000001,-0.000077,0.000000,0.003112,0.001354,0.131247,-0.045524,0.195624,0.195624,0.197151,0.986053,0.000000,0.000000,0.000000,0.000000,0.000000,0.000000,0.000000,0.000000,0.000000,0.000000,0.000000,0.000000,0.126974,3,0
350000,-0.001383,8.834736,0.040577,-0.011824,25.043816,-0.003546,0.000146,0.000684,1.570221,-0.002130,0.000018,0.000158,-0.000001,-0.000089,0.000000,0.003292,0.001429,0.134996,-0.046720,0.192947,0.192947,0.194125,0.983164,0.000000,0.000000,0.000000,0.000000,0.000000,0.000000,0.000000,0.000000,0.000000,0.000000,0.000000,0.000000,0.130663,3,0
360000,-0.001456,9.092733,0.039010,-0.012037,25.051485,-0.004809,0.000146,0.000810,1.570209,-0.002548,0.000021,0.000242,-0.000001,-0.000110,0.000000,0.009517,0.001504,0.238037,-0.048077,0.190530,0.190530,0.191370,0.980073,0.000000,0.000000,0.000000,0.000000,0.000000,0.000000,0.000000,0.000000,0.000000,0.000000,0.000000,0.000000,0.230483,3,0
370000,-0.001529,9.350733,0.039602,-0.012240,25.059368,-0.004432,0.000149,0.000957,1.570200,-0.002988,0.000024,0.000204,-0.000001,-0.000134,0.000000,0.009242,0.001579,0.238388,0.020394,0.188357,0.188357,0.188863,0.976779,0.000000,0.000000,0.000000,0.000000,0.000000,0.000000,0.000000,0.000000,0.000000,0.000000,0.000000,0.000000,0.230910,3,0
380000,-0.001603,9.605040,0.039295,-0.012475,25.063488,-0.004825,0.000153,0.001024,1.570187,-0.003219,0.000027,0.000220,-0.000001,-0.000147,0.000001,0.002316,0.001655,0.119463,-0.008379,0.186408,0.186408,0.186586,0.973282,0.000000,0.000000,0.000000,0.000000,0.000000,0.000000,0.000000,0.000000,0.000000,0.000000,0.000000,0.000000,0.115762,3,0
390000,-0.001677,9.859477,0.040156,-0.012652,25.067732,-0.004101,0.000156,0.001116,1.570160,-0.003469,0.000030,0.000161,-0.000001,-0.000161,0.000001,0.002608,0.001730,0.123542,0.029610,0.184669,0.184669,0.184522,0.969580,0.000000,0.000000,0.000000,0.000000,0.000000,0.000000,0.000000,0.000000,0.000000,0.000000,0.000000,0.000000,0.119751,3,0
400000,-0.001751,10.113440,0.040458,-0.012857,25.071556,-0.003657,0.000167,0.001200,1.570148,-0.003697,0.000034,0.000137,-0.000002,-0.000174,0.000001,0.001892,0.001806,0.107608,0.011256,0.183125,0.183125,0.182656,0.965675,0.000000,0.000000,0.000000,0.000000,0.000000,0.000000,0.000000,0.000000,0.000000,0.000000,0.000000,0.000000,0.104338,3,0
410000,-0.001826,10.367551,0.039775,-0.013132,25.075733,-0.004257,0.000167,0.001283,1.570139,-0.003944,0.000038,0.000184,-0.000002,-0.000189,0.000001,0.002104,0.001883,0.112033,-0.021488,0.181762,0.181762,0.180971,0.961566,0.000000,0.000000,0.000000,0.000000,0.000000,0.000000,0.000000,0.000000,0.000000,0.000000,0.000000,0.000000,0.108654,3,0
420000,-0.001901,10.623604,0.040898,-0.013295,25.082218,-0.002838,0.000163,0.001422,1.570120,-0.004349,0.000043,0.000095,-0.000002,-0.000214,0.000001,0.005250,0.001960,0.175942,0.038940,0.180569,0.180569,0.179456,0.957254,0.000000,0.000000,0.000000,0.000000,0.000000,0.000000,0.000000,0.000000,0.000000,0.000000,0.000000,0.000000,0.170658,3,0
430000,-0.001976,10.877976,0.040160,-0.013479,25.086706,-0.003711,0.000171,0.001517,1.570106,-0.004634,0.000047,0.000152,-0.000002,-0.000231,0.000001,0.002368,0.002036,0.118614,-0.023877,0.179532,0.179532,0.178097,0.952743,0.000000,0.000000,0.000000,0.000000,0.000000,0.000000,0.000000,0.000000,0.000000,0.000000,0.000000,0.000000,0.115082,3,0
440000,-0.002051,11.133088,0.041145,-0.013791,25.092350,-0.002575,0.000185,0.001644,1.570092,-0.004989,0.000053,0.000065,-0.000003,-0.000254,0.000001,0.003479,0.002114,0.142500,0.034693,0.178642,0.178643,0.176883,0.948032,0.000000,0.000000,0.000000,0.000000,0.000000,0.000000,0.000000,0.000000,0.000000,0.000000,0.000000,0.000000,0.138272,3,0
450000,-0.002127,11.389514,0.040523,-0.013986,25.099787,-0.003307,0.000188,0.001806,1.570083,-0.005470,0.000058,0.000118,-0.000003,-0.000286,0.000001,0.005634,0.002192,0.185515,-0.020342,0.177889,0.177889,0.175803,0.943126,0.000000,0.000000,0.000000,0.000000,0.000000,0.000000,0.000000,0.000000,0.000000,0.000000,0.000000,0.000000,0.180028,3,0
460000,-0.002204,11.644876,0.039387,-0.014320,25.105736,-0.004796,0.000193,0.001947,1.570061,-0.005867,0.000064,0.000220,-0.000004,-0.000313,0.000001,0.003760,0.002271,0.147684,-0.037826,0.177263,0.177263,0.174847,0.938027,0.000000,0.000000,0.000000,0.000000,0.000000,0.000000,0.000000,0.000000,0.000000,0.000000,0.000000,0.000000,0.143338,3,0
470000,-0.002281,11.901546,0.040082,-0.014512,25.113581,-0.004036,0.000196,0.002124,1.570047,-0.006397,0.000071,0.000148,-0.000004,-0.000350,0.000001,0.005974,0.002350,0.190444,0.025675,0.176754,0.176755,0.174006,0.932739,0.000000,0.000000,0.000000,0.000000,0.000000,0.000000,0.000000,0.000000,0.000000,0.000000,0.000000,0.000000,0.184848,3,0
480000,-0.002357,12.155994,0.040205,-0.014661,25.118427,-0.003932,0.000199,0.002228,1.570029,-0.006721,0.000077,0.000131,-0.000004,-0.000373,0.000001,0.002058,0.002428,0.112607,0.005709,0.176356,0.176356,0.173271,0.927265,0.000000,0.000000,0.000000,0.000000,0.000000,0.000000,0.000000,0.000000,0.000000,0.000000,0.000000,0.000000,0.109322,3,0
490000,-0.002433,12.411767,0.039149,-0.014808,25.125187,-0.005408,0.000195,0.002399,1.570002,-0.007187,0.000085,0.000237,-0.000005,-0.000406,0.000001,0.004154,0.002506,0.156294,-0.035290,0.176059,0.176059,0.172634,0.921612,0.000000,0.000000,0.000000,0.000000,0.000000,0.000000,0.000000,0.000000,0.000000,0.000000,0.000000,0.000000,0.151727,3,0
500000,-0.002508,12.667678,0.040051,-0.014963,25.132141,-0.004231,0.000199,0.002566,1.569985,-0.007675,0.000093,0.000134,-0.000006,-0.000443,0.000002,0.004265,0.002583,0.158879,0.033371,0.175857,0.175857,0.172087,0.915783,0.000000,0.000000,0.000000,0.000000,0.000000,0.000000,0.000000,0.000000,0.000000,0.000000,0.000000,0.000000,0.154243,3,0
510000,-0.002582,12.924892,0.040095,-0.015118,25.141121,-0.004124,0.000205,0.002783,1.569958,-0.008313,0.000101,0.000124,-0.000006,-0.000491,0.000002,0.006544,0.002660,0.201083,0.002998,0.175742,0.175742,0.171622,0.909783,0.000000,0.000000,0.000000,0.000000,0.000000,0.000000,0.000000,0.000000,0.000000,0.000000,0.000000,0.000000,0.195210,3,0
520000,-0.002656,13.181647,0.040685,-0.015304,25.149437,-0.003417,0.000214,0.002994,1.569947,-0.008909,0.000109,0.000051,-0.000007,-0.000537,0.000002,0.005459,0.002736,0.182324,0.022163,0.175708,0.175708,0.171234,0.903619,0.000000,0.000000,0.000000,0.000000,0.000000,0.000000,0.000000,0.000000,0.000000,0.000000,0.000000,0.000000,0.177005,3,0
530000,-0.002730,13.439695,0.039465,-0.015449,25.159544,-0.005100,0.000223,0.003265,1.569934,-0.009662,0.000119,0.000192,-0.000008,-0.000597,0.000002,0.008375,0.002812,0.223671,-0.041600,0.175748,0.175749,0.170914,0.897297,0.000000,0.000000,0.000000,0.000000,0.000000,0.000000,0.000000,0.000000,0.000000,0.000000,0.000000,0.000000,0.217136,3,0
540000,-0.002803,13.697276,0.038100,-0.015650,25.169041,-0.006930,0.000228,0.003527,1.569921,-0.010368,0.000128,0.000353,-0.000008,-0.000654,0.000002,0.007084,0.002887,0.204068,-0.046185,0.175857,0.175857,0.170658,0.890824,0.000000,0.000000,0.000000,0.000000,0.000000,0.000000,0.000000,0.000000,0.000000,0.000000,0.000000,0.000000,0.198107,3,0
550000,-0.002876,13.953229,0.039162,-0.015907,25.176006,-0.005253,0.000238,0.003718,1.569908,-0.010885,0.000139,0.000210,-0.000009,-0.000696,0.000002,0.003668,0.002963,0.145182,0.039790,0.176029,0.176029,0.170460,0.884204,0.000000,0.000000,0.000000,0.000000,0.000000,0.000000,0.000000,0.000000,0.000000,0.000000,0.000000,0.000000,0.140952,3,0
560000,-0.002950,14.209328,0.038236,-0.016158,25.183125,-0.006445,0.000243,0.003913,1.569887,-0.011424,0.000150,0.000323,-0.000010,-0.000742,0.000003,0.003679,0.003039,0.147585,-0.030783,0.176257,0.176257,0.170314,0.877447,0.000000,0.000000,0.000000,0.000000,0.000000,0.000000,0.000000,0.000000,0.000000,0.000000,0.000000,0.000000,0.143280,3,0
570000,-0.003023,14.467326,0.036727,-0.016280,25.193272,-0.008374,0.000250,0.004200,1.569869,-0.012209,0.000161,0.000516,-0.000011,-0.000809,0.000003,0.007520,0.003114,0.209477,-0.050966,0.176538,0.176538,0.170214,0.870559,0.000000,0.000000,0.000000,0.000000,0.000000,0.000000,0.000000,0.000000,0.000000,0.000000,0.000000,0.000000,0.203336,3,0
580000,-0.003095,14.724276,0.035388,-0.016446,25.201694,-0.010196,0.000260,0.004444,1.569860,-0.012862,0.000173,0.000689,-0.000012,-0.000867,0.000003,0.004996,0.003189,0.170046,-0.044238,0.176867,0.176867,0.170157,0.863548,0.000000,0.000000,0.000000,0.000000,0.000000,0.000000,0.000000,0.000000,0.000000,0.000000,0.000000,0.000000,0.165062,3,0
590000,-0.003166,14.981360,0.034352,-0.016616,25.210279,-0.011592,0.000259,0.004696,1.569844,-0.013536,0.000186,0.000820,-0.000013,-0.000927,0.000003,0.004931,0.003263,0.171438,-0.032945,0.177238,0.177238,0.170138,0.856421,0.000000,0.000000,0.000000,0.000000,0.000000,0.000000,0.000000,0.000000,0.000000,0.000000,0.000000,0.000000,0.166404,3,0
600000,-0.003237,15.237404,0.034956,-0.016735,25.217154,-0.010514,0.000266,0.004899,1.569817,-0.014072,0.000199,0.000716,-0.000014,-0.000976,0.000003,0.002964,0.003335,0.132935,0.025383,0.177647,0.177647,0.170152,0.849185,0.000000,0.000000,0.000000,0.000000,0.000000,0.000000,0.000000,0.000000,0.000000,0.000000,0.000000,0.000000,0.129039,3,0
610000,-0.003306,15.497136,0.036212,-0.016945,25.230145,-0.008459,0.000268,0.005285,1.569799,-0.015119,0.000213,0.000514,-0.000016,-0.001073,0.000004,0.010850,0.003408,0.254520,0.047949,0.178091,0.178091,0.170195,0.841850,0.000000,0.000000,0.000000,0.000000,0.000000,0.000000,0.000000,0.000000,0.000000,0.000000,0.000000,0.000000,0.246988,3,0
620000,-0.003376,15.754017,0.035974,-0.017163,25.238276,-0.008799,0.000267,0.005526,1.569786,-0.015766,0.000227,0.000537,-0.000017,-0.001134,0.000004,0.003826,0.003480,0.153689,-0.005356,0.178565,0.178565,0.170264,0.834423,0.000000,0.000000,0.000000,0.000000,0.000000,0.000000,0.000000,0.000000,0.000000,0.000000,0.000000,0.000000,0.149154,3,0
630000,-0.003444,16.014004,0.035349,-0.017235,25.251534,-0.009638,0.000279,0.005945,1.569775,-0.016859,0.000242,0.000619,-0.000019,-0.001240,0.000004,0.010536,0.003550,0.254545,-0.018890,0.179065,0.179066,0.170355,0.826913,0.000000,0.000000,0.000000,0.000000,0.000000,0.000000,0.000000,0.000000,0.000000,0.000000,0.000000,0.000000,0.246972,3,0
640000,-0.003512,16.271120,0.036076,-0.017459,25.259975,-0.008474,0.000295,0.006201,1.569752,-0.017531,0.000257,0.000488,-0.000020,-0.001306,0.000004,0.003946,0.003621,0.153458,0.029007,0.179589,0.179589,0.170465,0.819326,0.000000,0.000000,0.000000,0.000000,0.000000,0.000000,0.000000,0.000000,0.000000,0.000000,0.000000,0.000000,0.148906,3,0
650000,-0.003580,16.531355,0.034687,-0.017598,25.273592,-0.010508,0.000305,0.006638,1.569723,-0.018667,0.000273,0.000698,-0.000022,-0.001420,0.000005,0.010779,0.003690,0.254078,-0.045844,0.180133,0.180133,0.170591,0.811672,0.000000,0.000000,0.000000,0.000000,0.000000,0.000000,0.000000,0.000000,0.000000,0.000000,0.000000,0.000000,0.246476,3,0
660000,-0.003645,16.792290,0.034898,-0.017645,25.288130,-0.010083,0.000319,0.007111,1.569711,-0.019905,0.000290,0.000645,-0.000023,-0.001546,0.000005,0.011983,0.003758,0.272013,0.011117,0.180693,0.180693,0.170729,0.803958,0.000000,0.000000,0.000000,0.000000,0.000000,0.000000,0.000000,0.000000,0.000000,0.000000,0.000000,0.000000,0.263846,3,0
670000,-0.003709,17.053917,0.035612,-0.017762,25.303789,-0.008790,0.000319,0.007641,1.569697,-0.021246,0.000307,0.000507,-0.000025,-0.001685,0.000006,0.013656,0.003824,0.289236,0.028575,0.181267,0.181267,0.170877,0.796193,0.000000,0.000000,0.000000,0.000000,0.000000,0.000000,0.000000,0.000000,0.000000,0.000000,0.000000,0.000000,0.280523,3,0
680000,-0.003772,17.313217,0.035103,-0.017905,25.315283,-0.009465,0.000329,0.008039,1.569673,-0.022219,0.000325,0.000578,-0.000027,-0.001788,0.000006,0.006920,0.003890,0.206362,-0.014728,0.181852,0.181852,0.171033,0.788384,0.000000,0.000000,0.000000,0.000000,0.000000,0.000000,0.000000,0.000000,0.000000,0.000000,0.000000,0.000000,0.200143,3,0
690000,-0.003834,17.571415,0.034283,-0.017985,25.324827,-0.010787,0.000332,0.008354,1.569657,-0.023014,0.000344,0.000703,-0.000029,-0.001874,0.000006,0.004539,0.003954,0.165613,-0.025325,0.182446,0.182446,0.171193,0.780541,0.000000,0.000000,0.000000,0.000000,0.000000,0.000000,0.000000,0.000000,0.000000,0.000000,0.000000,0.000000,0.160624,3,0
700000,-0.003894,17.832155,0.033490,-0.018080,25.338581,-0.011920,0.000343,0.008837,1.569645,-0.024210,0.000363,0.000824,-0.000031,-0.002005,0.000007,0.009815,0.004017,0.245262,-0.023970,0.183046,0.183046,0.171357,0.772669,0.000000,0.000000,0.000000,0.000000,0.000000,0.000000,0.000000,0.000000,0.000000,0.000000,0.000000,0.000000,0.237812,3,0
710000,-0.003954,18.092983,0.033395,-0.018222,25.352516,-0.012047,0.000346,0.009320,1.569614,-0.025413,0.000382,0.000818,-0.000033,-0.002139,0.000007,0.009528,0.004079,0.242809,0.000935,0.183649,0.183650,0.171522,0.764777,0.000000,0.000000,0.000000,0.000000,0.000000,0.000000,0.000000,0.000000,0.000000,0.000000,0.000000,0.000000,0.235411,3,0
720000,-0.004012,18.350235,0.034643,-0.018312,25.360041,-0.009919,0.000348,0.009586,1.569594,-0.026021,0.000403,0.000567,-0.000036,-0.002208,0.000008,0.002737,0.004139,0.120993,0.047791,0.184255,0.184255,0.171685,0.756873,0.000000,0.000000,0.000000,0.000000,0.000000,0.000000,0.000000,0.000000,0.000000,0.000000,0.000000,0.000000,0.117346,3,0
730000,-0.004069,18.608833,0.034263,-0.018426,25.369900,-0.010510,0.000353,0.009944,1.569568,-0.026847,0.000424,0.000618,-0.000038,-0.002304,0.000008,0.004250,0.004198,0.161848,-0.009756,0.184861,0.184861,0.171846,0.748964,0.000000,0.000000,0.000000,0.000000,0.000000,0.000000,0.000000,0.000000,0.000000,0.000000,0.000000,0.000000,0.156915,3,0
740000,-0.004125,18.866922,0.034384,-0.018509,25.378677,-0.010374,0.000373,0.010256,1.569544,-0.027580,0.000445,0.000574,-0.000041,-0.002390,0.000008,0.003256,0.004256,0.141701,0.007976,0.185465,0.185465,0.172003,0.741056,0.000000,0.000000,0.000000,0.000000,0.000000,0.000000,0.000000,0.000000,0.000000,0.000000,0.000000,0.000000,0.137383,3,0
750000,-0.004178,19.129438,0.034170,-0.018488,25.395102,-0.010542,0.000382,0.010869,1.569529,-0.029054,0.000467,0.000593,-0.000043,-0.002566,0.000009,0.012766,0.004312,0.281099,-0.003828,0.186065,0.186066,0.172154,0.733158,0.000000,0.000000,0.000000,0.000000,0.000000,0.000000,0.000000,0.000000,0.000000,0.000000,0.000000,0.000000,0.272415,3,0
760000,-0.004230,19.388304,0.034256,-0.018542,25.404903,-0.010125,0.000387,0.011236,1.569519,-0.029891,0.000490,0.000555,-0.000046,-0.002667,0.000009,0.004020,0.004366,0.157574,0.006641,0.186661,0.186662,0.172299,0.725275,0.000000,0.000000,0.000000,0.000000,0.000000,0.000000,0.000000,0.000000,0.000000,0.000000,0.000000,0.000000,0.152730,3,0
770000,-0.004281,19.647888,0.032885,-0.018580,25.415876,-0.012148,0.000404,0.011647,1.569499,-0.030843,0.000513,0.000804,-0.000049,-0.002785,0.000009,0.005372,0.004418,0.176912,-0.044118,0.187251,0.187251,0.172435,0.717414,0.000000,0.000000,0.000000,0.000000,0.000000,0.000000,0.000000,0.000000,0.000000,0.000000,0.000000,0.000000,0.171444,3,0
780000,-0.004328,19.908182,0.034078,-0.018551,25.427958,-0.010079,0.000424,0.012105,1.569476,-0.031907,0.000537,0.000539,-0.000052,-0.002919,0.000010,0.006513,0.004469,0.195522,0.045672,0.187834,0.187834,0.172562,0.709582,0.000000,0.000000,0.000000,0.000000,0.000000,0.000000,0.000000,0.000000,0.000000,0.000000,0.000000,0.000000,0.189451,3,0
790000,-0.004375,20.166058,0.033862,-0.018589,25.435732,-0.010277,0.000443,0.012400,1.569460,-0.032535,0.000562,0.000561,-0.000055,-0.002999,0.000010,0.002104,0.004517,0.114017,-0.003977,0.188408,0.188408,0.172680,0.701784,0.000000,0.000000,0.000000,0.000000,0.000000,0.000000,0.000000,0.000000,0.000000,0.000000,0.000000,0.000000,0.110524,3,0
800000,-0.004419,20.427792,0.033650,-0.018554,25.450117,-0.010563,0.000462,0.012965,1.569440,-0.033837,0.000586,0.000581,-0.000058,-0.003168,0.000011,0.008826,0.004563,0.233765,-0.003729,0.188973,0.188973,0.172786,0.694026,0.000000,0.000000,0.000000,0.000000,0.000000,0.000000,0.000000,0.000000,0.000000,0.000000,0.000000,0.000000,0.226445,3,0
810000,-0.004461,20.689583,0.034460,-0.018514,25.464504,-0.009393,0.000466,0.013545,1.569426,-0.035133,0.000611,0.000388,-0.000062,-0.003339,0.000011,0.008729,0.004607,0.230310,0.031875,0.189528,0.189528,0.172881,0.686314,0.000000,0.000000,0.000000,0.000000,0.000000,0.000000,0.000000,0.000000,0.000000,0.000000,0.000000,0.000000,0.223080,3,0
820000,-0.004501,20.948910,0.034934,-0.018501,25.474295,-0.008705,0.000490,0.013931,1.569409,-0.035970,0.000637,0.000266,-0.000065,-0.003451,0.000012,0.003568,0.004649,0.147285,0.019786,0.190072,0.190072,0.172964,0.678653,0.000000,0.000000,0.000000,0.000000,0.000000,0.000000,0.000000,0.000000,0.000000,0.000000,0.000000,0.000000,0.142691,3,0
830000,-0.004540,21.208317,0.034940,-0.018489,25.484224,-0.008564,0.000496,0.014325,1.569380,-0.036809,0.000664,0.000244,-0.000069,-0.003566,0.000012,0.003459,0.004689,0.146286,0.003254,0.190604,0.190604,0.173034,0.671048,0.000000,0.000000,0.000000,0.000000,0.000000,0.000000,0.000000,0.000000,0.000000,0.000000,0.000000,0.000000,0.141712,3,0
840000,-0.004577,21.469069,0.035458,-0.018496,25.496323,-0.007921,0.000517,0.014827,1.569352,-0.037881,0.000690,0.000110,-0.000073,-0.003714,0.000013,0.005596,0.004728,0.184963,0.021055,0.191124,0.191125,0.173091,0.663503,0.000000,0.000000,0.000000,0.000000,0.000000,0.000000,0.000000,0.000000,0.000000,0.000000,0.000000,0.000000,0.179130,3,0
850000,-0.004612,21.730513,0.034775,-0.018474,25.509466,-0.008925,0.000528,0.015387,1.569322,-0.039064,0.000718,0.000240,-0.000077,-0.003881,0.000013,0.006683,0.004764,0.202396,-0.020842,0.191632,0.191633,0.173135,0.656024,0.000000,0.000000,0.000000,0.000000,0.000000,0.000000,0.000000,0.000000,0.000000,0.000000,0.000000,0.000000,0.195987,3,0
860000,-0.004646,21.992643,0.034162,-0.018461,25.523630,-0.009853,0.000551,0.015999,1.569304,-0.040357,0.000745,0.000352,-0.000081,-0.004066,0.000014,0.007803,0.004799,0.219124,-0.018033,0.192128,0.192128,0.173165,0.648614,0.000000,0.000000,0.000000,0.000000,0.000000,0.000000,0.000000,0.000000,0.000000,0.000000,0.000000,0.000000,0.212158,3,0
870000,-0.004678,22.252256,0.032826,-0.018373,25.533180,-0.011711,0.000575,0.016386,1.569286,-0.041164,0.000774,0.000627,-0.000085,-0.004183,0.000014,0.003274,0.004832,0.135761,-0.042852,0.192610,0.192610,0.173181,0.641277,0.000000,0.000000,0.000000,0.000000,0.000000,0.000000,0.000000,0.000000,0.000000,0.000000,0.000000,0.000000,0.131486,3,0
880000,-0.004708,22.513855,0.032903,-0.018359,25.546190,-0.011518,0.000592,0.016944,1.569267,-0.042327,0.000802,0.000580,-0.000089,-0.004355,0.000015,0.006089,0.004864,0.194115,0.006811,0.193078,0.193078,0.173183,0.634017,0.000000,0.000000,0.000000,0.000000,0.000000,0.000000,0.000000,0.000000,0.000000,0.000000,0.000000,0.000000,0.187927,3,0
890000,-0.004736,22.776133,0.032205,-0.018384,25.560217,-0.012284,0.000601,0.017567,1.569238,-0.043599,0.000831,0.000710,-0.000093,-0.004546,0.000015,0.007229,0.004894,0.210691,-0.020143,0.193534,0.193534,0.173170,0.626837,0.000000,0.000000,0.000000,0.000000,0.000000,0.000000,0.000000,0.000000,0.000000,0.000000,0.000000,0.000000,0.203951,3,0
900000,-0.004765,23.036510,0.030867,-0.018430,25.570633,-0.014155,0.000625,0.018007,1.569210,-0.044494,0.000860,0.000989,-0.000097,-0.004682,0.000016,0.003778,0.004924,0.147060,-0.042023,0.193976,0.193976,0.173144,0.619741,0.000000,0.000000,0.000000,0.000000,0.000000,0.000000,0.000000,0.000000,0.000000,0.000000,0.000000,0.000000,0.142385,3,0
910000,-0.004792,23.296936,0.030944,-0.018438,25.581083,-0.013806,0.000641,0.018452,1.569191,-0.045381,0.000890,0.000935,-0.000102,-0.004820,0.000016,0.003404,0.004952,0.145004,0.007609,0.194404,0.194404,0.173103,0.612731,0.000000,0.000000,0.000000,0.000000,0.000000,0.000000,0.000000,0.000000,0.000000,0.000000,0.000000,0.000000,0.140388,3,0
920000,-0.004817,23.557407,0.032063,-0.018452,25.591417,-0.011904,0.000661,0.018905,1.569166,-0.046260,0.000920,0.000634,-0.000107,-0.004958,0.000017,0.003604,0.004979,0.142899,0.043579,0.194819,0.194819,0.173048,0.605811,0.000000,0.000000,0.000000,0.000000,0.000000,0.000000,0.000000,0.000000,0.000000,0.000000,0.000000,0.000000,0.138344,3,0
930000,-0.004842,23.820511,0.031027,-0.018438,25.606256,-0.013426,0.000674,0.019583,1.569149,-0.047626,0.000950,0.000848,-0.000112,-0.005176,0.000017,0.007989,0.005004,0.220268,-0.031626,0.195221,0.195221,0.172979,0.598982,0.000000,0.000000,0.000000,0.000000,0.000000,0.000000,0.000000,0.000000,0.000000,0.000000,0.000000,0.000000,0.213155,3,0
940000,-0.004863,24.080379,0.032058,-0.018332,25.615307,-0.011932,0.000699,0.019966,1.569137,-0.048348,0.000981,0.000563,-0.000117,-0.005293,0.000018,0.002442,0.005028,0.116043,0.040562,0.195610,0.195609,0.172896,0.592247,0.000000,0.000000,0.000000,0.000000,0.000000,0.000000,0.000000,0.000000,0.000000,0.000000,0.000000,0.000000,0.112366,3,0
950000,-0.004884,24.342894,0.032790,-0.018323,25.628744,-0.010937,0.000711,0.020597,1.569123,-0.049564,0.001011,0.000350,-0.000122,-0.005493,0.000019,0.006216,0.005049,0.194027,0.029709,0.195985,0.195985,0.172800,0.585607,0.000000,0.000000,0.000000,0.000000,0.000000,0.000000,0.000000,0.000000,0.000000,0.000000,0.000000,0.000000,0.187752,3,0
960000,-0.004904,24.604118,0.031348,-0.018216,25.639893,-0.012981,0.000727,0.021100,1.569102,-0.050510,0.001043,0.000674,-0.000127,-0.005651,0.000019,0.003978,0.005069,0.150043,-0.046159,0.196348,0.196348,0.172689,0.579066,0.000000,0.000000,0.000000,0.000000,0.000000,0.000000,0.000000,0.000000,0.000000,0.000000,0.000000,0.000000,0.145215,3,0
970000,-0.004922,24.864714,0.032070,-0.018210,25.649788,-0.011831,0.000742,0.021544,1.569086,-0.051315,0.001074,0.000458,-0.000133,-0.005788,0.000020,0.002757,0.005089,0.127256,0.029687,0.196699,0.196698,0.172566,0.572623,0.000000,0.000000,0.000000,0.000000,0.000000,0.000000,0.000000,0.000000,0.000000,0.000000,0.000000,0.000000,0.123183,3,0
980000,-0.004939,25.124687,0.032732,-0.018197,25.658419,-0.010979,0.000769,0.021922,1.569067,-0.051982,0.001106,0.000258,-0.000138,-0.005902,0.000020,0.001906,0.005107,0.105106,0.027312,0.197037,0.197036,0.172430,0.566281,0.000000,0.000000,0.000000,0.000000,0.000000,0.000000,0.000000,0.000000,0.000000,0.000000,0.000000,0.000000,0.101776,3,0
990000,-0.004955,25.383394,0.031706,-0.018162,25.664793,-0.012430,0.000798,0.022174,1.569058,-0.052390,0.001139,0.000488,-0.000144,-0.005974,0.000020,0.000822,0.005123,0.063715,-0.031803,0.197363,0.197362,0.172281,0.560041,0.000000,0.000000,0.000000,0.000000,0.000000,0.000000,0.000000,0.000000,0.000000,0.000000,0.000000,0.000000,0.061818,3,0
1000000,-0.004971,25.645430,0.032022,-0.018210,25.676893,-0.012037,0.000813,0.022747,1.569029,-0.053433,0.001171,0.000370,-0.000150,-0.006159,0.000021,0.004313,0.005140,0.162766,0.015507,0.197678,0.197677,0.172119,0.553904,0.000000,0.000000,0.000000,0.000000,0.000000,0.000000,0.000000,0.000000,0.000000,0.000000,0.000000,0.000000,0.157482,3,0
1010000,-0.004986,25.906818,0.031283,-0.018199,25.687613,-0.012927,0.000830,0.023251,1.569003,-0.054329,0.001204,0.000525,-0.000156,-0.006321,0.000021,0.003200,0.005156,0.139156,-0.021476,0.197982,0.197981,0.171946,0.547870,0.000000,0.000000,0.000000,0.000000,0.000000,0.000000,0.000000,0.000000,0.000000,0.000000,0.000000,0.000000,0.134656,3,0
1020000,-0.005000,26.169533,0.029987,-0.018148,25.700506,-0.014727,0.000851,0.023888,1.568991,-0.055466,0.001236,0.000823,-0.000161,-0.006529,0.000022,0.005254,0.005170,0.175844,-0.040553,0.198275,0.198273,0.171761,0.541940,0.000000,0.000000,0.000000,0.000000,0.000000,0.000000,0.000000,0.000000,0.000000,0.000000,0.000000,0.000000,0.170106,3,0
1030000,-0.005013,26.432898,0.028640,-0.018065,25.714466,-0.016609,0.000875,0.024588,1.568960,-0.056706,0.001269,0.001133,-0.000167,-0.006760,0.000023,0.006184,0.005184,0.191303,-0.041727,0.198557,0.198556,0.171564,0.536116,0.000000,0.000000,0.000000,0.000000,0.000000,0.000000,0.000000,0.000000,0.000000,0.000000,0.000000,0.000000,0.185039,3,0
1040000,-0.005023,26.694923,0.029646,-0.018002,25.725939,-0.015081,0.000894,0.025137,1.568949,-0.057657,0.001302,0.000814,-0.000174,-0.006939,0.000023,0.003736,0.005196,0.146465,0.041208,0.198830,0.198829,0.171357,0.530396,0.000000,0.000000,0.000000,0.000000,0.000000,0.000000,0.000000,0.000000,0.000000,0.000000,0.000000,0.000000,0.141702,3,0
1050000,-0.005032,26.956949,0.030471,-0.017889,25.737249,-0.013737,0.000912,0.025681,1.568930,-0.058586,0.001335,0.000545,-0.000180,-0.007117,0.000024,0.003479,0.005205,0.142748,0.034344,0.199094,0.199092,0.171139,0.524782,0.000000,0.000000,0.000000,0.000000,0.000000,0.000000,0.000000,0.000000,0.000000,0.000000,0.000000,0.000000,0.138104,3,0
1060000,-0.005039,27.217651,0.031285,-0.017790,25.746161,-0.012449,0.000938,0.026099,1.568918,-0.059234,0.001368,0.000282,-0.000187,-0.007242,0.000024,0.001774,0.005213,0.099276,0.033507,0.199348,0.199346,0.170911,0.519273,0.000000,0.000000,0.000000,0.000000,0.000000,0.000000,0.000000,0.000000,0.000000,0.000000,0.000000,0.000000,0.096110,3,0
1070000,-0.005044,27.478367,0.032585,-0.017622,25.755009,-0.010586,0.000963,0.026501,1.568907,-0.059867,0.001402,-0.000113,-0.000194,-0.007367,0.000025,0.001926,0.005218,0.096912,0.050202,0.199594,0.199592,0.170673,0.513870,0.000000,0.000000,0.000000,0.000000,0.000000,0.000000,0.000000,0.000000,0.000000,0.000000,0.000000,0.000000,0.093827,3,0
1080000,-0.005050,27.739098,0.031230,-0.017642,25.763617,-0.012252,0.000982,0.026912,1.568898,-0.060489,0.001436,0.000228,-0.000200,-0.007491,0.000025,0.001756,0.005223,0.094534,-0.043911,0.199832,0.199829,0.170426,0.508571,0.000000,0.000000,0.000000,0.000000,0.000000,0.000000,0.000000,0.000000,0.000000,0.000000,0.000000,0.000000,0.091524,3,0
1090000,-0.005054,28.001829,0.030417,-0.017482,25.775761,-0.013180,0.001010,0.027537,1.568871,-0.061487,0.001469,0.000413,-0.000207,-0.007694,0.000026,0.003810,0.005228,0.151777,-0.024157,0.200062,0.200059,0.170170,0.503378,0.000000,0.000000,0.000000,0.000000,0.000000,0.000000,0.000000,0.000000,0.000000,0.000000,0.000000,0.000000,0.146802,3,0
1100000,-0.005057,28.262547,0.030141,-0.017497,25.784100,-0.013438,0.001035,0.027940,1.568848,-0.062064,0.001503,0.000449,-0.000214,-0.007813,0.000026,0.001248,0.005232,0.087715,-0.004975,0.200285,0.200282,0.169905,0.498289,0.000000,0.000000,0.000000,0.000000,0.000000,0.000000,0.000000,0.000000,0.000000,0.000000,0.000000,0.000000,0.084938,3,0
1110000,-0.005059,28.523272,0.029692,-0.017367,25.792446,-0.013939,0.001065,0.028333,1.568825,-0.062627,0.001537,0.000533,-0.000221,-0.007931,0.000027,0.001197,0.005234,0.085340,-0.011000,0.200501,0.200498,0.169632,0.493304,0.000000,0.000000,0.000000,0.000000,0.000000,0.000000,0.000000,0.000000,0.000000,0.000000,0.000000,0.000000,0.082644,3,0
1120000,-0.005060,28.786001,0.028983,-0.017215,25.804253,-0.014686,0.001080,0.028948,1.568813,-0.063569,0.001571,0.000688,-0.000228,-0.008131,0.000027,0.003345,0.005235,0.142593,-0.019994,0.200711,0.200708,0.169352,0.488423,0.000000,0.000000,0.000000,0.000000,0.000000,0.000000,0.000000,0.000000,0.000000,0.000000,0.000000,0.000000,0.137916,3,0
1130000,-0.005058,29.046041,0.029011,-0.017063,25.811111,-0.014539,0.001104,0.029248,1.568800,-0.063956,0.001605,0.000634,-0.000236,-0.008214,0.000028,0.000565,0.005233,0.058657,0.006329,0.200916,0.200911,0.169064,0.483644,0.000000,0.000000,0.000000,0.000000,0.000000,0.000000,0.000000,0.000000,0.000000,0.000000,0.000000,0.000000,0.056917,3,0
1140000,-0.005056,29.308764,0.028694,-0.016967,25.822670,-0.015080,0.001122,0.029853,1.568781,-0.064859,0.001639,0.000674,-0.000243,-0.008412,0.000028,0.003011,0.005231,0.136488,-0.005802,0.201115,0.201110,0.168769,0.478968,0.000000,0.000000,0.000000,0.000000,0.000000,0.000000,0.000000,0.000000,0.000000,0.000000,0.000000,0.000000,0.132009,3,0
1150000,-0.005053,29.569458,0.027468,-0.016925,25.830494,-0.016787,0.001152,0.030211,1.568757,-0.065339,0.001673,0.000985,-0.000251,-0.008519,0.000029,0.001084,0.005228,0.072437,-0.038065,0.201309,0.201303,0.168468,0.474392,0.000000,0.000000,0.000000,0.000000,0.000000,0.000000,0.000000,0.000000,0.000000,0.000000,0.000000,0.000000,0.070188,3,0
1160000,-0.005050,29.829483,0.027181,-0.016892,25.836941,-0.017261,0.001177,0.030480,1.568748,-0.065671,0.001708,0.001016,-0.000258,-0.008593,0.000029,0.000413,0.005225,0.050215,-0.004060,0.201498,0.201492,0.168160,0.469917,0.000000,0.000000,0.000000,0.000000,0.000000,0.000000,0.000000,0.000000,0.000000,0.000000,0.000000,0.000000,0.048791,3,0
1170000,-0.005045,30.088852,0.026768,-0.016796,25.842299,-0.017707,0.001194,0.030677,1.568740,-0.065861,0.001742,0.001085,-0.000266,-0.008637,0.000029,0.000148,0.005221,0.028667,-0.008484,0.201683,0.201677,0.167847,0.465541,0.000000,0.000000,0.000000,0.000000,0.000000,0.000000,0.000000,0.000000,0.000000,0.000000,0.000000,0.000000,0.028160,3,0
1180000,-0.005040,30.350916,0.027019,-0.016716,25.852196,-0.017448,0.001215,0.031196,1.568719,-0.066570,0.001776,0.000947,-0.000274,-0.008801,0.000030,0.001894,0.005216,0.107187,0.015642,0.201864,0.201857,0.167528,0.461263,0.000000,0.000000,0.000000,0.000000,0.000000,0.000000,0.000000,0.000000,0.000000,0.000000,0.000000,0.000000,0.103705,3,0
1190000,-0.005033,30.613626,0.027922,-0.016586,25.863270,-0.016177,0.001242,0.031771,1.568705,-0.067383,0.001809,0.000609,-0.000282,-0.008992,0.000030,0.002700,0.005209,0.123329,0.038961,0.202042,0.202035,0.167205,0.457082,0.000000,0.000000,0.000000,0.000000,0.000000,0.000000,0.000000,0.000000,0.000000,0.000000,0.000000,0.000000,0.119285,3,0
1200000,-0.005025,30.874292,0.028042,-0.016417,25.870464,-0.015990,0.001267,0.032106,1.568681,-0.067775,0.001843,0.000518,-0.000290,-0.009085,0.000031,0.000588,0.005200,0.059299,0.010308,0.202216,0.202209,0.166876,0.452997,0.000000,0.000000,0.000000,0.000000,0.000000,0.000000,0.000000,0.000000,0.000000,0.000000,0.000000,0.000000,0.057522,3,0
1210000,-0.005014,31.133612,0.029120,-0.016242,25.875216,-0.014415,0.001286,0.032271,1.568661,-0.067887,0.001877,0.000133,-0.000299,-0.009111,0.000031,0.000375,0.005190,0.017229,0.044653,0.202388,0.202381,0.166544,0.449007,0.000000,0.000000,0.000000,0.000000,0.000000,0.000000,0.000000,0.000000,0.000000,0.000000,0.000000,0.000000,0.017390,3,0
1220000,-0.005004,31.396311,0.027857,-0.016092,25.885965,-0.016051,0.001318,0.032840,1.568648,-0.068652,0.001911,0.000471,-0.000307,-0.009299,0.000031,0.002419,0.005178,0.115679,-0.040075,0.202558,0.202550,0.166208,0.445111,0.000000,0.000000,0.000000,0.000000,0.000000,0.000000,0.000000,0.000000,0.000000,0.000000,0.000000,0.000000,0.111883,3,0
1230000,-0.004992,31.658295,0.028751,-0.016009,25.895313,-0.014735,0.001335,0.033312,1.568624,-0.069252,0.001944,0.000132,-0.000316,-0.009448,0.000032,0.001589,0.005167,0.091421,0.038360,0.202726,0.202717,0.165868,0.441307,0.000000,0.000000,0.000000,0.000000,0.000000,0.000000,0.000000,0.000000,0.000000,0.000000,0.000000,0.000000,0.088476,3,0
1240000,-0.004979,31.921598,0.028293,-0.015832,25.906822,-0.015326,0.001361,0.033942,1.568602,-0.070092,0.001977,0.000217,-0.000324,-0.009661,0.000033,0.002642,0.005153,0.127525,-0.010881,0.202893,0.202883,0.165525,0.437594,0.000000,0.000000,0.000000,0.000000,0.000000,0.000000,0.000000,0.000000,0.000000,0.000000,0.000000,0.000000,0.123313,3,0
1250000,-0.004966,32.183506,0.028277,-0.015754,25.915703,-0.015291,0.001394,0.034398,1.568590,-0.070636,0.002010,0.000165,-0.000332,-0.009800,0.000033,0.001112,0.005140,0.082775,0.005275,0.203058,0.203048,0.165178,0.433971,0.000000,0.000000,0.000000,0.000000,0.000000,0.000000,0.000000,0.000000,0.000000,0.000000,0.000000,0.000000,0.080129,3,0
1260000,-0.004951,32.444038,0.028427,-0.015592,25.922127,-0.014863,0.001420,0.034663,1.568566,-0.070894,0.002043,0.000063,-0.000341,-0.009867,0.000033,0.000275,0.005125,0.039448,0.011109,0.203222,0.203211,0.164830,0.430436,0.000000,0.000000,0.000000,0.000000,0.000000,0.000000,0.000000,0.000000,0.000000,0.000000,0.000000,0.000000,0.038433,3,0
1270000,-0.004935,32.706585,0.027993,-0.015388,25.931973,-0.015277,0.001450,0.035173,1.568543,-0.071529,0.002076,0.000146,-0.000350,-0.010034,0.000034,0.001533,0.005108,0.096912,-0.010139,0.203386,0.203374,0.164479,0.426988,0.000000,0.000000,0.000000,0.000000,0.000000,0.000000,0.000000,0.000000,0.000000,0.000000,0.000000,0.000000,0.093758,3,0
1280000,-0.004917,32.970440,0.028114,-0.015203,25.944096,-0.015262,0.001482,0.035856,1.568527,-0.072393,0.002108,0.000040,-0.000359,-0.010266,0.000035,0.002847,0.005090,0.132450,0.010526,0.203549,0.203537,0.164126,0.423626,0.000000,0.000000,0.000000,0.000000,0.000000,0.000000,0.000000,0.000000,0.000000,0.000000,0.000000,0.000000,0.128051,3,0
1290000,-0.004898,33.231525,0.029436,-0.015046,25.951197,-0.013619,0.001502,0.036167,1.568519,-0.072699,0.002140,-0.000452,-0.000368,-0.010348,0.000035,0.000843,0.005071,0.047382,0.054267,0.203712,0.203699,0.163772,0.420349,0.000000,0.000000,0.000000,0.000000,0.000000,0.000000,0.000000,0.000000,0.000000,0.000000,0.000000,0.000000,0.046041,3,0
1300000,-0.004877,33.492592,0.030442,-0.014852,25.958057,-0.012138,0.001527,0.036464,1.568503,-0.072988,0.002172,-0.000836,-0.000377,-0.010426,0.000035,0.000612,0.005049,0.044655,0.042053,0.203875,0.203862,0.163416,0.417154,0.000000,0.000000,0.000000,0.000000,0.000000,0.000000,0.000000,0.000000,0.000000,0.000000,0.000000,0.000000,0.043415,3,0
1310000,-0.004856,33.750938,0.029681,-0.014644,25.959948,-0.013226,0.001552,0.036390,1.568478,-0.072745,0.002205,-0.000618,-0.000386,-0.010359,0.000035,0.000321,0.005026,-0.037571,-0.023568,0.204039,0.204024,0.163059,0.414040,0.000000,0.000000,0.000000,0.000000,0.000000,0.000000,0.000000,0.000000,0.000000,0.000000,0.000000,0.000000,0.036620,3,0
1320000,-0.004833,34.009300,0.030968,-0.014531,25.962000,-0.011474,0.001586,0.036311,1.568460,-0.072500,0.002237,-0.001093,-0.000396,-0.010288,0.000035,0.000673,0.005004,-0.037514,0.052229,0.204203,0.204188,0.162702,0.411006,0.000000,0.000000,0.000000,0.000000,0.000000,0.000000,0.000000,0.000000,0.000000,0.000000,0.000000,0.000000,0.036553,3,0
1330000,-0.004811,34.273102,0.030948,-0.014446,25.973671,-0.011388,0.001611,0.036978,1.568445,-0.073283,0.002268,-0.001141,-0.000405,-0.010513,0.000036,0.002386,0.004980,0.121563,0.003933,0.204367,0.204351,0.162343,0.408051,0.000000,0.000000,0.000000,0.000000,0.000000,0.000000,0.000000,0.000000,0.000000,0.000000,0.000000,0.000000,0.117523,3,0
1340000,-0.004787,34.534805,0.031518,-0.014299,25.981476,-0.010701,0.001640,0.037335,1.568419,-0.073644,0.002300,-0.001383,-0.000414,-0.010618,0.000036,0.000623,0.004957,0.056431,0.025610,0.204533,0.204516,0.161985,0.405173,0.000000,0.000000,0.000000,0.000000,0.000000,0.000000,0.000000,0.000000,0.000000,0.000000,0.000000,0.000000,0.054718,3,0
1350000,-0.004762,34.795792,0.031867,-0.014048,25.987743,-0.010138,0.001679,0.037599,1.568403,-0.073856,0.002331,-0.001545,-0.000423,-0.010680,0.000036,0.000229,0.004931,0.033199,0.017054,0.204700,0.204682,0.161626,0.402370,0.000000,0.000000,0.000000,0.000000,0.000000,0.000000,0.000000,0.000000,0.000000,0.000000,0.000000,0.000000,0.032422,3,0
1360000,-0.004737,35.058796,0.031352,-0.013927,25.997704,-0.010783,0.001701,0.038134,1.568380,-0.074432,0.002361,-0.001415,-0.000432,-0.010854,0.000037,0.001350,0.004904,0.090210,-0.014996,0.204867,0.204849,0.161268,0.399642,0.000000,0.000000,0.000000,0.000000,0.000000,0.000000,0.000000,0.000000,0.000000,0.000000,0.000000,0.000000,0.087256,3,0
1370000,-0.004712,35.321747,0.030066,-0.013794,26.007345,-0.012317,0.001736,0.038645,1.568368,-0.074978,0.002392,-0.001015,-0.000442,-0.011021,0.000037,0.001489,0.004878,0.085533,-0.043539,0.205037,0.205017,0.160910,0.396986,0.000000,0.000000,0.000000,0.000000,0.000000,0.000000,0.000000,0.000000,0.000000,0.000000,0.000000,0.000000,0.082738,3,0
1380000,-0.004687,35.581917,0.029459,-0.013717,26.011995,-0.013174,0.001756,0.038760,1.568343,-0.074988,0.002423,-0.000845,-0.000451,-0.011024,0.000038,0.000057,0.004852,0.001392,-0.017989,0.205208,0.205187,0.160553,0.394401,0.000000,0.000000,0.000000,0.000000,0.000000,0.000000,0.000000,0.000000,0.000000,0.000000,0.000000,0.000000,0.004875,3,0
1390000,-0.004662,35.844791,0.028457,-0.013658,26.021276,-0.014362,0.001795,0.039266,1.568327,-0.075488,0.002453,-0.000549,-0.000460,-0.011182,0.000038,0.001179,0.004826,0.079124,-0.032181,0.205380,0.205359,0.160196,0.391886,0.000000,0.000000,0.000000,0.000000,0.000000,0.000000,0.000000,0.000000,0.000000,0.000000,0.000000,0.000000,0.076554,3,0
1400000,-0.004636,36.105564,0.027718,-0.013591,26.026817,-0.015141,0.001815,0.039448,1.568307,-0.075583,0.002484,-0.000338,-0.000470,-0.011213,0.000038,0.000120,0.004800,0.014942,-0.022288,0.205554,0.205532,0.159841,0.389439,0.000000,0.000000,0.000000,0.000000,0.000000,0.000000,0.000000,0.000000,0.000000,0.000000,0.000000,0.000000,0.015154,3,0
1410000,-0.004611,36.366989,0.027694,-0.013493,26.033350,-0.015131,0.001847,0.039725,1.568297,-0.075785,0.002513,-0.000390,-0.000479,-0.011278,0.000038,0.000177,0.004774,0.032417,0.005031,0.205730,0.205706,0.159487,0.387059,0.000000,0.000000,0.000000,0.000000,0.000000,0.000000,0.000000,0.000000,0.000000,0.000000,0.000000,0.000000,0.031645,3,0
1420000,-0.004584,36.629055,0.027982,-0.013371,26.040966,-0.014578,0.001871,0.040071,1.568280,-0.076090,0.002542,-0.000558,-0.000489,-0.011377,0.000039,0.000439,0.004747,0.049232,0.016780,0.205907,0.205883,0.159134,0.384745,0.000000,0.000000,0.000000,0.000000,0.000000,0.000000,0.000000,0.000000,0.000000,0.000000,0.000000,0.000000,0.047767,3,0
1430000,-0.004556,36.886971,0.029197,-0.013272,26.041027,-0.012975,0.001906,0.039802,1.568261,-0.075631,0.002571,-0.001043,-0.000499,-0.011223,0.000038,0.001302,0.004720,-0.073757,0.051068,0.206087,0.206061,0.158783,0.382494,0.000000,0.000000,0.000000,0.000000,0.000000,0.000000,0.000000,0.000000,0.000000,0.000000,0.000000,0.000000,0.071362,3,0
1440000,-0.004529,37.146271,0.029817,-0.013114,26.043507,-0.012098,0.001932,0.039734,1.568249,-0.075424,0.002600,-0.001313,-0.000509,-0.011153,0.000038,0.000313,0.004690,-0.033493,0.028241,0.206268,0.206242,0.158434,0.380306,0.000000,0.000000,0.000000,0.000000,0.000000,0.000000,0.000000,0.000000,0.000000,0.000000,0.000000,0.000000,0.032653,3,0
1450000,-0.004500,37.408985,0.030328,-0.012941,26.052198,-0.011338,0.001958,0.040182,1.568233,-0.075820,0.002627,-0.001560,-0.000519,-0.011287,0.000039,0.000780,0.004661,0.065002,0.024326,0.206452,0.206424,0.158086,0.378179,0.000000,0.000000,0.000000,0.000000,0.000000,0.000000,0.000000,0.000000,0.000000,0.000000,0.000000,0.000000,0.062932,3,0
1460000,-0.004470,37.669582,0.030596,-0.012670,26.056906,-0.010889,0.001996,0.040295,1.568224,-0.075825,0.002655,-0.001703,-0.000528,-0.011289,0.000039,0.000038,0.004630,0.000996,0.014538,0.206637,0.206608,0.157741,0.376111,0.000000,0.000000,0.000000,0.000000,0.000000,0.000000,0.000000,0.000000,0.000000,0.000000,0.000000,0.000000,0.004573,3,0
1470000,-0.004440,37.932899,0.030062,-0.012520,26.066488,-0.011650,0.002029,0.040809,1.568206,-0.076299,0.002682,-0.001560,-0.000538,-0.011456,0.000039,0.001030,0.004598,0.078289,-0.015674,0.206825,0.206794,0.157398,0.374102,0.000000,0.000000,0.000000,0.000000,0.000000,0.000000,0.000000,0.000000,0.000000,0.000000,0.000000,0.000000,0.075718,3,0
1480000,-0.004408,38.194767,0.030386,-0.012362,26.073380,-0.011087,0.002070,0.041092,1.568194,-0.076499,0.002709,-0.001733,-0.000548,-0.011527,0.000040,0.000231,0.004566,0.033546,0.017010,0.207014,0.206982,0.157057,0.372151,0.000000,0.000000,0.000000,0.000000,0.000000,0.000000,0.000000,0.000000,0.000000,0.000000,0.000000,0.000000,0.032689,3,0
1490000,-0.004376,38.456585,0.030162,-0.012135,26.080063,-0.011423,0.002103,0.041362,1.568168,-0.076679,0.002736,-0.001697,-0.000558,-0.011592,0.000040,0.000151,0.004532,0.030033,-0.004040,0.207205,0.207172,0.156719,0.370255,0.000000,0.000000,0.000000,0.000000,0.000000,0.000000,0.000000,0.000000,0.000000,0.000000,0.000000,0.000000,0.029324,3,0
1500000,-0.004342,38.718342,0.031351,-0.011985,26.086445,-0.009854,0.002126,0.041621,1.568148,-0.076833,0.002762,-0.002203,-0.000568,-0.011647,0.000040,0.000525,0.004499,0.026573,0.050162,0.207398,0.207364,0.156383,0.368412,0.000000,0.000000,0.000000,0.000000,0.000000,0.000000,0.000000,0.000000,0.000000,0.000000,0.000000,0.000000,0.026030,3,0
1510000,-0.004309,38.978676,0.032147,-0.011886,26.090199,-0.008884,0.002165,0.041639,1.568138,-0.076734,0.002788,-0.002546,-0.000578,-0.011609,0.000040,0.000238,0.004464,-0.016579,0.034303,0.207593,0.207558,0.156051,0.366623,0.000000,0.000000,0.000000,0.000000,0.000000,0.000000,0.000000,0.000000,0.000000,0.000000,0.000000,0.000000,0.016569,3,0
1520000,-0.004274,39.241039,0.032971,-0.011716,26.097479,-0.008028,0.002199,0.041966,1.568120,-0.076972,0.002812,-0.002911,-0.000588,-0.011698,0.000040,0.000481,0.004429,0.041115,0.035561,0.207790,0.207754,0.155721,0.364884,0.000000,0.000000,0.000000,0.000000,0.000000,0.000000,0.000000,0.000000,0.000000,0.000000,0.000000,0.000000,0.039929,3,0
1530000,-0.004239,39.503338,0.034028,-0.011545,26.104567,-0.006955,0.002238,0.042275,1.568109,-0.077185,0.002837,-0.003367,-0.000598,-0.011778,0.000041,0.000543,0.004393,0.037106,0.044309,0.207989,0.207951,0.155394,0.363196,0.000000,0.000000,0.000000,0.000000,0.000000,0.000000,0.000000,0.000000,0.000000,0.000000,0.000000,0.000000,0.036078,3,0
1540000,-0.004205,39.764900,0.032861,-0.011296,26.110346,-0.008316,0.002269,0.042470,1.568092,-0.077264,0.002863,-0.002937,-0.000607,-0.011811,0.000041,0.000323,0.004355,0.013279,-0.042388,0.208189,0.208149,0.155070,0.361558,0.000000,0.000000,0.000000,0.000000,0.000000,0.000000,0.000000,0.000000,0.000000,0.000000,0.000000,0.000000,0.013482,3,0
1550000,-0.004169,40.024330,0.032823,-0.011095,26.112022,-0.008190,0.002292,0.042311,1.568072,-0.076981,0.002888,-0.002943,-0.000617,-0.011698,0.000041,0.000398,0.004319,-0.049549,0.001381,0.208390,0.208349,0.154749,0.359967,0.000000,0.000000,0.000000,0.000000,0.000000,0.000000,0.000000,0.000000,0.000000,0.000000,0.000000,0.000000,0.048010,3,0
1560000,-0.004132,40.285133,0.031492,-0.010863,26.116314,-0.009687,0.002330,0.042372,1.568049,-0.076922,0.002913,-0.002441,-0.000627,-0.011677,0.000041,0.000406,0.004280,-0.010815,-0.048654,0.208593,0.208551,0.154432,0.358423,0.000000,0.000000,0.000000,0.000000,0.000000,0.000000,0.000000,0.000000,0.000000,0.000000,0.000000,0.000000,0.011236,3,0
1570000,-0.004094,40.545883,0.031516,-0.010736,26.120419,-0.009478,0.002370,0.042424,1.568031,-0.076847,0.002937,-0.002486,-0.000636,-0.011646,0.000041,0.000034,0.004242,-0.013233,0.004585,0.208798,0.208754,0.154118,0.356924,0.000000,0.000000,0.000000,0.000000,0.000000,0.000000,0.000000,0.000000,0.000000,0.000000,0.000000,0.000000,0.013412,3,0
1580000,-0.004056,40.807285,0.031551,-0.010522,26.125654,-0.009570,0.002392,0.042559,1.568008,-0.076871,0.002960,-0.002540,-0.000646,-0.011656,0.000041,0.000010,0.004202,0.004280,0.005195,0.209004,0.208959,0.153807,0.355469,0.000000,0.000000,0.000000,0.000000,0.000000,0.000000,0.000000,0.000000,0.000000,0.000000,0.000000,0.000000,0.005789,3,0
1590000,-0.004016,41.069328,0.031265,-0.010255,26.131811,-0.009961,0.002414,0.042789,1.567982,-0.076988,0.002983,-0.002469,-0.000656,-0.011705,0.000041,0.000083,0.004161,0.021130,-0.007199,0.209211,0.209165,0.153500,0.354055,0.000000,0.000000,0.000000,0.000000,0.000000,0.000000,0.000000,0.000000,0.000000,0.000000,0.000000,0.000000,0.020781,3,0
1600000,-0.003977,41.327152,0.030041,-0.010121,26.130281,-0.011329,0.002451,0.042340,1.567969,-0.076433,0.003008,-0.001980,-0.000665,-0.011470,0.000040,0.001998,0.004120,-0.101826,-0.044901,0.209419,0.209371,0.153196,0.352684,0.000000,0.000000,0.000000,0.000000,0.000000,0.000000,0.000000,0.000000,0.000000,0.000000,0.000000,0.000000,0.098362,3,0
1610000,-0.003936,41.589825,0.030675,-0.009927,26.137611,-0.010550,0.002484,0.042668,1.567951,-0.076637,0.003029,-0.002300,-0.000675,-0.011557,0.000041,0.000378,0.004079,0.037945,0.029700,0.209629,0.209579,0.152896,0.351353,0.000000,0.000000,0.000000,0.000000,0.000000,0.000000,0.000000,0.000000,0.000000,0.000000,0.000000,0.000000,0.036836,3,0
1620000,-0.003896,41.848953,0.030219,-0.009804,26.138319,-0.011026,0.002521,0.042410,1.567930,-0.076284,0.003051,-0.002135,-0.000685,-0.011402,0.000040,0.000732,0.004037,-0.065765,-0.014369,0.209838,0.209787,0.152600,0.350061,0.000000,0.000000,0.000000,0.000000,0.000000,0.000000,0.000000,0.000000,0.000000,0.000000,0.000000,0.000000,0.063588,3,0
1630000,-0.003856,42.106670,0.029808,-0.009676,26.136318,-0.011228,0.002545,0.041914,1.567912,-0.075719,0.003074,-0.001976,-0.000695,-0.011149,0.000040,0.001845,0.003995,-0.106236,-0.012883,0.210049,0.209996,0.152308,0.348806,0.000000,0.000000,0.000000,0.000000,0.000000,0.000000,0.000000,0.000000,0.000000,0.000000,0.000000,0.000000,0.102592,3,0
1640000,-0.003814,42.369267,0.029289,-0.009412,26.143412,-0.011699,0.002582,0.042224,1.567904,-0.075897,0.003095,-0.001816,-0.000704,-0.011231,0.000040,0.000225,0.003952,0.033646,-0.015771,0.210260,0.210206,0.152019,0.347588,0.000000,0.000000,0.000000,0.000000,0.000000,0.000000,0.000000,0.000000,0.000000,0.000000,0.000000,0.000000,0.032686,3,0
1650000,-0.003771,42.626892,0.029988,-0.009246,26.141180,-0.010806,0.002625,0.041685,1.567882,-0.075322,0.003116,-0.002125,-0.000714,-0.010963,0.000039,0.002098,0.003909,-0.109745,0.031244,0.210472,0.210416,0.151734,0.346406,0.000000,0.000000,0.000000,0.000000,0.000000,0.000000,0.000000,0.000000,0.000000,0.000000,0.000000,0.000000,0.105956,3,0
1660000,-0.003729,42.887329,0.028978,-0.008984,26.144114,-0.012124,0.002663,0.041629,1.567866,-0.075172,0.003137,-0.001735,-0.000723,-0.010895,0.000039,0.000351,0.003864,-0.029408,-0.035928,0.210684,0.210626,0.151453,0.345258,0.000000,0.000000,0.000000,0.000000,0.000000,0.000000,0.000000,0.000000,0.000000,0.000000,0.000000,0.000000,0.028629,3,0
1670000,-0.003685,43.144932,0.027827,-0.008733,26.141708,-0.013190,0.002699,0.041091,1.567856,-0.074606,0.003158,-0.001258,-0.000732,-0.010627,0.000038,0.002271,0.003819,-0.110966,-0.042093,0.210896,0.210837,0.151176,0.344143,0.000000,0.000000,0.000000,0.000000,0.000000,0.000000,0.000000,0.000000,0.000000,0.000000,0.000000,0.000000,0.107142,3,0
1680000,-0.003642,43.403927,0.026933,-0.008603,26.141834,-0.014109,0.002727,0.040788,1.567848,-0.074252,0.003179,-0.000907,-0.000742,-0.010456,0.000038,0.000955,0.003774,-0.070358,-0.031018,0.211108,0.211047,0.150902,0.343060,0.000000,0.000000,0.000000,0.000000,0.000000,0.000000,0.000000,0.000000,0.000000,0.000000,0.000000,0.000000,0.067988,3,0
1690000,-0.003598,43.664997,0.026318,-0.008421,26.145700,-0.014940,0.002751,0.040833,1.567828,-0.074196,0.003198,-0.000700,-0.000751,-0.010430,0.000038,0.000081,0.003728,-0.011288,-0.018880,0.211319,0.211257,0.150633,0.342007,0.000000,0.000000,0.000000,0.000000,0.000000,0.000000,0.000000,0.000000,0.000000,0.000000,0.000000,0.000000,0.011473,3,0
1700000,-0.003552,43.921814,0.025472,-0.008127,26.141731,-0.015801,0.002793,0.040147,1.567815,-0.073538,0.003218,-0.000351,-0.000760,-0.010102,0.000037,0.002996,0.003681,-0.133251,-0.029235,0.211531,0.211467,0.150368,0.340986,0.000000,0.000000,0.000000,0.000000,0.000000,0.000000,0.000000,0.000000,0.000000,0.000000,0.000000,0.000000,0.128612,3,0
1710000,-0.003505,44.183544,0.025193,-0.007889,26.146931,-0.016108,0.002825,0.040302,1.567791,-0.073575,0.003236,-0.000302,-0.000769,-0.010121,0.000037,0.000015,0.003634,0.007553,-0.004690,0.211741,0.211676,0.150106,0.339994,0.000000,0.000000,0.000000,0.000000,0.000000,0.000000,0.000000,0.000000,0.000000,0.000000,0.000000,0.000000,0.008085,3,0
1720000,-0.003457,44.445911,0.024933,-0.007626,26.153225,-0.016367,0.002860,0.040555,1.567775,-0.073692,0.003253,-0.000268,-0.000778,-0.010182,0.000037,0.000097,0.003584,0.024075,-0.003663,0.211951,0.211884,0.149849,0.339030,0.000000,0.000000,0.000000,0.000000,0.000000,0.000000,0.000000,0.000000,0.000000,0.000000,0.000000,0.000000,0.023480,3,0
