time_us,pos_x,pos_y,pos_z,vel_x,vel_y,vel_z,roll,pitch,yaw,bias_ax,bias_ay,bias_az,bias_gx,bias_gy,bias_gz,nis,innov_x,innov_y,innov_z,cov_pos_x,cov_pos_y,cov_pos_z,cov_yaw,des_speed,des_heading,des_climb,pid_speed,pid_yaw,pid_alt,speed_meas,yaw_meas,climb_meas,fwd_accel,yaw_rate,vert_accel,drift_m,nav_mode,mission_state
0,0.000001,0.149998,-0.000005,0.000147,24.999617,-0.001258,0.000004,0.000026,1.570788,0.000000,0.000000,0.000000,0.000000,0.000000,0.000000,0.006250,-0.000001,-0.249999,0.000013,2.400038,2.400038,3.600017,1.000518,0.000000,0.000000,0.000000,0.000000,0.000000,0.000000,0.000000,0.000000,0.000000,0.000000,0.000000,0.000000,0.149998,1,0
10000,0.000003,0.365222,0.011064,0.000310,24.999262,-0.002293,0.000014,0.000033,1.570768,0.000000,-0.000000,-0.000000,0.000000,0.000000,0.000000,0.001854,-0.000004,-0.121688,0.029580,1.714420,1.714420,2.250079,1.001073,0.000000,0.000000,0.000000,0.000000,0.000000,0.000000,0.000000,0.000000,0.000000,0.000000,0.000000,0.000000,0.086917,3,0
20000,0.000006,0.575677,0.011305,0.000509,24.998653,-0.003454,0.000020,0.000044,1.570746,0.000002,-0.000000,-0.000000,0.000000,0.000000,0.000000,0.004101,-0.000008,-0.177877,0.001008,1.333616,1.333616,1.636554,1.001655,0.000000,0.000000,0.000000,0.000000,0.000000,0.000000,0.000000,0.000000,0.000000,0.000000,0.000000,0.000000,0.138341,3,0
30000,0.000011,0.805649,0.005017,0.000674,24.998133,-0.004903,0.000025,0.000062,1.570730,0.000004,-0.000000,0.000000,-0.000000,0.000000,0.000000,0.001761,-0.000013,-0.110021,-0.029110,1.091392,1.091392,1.286065,1.002257,0.000000,0.000000,0.000000,0.000000,0.000000,0.000000,0.000000,0.000000,0.000000,0.000000,0.000000,0.000000,0.090008,3,0
40000,0.000017,1.040012,0.001985,0.000952,24.997658,-0.006210,0.000026,0.000075,1.570707,0.000007,-0.000000,0.000001,-0.000000,0.000000,0.000000,0.001490,-0.000020,-0.101443,-0.016827,0.923811,0.923811,1.059385,1.002869,0.000000,0.000000,0.000000,0.000000,0.000000,0.000000,0.000000,0.000000,0.000000,0.000000,0.000000,0.000000,0.085824,3,0
50000,0.000025,1.292927,-0.005950,0.001239,24.997671,-0.007890,0.000024,0.000092,1.570701,0.000006,-0.000000,0.000003,-0.000000,0.000000,0.000000,0.000458,-0.000029,0.022021,-0.052343,0.801036,0.801036,0.900822,1.003484,0.000000,0.000000,0.000000,0.000000,0.000000,0.000000,0.000000,0.000000,0.000000,0.000000,0.000000,0.000000,0.019081,3,0
60000,0.000035,1.541461,-0.008890,0.001383,24.997463,-0.009147,0.000020,0.000106,1.570695,0.000007,-0.000000,0.000004,-0.000000,0.000000,0.000000,0.000091,-0.000039,-0.012226,-0.021815,0.707270,0.707270,0.783741,1.004094,0.000000,0.000000,0.000000,0.000000,0.000000,0.000000,0.000000,0.000000,0.000000,0.000000,0.000000,0.000000,0.010785,3,0
70000,0.000046,1.793288,-0.009299,0.001629,24.997580,-0.010480,0.000022,0.000115,1.570683,0.000005,-0.000000,0.000004,0.000000,0.000000,0.000000,0.000047,-0.000051,0.017545,-0.002633,0.633370,0.633370,0.693801,1.004688,0.000000,0.000000,0.000000,0.000000,0.000000,0.000000,0.000000,0.000000,0.000000,0.000000,0.000000,0.000000,0.015693,3,0
80000,0.000058,2.041771,-0.012656,0.001867,24.997427,-0.011992,0.000029,0.000136,1.570664,0.000007,-0.000000,0.000007,0.000000,0.000000,0.000000,0.000182,-0.000064,-0.015614,-0.031212,0.573673,0.573673,0.622594,1.005260,0.000000,0.000000,0.000000,0.000000,0.000000,0.000000,0.000000,0.000000,0.000000,0.000000,0.000000,0.000000,0.014121,3,0
90000,0.000072,2.286036,-0.010396,0.002046,24.996845,-0.012996,0.000025,0.000151,1.570650,0.000015,-0.000000,0.000004,0.000000,0.000000,0.000000,0.000746,-0.000079,-0.065306,0.025400,0.524487,0.524487,0.564865,1.005801,0.000000,0.000000,0.000000,0.000000,0.000000,0.000000,0.000000,0.000000,0.000000,0.000000,0.000000,0.000000,0.059598,3,0
100000,0.000086,2.536688,-0.013909,0.002219,24.996769,-0.014458,0.000038,0.000166,1.570638,0.000014,-0.000000,0.000010,0.000000,0.000000,0.000000,0.000244,-0.000094,0.008498,-0.039120,0.483303,0.483303,0.517162,1.006301,0.000000,0.000000,0.000000,0.000000,0.000000,0.000000,0.000000,0.000000,0.000000,0.000000,0.000000,0.000000,0.007814,3,0
110000,0.000102,2.784900,-0.017274,0.002441,24.996458,-0.016283,0.000037,0.000175,1.570620,0.000018,-0.000000,0.000018,0.000000,0.000000,0.000000,0.000334,-0.000111,-0.023485,-0.040307,0.448353,0.448353,0.477121,1.006754,0.000000,0.000000,0.000000,0.000000,0.000000,0.000000,0.000000,0.000000,0.000000,0.000000,0.000000,0.000000,0.021731,3,0
120000,0.000121,3.042255,-0.019320,0.002708,24.997591,-0.017957,0.000036,0.000206,1.570608,-0.000005,-0.000000,0.000023,0.000000,-0.000000,-0.000000,0.001841,-0.000130,0.106005,-0.025311,0.418358,0.418358,0.443071,1.007150,0.000000,0.000000,0.000000,0.000000,0.000000,0.000000,0.000000,0.000000,0.000000,0.000000,0.000000,0.000000,0.098614,3,0
130000,0.000140,3.291432,-0.018278,0.002955,24.997395,-0.018929,0.000050,0.000225,1.570597,-0.000002,-0.000000,0.000018,0.000000,-0.000000,-0.000000,0.000073,-0.000150,-0.012209,0.017882,0.392368,0.392368,0.413797,1.007481,0.000000,0.000000,0.000000,0.000000,0.000000,0.000000,0.000000,0.000000,0.000000,0.000000,0.000000,0.000000,0.011412,3,0
140000,0.000161,3.546123,-0.017553,0.003093,24.998404,-0.020101,0.000047,0.000253,1.570584,-0.000025,-0.000000,0.000014,0.000000,-0.000001,-0.000000,0.000949,-0.000171,0.076557,0.014334,0.369665,0.369665,0.388393,1.007739,0.000000,0.000000,0.000000,0.000000,0.000000,0.000000,0.000000,0.000000,0.000000,0.000000,0.000000,0.000000,0.071840,3,0
150000,0.000183,3.804261,-0.018346,0.003363,25.000319,-0.021601,0.000060,0.000288,1.570575,-0.000072,-0.000000,0.000017,0.000000,-0.000002,-0.000000,0.003087,-0.000194,0.139919,-0.009486,0.349694,0.349694,0.366172,1.007915,0.000000,0.000000,0.000000,0.000000,0.000000,0.000000,0.000000,0.000000,0.000000,0.000000,0.000000,0.000000,0.131764,3,0
160000,0.000207,4.058722,-0.019962,0.003657,25.001465,-0.023320,0.000060,0.000322,1.570564,-0.000102,-0.000000,0.000026,0.000000,-0.000002,-0.000000,0.001112,-0.000220,0.080551,-0.023989,0.332019,0.332019,0.346600,1.008002,0.000000,0.000000,0.000000,0.000000,0.000000,0.000000,0.000000,0.000000,0.000000,0.000000,0.000000,0.000000,0.076093,3,0
170000,0.000234,4.313191,-0.020245,0.003911,25.002800,-0.024700,0.000060,0.000354,1.570550,-0.000138,-0.000000,0.000027,0.000000,-0.000003,-0.000000,0.001127,-0.000247,0.084504,-0.000660,0.316295,0.316295,0.329260,1.007991,0.000000,0.000000,0.000000,0.000000,0.000000,0.000000,0.000000,0.000000,0.000000,0.000000,0.000000,0.000000,0.080050,3,0
180000,0.000261,4.565671,-0.021667,0.004084,25.003532,-0.026282,0.000065,0.000371,1.570539,-0.000162,-0.000001,0.000037,0.000000,-0.000004,-0.000000,0.000453,-0.000274,0.048691,-0.022231,0.302244,0.302244,0.313817,1.007875,0.000000,0.000000,0.000000,0.000000,0.000000,0.000000,0.000000,0.000000,0.000000,0.000000,0.000000,0.000000,0.046239,3,0
190000,0.000290,4.821221,-0.019282,0.004405,25.005421,-0.026508,0.000067,0.000414,1.570525,-0.000222,-0.000001,0.000009,0.000000,-0.000005,-0.000000,0.002519,-0.000305,0.114266,0.053166,0.289638,0.289638,0.300003,1.007645,0.000000,0.000000,0.000000,0.000000,0.000000,0.000000,0.000000,0.000000,0.000000,0.000000,0.000000,0.000000,0.108750,3,0
200000,0.000320,5.073019,-0.019720,0.004548,25.005987,-0.027661,0.000074,0.000447,1.570505,-0.000244,-0.000001,0.000011,0.000000,-0.000006,-0.000000,0.000227,-0.000336,0.037607,-0.003365,0.278292,0.278292,0.287598,1.007295,0.000000,0.000000,0.000000,0.000000,0.000000,0.000000,0.000000,0.000000,0.000000,0.000000,0.000000,0.000000,0.035864,3,0
210000,0.000351,5.323278,-0.020715,0.004736,25.006105,-0.029209,0.000076,0.000470,1.570487,-0.000247,-0.000001,0.000021,0.000000,-0.000006,-0.000000,0.000040,-0.000367,0.004471,-0.015316,0.268050,0.268050,0.276421,1.006816,0.000000,0.000000,0.000000,0.000000,0.000000,0.000000,0.000000,0.000000,0.000000,0.000000,0.000000,0.000000,0.004285,3,0
220000,0.000383,5.578172,-0.020684,0.004955,25.008389,-0.030456,0.000080,0.000510,1.570466,-0.000325,-0.000001,0.000016,0.000000,-0.000008,-0.000000,0.002011,-0.000401,0.112030,0.007591,0.258782,0.258782,0.266321,1.006202,0.000000,0.000000,0.000000,0.000000,0.000000,0.000000,0.000000,0.000000,0.000000,0.000000,0.000000,0.000000,0.107199,3,0
230000,0.000417,5.829760,-0.021894,0.005129,25.009193,-0.032143,0.000086,0.000526,1.570459,-0.000353,-0.000002,0.000031,0.000000,-0.000009,-0.000000,0.000277,-0.000435,0.036024,-0.020841,0.250380,0.250380,0.257172,1.005446,0.000000,0.000000,0.000000,0.000000,0.000000,0.000000,0.000000,0.000000,0.000000,0.000000,0.000000,0.000000,0.034523,3,0
240000,0.000452,6.080780,-0.021893,0.005432,25.009584,-0.033332,0.000082,0.000541,1.570439,-0.000371,-0.000002,0.000025,0.000000,-0.000010,-0.000000,0.000095,-0.000471,0.022976,0.008108,0.242749,0.242749,0.248866,1.004541,0.000000,0.000000,0.000000,0.000000,0.000000,0.000000,0.000000,0.000000,0.000000,0.000000,0.000000,0.000000,0.022052,3,0
250000,0.000489,6.334414,-0.021811,0.005718,25.011591,-0.034413,0.000078,0.000587,1.570426,-0.000452,-0.000003,0.000015,0.000000,-0.000013,-0.000000,0.001316,-0.000509,0.090014,0.010659,0.235811,0.235811,0.241314,1.003481,0.000000,0.000000,0.000000,0.000000,0.000000,0.000000,0.000000,0.000000,0.000000,0.000000,0.000000,0.000000,0.086478,3,0
260000,0.000528,6.590436,-0.020646,0.005940,25.015209,-0.034751,0.000086,0.000653,1.570414,-0.000600,-0.000003,-0.000022,0.000000,-0.000018,-0.000000,0.004065,-0.000549,0.154423,0.038932,0.229495,0.229495,0.234436,1.002258,0.000000,0.000000,0.000000,0.000000,0.000000,0.000000,0.000000,0.000000,0.000000,0.000000,0.000000,0.000000,0.148518,3,0
270000,0.000568,6.845694,-0.018883,0.006170,25.018538,-0.034724,0.000088,0.000711,1.570409,-0.000741,-0.000004,-0.000078,0.000000,-0.000023,-0.000000,0.003507,-0.000590,0.136912,0.055830,0.223744,0.223744,0.228165,1.000869,0.000000,0.000000,0.000000,0.000000,0.000000,0.000000,0.000000,0.000000,0.000000,0.000000,0.000000,0.000000,0.131808,3,0
280000,0.000608,7.102428,-0.020440,0.006319,25.023134,-0.036912,0.000098,0.000782,1.570387,-0.000940,-0.000005,-0.000043,0.000000,-0.000031,-0.000000,0.005359,-0.000631,0.179803,-0.032264,0.218504,0.218504,0.222443,0.999307,0.000000,0.000000,0.000000,0.000000,0.000000,0.000000,0.000000,0.000000,0.000000,0.000000,0.000000,0.000000,0.173257,3,0
290000,0.000650,7.358415,-0.020363,0.006552,25.027372,-0.037798,0.000111,0.000853,1.570365,-0.001130,-0.000005,-0.000058,0.000000,-0.000039,-0.000000,0.004222,-0.000674,0.161571,0.012662,0.213731,0.213731,0.217219,0.997567,0.000000,0.000000,0.000000,0.000000,0.000000,0.000000,0.000000,0.000000,0.000000,0.000000,0.000000,0.000000,0.155816,3,0
300000,0.000692,7.613024,-0.021124,0.006733,25.030769,-0.039282,0.000120,0.000908,1.570351,-0.001286,-0.000006,-0.000045,0.000000,-0.000045,-0.000000,0.002499,-0.000717,0.124209,-0.010480,0.209383,0.209383,0.212446,0.995645,0.000000,0.000000,0.000000,0.000000,0.000000,0.000000,0.000000,0.000000,0.000000,0.000000,0.000000,0.000000,0.119876,3,0
310000,0.000737,7.868394,-0.019370,0.007049,25.034792,-0.038850,0.000127,0.000991,1.570330,-0.001484,-0.000007,-0.000127,0.000000,-0.000054,-0.000000,0.004143,-0.000763,0.147871,0.062257,0.205426,0.205426,0.208087,0.993536,0.000000,0.000000,0.000000,0.000000,0.000000,0.000000,0.000000,0.000000,0.000000,0.000000,0.000000,0.000000,0.142811,3,0
320000,0.000782,8.124486,-0.020086,0.007260,25.039667,-0.040488,0.000128,0.001091,1.570314,-0.001725,-0.000009,-0.000115,0.000000,-0.000065,-0.000000,0.004710,-0.000810,0.170766,-0.009227,0.201828,0.201828,0.204105,0.991236,0.000000,0.000000,0.000000,0.000000,0.000000,0.000000,0.000000,0.000000,0.000000,0.000000,0.000000,0.000000,0.165024,3,0
330000,0.000829,8.381927,-0.019335,0.007514,25.045988,-0.040826,0.000142,0.001208,1.570300,-0.002044,-0.000010,-0.000167,0.000000,-0.000080,-0.000000,0.007495,-0.000858,0.212809,0.034964,0.198560,0.198560,0.200469,0.988743,0.000000,0.000000,0.000000,0.000000,0.000000,0.000000,0.000000,0.000000,0.000000,0.000000,0.000000,0.000000,0.205767,3,0
340000,0.000878,8.639356,-0.020515,0.007782,25.052570,-0.042838,0.000144,0.001334,1.570286,-0.002382,-0.000011,-0.000130,0.000000,-0.000096,-0.000000,0.007451,-0.000907,0.213730,-0.023047,0.195598,0.195598,0.197151,0.986053,0.000000,0.000000,0.000000,0.000000,0.000000,0.000000,0.000000,0.000000,0.000000,0.000000,0.000000,0.000000,0.206764,3,0
350000,0.000927,8.894226,-0.019869,0.007985,25.056774,-0.043013,0.000140,0.001431,1.570277,-0.002608,-0.000013,-0.000186,0.000001,-0.000108,-0.000000,0.003128,-0.000958,0.135147,0.033558,0.192917,0.192917,0.194125,0.983163,0.000000,0.000000,0.000000,0.000000,0.000000,0.000000,0.000000,0.000000,0.000000,0.000000,0.000000,0.000000,0.130805,3,0
360000,0.000977,9.151090,-0.018984,0.008128,25.063076,-0.043107,0.000142,0.001553,1.570255,-0.002956,-0.000015,-0.000259,0.000001,-0.000125,-0.000000,0.006625,-0.001009,0.198298,0.041630,0.190497,0.190497,0.191370,0.980072,0.000000,0.000000,0.000000,0.000000,0.000000,0.000000,0.000000,0.000000,0.000000,0.000000,0.000000,0.000000,0.192004,3,0
370000,0.001028,9.408616,-0.019498,0.008437,25.070246,-0.044316,0.000141,0.001700,1.570238,-0.003361,-0.000017,-0.000255,0.000001,-0.000147,-0.000000,0.007791,-0.001061,0.219674,-0.002273,0.188320,0.188320,0.188863,0.976778,0.000000,0.000000,0.000000,0.000000,0.000000,0.000000,0.000000,0.000000,0.000000,0.000000,0.000000,0.000000,0.212782,3,0
380000,0.001080,9.661848,-0.019283,0.008564,25.073151,-0.044955,0.000138,0.001775,1.570219,-0.003518,-0.000019,-0.000296,0.000001,-0.000155,-0.000000,0.001144,-0.001114,0.081348,0.021590,0.186368,0.186368,0.186586,0.973281,0.000000,0.000000,0.000000,0.000000,0.000000,0.000000,0.000000,0.000000,0.000000,0.000000,0.000000,0.000000,0.078829,3,0
390000,0.001131,9.915243,-0.020331,0.008710,25.076248,-0.046644,0.000145,0.001844,1.570211,-0.003693,-0.000022,-0.000258,0.000001,-0.000165,-0.000000,0.001268,-0.001167,0.086514,-0.019123,0.184625,0.184625,0.184522,0.969579,0.000000,0.000000,0.000000,0.000000,0.000000,0.000000,0.000000,0.000000,0.000000,0.000000,0.000000,0.000000,0.083859,3,0
400000,0.001184,10.168799,-0.019338,0.008977,25.079597,-0.046274,0.000152,0.001921,1.570202,-0.003887,-0.000024,-0.000360,0.000001,-0.000176,-0.000000,0.001731,-0.001221,0.091514,0.048343,0.183077,0.183077,0.182656,0.965674,0.000000,0.000000,0.000000,0.000000,0.000000,0.000000,0.000000,0.000000,0.000000,0.000000,0.000000,0.000000,0.088729,3,0
410000,0.001238,10.423719,-0.018139,0.009237,25.084642,-0.045596,0.000166,0.002037,1.570181,-0.004188,-0.000027,-0.000482,0.000001,-0.000194,-0.000000,0.003492,-0.001277,0.136107,0.055471,0.181710,0.181710,0.180971,0.961565,0.000000,0.000000,0.000000,0.000000,0.000000,0.000000,0.000000,0.000000,0.000000,0.000000,0.000000,0.000000,0.131991,3,0
420000,0.001294,10.678767,-0.018199,0.009505,25.089979,-0.046524,0.000178,0.002152,1.570171,-0.004509,-0.000030,-0.000514,0.000002,-0.000213,-0.000001,0.003179,-0.001334,0.139563,0.013685,0.180511,0.180511,0.179456,0.957254,0.000000,0.000000,0.000000,0.000000,0.000000,0.000000,0.000000,0.000000,0.000000,0.000000,0.000000,0.000000,0.135370,3,0
430000,0.001350,10.933349,-0.018103,0.009786,25.094780,-0.047255,0.000179,0.002264,1.570155,-0.004804,-0.000034,-0.000560,0.000002,-0.000232,-0.000001,0.002507,-0.001392,0.123008,0.019387,0.179470,0.179470,0.178097,0.952742,0.000000,0.000000,0.000000,0.000000,0.000000,0.000000,0.000000,0.000000,0.000000,0.000000,0.000000,0.000000,0.119336,3,0
440000,0.001407,11.191622,-0.019555,0.009968,25.104231,-0.049799,0.000189,0.002489,1.570141,-0.005418,-0.000037,-0.000479,0.000002,-0.000271,-0.000001,0.009966,-0.001451,0.246079,-0.032751,0.178575,0.178575,0.176883,0.948031,0.000000,0.000000,0.000000,0.000000,0.000000,0.000000,0.000000,0.000000,0.000000,0.000000,0.000000,0.000000,0.238759,3,0
450000,0.001465,11.448194,-0.018989,0.010216,25.111691,-0.049803,0.000187,0.002671,1.570134,-0.005901,-0.000041,-0.000574,0.000002,-0.000302,-0.000001,0.005844,-0.001510,0.186500,0.036767,0.177816,0.177816,0.175803,0.943124,0.000000,0.000000,0.000000,0.000000,0.000000,0.000000,0.000000,0.000000,0.000000,0.000000,0.000000,0.000000,0.180978,3,0
460000,0.001524,11.703112,-0.019934,0.010430,25.117023,-0.051718,0.000198,0.002802,1.570127,-0.006247,-0.000046,-0.000535,0.000003,-0.000326,-0.000001,0.002713,-0.001570,0.128642,-0.014864,0.177184,0.177184,0.174847,0.938025,0.000000,0.000000,0.000000,0.000000,0.000000,0.000000,0.000000,0.000000,0.000000,0.000000,0.000000,0.000000,0.124853,3,0
470000,0.001583,11.959929,-0.018945,0.010632,25.124916,-0.050922,0.000210,0.002990,1.570115,-0.006780,-0.000050,-0.000681,0.000003,-0.000362,-0.000001,0.006390,-0.001631,0.191733,0.052315,0.176670,0.176670,0.174006,0.932737,0.000000,0.000000,0.000000,0.000000,0.000000,0.000000,0.000000,0.000000,0.000000,0.000000,0.000000,0.000000,0.186094,3,0
480000,0.001642,12.213940,-0.018963,0.010782,25.129034,-0.051361,0.000211,0.003091,1.570102,-0.007051,-0.000055,-0.000731,0.000003,-0.000381,-0.000001,0.001475,-0.001691,0.093867,0.017363,0.176265,0.176265,0.173271,0.927264,0.000000,0.000000,0.000000,0.000000,0.000000,0.000000,0.000000,0.000000,0.000000,0.000000,0.000000,0.000000,0.091124,3,0
490000,0.001700,12.472195,-0.020171,0.010948,25.139198,-0.053424,0.000223,0.003349,1.570091,-0.007758,-0.000061,-0.000661,0.000004,-0.000432,-0.000001,0.009209,-0.001752,0.237395,-0.023717,0.175962,0.175962,0.172634,0.921610,0.000000,0.000000,0.000000,0.000000,0.000000,0.000000,0.000000,0.000000,0.000000,0.000000,0.000000,0.000000,0.230440,3,0
500000,0.001759,12.731128,-0.019294,0.011078,25.150372,-0.052941,0.000222,0.003634,1.570069,-0.008549,-0.000067,-0.000815,0.000004,-0.000490,-0.000001,0.011114,-0.001812,0.257342,0.049667,0.175753,0.175753,0.172087,0.915781,0.000000,0.000000,0.000000,0.000000,0.000000,0.000000,0.000000,0.000000,0.000000,0.000000,0.000000,0.000000,0.249811,3,0
510000,0.001818,12.989568,-0.019980,0.011345,25.160809,-0.054335,0.000225,0.003904,1.570051,-0.009301,-0.000073,-0.000799,0.000005,-0.000546,-0.000001,0.009080,-0.001873,0.236845,-0.005051,0.175631,0.175631,0.171622,0.909781,0.000000,0.000000,0.000000,0.000000,0.000000,0.000000,0.000000,0.000000,0.000000,0.000000,0.000000,0.000000,0.229919,3,0
520000,0.001878,13.244617,-0.018820,0.011533,25.166378,-0.053155,0.000224,0.004053,1.570035,-0.009685,-0.000079,-0.000997,0.000005,-0.000575,-0.000001,0.002817,-0.001934,0.117452,0.060095,0.175590,0.175590,0.171234,0.903617,0.000000,0.000000,0.000000,0.000000,0.000000,0.000000,0.000000,0.000000,0.000000,0.000000,0.000000,0.000000,0.114030,3,0
530000,0.001937,13.499821,-0.017839,0.011660,25.172098,-0.052144,0.000234,0.004205,1.570023,-0.010091,-0.000086,-0.001179,0.000006,-0.000607,-0.000001,0.002823,-0.001995,0.120772,0.053465,0.175623,0.175623,0.170914,0.897295,0.000000,0.000000,0.000000,0.000000,0.000000,0.000000,0.000000,0.000000,0.000000,0.000000,0.000000,0.000000,0.117253,3,0
540000,0.001995,13.755175,-0.017111,0.011763,25.178007,-0.051665,0.000242,0.004381,1.570008,-0.010520,-0.000093,-0.001334,0.000006,-0.000641,-0.000002,0.002805,-0.002055,0.123939,0.044366,0.175724,0.175724,0.170658,0.890821,0.000000,0.000000,0.000000,0.000000,0.000000,0.000000,0.000000,0.000000,0.000000,0.000000,0.000000,0.000000,0.120325,3,0
550000,0.002054,14.014178,-0.017603,0.012013,25.189699,-0.052856,0.000246,0.004704,1.570003,-0.011396,-0.000101,-0.001339,0.000007,-0.000713,-0.000002,0.009809,-0.002116,0.246223,0.001313,0.175888,0.175888,0.170460,0.884202,0.000000,0.000000,0.000000,0.000000,0.000000,0.000000,0.000000,0.000000,0.000000,0.000000,0.000000,0.000000,0.239014,3,0
560000,0.002113,14.269786,-0.017612,0.012229,25.195965,-0.053369,0.000257,0.004891,1.569984,-0.011858,-0.000109,-0.001409,0.000008,-0.000751,-0.000002,0.002636,-0.002177,0.126255,0.018743,0.176109,0.176109,0.170314,0.877445,0.000000,0.000000,0.000000,0.000000,0.000000,0.000000,0.000000,0.000000,0.000000,0.000000,0.000000,0.000000,0.122567,3,0
570000,0.002172,14.526711,-0.016664,0.012307,25.204227,-0.052319,0.000257,0.005132,1.569972,-0.012490,-0.000118,-0.001609,0.000008,-0.000805,-0.000002,0.005057,-0.002237,0.168770,0.052610,0.176381,0.176381,0.170214,0.870557,0.000000,0.000000,0.000000,0.000000,0.000000,0.000000,0.000000,0.000000,0.000000,0.000000,0.000000,0.000000,0.163823,3,0
580000,0.002229,14.786112,-0.018201,0.012397,25.216471,-0.055125,0.000265,0.005488,1.569969,-0.013450,-0.000127,-0.001473,0.000009,-0.000888,-0.000002,0.010288,-0.002297,0.249702,-0.035257,0.176701,0.176701,0.170157,0.863545,0.000000,0.000000,0.000000,0.000000,0.000000,0.000000,0.000000,0.000000,0.000000,0.000000,0.000000,0.000000,0.242359,3,0
590000,0.002285,15.045619,-0.017392,0.012444,25.228899,-0.054560,0.000260,0.005854,1.569956,-0.014428,-0.000137,-0.001667,0.000010,-0.000974,-0.000002,0.010378,-0.002355,0.248604,0.048442,0.177064,0.177064,0.170138,0.856418,0.000000,0.000000,0.000000,0.000000,0.000000,0.000000,0.000000,0.000000,0.000000,0.000000,0.000000,0.000000,0.241278,3,0
600000,0.002340,15.302292,-0.017683,0.012492,25.236670,-0.055350,0.000267,0.006091,1.569950,-0.015024,-0.000147,-0.001706,0.000011,-0.001028,-0.000003,0.003558,-0.002411,0.148004,0.009401,0.177465,0.177465,0.170152,0.849183,0.000000,0.000000,0.000000,0.000000,0.000000,0.000000,0.000000,0.000000,0.000000,0.000000,0.000000,0.000000,0.143645,3,0
610000,0.002394,15.562051,-0.019292,0.012582,25.249414,-0.057991,0.000260,0.006481,1.569939,-0.016050,-0.000157,-0.001553,0.000012,-0.001122,-0.000003,0.010254,-0.002467,0.249073,-0.036819,0.177899,0.177900,0.170195,0.841848,0.000000,0.000000,0.000000,0.000000,0.000000,0.000000,0.000000,0.000000,0.000000,0.000000,0.000000,0.000000,0.241700,3,0
620000,0.002447,15.821321,-0.018485,0.012674,25.261229,-0.057299,0.000256,0.006865,1.569928,-0.017008,-0.000168,-0.001766,0.000013,-0.001212,-0.000003,0.008783,-0.002522,0.227735,0.049383,0.178364,0.178365,0.170264,0.834421,0.000000,0.000000,0.000000,0.000000,0.000000,0.000000,0.000000,0.000000,0.000000,0.000000,0.000000,0.000000,0.220978,3,0
630000,0.002498,16.078331,-0.017444,0.012726,25.269312,-0.056104,0.000252,0.007117,1.569907,-0.017640,-0.000179,-0.002018,0.000014,-0.001272,-0.000003,0.004038,-0.002575,0.147253,0.057242,0.178856,0.178856,0.170355,0.826910,0.000000,0.000000,0.000000,0.000000,0.000000,0.000000,0.000000,0.000000,0.000000,0.000000,0.000000,0.000000,0.142886,3,0
640000,0.002550,16.336662,-0.016862,0.012914,25.279535,-0.055573,0.000261,0.007451,1.569885,-0.018466,-0.000191,-0.002201,0.000015,-0.001352,-0.000003,0.006005,-0.002629,0.188349,0.040661,0.179370,0.179370,0.170465,0.819323,0.000000,0.000000,0.000000,0.000000,0.000000,0.000000,0.000000,0.000000,0.000000,0.000000,0.000000,0.000000,0.182736,3,0
650000,0.002602,16.595114,-0.017171,0.013105,25.289803,-0.056367,0.000267,0.007789,1.569874,-0.019308,-0.000203,-0.002244,0.000016,-0.001435,-0.000004,0.005749,-0.002682,0.188339,0.009097,0.179904,0.179905,0.170591,0.811669,0.000000,0.000000,0.000000,0.000000,0.000000,0.000000,0.000000,0.000000,0.000000,0.000000,0.000000,0.000000,0.182710,3,0
660000,0.002653,16.853083,-0.016904,0.013265,25.299189,-0.056168,0.000259,0.008113,1.569854,-0.020075,-0.000216,-0.002383,0.000018,-0.001513,-0.000004,0.004723,-0.002736,0.168331,0.029554,0.180455,0.180455,0.170729,0.803956,0.000000,0.000000,0.000000,0.000000,0.000000,0.000000,0.000000,0.000000,0.000000,0.000000,0.000000,0.000000,0.163291,3,0
670000,0.002705,17.114172,-0.017386,0.013423,25.313745,-0.057398,0.000264,0.008613,1.569845,-0.021319,-0.000230,-0.002401,0.000019,-0.001640,-0.000004,0.011620,-0.002789,0.268089,0.003289,0.181020,0.181020,0.170877,0.796191,0.000000,0.000000,0.000000,0.000000,0.000000,0.000000,0.000000,0.000000,0.000000,0.000000,0.000000,0.000000,0.260014,3,0
680000,0.002756,17.371136,-0.016310,0.013632,25.321257,-0.056132,0.000268,0.008871,1.569841,-0.021914,-0.000243,-0.002685,0.000021,-0.001702,-0.000004,0.003123,-0.002843,0.126127,0.058319,0.181595,0.181595,0.171032,0.788382,0.000000,0.000000,0.000000,0.000000,0.000000,0.000000,0.000000,0.000000,0.000000,0.000000,0.000000,0.000000,0.122342,3,0
690000,0.002808,17.630039,-0.015639,0.013805,25.331923,-0.055692,0.000268,0.009248,1.569827,-0.022812,-0.000258,-0.002904,0.000022,-0.001798,-0.000004,0.005971,-0.002896,0.187153,0.043694,0.182179,0.182179,0.171193,0.780538,0.000000,0.000000,0.000000,0.000000,0.000000,0.000000,0.000000,0.000000,0.000000,0.000000,0.000000,0.000000,0.181493,3,0
700000,0.002858,17.888447,-0.017228,0.013822,25.341658,-0.058617,0.000269,0.009591,1.569813,-0.023626,-0.000272,-0.002725,0.000024,-0.001886,-0.000005,0.004697,-0.002948,0.166687,-0.035631,0.182769,0.182769,0.171357,0.772667,0.000000,0.000000,0.000000,0.000000,0.000000,0.000000,0.000000,0.000000,0.000000,0.000000,0.000000,0.000000,0.161635,3,0
710000,0.002906,18.149397,-0.017487,0.013826,25.355717,-0.059288,0.000263,0.010087,1.569808,-0.024846,-0.000288,-0.002788,0.000025,-0.002020,-0.000005,0.009812,-0.002998,0.246124,0.011890,0.183363,0.183363,0.171521,0.764775,0.000000,0.000000,0.000000,0.000000,0.000000,0.000000,0.000000,0.000000,0.000000,0.000000,0.000000,0.000000,0.238619,3,0
720000,0.002953,18.409210,-0.019013,0.013832,25.367542,-0.061886,0.000266,0.010526,1.569790,-0.025872,-0.000303,-0.002621,0.000027,-0.002135,-0.000005,0.006873,-0.003046,0.203701,-0.032189,0.183959,0.183959,0.171685,0.756871,0.000000,0.000000,0.000000,0.000000,0.000000,0.000000,0.000000,0.000000,0.000000,0.000000,0.000000,0.000000,0.197478,3,0
730000,0.002998,18.669729,-0.018773,0.013893,25.380594,-0.062002,0.000271,0.011012,1.569772,-0.027005,-0.000320,-0.002785,0.000029,-0.002265,-0.000006,0.008119,-0.003093,0.222071,0.030504,0.184555,0.184555,0.171846,0.748962,0.000000,0.000000,0.000000,0.000000,0.000000,0.000000,0.000000,0.000000,0.000000,0.000000,0.000000,0.000000,0.215261,3,0
740000,0.003043,18.928492,-0.018390,0.013986,25.390369,-0.061686,0.000270,0.011369,1.569756,-0.027835,-0.000336,-0.002978,0.000031,-0.002361,-0.000006,0.004351,-0.003140,0.160212,0.035440,0.185149,0.185149,0.172003,0.741055,0.000000,0.000000,0.000000,0.000000,0.000000,0.000000,0.000000,0.000000,0.000000,0.000000,0.000000,0.000000,0.155298,3,0
750000,0.003087,19.189817,-0.019381,0.014104,25.404585,-0.063613,0.000262,0.011904,1.569738,-0.029091,-0.000354,-0.002912,0.000033,-0.002509,-0.000006,0.009275,-0.003185,0.239292,-0.012532,0.185740,0.185740,0.172154,0.733157,0.000000,0.000000,0.000000,0.000000,0.000000,0.000000,0.000000,0.000000,0.000000,0.000000,0.000000,0.000000,0.231905,3,0
760000,0.003131,19.451214,-0.021072,0.014240,25.418617,-0.066508,0.000268,0.012453,1.569724,-0.030348,-0.000371,-0.002711,0.000035,-0.002660,-0.000007,0.009228,-0.003231,0.236252,-0.036239,0.186326,0.186326,0.172299,0.725274,0.000000,0.000000,0.000000,0.000000,0.000000,0.000000,0.000000,0.000000,0.000000,0.000000,0.000000,0.000000,0.228936,3,0
770000,0.003174,19.711437,-0.022280,0.014309,25.430555,-0.068484,0.000275,0.012918,1.569716,-0.031390,-0.000390,-0.002609,0.000037,-0.002787,-0.000007,0.006095,-0.003276,0.193382,-0.018454,0.186906,0.186906,0.172435,0.717413,0.000000,0.000000,0.000000,0.000000,0.000000,0.000000,0.000000,0.000000,0.000000,0.000000,0.000000,0.000000,0.187386,3,0
780000,0.003215,19.970497,-0.021285,0.014398,25.440212,-0.067052,0.000273,0.013291,1.569700,-0.032216,-0.000408,-0.002949,0.000040,-0.002890,-0.000007,0.004278,-0.003320,0.151707,0.058813,0.187479,0.187479,0.172562,0.709581,0.000000,0.000000,0.000000,0.000000,0.000000,0.000000,0.000000,0.000000,0.000000,0.000000,0.000000,0.000000,0.147002,3,0
790000,0.003256,20.229023,-0.022192,0.014418,25.448999,-0.068685,0.000276,0.013640,1.569688,-0.032940,-0.000427,-0.002906,0.000042,-0.002981,-0.000007,0.002786,-0.003361,0.131096,-0.007745,0.188043,0.188043,0.172680,0.701783,0.000000,0.000000,0.000000,0.000000,0.000000,0.000000,0.000000,0.000000,0.000000,0.000000,0.000000,0.000000,0.127029,3,0
800000,0.003297,20.486393,-0.022159,0.014586,25.455492,-0.068960,0.000279,0.013886,1.569673,-0.033447,-0.000446,-0.003058,0.000044,-0.003046,-0.000008,0.001448,-0.003404,0.091150,0.025469,0.188598,0.188598,0.172786,0.694026,0.000000,0.000000,0.000000,0.000000,0.000000,0.000000,0.000000,0.000000,0.000000,0.000000,0.000000,0.000000,0.088347,3,0
810000,0.003337,20.745121,-0.022734,0.014680,25.464325,-0.070020,0.000267,0.014233,1.569668,-0.034191,-0.000466,-0.003086,0.000047,-0.003143,-0.000008,0.002813,-0.003445,0.131899,0.004453,0.189143,0.189143,0.172881,0.686314,0.000000,0.000000,0.000000,0.000000,0.000000,0.000000,0.000000,0.000000,0.000000,0.000000,0.000000,0.000000,0.127784,3,0
820000,0.003376,21.005825,-0.021599,0.014802,25.476641,-0.068717,0.000261,0.014731,1.569661,-0.035278,-0.000486,-0.003479,0.000050,-0.003287,-0.000008,0.006565,-0.003487,0.191143,0.064174,0.189678,0.189677,0.172964,0.678653,0.000000,0.000000,0.000000,0.000000,0.000000,0.000000,0.000000,0.000000,0.000000,0.000000,0.000000,0.000000,0.185131,3,0
830000,0.003414,21.265331,-0.021272,0.014803,25.486546,-0.068332,0.000261,0.015145,1.569647,-0.036134,-0.000507,-0.003701,0.000053,-0.003402,-0.000008,0.003790,-0.003526,0.148985,0.035618,0.190200,0.190200,0.173034,0.671048,0.000000,0.000000,0.000000,0.000000,0.000000,0.000000,0.000000,0.000000,0.000000,0.000000,0.000000,0.000000,0.144303,3,0
840000,0.003452,21.526176,-0.021600,0.014942,25.498661,-0.068990,0.000251,0.015653,1.569639,-0.037223,-0.000528,-0.003784,0.000055,-0.003551,-0.000009,0.005705,-0.003565,0.187563,0.012770,0.190711,0.190711,0.173091,0.663503,0.000000,0.000000,0.000000,0.000000,0.000000,0.000000,0.000000,0.000000,0.000000,0.000000,0.000000,0.000000,0.181633,3,0
850000,0.003488,21.785810,-0.021811,0.014916,25.508627,-0.069676,0.000239,0.016073,1.569621,-0.038073,-0.000550,-0.003894,0.000059,-0.003669,-0.000009,0.003454,-0.003603,0.145264,0.017111,0.191210,0.191210,0.173135,0.656024,0.000000,0.000000,0.000000,0.000000,0.000000,0.000000,0.000000,0.000000,0.000000,0.000000,0.000000,0.000000,0.140678,3,0
860000,0.003523,22.044245,-0.021537,0.014910,25.516354,-0.069573,0.000241,0.016395,1.569604,-0.038688,-0.000572,-0.004114,0.000062,-0.003756,-0.000009,0.001942,-0.003639,0.104197,0.034130,0.191695,0.191695,0.173165,0.648614,0.000000,0.000000,0.000000,0.000000,0.000000,0.000000,0.000000,0.000000,0.000000,0.000000,0.000000,0.000000,0.100930,3,0
870000,0.003557,22.305307,-0.020664,0.014984,25.528605,-0.068424,0.000241,0.016918,1.569592,-0.039781,-0.000594,-0.004472,0.000065,-0.003912,-0.000010,0.005928,-0.003675,0.183626,0.054811,0.192168,0.192168,0.173181,0.641278,0.000000,0.000000,0.000000,0.000000,0.000000,0.000000,0.000000,0.000000,0.000000,0.000000,0.000000,0.000000,0.177781,3,0
880000,0.003591,22.567698,-0.022030,0.015125,25.542995,-0.070630,0.000228,0.017556,1.569591,-0.041106,-0.000617,-0.004325,0.000068,-0.004106,-0.000010,0.007941,-0.003710,0.220625,-0.023128,0.192628,0.192627,0.173183,0.634018,0.000000,0.000000,0.000000,0.000000,0.000000,0.000000,0.000000,0.000000,0.000000,0.000000,0.000000,0.000000,0.213571,3,0
890000,0.003624,22.826277,-0.022069,0.015104,25.550539,-0.070890,0.000217,0.017882,1.569575,-0.041694,-0.000640,-0.004483,0.000072,-0.004193,-0.000011,0.001618,-0.003744,0.097242,0.023620,0.193074,0.193074,0.173170,0.626838,0.000000,0.000000,0.000000,0.000000,0.000000,0.000000,0.000000,0.000000,0.000000,0.000000,0.000000,0.000000,0.094184,3,0
900000,0.003656,23.086214,-0.022448,0.015229,25.560303,-0.071576,0.000205,0.018305,1.569565,-0.042527,-0.000664,-0.004566,0.000075,-0.004318,-0.000011,0.003042,-0.003778,0.136772,0.011871,0.193507,0.193506,0.173144,0.619742,0.000000,0.000000,0.000000,0.000000,0.000000,0.000000,0.000000,0.000000,0.000000,0.000000,0.000000,0.000000,0.132411,3,0
910000,0.003687,23.346849,-0.023975,0.015190,25.571184,-0.073994,0.000193,0.018795,1.569559,-0.043478,-0.000687,-0.004383,0.000079,-0.004463,-0.000011,0.004002,-0.003810,0.155041,-0.027595,0.193926,0.193926,0.173103,0.612733,0.000000,0.000000,0.000000,0.000000,0.000000,0.000000,0.000000,0.000000,0.000000,0.000000,0.000000,0.000000,0.150075,3,0
920000,0.003717,23.610104,-0.023179,0.015208,25.586529,-0.073146,0.000183,0.019508,1.569543,-0.044911,-0.000712,-0.004756,0.000083,-0.004686,-0.000012,0.009169,-0.003841,0.232237,0.053829,0.194333,0.194332,0.173048,0.605812,0.000000,0.000000,0.000000,0.000000,0.000000,0.000000,0.000000,0.000000,0.000000,0.000000,0.000000,0.000000,0.224747,3,0
930000,0.003746,23.873367,-0.023105,0.015307,25.601782,-0.073314,0.000173,0.020211,1.569534,-0.046322,-0.000737,-0.004958,0.000087,-0.004908,-0.000012,0.008462,-0.003872,0.227255,0.028514,0.194726,0.194725,0.172979,0.598984,0.000000,0.000000,0.000000,0.000000,0.000000,0.000000,0.000000,0.000000,0.000000,0.000000,0.000000,0.000000,0.219911,3,0
940000,0.003774,24.134699,-0.024851,0.015240,25.613436,-0.076135,0.000173,0.020751,1.569514,-0.047339,-0.000762,-0.004721,0.000091,-0.005071,-0.000013,0.004461,-0.003900,0.162624,-0.034608,0.195106,0.195105,0.172896,0.592249,0.000000,0.000000,0.000000,0.000000,0.000000,0.000000,0.000000,0.000000,0.000000,0.000000,0.000000,0.000000,0.157381,3,0
950000,0.003801,24.396706,-0.026548,0.015295,25.626150,-0.078900,0.000166,0.021350,1.569507,-0.048467,-0.000787,-0.004501,0.000095,-0.005254,-0.000013,0.005361,-0.003929,0.179483,-0.031860,0.195472,0.195472,0.172800,0.585610,0.000000,0.000000,0.000000,0.000000,0.000000,0.000000,0.000000,0.000000,0.000000,0.000000,0.000000,0.000000,0.173677,3,0
960000,0.003826,24.656782,-0.025535,0.015230,25.635347,-0.077409,0.000157,0.021761,1.569499,-0.049199,-0.000813,-0.004953,0.000099,-0.005375,-0.000014,0.002821,-0.003956,0.116138,0.063045,0.195827,0.195826,0.172689,0.579069,0.000000,0.000000,0.000000,0.000000,0.000000,0.000000,0.000000,0.000000,0.000000,0.000000,0.000000,0.000000,0.112414,3,0
970000,0.003851,24.919500,-0.026844,0.015279,25.648916,-0.079437,0.000158,0.022422,1.569484,-0.050431,-0.000839,-0.004829,0.000103,-0.005581,-0.000014,0.006117,-0.003981,0.193909,-0.018045,0.196169,0.196168,0.172566,0.572626,0.000000,0.000000,0.000000,0.000000,0.000000,0.000000,0.000000,0.000000,0.000000,0.000000,0.000000,0.000000,0.187608,3,0
980000,0.003876,25.179617,-0.027002,0.015377,25.657871,-0.079604,0.000143,0.022837,1.569477,-0.051131,-0.000865,-0.004996,0.000108,-0.005700,-0.000014,0.002035,-0.004007,0.109966,0.022600,0.196499,0.196497,0.172430,0.566284,0.000000,0.000000,0.000000,0.000000,0.000000,0.000000,0.000000,0.000000,0.000000,0.000000,0.000000,0.000000,0.106436,3,0
990000,0.003900,25.439119,-0.028121,0.015351,25.665625,-0.081235,0.000126,0.023179,1.569472,-0.051697,-0.000891,-0.004920,0.000112,-0.005798,-0.000015,0.001278,-0.004032,0.088305,-0.010775,0.196817,0.196816,0.172281,0.560045,0.000000,0.000000,0.000000,0.000000,0.000000,0.000000,0.000000,0.000000,0.000000,0.000000,0.000000,0.000000,0.085496,3,0
1000000,0.003921,25.698666,-0.027357,0.015276,25.673315,-0.080426,0.000121,0.023532,1.569452,-0.052256,-0.000917,-0.005332,0.000117,-0.005896,-0.000015,0.001726,-0.004055,0.087152,0.055525,0.197124,0.197122,0.172119,0.553907,0.000000,0.000000,0.000000,0.000000,0.000000,0.000000,0.000000,0.000000,0.000000,0.000000,0.000000,0.000000,0.084381,3,0
1010000,0.003941,25.958908,-0.027795,0.015243,25.682142,-0.081019,0.000121,0.023942,1.569431,-0.052939,-0.000944,-0.005434,0.000122,-0.006017,-0.000015,0.001836,-0.004076,0.105833,0.013234,0.197420,0.197418,0.171946,0.547874,0.000000,0.000000,0.000000,0.000000,0.000000,0.000000,0.000000,0.000000,0.000000,0.000000,0.000000,0.000000,0.102426,3,0
1020000,0.003962,26.217871,-0.027973,0.015299,25.688677,-0.081490,0.000108,0.024216,1.569417,-0.053354,-0.000971,-0.005605,0.000126,-0.006092,-0.000015,0.000749,-0.004097,0.064169,0.022632,0.197705,0.197703,0.171761,0.541945,0.000000,0.000000,0.000000,0.000000,0.000000,0.000000,0.000000,0.000000,0.000000,0.000000,0.000000,0.000000,0.062182,3,0
1030000,0.003981,26.477541,-0.029123,0.015314,25.696375,-0.083233,0.000095,0.024559,1.569408,-0.053897,-0.000998,-0.005524,0.000131,-0.006192,-0.000016,0.001145,-0.004117,0.083447,-0.011205,0.197981,0.197978,0.171564,0.536120,0.000000,0.000000,0.000000,0.000000,0.000000,0.000000,0.000000,0.000000,0.000000,0.000000,0.000000,0.000000,0.080790,3,0
1040000,0.004000,26.739872,-0.028910,0.015381,25.708498,-0.082930,0.000084,0.025182,1.569401,-0.054950,-0.001026,-0.005813,0.000137,-0.006387,-0.000016,0.004437,-0.004138,0.161640,0.037161,0.198246,0.198244,0.171357,0.530400,0.000000,0.000000,0.000000,0.000000,0.000000,0.000000,0.000000,0.000000,0.000000,0.000000,0.000000,0.000000,0.156353,3,0
1050000,0.004020,27.002201,-0.030425,0.015445,25.720545,-0.085207,0.000077,0.025789,1.569392,-0.055982,-0.001054,-0.005640,0.000142,-0.006582,-0.000017,0.004095,-0.004157,0.157614,-0.023409,0.198502,0.198500,0.171139,0.524786,0.000000,0.000000,0.000000,0.000000,0.000000,0.000000,0.000000,0.000000,0.000000,0.000000,0.000000,0.000000,0.152452,3,0
1060000,0.004037,27.260572,-0.029590,0.015335,25.725557,-0.084303,0.000059,0.025979,1.569375,-0.056205,-0.001081,-0.006104,0.000147,-0.006625,-0.000017,0.000771,-0.004176,0.034315,0.059750,0.198749,0.198747,0.170911,0.519277,0.000000,0.000000,0.000000,0.000000,0.000000,0.000000,0.000000,0.000000,0.000000,0.000000,0.000000,0.000000,0.033425,3,0
1070000,0.004053,27.523607,-0.028632,0.015362,25.738565,-0.082989,0.000043,0.026656,1.569355,-0.057343,-0.001109,-0.006610,0.000153,-0.006846,-0.000017,0.005514,-0.004193,0.173475,0.063933,0.198988,0.198985,0.170673,0.513874,0.000000,0.000000,0.000000,0.000000,0.000000,0.000000,0.000000,0.000000,0.000000,0.000000,0.000000,0.000000,0.167774,3,0
1080000,0.004069,27.782663,-0.027519,0.015382,25.744413,-0.081715,0.000034,0.026912,1.569345,-0.057666,-0.001137,-0.007153,0.000159,-0.006909,-0.000018,0.001167,-0.004209,0.049459,0.068947,0.199219,0.199215,0.170426,0.508575,0.000000,0.000000,0.000000,0.000000,0.000000,0.000000,0.000000,0.000000,0.000000,0.000000,0.000000,0.000000,0.047992,3,0
1090000,0.004084,28.042419,-0.028124,0.015383,25.751577,-0.082632,0.000015,0.027232,1.569339,-0.058119,-0.001165,-0.007220,0.000164,-0.007000,-0.000018,0.000773,-0.004225,0.068649,0.008003,0.199442,0.199438,0.170170,0.503382,0.000000,0.000000,0.000000,0.000000,0.000000,0.000000,0.000000,0.000000,0.000000,0.000000,0.000000,0.000000,0.066494,3,0
1100000,0.004100,28.304190,-0.028790,0.015424,25.762209,-0.083512,-0.000004,0.027771,1.569332,-0.058957,-0.001194,-0.007276,0.000170,-0.007170,-0.000018,0.002603,-0.004241,0.126884,0.006206,0.199658,0.199654,0.169905,0.498293,0.000000,0.000000,0.000000,0.000000,0.000000,0.000000,0.000000,0.000000,0.000000,0.000000,0.000000,0.000000,0.122730,3,0
1110000,0.004116,28.562645,-0.030462,0.015484,25.766909,-0.086054,-0.000025,0.027942,1.569318,-0.059118,-0.001222,-0.007044,0.000176,-0.007203,-0.000018,0.000233,-0.004257,0.024036,-0.029041,0.199868,0.199863,0.169632,0.493309,0.000000,0.000000,0.000000,0.000000,0.000000,0.000000,0.000000,0.000000,0.000000,0.000000,0.000000,0.000000,0.023597,3,0
1120000,0.004130,28.823793,-0.030127,0.015443,25.776073,-0.085793,-0.000046,0.028407,1.569308,-0.059802,-0.001251,-0.007397,0.000182,-0.007346,-0.000019,0.002027,-0.004273,0.103479,0.042961,0.200071,0.200066,0.169352,0.488427,0.000000,0.000000,0.000000,0.000000,0.000000,0.000000,0.000000,0.000000,0.000000,0.000000,0.000000,0.000000,0.100116,3,0
1130000,0.004143,29.084282,-0.030249,0.015399,25.784056,-0.085854,-0.000053,0.028797,1.569294,-0.060337,-0.001280,-0.007618,0.000188,-0.007460,-0.000019,0.001169,-0.004286,0.080784,0.026645,0.200269,0.200264,0.169064,0.483648,0.000000,0.000000,0.000000,0.000000,0.000000,0.000000,0.000000,0.000000,0.000000,0.000000,0.000000,0.000000,0.078199,3,0
1140000,0.004154,29.346107,-0.029442,0.015331,25.794323,-0.084986,-0.000073,0.029328,1.569277,-0.061120,-0.001309,-0.008116,0.000195,-0.007628,-0.000020,0.002842,-0.004299,0.118399,0.059880,0.200461,0.200456,0.168769,0.478971,0.000000,0.000000,0.000000,0.000000,0.000000,0.000000,0.000000,0.000000,0.000000,0.000000,0.000000,0.000000,0.114522,3,0
1150000,0.004166,29.607262,-0.030512,0.015318,25.803267,-0.086459,-0.000082,0.029790,1.569255,-0.061752,-0.001338,-0.008061,0.000201,-0.007766,-0.000020,0.001466,-0.004310,0.095015,-0.007272,0.200648,0.200643,0.168468,0.474395,0.000000,0.000000,0.000000,0.000000,0.000000,0.000000,0.000000,0.000000,0.000000,0.000000,0.000000,0.000000,0.091931,3,0
1160000,0.004176,29.869745,-0.031877,0.015253,25.814379,-0.088438,-0.000099,0.030382,1.569235,-0.062630,-0.001367,-0.007927,0.000207,-0.007961,-0.000020,0.002856,-0.004321,0.131958,-0.017138,0.200831,0.200825,0.168160,0.469919,0.000000,0.000000,0.000000,0.000000,0.000000,0.000000,0.000000,0.000000,0.000000,0.000000,0.000000,0.000000,0.127609,3,0
1170000,0.004184,30.128872,-0.031052,0.015118,25.819595,-0.087436,-0.000107,0.030590,1.569215,-0.062816,-0.001396,-0.008444,0.000214,-0.008002,-0.000021,0.000748,-0.004330,0.028391,0.061622,0.201010,0.201004,0.167847,0.465543,0.000000,0.000000,0.000000,0.000000,0.000000,0.000000,0.000000,0.000000,0.000000,0.000000,0.000000,0.000000,0.027760,3,0
1180000,0.004191,30.387362,-0.030549,0.015008,25.823582,-0.086813,-0.000129,0.030722,1.569207,-0.062865,-0.001425,-0.008863,0.000221,-0.008013,-0.000021,0.000414,-0.004337,0.007759,0.049747,0.201186,0.201179,0.167528,0.461265,0.000000,0.000000,0.000000,0.000000,0.000000,0.000000,0.000000,0.000000,0.000000,0.000000,0.000000,0.000000,0.008593,3,0
1190000,0.004197,30.649893,-0.031002,0.014957,25.834682,-0.087476,-0.000137,0.031312,1.569194,-0.063708,-0.001454,-0.009004,0.000228,-0.008208,-0.000021,0.002638,-0.004343,0.126928,0.015602,0.201358,0.201350,0.167205,0.457084,0.000000,0.000000,0.000000,0.000000,0.000000,0.000000,0.000000,0.000000,0.000000,0.000000,0.000000,0.000000,0.122741,3,0
1200000,0.004202,30.911730,-0.032109,0.014843,25.844309,-0.089072,-0.000160,0.031821,1.569181,-0.064392,-0.001484,-0.008946,0.000235,-0.008369,-0.000022,0.001716,-0.004348,0.102835,-0.007668,0.201527,0.201519,0.166877,0.452998,0.000000,0.000000,0.000000,0.000000,0.000000,0.000000,0.000000,0.000000,0.000000,0.000000,0.000000,0.000000,0.099469,3,0
1210000,0.004205,31.170874,-0.032467,0.014740,25.849125,-0.089405,-0.000175,0.032000,1.569174,-0.064522,-0.001513,-0.009116,0.000242,-0.008400,-0.000022,0.000129,-0.004352,0.019810,0.019623,0.201694,0.201686,0.166544,0.449008,0.000000,0.000000,0.000000,0.000000,0.000000,0.000000,0.000000,0.000000,0.000000,0.000000,0.000000,0.000000,0.019602,3,0
1220000,0.004208,31.432718,-0.033528,0.014641,25.858612,-0.090989,-0.000195,0.032501,1.569163,-0.065177,-0.001542,-0.009077,0.000249,-0.008558,-0.000022,0.001572,-0.004354,0.098560,-0.005320,0.201859,0.201850,0.166208,0.445111,0.000000,0.000000,0.000000,0.000000,0.000000,0.000000,0.000000,0.000000,0.000000,0.000000,0.000000,0.000000,0.095336,3,0
1230000,0.004210,31.692530,-0.032839,0.014681,25.864340,-0.090320,-0.000221,0.032747,1.569152,-0.065408,-0.001571,-0.009587,0.000256,-0.008614,-0.000022,0.000758,-0.004357,0.035408,0.058435,0.202022,0.202012,0.165868,0.441306,0.000000,0.000000,0.000000,0.000000,0.000000,0.000000,0.000000,0.000000,0.000000,0.000000,0.000000,0.000000,0.034478,3,0
1240000,0.004211,31.956373,-0.033751,0.014546,25.877159,-0.091647,-0.000243,0.033484,1.569138,-0.066423,-0.001601,-0.009604,0.000263,-0.008867,-0.000023,0.003785,-0.004358,0.153240,0.000579,0.202183,0.202173,0.165525,0.437593,0.000000,0.000000,0.000000,0.000000,0.000000,0.000000,0.000000,0.000000,0.000000,0.000000,0.000000,0.000000,0.148137,3,0
1250000,0.004210,32.218147,-0.033181,0.014489,25.886108,-0.091026,-0.000258,0.033955,1.569134,-0.067002,-0.001630,-0.010092,0.000271,-0.009013,-0.000023,0.001737,-0.004358,0.088058,0.054691,0.202343,0.202333,0.165179,0.433968,0.000000,0.000000,0.000000,0.000000,0.000000,0.000000,0.000000,0.000000,0.000000,0.000000,0.000000,0.000000,0.085199,3,0
1260000,0.004210,32.481918,-0.034565,0.014378,25.898577,-0.092932,-0.000279,0.034686,1.569126,-0.067955,-0.001660,-0.009960,0.000278,-0.009257,-0.000024,0.003398,-0.004357,0.144257,-0.016389,0.202503,0.202491,0.164830,0.430433,0.000000,0.000000,0.000000,0.000000,0.000000,0.000000,0.000000,0.000000,0.000000,0.000000,0.000000,0.000000,0.139449,3,0
1270000,0.004208,32.742275,-0.035495,0.014285,25.904806,-0.094170,-0.000289,0.034955,1.569103,-0.068215,-0.001689,-0.009968,0.000286,-0.009325,-0.000024,0.000253,-0.004355,0.039391,0.000570,0.202661,0.202650,0.164479,0.426985,0.000000,0.000000,0.000000,0.000000,0.000000,0.000000,0.000000,0.000000,0.000000,0.000000,0.000000,0.000000,0.038291,3,0
1280000,0.004205,33.005314,-0.036348,0.014139,25.915749,-0.095482,-0.000308,0.035580,1.569090,-0.068983,-0.001718,-0.010015,0.000294,-0.009527,-0.000025,0.002207,-0.004352,0.116913,0.004113,0.202820,0.202808,0.164126,0.423622,0.000000,0.000000,0.000000,0.000000,0.000000,0.000000,0.000000,0.000000,0.000000,0.000000,0.000000,0.000000,0.113039,3,0
1290000,0.004201,33.267635,-0.037496,0.014077,25.925249,-0.097146,-0.000320,0.036099,1.569071,-0.069589,-0.001747,-0.009967,0.000301,-0.009689,-0.000025,0.001382,-0.004348,0.092308,-0.006284,0.202978,0.202965,0.163772,0.420343,0.000000,0.000000,0.000000,0.000000,0.000000,0.000000,0.000000,0.000000,0.000000,0.000000,0.000000,0.000000,0.089283,3,0
1300000,0.004196,33.531261,-0.037441,0.014018,25.936947,-0.097164,-0.000334,0.036780,1.569053,-0.070426,-0.001776,-0.010329,0.000309,-0.009916,-0.000026,0.002886,-0.004344,0.128078,0.038603,0.203137,0.203123,0.163416,0.417147,0.000000,0.000000,0.000000,0.000000,0.000000,0.000000,0.000000,0.000000,0.000000,0.000000,0.000000,0.000000,0.123816,3,0
1310000,0.004191,33.790787,-0.037006,0.013989,25.941435,-0.096551,-0.000349,0.036907,1.569031,-0.070445,-0.001804,-0.010804,0.000317,-0.009920,-0.000026,0.000447,-0.004339,0.003483,0.052185,0.203296,0.203281,0.163059,0.414034,0.000000,0.000000,0.000000,0.000000,0.000000,0.000000,0.000000,0.000000,0.000000,0.000000,0.000000,0.000000,0.005377,3,0
1320000,0.004184,34.051666,-0.036549,0.013864,25.948076,-0.096086,-0.000375,0.037211,1.569017,-0.070716,-0.001832,-0.011294,0.000325,-0.009995,-0.000026,0.000746,-0.004332,0.042095,0.053121,0.203456,0.203440,0.162702,0.410999,0.000000,0.000000,0.000000,0.000000,0.000000,0.000000,0.000000,0.000000,0.000000,0.000000,0.000000,0.000000,0.040887,3,0
1330000,0.004177,34.309830,-0.035613,0.013746,25.949938,-0.094847,-0.000395,0.037143,1.568993,-0.070453,-0.001860,-0.011937,0.000334,-0.009919,-0.000026,0.001063,-0.004325,-0.039940,0.070366,0.203616,0.203600,0.162344,0.408044,0.000000,0.000000,0.000000,0.000000,0.000000,0.000000,0.000000,0.000000,0.000000,0.000000,0.000000,0.000000,0.038803,3,0
1340000,0.004168,34.569366,-0.035089,0.013668,25.954060,-0.094087,-0.000419,0.037251,1.568983,-0.070450,-0.001887,-0.012445,0.000342,-0.009917,-0.000026,0.000493,-0.004316,0.000065,0.054956,0.203778,0.203761,0.161985,0.405164,0.000000,0.000000,0.000000,0.000000,0.000000,0.000000,0.000000,0.000000,0.000000,0.000000,0.000000,0.000000,0.004169,3,0
1350000,0.004159,34.827557,-0.034684,0.013492,25.955849,-0.093644,-0.000432,0.037172,1.568957,-0.070183,-0.001915,-0.012908,0.000350,-0.009838,-0.000026,0.000682,-0.004306,-0.040844,0.050283,0.203941,0.203923,0.161627,0.402361,0.000000,0.000000,0.000000,0.000000,0.000000,0.000000,0.000000,0.000000,0.000000,0.000000,0.000000,0.000000,0.039670,3,0
1360000,0.004149,35.090500,-0.033673,0.013487,25.965973,-0.092592,-0.000447,0.037746,1.568937,-0.070812,-0.001943,-0.013604,0.000359,-0.010022,-0.000026,0.002438,-0.004296,0.098522,0.073340,0.204105,0.204086,0.161268,0.399631,0.000000,0.000000,0.000000,0.000000,0.000000,0.000000,0.000000,0.000000,0.000000,0.000000,0.000000,0.000000,0.095271,3,0
1370000,0.004140,35.350697,-0.034897,0.013463,25.971210,-0.094289,-0.000461,0.037932,1.568931,-0.070905,-0.001970,-0.013507,0.000367,-0.010050,-0.000026,0.000054,-0.004286,0.014385,-0.010528,0.204270,0.204251,0.160910,0.396975,0.000000,0.000000,0.000000,0.000000,0.000000,0.000000,0.000000,0.000000,0.000000,0.000000,0.000000,0.000000,0.014497,3,0
1380000,0.004130,35.609516,-0.033805,0.013373,25.973841,-0.092848,-0.000482,0.037906,1.568918,-0.070727,-0.001997,-0.014224,0.000376,-0.009994,-0.000026,0.001067,-0.004277,-0.027191,0.076331,0.204438,0.204417,0.160553,0.394389,0.000000,0.000000,0.000000,0.000000,0.000000,0.000000,0.000000,0.000000,0.000000,0.000000,0.000000,0.000000,0.026579,3,0
1390000,0.004118,35.869701,-0.032904,0.013263,25.978930,-0.091944,-0.000502,0.038076,1.568895,-0.070799,-0.002023,-0.014882,0.000384,-0.010015,-0.000026,0.000801,-0.004265,0.012146,0.069091,0.204607,0.204585,0.160196,0.391873,0.000000,0.000000,0.000000,0.000000,0.000000,0.000000,0.000000,0.000000,0.000000,0.000000,0.000000,0.000000,0.012443,3,0
1400000,0.004107,36.129204,-0.032941,0.013198,25.982615,-0.092020,-0.000519,0.038141,1.568877,-0.070737,-0.002050,-0.015200,0.000393,-0.009995,-0.000026,0.000200,-0.004253,-0.009541,0.033521,0.204777,0.204755,0.159841,0.389425,0.000000,0.000000,0.000000,0.000000,0.000000,0.000000,0.000000,0.000000,0.000000,0.000000,0.000000,0.000000,0.010086,3,0
1410000,0.004095,36.388702,-0.032475,0.013095,25.986256,-0.091492,-0.000543,0.038191,1.568858,-0.070666,-0.002076,-0.015703,0.000402,-0.009971,-0.000026,0.000469,-0.004240,-0.010654,0.052556,0.204950,0.204927,0.159487,0.387043,0.000000,0.000000,0.000000,0.000000,0.000000,0.000000,0.000000,0.000000,0.000000,0.000000,0.000000,0.000000,0.011070,3,0
1420000,0.004083,36.648209,-0.033618,0.013003,25.989960,-0.093065,-0.000559,0.038249,1.568844,-0.070593,-0.002103,-0.015622,0.000410,-0.009948,-0.000026,0.000036,-0.004227,-0.011768,-0.008178,0.205124,0.205100,0.159134,0.384728,0.000000,0.000000,0.000000,0.000000,0.000000,0.000000,0.000000,0.000000,0.000000,0.000000,0.000000,0.000000,0.012079,3,0
1430000,0.004070,36.909744,-0.033228,0.012980,25.997196,-0.092831,-0.000585,0.038592,1.568829,-0.070881,-0.002129,-0.016119,0.000419,-0.010041,-0.000027,0.000771,-0.004215,0.046753,0.050652,0.205301,0.205276,0.158783,0.382476,0.000000,0.000000,0.000000,0.000000,0.000000,0.000000,0.000000,0.000000,0.000000,0.000000,0.000000,0.000000,0.045345,3,0
1440000,0.004057,37.167843,-0.032741,0.012912,25.998108,-0.092077,-0.000612,0.038414,1.568803,-0.070531,-0.002154,-0.016634,0.000428,-0.009923,-0.000026,0.000972,-0.004202,-0.055828,0.053703,0.205479,0.205453,0.158434,0.380286,0.000000,0.000000,0.000000,0.000000,0.000000,0.000000,0.000000,0.000000,0.000000,0.000000,0.000000,0.000000,0.054062,3,0
1450000,0.004043,37.430046,-0.032217,0.012812,26.006269,-0.091364,-0.000627,0.038841,1.568785,-0.070921,-0.002180,-0.017186,0.000437,-0.010053,-0.000027,0.001159,-0.004188,0.063770,0.055591,0.205660,0.205633,0.158086,0.378156,0.000000,0.000000,0.000000,0.000000,0.000000,0.000000,0.000000,0.000000,0.000000,0.000000,0.000000,0.000000,0.061725,3,0
1460000,0.004030,37.690159,-0.032823,0.012778,26.010687,-0.092272,-0.000650,0.038964,1.568771,-0.070922,-0.002206,-0.017305,0.000446,-0.010053,-0.000027,0.000027,-0.004173,0.000275,0.012162,0.205843,0.205814,0.157741,0.376087,0.000000,0.000000,0.000000,0.000000,0.000000,0.000000,0.000000,0.000000,0.000000,0.000000,0.000000,0.000000,0.004039,3,0
1470000,0.004015,37.948208,-0.032776,0.012641,26.011332,-0.092205,-0.000677,0.038757,1.568746,-0.070547,-0.002230,-0.017662,0.000455,-0.009922,-0.000027,0.000826,-0.004159,-0.061096,0.037067,0.206028,0.205998,0.157398,0.374076,0.000000,0.000000,0.000000,0.000000,0.000000,0.000000,0.000000,0.000000,0.000000,0.000000,0.000000,0.000000,0.059131,3,0
1480000,0.004001,38.207638,-0.032287,0.012596,26.014347,-0.091646,-0.000705,0.038755,1.568728,-0.070416,-0.002255,-0.018196,0.000464,-0.009874,-0.000027,0.000551,-0.004144,-0.020969,0.054215,0.206215,0.206184,0.157057,0.372121,0.000000,0.000000,0.000000,0.000000,0.000000,0.000000,0.000000,0.000000,0.000000,0.000000,0.000000,0.000000,0.020632,3,0
1490000,0.003985,38.471161,-0.032269,0.012504,26.024725,-0.091620,-0.000726,0.039371,1.568717,-0.071000,-0.002280,-0.018578,0.000473,-0.010081,-0.000027,0.001746,-0.004128,0.097275,0.036821,0.206404,0.206372,0.156719,0.370222,0.000000,0.000000,0.000000,0.000000,0.000000,0.000000,0.000000,0.000000,0.000000,0.000000,0.000000,0.000000,0.094021,3,0
1500000,0.003968,38.731190,-0.031293,0.012296,26.028702,-0.090627,-0.000755,0.039438,1.568693,-0.070951,-0.002304,-0.019308,0.000482,-0.010061,-0.000027,0.000877,-0.004111,-0.007324,0.073024,0.206595,0.206562,0.156383,0.368378,0.000000,0.000000,0.000000,0.000000,0.000000,0.000000,0.000000,0.000000,0.000000,0.000000,0.000000,0.000000,0.008100,3,0
1510000,0.003950,38.992569,-0.030682,0.012213,26.034962,-0.089765,-0.000786,0.039704,1.568675,-0.071131,-0.002328,-0.019905,0.000492,-0.010125,-0.000027,0.000719,-0.004093,0.030792,0.058924,0.206788,0.206754,0.156050,0.366585,0.000000,0.000000,0.000000,0.000000,0.000000,0.000000,0.000000,0.000000,0.000000,0.000000,0.000000,0.000000,0.030004,3,0
1520000,0.003934,39.251869,-0.031911,0.012157,26.037390,-0.091225,-0.000808,0.039652,1.568666,-0.070943,-0.002352,-0.019773,0.000500,-0.010055,-0.000027,0.000192,-0.004074,-0.031864,-0.012582,0.206984,0.206948,0.155720,0.364844,0.000000,0.000000,0.000000,0.000000,0.000000,0.000000,0.000000,0.000000,0.000000,0.000000,0.000000,0.000000,0.031020,3,0
1530000,0.003916,39.512524,-0.032121,0.012033,26.042362,-0.091567,-0.000833,0.039804,1.568658,-0.070982,-0.002376,-0.020054,0.000510,-0.010069,-0.000027,0.000134,-0.004057,0.006996,0.027626,0.207181,0.207144,0.155393,0.363155,0.000000,0.000000,0.000000,0.000000,0.000000,0.000000,0.000000,0.000000,0.000000,0.000000,0.000000,0.000000,0.007812,3,0
1540000,0.003898,39.775890,-0.031617,0.012005,26.052126,-0.091158,-0.000856,0.040362,1.568653,-0.071469,-0.002399,-0.020640,0.000519,-0.010254,-0.000028,0.001655,-0.004039,0.084236,0.056043,0.207380,0.207342,0.155070,0.361514,0.000000,0.000000,0.000000,0.000000,0.000000,0.000000,0.000000,0.000000,0.000000,0.000000,0.000000,0.000000,0.081430,3,0
1550000,0.003880,40.035076,-0.033152,0.011797,26.054272,-0.093129,-0.000885,0.040269,1.568634,-0.071239,-0.002423,-0.020387,0.000528,-0.010166,-0.000028,0.000354,-0.004019,-0.040077,-0.023973,0.207581,0.207541,0.154749,0.359921,0.000000,0.000000,0.000000,0.000000,0.000000,0.000000,0.000000,0.000000,0.000000,0.000000,0.000000,0.000000,0.038890,3,0
1560000,0.003861,40.292877,-0.034278,0.011626,26.053732,-0.094341,-0.000898,0.039942,1.568621,-0.070777,-0.002445,-0.020293,0.000537,-0.009983,-0.000027,0.001058,-0.003999,-0.080616,-0.007782,0.207783,0.207742,0.154431,0.358374,0.000000,0.000000,0.000000,0.000000,0.000000,0.000000,0.000000,0.000000,0.000000,0.000000,0.000000,0.000000,0.077923,3,0
1570000,0.003838,40.554806,-0.033403,0.011422,26.060759,-0.093337,-0.000921,0.040272,1.568602,-0.070996,-0.002467,-0.021038,0.000546,-0.010068,-0.000028,0.001082,-0.003977,0.039288,0.071535,0.207987,0.207945,0.154117,0.356872,0.000000,0.000000,0.000000,0.000000,0.000000,0.000000,0.000000,0.000000,0.000000,0.000000,0.000000,0.000000,0.038135,3,0
1580000,0.003815,40.816002,-0.033608,0.011234,26.066319,-0.093772,-0.000935,0.040465,1.568581,-0.071083,-0.002489,-0.021342,0.000556,-0.010103,-0.000028,0.000180,-0.003953,0.015835,0.029048,0.208192,0.208149,0.153806,0.355414,0.000000,0.000000,0.000000,0.000000,0.000000,0.000000,0.000000,0.000000,0.000000,0.000000,0.000000,0.000000,0.015762,3,0
1590000,0.003792,41.077854,-0.034631,0.011104,26.073034,-0.095037,-0.000961,0.040774,1.568569,-0.071268,-0.002512,-0.021321,0.000565,-0.010179,-0.000028,0.000178,-0.003929,0.032890,-0.002606,0.208399,0.208354,0.153499,0.353999,0.000000,0.000000,0.000000,0.000000,0.000000,0.000000,0.000000,0.000000,0.000000,0.000000,0.000000,0.000000,0.031972,3,0
1600000,0.003768,41.335495,-0.034055,0.011016,26.071894,-0.094284,-0.000990,0.040379,1.568544,-0.070765,-0.002532,-0.021924,0.000574,-0.009965,-0.000028,0.001876,-0.003905,-0.089878,0.059463,0.208607,0.208561,0.153195,0.352625,0.000000,0.000000,0.000000,0.000000,0.000000,0.000000,0.000000,0.000000,0.000000,0.000000,0.000000,0.000000,0.086824,3,0
1610000,0.003743,41.596611,-0.034284,0.010849,26.077164,-0.094728,-0.001019,0.040544,1.568527,-0.070820,-0.002553,-0.022227,0.000583,-0.009987,-0.000028,0.000152,-0.003879,0.010311,0.028598,0.208816,0.208769,0.152895,0.351292,0.000000,0.000000,0.000000,0.000000,0.000000,0.000000,0.000000,0.000000,0.000000,0.000000,0.000000,0.000000,0.010640,3,0
1620000,0.003718,41.857689,-0.034979,0.010637,26.082207,-0.095552,-0.001046,0.040708,1.568505,-0.070860,-0.002574,-0.022338,0.000593,-0.010005,-0.000028,0.000029,-0.003852,0.007568,0.010422,0.209026,0.208977,0.152599,0.349997,0.000000,0.000000,0.000000,0.000000,0.000000,0.000000,0.000000,0.000000,0.000000,0.000000,0.000000,0.000000,0.008200,3,0
1630000,0.003692,42.118031,-0.035669,0.010503,26.085869,-0.096397,-0.001061,0.040742,1.568485,-0.070779,-0.002595,-0.022449,0.000602,-0.009968,-0.000028,0.000058,-0.003825,-0.015011,0.010800,0.209237,0.209187,0.152306,0.348740,0.000000,0.000000,0.000000,0.000000,0.000000,0.000000,0.000000,0.000000,0.000000,0.000000,0.000000,0.000000,0.014947,3,0
1640000,0.003664,42.379028,-0.036023,0.010282,26.090551,-0.096630,-0.001091,0.040872,1.568471,-0.070793,-0.002615,-0.022709,0.000611,-0.009973,-0.000028,0.000101,-0.003797,0.002918,0.024496,0.209449,0.209397,0.152018,0.347520,0.000000,0.000000,0.000000,0.000000,0.000000,0.000000,0.000000,0.000000,0.000000,0.000000,0.000000,0.000000,0.004625,3,0
1650000,0.003635,42.637894,-0.035755,0.010160,26.091391,-0.096345,-0.001121,0.040628,1.568453,-0.070475,-0.002633,-0.023216,0.000620,-0.009827,-0.000028,0.000954,-0.003768,-0.059341,0.048713,0.209661,0.209607,0.151732,0.346336,0.000000,0.000000,0.000000,0.000000,0.000000,0.000000,0.000000,0.000000,0.000000,0.000000,0.000000,0.000000,0.057370,3,0
1660000,0.003606,42.900936,-0.036869,0.009934,26.099707,-0.097761,-0.001137,0.041092,1.568443,-0.070788,-0.002654,-0.023176,0.000629,-0.009971,-0.000028,0.000575,-0.003737,0.059483,-0.004918,0.209873,0.209819,0.151451,0.345185,0.000000,0.000000,0.000000,0.000000,0.000000,0.000000,0.000000,0.000000,0.000000,0.000000,0.000000,0.000000,0.057513,3,0
1670000,0.003576,43.161118,-0.038041,0.009734,26.102840,-0.098887,-0.001164,0.041060,1.568426,-0.070660,-0.002673,-0.023089,0.000638,-0.009911,-0.000028,0.000110,-0.003706,-0.024731,-0.007596,0.210086,0.210030,0.151174,0.344070,0.000000,0.000000,0.000000,0.000000,0.000000,0.000000,0.000000,0.000000,0.000000,0.000000,0.000000,0.000000,0.024135,3,0
1680000,0.003545,43.419857,-0.037942,0.009614,26.103142,-0.098474,-0.001179,0.040783,1.568402,-0.070317,-0.002691,-0.023536,0.000647,-0.009746,-0.000028,0.001008,-0.003675,-0.066273,0.042926,0.210299,0.210242,0.150901,0.342987,0.000000,0.000000,0.000000,0.000000,0.000000,0.000000,0.000000,0.000000,0.000000,0.000000,0.000000,0.000000,0.064036,3,0
1690000,0.003513,43.677189,-0.037588,0.009466,26.100718,-0.097938,-0.001209,0.040264,1.568385,-0.069774,-0.002708,-0.024081,0.000656,-0.009480,-0.000027,0.002271,-0.003642,-0.106350,0.052629,0.210513,0.210453,0.150631,0.341934,0.000000,0.000000,0.000000,0.000000,0.000000,0.000000,0.000000,0.000000,0.000000,0.000000,0.000000,0.000000,0.102664,3,0
1700000,0.003481,43.939411,-0.036650,0.009390,26.107288,-0.096914,-0.001226,0.040561,1.568365,-0.069940,-0.002725,-0.024929,0.000666,-0.009558,-0.000027,0.001160,-0.003610,0.033924,0.077382,0.210726,0.210665,0.150366,0.340910,0.000000,0.000000,0.000000,0.000000,0.000000,0.000000,0.000000,0.000000,0.000000,0.000000,0.000000,0.000000,0.032937,3,0
1710000,0.003451,44.200191,-0.037682,0.009269,26.111185,-0.098144,-0.001248,0.040614,1.568349,-0.069892,-0.002743,-0.024903,0.000675,-0.009534,-0.000027,0.000018,-0.003576,-0.009701,-0.002139,0.210938,0.210876,0.150104,0.339917,0.000000,0.000000,0.000000,0.000000,0.000000,0.000000,0.000000,0.000000,0.000000,0.000000,0.000000,0.000000,0.009977,3,0
