time_us,pos_x,pos_y,pos_z,vel_x,vel_y,vel_z,roll,pitch,yaw,bias_ax,bias_ay,bias_az,bias_gx,bias_gy,bias_gz,nis,innov_x,innov_y,innov_z,cov_pos_x,cov_pos_y,cov_pos_z,cov_yaw,des_speed,des_heading,des_climb,pid_speed,pid_yaw,pid_alt,speed_meas,yaw_meas,climb_meas,fwd_accel,yaw_rate,vert_accel,drift_m,nav_mode,mission_state
0,-0.000001,0.150001,0.000004,-0.000121,25.000214,0.000906,0.000010,-0.000001,1.570781,0.000000,0.000000,0.000000,0.000000,0.000000,0.000000,0.006250,0.000001,-0.250005,-0.000009,2.400038,2.400038,3.600017,1.000518,0.000000,0.000000,0.000000,0.000000,0.000000,0.000000,0.000000,0.000000,0.000000,0.000000,0.000000,0.000000,0.150001,1,0
10000,-0.000002,0.353873,-0.023654,-0.000183,25.000471,0.001746,0.000008,-0.000005,1.570781,0.000000,0.000000,0.000000,0.000000,0.000000,0.000000,0.003519,0.000003,-0.161462,-0.063134,1.714420,1.714420,2.250079,1.001073,0.000000,0.000000,0.000000,0.000000,0.000000,0.000000,0.000000,0.000000,0.000000,0.000000,0.000000,0.000000,0.115326,3,0
20000,-0.000003,0.588957,-0.016444,-0.000263,25.000767,0.002689,0.000008,-0.000007,1.570766,0.000001,0.000000,-0.000000,-0.000000,0.000000,-0.000000,0.000669,0.000004,-0.067152,0.026338,1.333616,1.333616,1.636554,1.001655,0.000000,0.000000,0.000000,0.000000,0.000000,0.000000,0.000000,0.000000,0.000000,0.000000,0.000000,0.000000,0.052226,3,0
30000,-0.000006,0.802073,-0.026803,-0.000338,25.000547,0.003178,0.000014,-0.000015,1.570757,0.000005,0.000000,0.000001,0.000000,0.000000,-0.000000,0.005918,0.000007,-0.202845,-0.048485,1.091392,1.091392,1.286065,1.002257,0.000000,0.000000,0.000000,0.000000,0.000000,0.000000,0.000000,0.000000,0.000000,0.000000,0.000000,0.000000,0.165947,3,0
40000,-0.000007,1.049253,-0.026516,-0.000318,25.000885,0.003799,0.000023,-0.000015,1.570749,0.000005,0.000000,0.000001,-0.000000,0.000000,-0.000000,0.000048,0.000009,-0.018379,0.001410,0.923811,0.923811,1.059385,1.002869,0.000000,0.000000,0.000000,0.000000,0.000000,0.000000,0.000000,0.000000,0.000000,0.000000,0.000000,0.000000,0.015549,3,0
50000,-0.000009,1.285043,-0.026876,-0.000351,25.000729,0.004410,0.000027,-0.000005,1.570744,0.000010,0.000000,0.000001,-0.000000,0.000000,-0.000000,0.001640,0.000011,-0.106531,-0.002689,0.801036,0.801036,0.900822,1.003484,0.000000,0.000000,0.000000,0.000000,0.000000,0.000000,0.000000,0.000000,0.000000,0.000000,0.000000,0.000000,0.092308,3,0
60000,-0.000012,1.522823,-0.030307,-0.000357,25.000580,0.004973,0.000033,0.000004,1.570729,0.000016,0.000000,0.000002,-0.000000,0.000000,-0.000000,0.001686,0.000013,-0.103773,-0.026662,0.707270,0.707270,0.783741,1.004094,0.000000,0.000000,0.000000,0.000000,0.000000,0.000000,0.000000,0.000000,0.000000,0.000000,0.000000,0.000000,0.091541,3,0
70000,-0.000014,1.776650,-0.031542,-0.000409,25.001398,0.005540,0.000041,0.000013,1.570719,0.000013,0.000000,0.000003,-0.000000,0.000000,-0.000000,0.000213,0.000016,0.036147,-0.011166,0.633370,0.633370,0.693801,1.004688,0.000000,0.000000,0.000000,0.000000,0.000000,0.000000,0.000000,0.000000,0.000000,0.000000,0.000000,0.000000,0.032331,3,0
80000,-0.000016,2.028663,-0.029090,-0.000387,25.002037,0.006398,0.000054,0.000022,1.570709,0.000011,0.000000,0.000001,-0.000000,0.000000,-0.000000,0.000145,0.000018,0.020859,0.023029,0.573673,0.573673,0.622594,1.005260,0.000000,0.000000,0.000000,0.000000,0.000000,0.000000,0.000000,0.000000,0.000000,0.000000,0.000000,0.000000,0.018865,3,0
90000,-0.000019,2.277597,-0.029360,-0.000510,25.002470,0.007241,0.000058,0.000022,1.570711,0.000013,0.000000,0.000001,-0.000000,0.000000,-0.000000,0.000026,0.000021,-0.012492,-0.003639,0.524488,0.524488,0.564865,1.005801,0.000000,0.000000,0.000000,0.000000,0.000000,0.000000,0.000000,0.000000,0.000000,0.000000,0.000000,0.000000,0.011400,3,0
100000,-0.000023,2.533790,-0.033780,-0.000540,25.003769,0.007610,0.000061,0.000020,1.570713,0.000001,0.000000,0.000009,-0.000000,-0.000000,0.000000,0.001312,0.000025,0.076511,-0.052219,0.483304,0.483304,0.517162,1.006301,0.000000,0.000000,0.000000,0.000000,0.000000,0.000000,0.000000,0.000000,0.000000,0.000000,0.000000,0.000000,0.070348,3,0
110000,-0.000027,2.789716,-0.032874,-0.000629,25.005075,0.008303,0.000060,0.000026,1.570716,-0.000014,0.000000,0.000007,-0.000000,-0.000000,0.000000,0.000972,0.000029,0.078731,0.010367,0.448354,0.448354,0.477121,1.006754,0.000000,0.000000,0.000000,0.000000,0.000000,0.000000,0.000000,0.000000,0.000000,0.000000,0.000000,0.000000,0.072848,3,0
120000,-0.000030,3.039890,-0.035608,-0.000575,25.005548,0.008817,0.000060,0.000025,1.570709,-0.000014,0.000000,0.000016,-0.000000,-0.000000,0.000000,0.000227,0.000033,0.001703,-0.038276,0.418359,0.418359,0.443071,1.007150,0.000000,0.000000,0.000000,0.000000,0.000000,0.000000,0.000000,0.000000,0.000000,0.000000,0.000000,0.000000,0.001585,3,0
130000,-0.000035,3.289301,-0.034736,-0.000658,25.005911,0.009555,0.000069,0.000028,1.570708,-0.000012,0.000000,0.000013,-0.000000,-0.000000,0.000000,0.000035,0.000037,-0.009929,0.011279,0.392370,0.392370,0.413797,1.007481,0.000000,0.000000,0.000000,0.000000,0.000000,0.000000,0.000000,0.000000,0.000000,0.000000,0.000000,0.000000,0.009280,3,0
140000,-0.000038,3.544208,-0.036692,-0.000603,25.007483,0.010040,0.000065,0.000042,1.570712,-0.000035,0.000000,0.000022,-0.000000,-0.000001,0.000000,0.001124,0.000041,0.078597,-0.031832,0.369667,0.369667,0.388393,1.007739,0.000000,0.000000,0.000000,0.000000,0.000000,0.000000,0.000000,0.000000,0.000000,0.000000,0.000000,0.000000,0.073755,3,0
150000,-0.000042,3.799073,-0.039707,-0.000641,25.009178,0.010263,0.000074,0.000053,1.570706,-0.000063,0.000000,0.000039,-0.000000,-0.000001,0.000000,0.001468,0.000044,0.082100,-0.051191,0.349696,0.349696,0.366172,1.007915,0.000000,0.000000,0.000000,0.000000,0.000000,0.000000,0.000000,0.000000,0.000000,0.000000,0.000000,0.000000,0.077315,3,0
160000,-0.000046,4.048408,-0.042301,-0.000682,25.009363,0.010563,0.000071,0.000053,1.570700,-0.000057,0.000000,0.000056,-0.000000,-0.000001,0.000000,0.000374,0.000049,-0.013749,-0.046849,0.332022,0.332022,0.346600,1.008002,0.000000,0.000000,0.000000,0.000000,0.000000,0.000000,0.000000,0.000000,0.000000,0.000000,0.000000,0.000000,0.012988,3,0
170000,-0.000051,4.300356,-0.040883,-0.000753,25.010303,0.011562,0.000085,0.000069,1.570702,-0.000072,0.000000,0.000046,-0.000000,-0.000002,0.000000,0.000284,0.000054,0.035098,0.023802,0.316299,0.316299,0.329260,1.007991,0.000000,0.000000,0.000000,0.000000,0.000000,0.000000,0.000000,0.000000,0.000000,0.000000,0.000000,0.000000,0.033248,3,0
180000,-0.000056,4.549554,-0.039251,-0.000821,25.010553,0.012823,0.000093,0.000074,1.570701,-0.000064,0.000000,0.000033,-0.000000,-0.000001,0.000000,0.000183,0.000059,-0.018072,0.028848,0.302248,0.302248,0.313817,1.007875,0.000000,0.000000,0.000000,0.000000,0.000000,0.000000,0.000000,0.000000,0.000000,0.000000,0.000000,0.000000,0.017161,3,0
190000,-0.000061,4.800198,-0.040671,-0.000854,25.011250,0.012884,0.000102,0.000087,1.570688,-0.000070,0.000000,0.000049,-0.000000,-0.000001,0.000000,0.000172,0.000065,0.011033,-0.031097,0.289643,0.289643,0.300003,1.007645,0.000000,0.000000,0.000000,0.000000,0.000000,0.000000,0.000000,0.000000,0.000000,0.000000,0.000000,0.000000,0.010500,3,0
200000,-0.000068,5.053954,-0.039926,-0.000978,25.013245,0.013976,0.000097,0.000102,1.570688,-0.000115,0.000000,0.000042,-0.000000,-0.000003,0.000000,0.001004,0.000071,0.078444,0.012685,0.278298,0.278298,0.287598,1.007295,0.000000,0.000000,0.000000,0.000000,0.000000,0.000000,0.000000,0.000000,0.000000,0.000000,0.000000,0.000000,0.074806,3,0
210000,-0.000075,5.306916,-0.038470,-0.001013,25.014984,0.015384,0.000106,0.000116,1.570673,-0.000156,0.000000,0.000024,-0.000000,-0.000004,0.000000,0.000764,0.000078,0.063216,0.028364,0.268057,0.268057,0.276421,1.006816,0.000000,0.000000,0.000000,0.000000,0.000000,0.000000,0.000000,0.000000,0.000000,0.000000,0.000000,0.000000,0.060391,3,0
220000,-0.000082,5.562603,-0.037358,-0.001108,25.017937,0.016452,0.000117,0.000137,1.570673,-0.000246,0.000000,0.000009,-0.000000,-0.000007,0.000000,0.002698,0.000086,0.128300,0.021442,0.258791,0.258791,0.266321,1.006202,0.000000,0.000000,0.000000,0.000000,0.000000,0.000000,0.000000,0.000000,0.000000,0.000000,0.000000,0.000000,0.122767,3,0
230000,-0.000089,5.817425,-0.037702,-0.001137,25.020666,0.016921,0.000125,0.000160,1.570676,-0.000330,0.000000,0.000018,-0.000000,-0.000010,0.000000,0.001996,0.000093,0.111130,-0.012033,0.250390,0.250390,0.257172,1.005446,0.000000,0.000000,0.000000,0.000000,0.000000,0.000000,0.000000,0.000000,0.000000,0.000000,0.000000,0.000000,0.106492,3,0
240000,-0.000097,6.069864,-0.039290,-0.001200,25.022285,0.016776,0.000138,0.000184,1.570670,-0.000376,0.000000,0.000053,-0.000000,-0.000011,0.000000,0.000774,0.000101,0.055070,-0.042531,0.242761,0.242761,0.248866,1.004541,0.000000,0.000000,0.000000,0.000000,0.000000,0.000000,0.000000,0.000000,0.000000,0.000000,0.000000,0.000000,0.052842,3,0
250000,-0.000105,6.324054,-0.040567,-0.001227,25.025105,0.016952,0.000150,0.000215,1.570663,-0.000465,0.000001,0.000084,-0.000000,-0.000014,0.000000,0.001836,0.000110,0.100798,-0.036162,0.235825,0.235825,0.241314,1.003481,0.000000,0.000000,0.000000,0.000000,0.000000,0.000000,0.000000,0.000000,0.000000,0.000000,0.000000,0.000000,0.096836,3,0
260000,-0.000113,6.574524,-0.041171,-0.001222,25.025705,0.017367,0.000145,0.000226,1.570652,-0.000471,0.000001,0.000103,-0.000000,-0.000014,0.000000,0.000069,0.000118,0.005612,-0.020015,0.229512,0.229512,0.234436,1.002258,0.000000,0.000000,0.000000,0.000000,0.000000,0.000000,0.000000,0.000000,0.000000,0.000000,0.000000,0.000000,0.005399,3,0
270000,-0.000122,6.827515,-0.042831,-0.001347,25.027916,0.016939,0.000143,0.000262,1.570655,-0.000546,0.000001,0.000153,-0.000000,-0.000017,0.000000,0.001235,0.000127,0.073199,-0.048393,0.223763,0.223763,0.228165,1.000869,0.000000,0.000000,0.000000,0.000000,0.000000,0.000000,0.000000,0.000000,0.000000,0.000000,0.000000,0.000000,0.070469,3,0
280000,-0.000132,7.082111,-0.043894,-0.001457,25.031441,0.017051,0.000152,0.000310,1.570648,-0.000677,0.000001,0.000189,-0.000000,-0.000023,0.000000,0.002430,0.000136,0.118368,-0.033491,0.218526,0.218526,0.222443,0.999307,0.000000,0.000000,0.000000,0.000000,0.000000,0.000000,0.000000,0.000000,0.000000,0.000000,0.000000,0.000000,0.114057,3,0
290000,-0.000142,7.338200,-0.044710,-0.001520,25.036234,0.017279,0.000150,0.000373,1.570647,-0.000868,0.000001,0.000221,-0.000000,-0.000031,0.000000,0.004335,0.000147,0.161920,-0.027475,0.213756,0.213756,0.217219,0.997567,0.000000,0.000000,0.000000,0.000000,0.000000,0.000000,0.000000,0.000000,0.000000,0.000000,0.000000,0.000000,0.156151,3,0
300000,-0.000151,7.594299,-0.044514,-0.001488,25.041153,0.018129,0.000151,0.000446,1.570643,-0.001074,0.000001,0.000221,-0.000000,-0.000040,0.000000,0.004337,0.000156,0.164210,0.000397,0.209412,0.209412,0.212446,0.995645,0.000000,0.000000,0.000000,0.000000,0.000000,0.000000,0.000000,0.000000,0.000000,0.000000,0.000000,0.000000,0.158479,3,0
310000,-0.000160,7.850416,-0.045279,-0.001428,25.046215,0.018338,0.000152,0.000530,1.570641,-0.001296,0.000001,0.000257,-0.000000,-0.000049,0.000000,0.004583,0.000165,0.166488,-0.027532,0.205458,0.205458,0.208087,0.993536,0.000000,0.000000,0.000000,0.000000,0.000000,0.000000,0.000000,0.000000,0.000000,0.000000,0.000000,0.000000,0.160787,3,0
320000,-0.000169,8.106562,-0.046069,-0.001550,25.051649,0.018496,0.000163,0.000612,1.570629,-0.001535,0.000002,0.000298,-0.000000,-0.000061,0.000000,0.004720,0.000175,0.168745,-0.028886,0.201864,0.201864,0.204105,0.991237,0.000000,0.000000,0.000000,0.000000,0.000000,0.000000,0.000000,0.000000,0.000000,0.000000,0.000000,0.000000,0.163068,3,0
330000,-0.000180,8.362085,-0.044278,-0.001633,25.056688,0.020480,0.000158,0.000698,1.570614,-0.001762,0.000002,0.000226,-0.000000,-0.000071,0.000000,0.004048,0.000186,0.151092,0.047869,0.198601,0.198601,0.200469,0.988744,0.000000,0.000000,0.000000,0.000000,0.000000,0.000000,0.000000,0.000000,0.000000,0.000000,0.000000,0.000000,0.146091,3,0
340000,-0.000190,8.617678,-0.043950,-0.001724,25.061852,0.021408,0.000153,0.000771,1.570613,-0.002005,0.000002,0.000221,-0.000000,-0.000083,0.000000,0.003823,0.000197,0.153944,0.003498,0.195643,0.195643,0.197151,0.986054,0.000000,0.000000,0.000000,0.000000,0.000000,0.000000,0.000000,0.000000,0.000000,0.000000,0.000000,0.000000,0.148924,3,0
350000,-0.000202,8.873982,-0.043381,-0.001793,25.067936,0.022502,0.000161,0.000877,1.570607,-0.002300,0.000003,0.000203,-0.000000,-0.000098,0.000000,0.005050,0.000208,0.176604,0.010730,0.192967,0.192967,0.194125,0.983164,0.000000,0.000000,0.000000,0.000000,0.000000,0.000000,0.000000,0.000000,0.000000,0.000000,0.000000,0.000000,0.170924,3,0
360000,-0.000212,9.129711,-0.042062,-0.001762,25.073668,0.024290,0.000160,0.000972,1.570604,-0.002578,0.000003,0.000144,-0.000000,-0.000113,0.000000,0.004256,0.000219,0.158786,0.034054,0.190553,0.190553,0.191370,0.980073,0.000000,0.000000,0.000000,0.000000,0.000000,0.000000,0.000000,0.000000,0.000000,0.000000,0.000000,0.000000,0.153743,3,0
370000,-0.000224,9.383026,-0.041224,-0.001856,25.077009,0.025754,0.000163,0.001028,1.570589,-0.002729,0.000003,0.000110,-0.000000,-0.000121,0.000000,0.001139,0.000231,0.081910,0.018639,0.188382,0.188382,0.188863,0.976780,0.000000,0.000000,0.000000,0.000000,0.000000,0.000000,0.000000,0.000000,0.000000,0.000000,0.000000,0.000000,0.079338,3,0
380000,-0.000234,9.637741,-0.041371,-0.001808,25.081839,0.025947,0.000160,0.001104,1.570592,-0.002974,0.000004,0.000135,-0.000000,-0.000135,0.000000,0.002622,0.000242,0.126745,-0.013213,0.186436,0.186436,0.186586,0.973283,0.000000,0.000000,0.000000,0.000000,0.000000,0.000000,0.000000,0.000000,0.000000,0.000000,0.000000,0.000000,0.122807,3,0
390000,-0.000246,9.891968,-0.040107,-0.001917,25.086193,0.027560,0.000155,0.001186,1.570595,-0.003198,0.000004,0.000069,-0.000000,-0.000147,0.000000,0.002144,0.000254,0.110530,0.032475,0.184700,0.184700,0.184522,0.969581,0.000000,0.000000,0.000000,0.000000,0.000000,0.000000,0.000000,0.000000,0.000000,0.000000,0.000000,0.000000,0.107127,3,0
400000,-0.000257,10.146338,-0.040913,-0.001906,25.090918,0.027194,0.000153,0.001276,1.570583,-0.003441,0.000005,0.000145,-0.000000,-0.000162,0.000000,0.002332,0.000265,0.114684,-0.035765,0.183159,0.183159,0.182656,0.965676,0.000000,0.000000,0.000000,0.000000,0.000000,0.000000,0.000000,0.000000,0.000000,0.000000,0.000000,0.000000,0.111183,3,0
410000,-0.000268,10.402054,-0.040166,-0.001965,25.097240,0.028573,0.000152,0.001406,1.570581,-0.003791,0.000005,0.000111,-0.000000,-0.000183,0.000000,0.004096,0.000277,0.158452,0.015450,0.181799,0.181799,0.180971,0.961567,0.000000,0.000000,0.000000,0.000000,0.000000,0.000000,0.000000,0.000000,0.000000,0.000000,0.000000,0.000000,0.153651,3,0
420000,-0.000280,10.658481,-0.039267,-0.002040,25.104521,0.029839,0.000155,0.001540,1.570565,-0.004208,0.000006,0.000064,-0.000000,-0.000209,0.000000,0.005361,0.000289,0.180976,0.020336,0.180609,0.180609,0.179456,0.957256,0.000000,0.000000,0.000000,0.000000,0.000000,0.000000,0.000000,0.000000,0.000000,0.000000,0.000000,0.000000,0.175529,3,0
430000,-0.000292,10.913817,-0.039821,-0.002089,25.110615,0.029597,0.000161,0.001652,1.570560,-0.004551,0.000007,0.000133,-0.000000,-0.000230,0.000000,0.003448,0.000301,0.143144,-0.028945,0.179576,0.179576,0.178097,0.952744,0.000000,0.000000,0.000000,0.000000,0.000000,0.000000,0.000000,0.000000,0.000000,0.000000,0.000000,0.000000,0.138860,3,0
440000,-0.000304,11.166916,-0.040388,-0.002065,25.113832,0.029282,0.000171,0.001721,1.570556,-0.004717,0.000007,0.000207,-0.000000,-0.000241,0.000000,0.000859,0.000313,0.066658,-0.029521,0.178690,0.178690,0.176883,0.948034,0.000000,0.000000,0.000000,0.000000,0.000000,0.000000,0.000000,0.000000,0.000000,0.000000,0.000000,0.000000,0.064673,3,0
450000,-0.000316,11.424321,-0.039912,-0.002158,25.122654,0.030259,0.000166,0.001904,1.570552,-0.005264,0.000008,0.000191,-0.000000,-0.000278,0.000000,0.007213,0.000325,0.211105,0.006012,0.177940,0.177940,0.175803,0.943128,0.000000,0.000000,0.000000,0.000000,0.000000,0.000000,0.000000,0.000000,0.000000,0.000000,0.000000,0.000000,0.204845,3,0
460000,-0.000328,11.682408,-0.040351,-0.002238,25.132496,0.030261,0.000171,0.002116,1.570553,-0.005887,0.000009,0.000260,-0.000001,-0.000320,0.000000,0.008807,0.000338,0.231916,-0.025744,0.177318,0.177317,0.174847,0.938029,0.000000,0.000000,0.000000,0.000000,0.000000,0.000000,0.000000,0.000000,0.000000,0.000000,0.000000,0.000000,0.225063,3,0
470000,-0.000341,11.936481,-0.040818,-0.002330,25.136965,0.030017,0.000173,0.002215,1.570537,-0.006146,0.000010,0.000335,-0.000001,-0.000338,0.000000,0.001515,0.000352,0.093004,-0.026768,0.176814,0.176813,0.174006,0.932741,0.000000,0.000000,0.000000,0.000000,0.000000,0.000000,0.000000,0.000000,0.000000,0.000000,0.000000,0.000000,0.090264,3,0
480000,-0.000354,12.194812,-0.041654,-0.002304,25.147366,0.029395,0.000175,0.002464,1.570523,-0.006827,0.000011,0.000449,-0.000001,-0.000387,0.000000,0.009299,0.000364,0.236465,-0.039609,0.176419,0.176419,0.173271,0.927268,0.000000,0.000000,0.000000,0.000000,0.000000,0.000000,0.000000,0.000000,0.000000,0.000000,0.000000,0.000000,0.229512,3,0
490000,-0.000366,12.450316,-0.040704,-0.002297,25.153791,0.030796,0.000182,0.002620,1.570515,-0.007235,0.000012,0.000381,-0.000001,-0.000417,0.000000,0.003122,0.000377,0.137061,0.022615,0.176127,0.176127,0.172634,0.921614,0.000000,0.000000,0.000000,0.000000,0.000000,0.000000,0.000000,0.000000,0.000000,0.000000,0.000000,0.000000,0.133038,3,0
500000,-0.000378,12.707713,-0.039208,-0.002374,25.163008,0.033227,0.000187,0.002841,1.570505,-0.007849,0.000013,0.000254,-0.000001,-0.000463,0.000000,0.006716,0.000390,0.199554,0.041139,0.175930,0.175929,0.172087,0.915785,0.000000,0.000000,0.000000,0.000000,0.000000,0.000000,0.000000,0.000000,0.000000,0.000000,0.000000,0.000000,0.193704,3,0
510000,-0.000390,12.965810,-0.038660,-0.002347,25.173393,0.034449,0.000187,0.003086,1.570495,-0.008548,0.000014,0.000231,-0.000001,-0.000516,0.000000,0.007865,0.000402,0.220368,0.007239,0.175820,0.175819,0.171622,0.909786,0.000000,0.000000,0.000000,0.000000,0.000000,0.000000,0.000000,0.000000,0.000000,0.000000,0.000000,0.000000,0.213911,3,0
520000,-0.000401,13.221686,-0.039639,-0.002267,25.180513,0.033263,0.000188,0.003253,1.570482,-0.009009,0.000016,0.000384,-0.000001,-0.000552,0.000000,0.003571,0.000413,0.141079,-0.046549,0.175791,0.175790,0.171234,0.903623,0.000000,0.000000,0.000000,0.000000,0.000000,0.000000,0.000000,0.000000,0.000000,0.000000,0.000000,0.000000,0.136946,3,0
530000,-0.000411,13.480037,-0.038389,-0.002239,25.191202,0.035312,0.000190,0.003530,1.570477,-0.009759,0.000017,0.000275,-0.000001,-0.000612,0.000000,0.008216,0.000423,0.223075,0.031932,0.175836,0.175836,0.170914,0.897301,0.000000,0.000000,0.000000,0.000000,0.000000,0.000000,0.000000,0.000000,0.000000,0.000000,0.000000,0.000000,0.216538,3,0
540000,-0.000420,13.736167,-0.037310,-0.002170,25.198648,0.037182,0.000187,0.003718,1.570472,-0.010256,0.000018,0.000187,-0.000001,-0.000652,0.000000,0.003436,0.000433,0.143525,0.025226,0.175950,0.175950,0.170658,0.890828,0.000000,0.000000,0.000000,0.000000,0.000000,0.000000,0.000000,0.000000,0.000000,0.000000,0.000000,0.000000,0.139317,3,0
550000,-0.000430,13.992440,-0.036370,-0.002225,25.206146,0.038839,0.000187,0.003914,1.570462,-0.010774,0.000020,0.000116,-0.000001,-0.000696,0.000000,0.003499,0.000443,0.145747,0.019710,0.176127,0.176127,0.170460,0.884209,0.000000,0.000000,0.000000,0.000000,0.000000,0.000000,0.000000,0.000000,0.000000,0.000000,0.000000,0.000000,0.141470,3,0
560000,-0.000439,14.248856,-0.036435,-0.002235,25.213869,0.038968,0.000187,0.004109,1.570446,-0.011314,0.000022,0.000175,-0.000001,-0.000741,0.000000,0.003578,0.000452,0.147824,-0.016218,0.176362,0.176361,0.170314,0.877452,0.000000,0.000000,0.000000,0.000000,0.000000,0.000000,0.000000,0.000000,0.000000,0.000000,0.000000,0.000000,0.143480,3,0
570000,-0.000448,14.505999,-0.037123,-0.002240,25.222761,0.038275,0.000202,0.004347,1.570445,-0.011950,0.000023,0.000320,-0.000002,-0.000797,0.000000,0.004892,0.000462,0.169636,-0.038244,0.176648,0.176648,0.170214,0.870564,0.000000,0.000000,0.000000,0.000000,0.000000,0.000000,0.000000,0.000000,0.000000,0.000000,0.000000,0.000000,0.164642,3,0
580000,-0.000457,14.763275,-0.037038,-0.002228,25.231771,0.038589,0.000200,0.004591,1.570432,-0.012606,0.000025,0.000362,-0.000002,-0.000855,0.000000,0.004739,0.000470,0.170830,-0.010715,0.176983,0.176982,0.170157,0.863553,0.000000,0.000000,0.000000,0.000000,0.000000,0.000000,0.000000,0.000000,0.000000,0.000000,0.000000,0.000000,0.165791,3,0
590000,-0.000466,15.019510,-0.037039,-0.002314,25.239197,0.038846,0.000214,0.004788,1.570432,-0.013125,0.000027,0.000417,-0.000002,-0.000902,0.000001,0.002855,0.000480,0.132131,-0.013916,0.177360,0.177359,0.170138,0.856427,0.000000,0.000000,0.000000,0.000000,0.000000,0.000000,0.000000,0.000000,0.000000,0.000000,0.000000,0.000000,0.128225,3,0
600000,-0.000476,15.275891,-0.036058,-0.002407,25.246847,0.040417,0.000214,0.005003,1.570419,-0.013666,0.000029,0.000332,-0.000002,-0.000951,0.000001,0.002984,0.000490,0.134247,0.020686,0.177775,0.177774,0.170152,0.849192,0.000000,0.000000,0.000000,0.000000,0.000000,0.000000,0.000000,0.000000,0.000000,0.000000,0.000000,0.000000,0.130270,3,0
610000,-0.000485,15.532416,-0.037155,-0.002420,25.254528,0.039009,0.000216,0.005228,1.570403,-0.014226,0.000031,0.000554,-0.000002,-0.001004,0.000001,0.003458,0.000500,0.136216,-0.053172,0.178225,0.178224,0.170195,0.841857,0.000000,0.000000,0.000000,0.000000,0.000000,0.000000,0.000000,0.000000,0.000000,0.000000,0.000000,0.000000,0.132171,3,0
620000,-0.000494,15.789084,-0.037492,-0.002361,25.262445,0.038829,0.000212,0.005449,1.570394,-0.014807,0.000033,0.000665,-0.000003,-0.001059,0.000001,0.003190,0.000509,0.138039,-0.025911,0.178705,0.178704,0.170265,0.834431,0.000000,0.000000,0.000000,0.000000,0.000000,0.000000,0.000000,0.000000,0.000000,0.000000,0.000000,0.000000,0.133928,3,0
630000,-0.000503,16.044706,-0.037849,-0.002439,25.268673,0.038396,0.000221,0.005629,1.570381,-0.015236,0.000035,0.000781,-0.000003,-0.001101,0.000001,0.001729,0.000519,0.099958,-0.026456,0.179212,0.179211,0.170356,0.826921,0.000000,0.000000,0.000000,0.000000,0.000000,0.000000,0.000000,0.000000,0.000000,0.000000,0.000000,0.000000,0.096975,3,0
640000,-0.000512,16.302269,-0.038476,-0.002411,25.278013,0.037768,0.000219,0.005909,1.570384,-0.015947,0.000037,0.000942,-0.000003,-0.001172,0.000001,0.004469,0.000527,0.162338,-0.035849,0.179743,0.179742,0.170465,0.819335,0.000000,0.000000,0.000000,0.000000,0.000000,0.000000,0.000000,0.000000,0.000000,0.000000,0.000000,0.000000,0.157475,3,0
650000,-0.000520,16.560560,-0.038101,-0.002387,25.288467,0.038474,0.000220,0.006235,1.570370,-0.016764,0.000039,0.000942,-0.000003,-0.001254,0.000001,0.005413,0.000536,0.182985,-0.000257,0.180293,0.180292,0.170591,0.811681,0.000000,0.000000,0.000000,0.000000,0.000000,0.000000,0.000000,0.000000,0.000000,0.000000,0.000000,0.000000,0.177487,3,0
660000,-0.000527,16.818974,-0.037747,-0.002314,25.299011,0.039149,0.000230,0.006567,1.570364,-0.017597,0.000042,0.000947,-0.000003,-0.001340,0.000001,0.005415,0.000543,0.183016,-0.001299,0.180859,0.180858,0.170729,0.803968,0.000000,0.000000,0.000000,0.000000,0.000000,0.000000,0.000000,0.000000,0.000000,0.000000,0.000000,0.000000,0.177501,3,0
670000,-0.000534,17.078711,-0.038531,-0.002367,25.311760,0.038273,0.000243,0.006988,1.570363,-0.018629,0.000044,0.001144,-0.000004,-0.001448,0.000001,0.008293,0.000551,0.222681,-0.041502,0.181440,0.181439,0.170877,0.796203,0.000000,0.000000,0.000000,0.000000,0.000000,0.000000,0.000000,0.000000,0.000000,0.000000,0.000000,0.000000,0.215947,3,0
680000,-0.000541,17.337345,-0.037053,-0.002366,25.322416,0.040444,0.000241,0.007327,1.570363,-0.019484,0.000047,0.000957,-0.000004,-0.001540,0.000001,0.005560,0.000558,0.181484,0.038291,0.182032,0.182031,0.171033,0.788395,0.000000,0.000000,0.000000,0.000000,0.000000,0.000000,0.000000,0.000000,0.000000,0.000000,0.000000,0.000000,0.175980,3,0
690000,-0.000549,17.596703,-0.035512,-0.002460,25.334366,0.042716,0.000254,0.007709,1.570347,-0.020448,0.000049,0.000759,-0.000004,-0.001644,0.000001,0.006787,0.000566,0.201046,0.039710,0.182633,0.182631,0.171194,0.780552,0.000000,0.000000,0.000000,0.000000,0.000000,0.000000,0.000000,0.000000,0.000000,0.000000,0.000000,0.000000,0.194928,3,0
700000,-0.000556,17.857382,-0.035975,-0.002484,25.348324,0.042046,0.000253,0.008185,1.570337,-0.021617,0.000052,0.000916,-0.000005,-0.001773,0.000001,0.009446,0.000574,0.239754,-0.031285,0.183239,0.183238,0.171357,0.772681,0.000000,0.000000,0.000000,0.000000,0.000000,0.000000,0.000000,0.000000,0.000000,0.000000,0.000000,0.000000,0.232432,3,0
710000,-0.000564,18.116934,-0.035238,-0.002515,25.360308,0.043417,0.000256,0.008591,1.570337,-0.022595,0.000055,0.000859,-0.000005,-0.001883,0.000001,0.006327,0.000582,0.197601,0.010835,0.183850,0.183848,0.171522,0.764790,0.000000,0.000000,0.000000,0.000000,0.000000,0.000000,0.000000,0.000000,0.000000,0.000000,0.000000,0.000000,0.191548,3,0
720000,-0.000571,18.377811,-0.034097,-0.002492,25.374449,0.045123,0.000252,0.009088,1.570330,-0.023781,0.000057,0.000728,-0.000005,-0.002019,0.000001,0.009104,0.000589,0.236115,0.024584,0.184462,0.184461,0.171686,0.756887,0.000000,0.000000,0.000000,0.000000,0.000000,0.000000,0.000000,0.000000,0.000000,0.000000,0.000000,0.000000,0.228856,3,0
730000,-0.000578,18.639389,-0.033717,-0.002479,25.389727,0.045898,0.000264,0.009627,1.570327,-0.025073,0.000060,0.000741,-0.000005,-0.002170,0.000001,0.010373,0.000596,0.253397,-0.002705,0.185075,0.185073,0.171847,0.748978,0.000000,0.000000,0.000000,0.000000,0.000000,0.000000,0.000000,0.000000,0.000000,0.000000,0.000000,0.000000,0.245581,3,0
740000,-0.000584,18.900429,-0.034578,-0.002444,25.403811,0.044761,0.000279,0.010123,1.570317,-0.026264,0.000063,0.000989,-0.000006,-0.002311,0.000001,0.008906,0.000603,0.230215,-0.046231,0.185686,0.185684,0.172004,0.741072,0.000000,0.000000,0.000000,0.000000,0.000000,0.000000,0.000000,0.000000,0.000000,0.000000,0.000000,0.000000,0.223090,3,0
750000,-0.000590,19.159695,-0.033633,-0.002506,25.414667,0.046163,0.000290,0.010510,1.570319,-0.027143,0.000066,0.000893,-0.000006,-0.002417,0.000001,0.004596,0.000609,0.167824,0.017188,0.186293,0.186292,0.172155,0.733174,0.000000,0.000000,0.000000,0.000000,0.000000,0.000000,0.000000,0.000000,0.000000,0.000000,0.000000,0.000000,0.162614,3,0
760000,-0.000597,19.419058,-0.034707,-0.002584,25.425442,0.044613,0.000300,0.010892,1.570309,-0.028029,0.000069,0.001192,-0.000007,-0.002526,0.000001,0.004962,0.000617,0.166874,-0.053641,0.186896,0.186895,0.172299,0.725293,0.000000,0.000000,0.000000,0.000000,0.000000,0.000000,0.000000,0.000000,0.000000,0.000000,0.000000,0.000000,0.161676,3,0
770000,-0.000603,19.676027,-0.035297,-0.002490,25.431992,0.043626,0.000296,0.011111,1.570311,-0.028493,0.000073,0.001396,-0.000007,-0.002584,0.000001,0.001415,0.000623,0.086311,-0.036191,0.187493,0.187491,0.172436,0.717433,0.000000,0.000000,0.000000,0.000000,0.000000,0.000000,0.000000,0.000000,0.000000,0.000000,0.000000,0.000000,0.083617,3,0
780000,-0.000608,19.933117,-0.035647,-0.002387,25.438704,0.043226,0.000296,0.011345,1.570308,-0.028971,0.000076,0.001554,-0.000007,-0.002644,0.000002,0.001365,0.000627,0.087702,-0.027568,0.188082,0.188081,0.172563,0.709602,0.000000,0.000000,0.000000,0.000000,0.000000,0.000000,0.000000,0.000000,0.000000,0.000000,0.000000,0.000000,0.084954,3,0
790000,-0.000612,20.192822,-0.035958,-0.002410,25.449915,0.042846,0.000299,0.011752,1.570309,-0.029898,0.000079,0.001704,-0.000008,-0.002764,0.000002,0.004692,0.000632,0.168488,-0.025995,0.188663,0.188661,0.172680,0.701805,0.000000,0.000000,0.000000,0.000000,0.000000,0.000000,0.000000,0.000000,0.000000,0.000000,0.000000,0.000000,0.163190,3,0
800000,-0.000617,20.453863,-0.035619,-0.002385,25.463243,0.043392,0.000308,0.012267,1.570295,-0.031048,0.000082,0.001721,-0.000008,-0.002914,0.000002,0.006908,0.000637,0.206854,-0.003217,0.189235,0.189233,0.172787,0.694048,0.000000,0.000000,0.000000,0.000000,0.000000,0.000000,0.000000,0.000000,0.000000,0.000000,0.000000,0.000000,0.200332,3,0
810000,-0.000620,20.712460,-0.035944,-0.002344,25.472233,0.043019,0.000308,0.012590,1.570288,-0.031749,0.000086,0.001879,-0.000009,-0.003008,0.000002,0.002619,0.000640,0.124588,-0.026517,0.189797,0.189795,0.172882,0.686337,0.000000,0.000000,0.000000,0.000000,0.000000,0.000000,0.000000,0.000000,0.000000,0.000000,0.000000,0.000000,0.120647,3,0
820000,-0.000624,20.973038,-0.036572,-0.002416,25.484476,0.042164,0.000319,0.013066,1.570283,-0.032794,0.000089,0.002100,-0.000009,-0.003150,0.000002,0.005681,0.000645,0.183966,-0.036824,0.190347,0.190345,0.172965,0.678677,0.000000,0.000000,0.000000,0.000000,0.000000,0.000000,0.000000,0.000000,0.000000,0.000000,0.000000,0.000000,0.178130,3,0
830000,-0.000628,21.231153,-0.035986,-0.002429,25.492249,0.043215,0.000320,0.013354,1.570270,-0.033380,0.000093,0.002065,-0.000010,-0.003230,0.000002,0.001690,0.000649,0.102173,0.005512,0.190887,0.190884,0.173035,0.671073,0.000000,0.000000,0.000000,0.000000,0.000000,0.000000,0.000000,0.000000,0.000000,0.000000,0.000000,0.000000,0.098925,3,0
840000,-0.000632,21.493803,-0.036582,-0.002398,25.507870,0.042225,0.000317,0.013996,1.570267,-0.034778,0.000097,0.002284,-0.000010,-0.003426,0.000002,0.009621,0.000653,0.241560,-0.035651,0.191414,0.191411,0.173092,0.663530,0.000000,0.000000,0.000000,0.000000,0.000000,0.000000,0.000000,0.000000,0.000000,0.000000,0.000000,0.000000,0.233853,3,0
850000,-0.000634,21.755219,-0.036105,-0.002303,25.521126,0.043172,0.000324,0.014539,1.570263,-0.035931,0.000100,0.002270,-0.000011,-0.003589,0.000002,0.006289,0.000655,0.197420,0.001725,0.191928,0.191926,0.173136,0.656051,0.000000,0.000000,0.000000,0.000000,0.000000,0.000000,0.000000,0.000000,0.000000,0.000000,0.000000,0.000000,0.191106,3,0
860000,-0.000636,22.014771,-0.035160,-0.002273,25.530949,0.044665,0.000320,0.014934,1.570263,-0.036723,0.000104,0.002155,-0.000011,-0.003704,0.000002,0.002976,0.000657,0.134661,0.017658,0.192430,0.192427,0.173166,0.648642,0.000000,0.000000,0.000000,0.000000,0.000000,0.000000,0.000000,0.000000,0.000000,0.000000,0.000000,0.000000,0.130344,3,0
870000,-0.000638,22.273756,-0.035835,-0.002254,25.539648,0.043727,0.000325,0.015279,1.570253,-0.037398,0.000108,0.002406,-0.000012,-0.003803,0.000002,0.002326,0.000659,0.113556,-0.039008,0.192919,0.192916,0.173182,0.641307,0.000000,0.000000,0.000000,0.000000,0.000000,0.000000,0.000000,0.000000,0.000000,0.000000,0.000000,0.000000,0.109905,3,0
880000,-0.000640,22.536661,-0.036824,-0.002287,25.555292,0.042496,0.000322,0.015936,1.570244,-0.038787,0.000111,0.002725,-0.000012,-0.004010,0.000002,0.009092,0.000661,0.232183,-0.049499,0.193394,0.193391,0.173184,0.634048,0.000000,0.000000,0.000000,0.000000,0.000000,0.000000,0.000000,0.000000,0.000000,0.000000,0.000000,0.000000,0.224700,3,0
890000,-0.000643,22.797663,-0.036657,-0.002363,25.567253,0.042880,0.000325,0.016435,1.570234,-0.039799,0.000115,0.002782,-0.000013,-0.004163,0.000002,0.004560,0.000664,0.167910,-0.009059,0.193856,0.193852,0.173172,0.626870,0.000000,0.000000,0.000000,0.000000,0.000000,0.000000,0.000000,0.000000,0.000000,0.000000,0.000000,0.000000,0.162486,3,0
900000,-0.000645,23.058065,-0.035442,-0.002351,25.578085,0.044619,0.000338,0.016879,1.570233,-0.040681,0.000119,0.002597,-0.000013,-0.004299,0.000002,0.003526,0.000666,0.145336,0.027164,0.194304,0.194301,0.173145,0.619776,0.000000,0.000000,0.000000,0.000000,0.000000,0.000000,0.000000,0.000000,0.000000,0.000000,0.000000,0.000000,0.140632,3,0
910000,-0.000647,23.317875,-0.033949,-0.002336,25.587713,0.046708,0.000340,0.017267,1.570232,-0.041435,0.000123,0.002350,-0.000014,-0.004416,0.000002,0.002667,0.000669,0.123371,0.036227,0.194739,0.194735,0.173104,0.612768,0.000000,0.000000,0.000000,0.000000,0.000000,0.000000,0.000000,0.000000,0.000000,0.000000,0.000000,0.000000,0.119369,3,0
920000,-0.000648,23.575802,-0.032703,-0.002233,25.593893,0.048627,0.000350,0.017487,1.570222,-0.041817,0.000127,0.002165,-0.000015,-0.004477,0.000003,0.000741,0.000670,0.062254,0.026799,0.195160,0.195156,0.173049,0.605849,0.000000,0.000000,0.000000,0.000000,0.000000,0.000000,0.000000,0.000000,0.000000,0.000000,0.000000,0.000000,0.060234,3,0
930000,-0.000648,23.835106,-0.031998,-0.002162,25.602316,0.049593,0.000355,0.017829,1.570214,-0.042451,0.000131,0.002112,-0.000015,-0.004579,0.000003,0.001701,0.000670,0.102448,0.007454,0.195568,0.195564,0.172981,0.599021,0.000000,0.000000,0.000000,0.000000,0.000000,0.000000,0.000000,0.000000,0.000000,0.000000,0.000000,0.000000,0.099110,3,0
940000,-0.000647,24.097065,-0.030771,-0.002056,25.615314,0.051393,0.000365,0.018405,1.570215,-0.043576,0.000135,0.001931,-0.000016,-0.004762,0.000003,0.005386,0.000669,0.181002,0.025318,0.195962,0.195958,0.172898,0.592288,0.000000,0.000000,0.000000,0.000000,0.000000,0.000000,0.000000,0.000000,0.000000,0.000000,0.000000,0.000000,0.175092,3,0
950000,-0.000646,24.357098,-0.031572,-0.002095,25.624857,0.050043,0.000376,0.018808,1.570208,-0.044313,0.000139,0.002249,-0.000017,-0.004885,0.000003,0.002571,0.000668,0.117702,-0.045690,0.196344,0.196340,0.172801,0.585650,0.000000,0.000000,0.000000,0.000000,0.000000,0.000000,0.000000,0.000000,0.000000,0.000000,0.000000,0.000000,0.113851,3,0
960000,-0.000645,24.619135,-0.031951,-0.001988,25.637793,0.049553,0.000373,0.019395,1.570199,-0.045418,0.000143,0.002462,-0.000017,-0.005072,0.000003,0.005124,0.000667,0.175634,-0.030619,0.196713,0.196708,0.172691,0.579110,0.000000,0.000000,0.000000,0.000000,0.000000,0.000000,0.000000,0.000000,0.000000,0.000000,0.000000,0.000000,0.169875,3,0
970000,-0.000642,24.879881,-0.031258,-0.001876,25.648310,0.050398,0.000378,0.019862,1.570192,-0.046252,0.000147,0.002409,-0.000018,-0.005215,0.000003,0.002822,0.000664,0.132133,0.006851,0.197069,0.197064,0.172568,0.572669,0.000000,0.000000,0.000000,0.000000,0.000000,0.000000,0.000000,0.000000,0.000000,0.000000,0.000000,0.000000,0.127796,3,0
980000,-0.000640,25.141314,-0.030689,-0.001888,25.659927,0.051080,0.000385,0.020374,1.570183,-0.047201,0.000150,0.002388,-0.000019,-0.005380,0.000003,0.003608,0.000661,0.149590,0.002243,0.197413,0.197408,0.172432,0.566329,0.000000,0.000000,0.000000,0.000000,0.000000,0.000000,0.000000,0.000000,0.000000,0.000000,0.000000,0.000000,0.144670,3,0
990000,-0.000637,25.400152,-0.031582,-0.001876,25.666859,0.049914,0.000399,0.020633,1.570183,-0.047629,0.000155,0.002745,-0.000019,-0.005456,0.000003,0.001113,0.000659,0.066948,-0.049091,0.197745,0.197739,0.172283,0.560091,0.000000,0.000000,0.000000,0.000000,0.000000,0.000000,0.000000,0.000000,0.000000,0.000000,0.000000,0.000000,0.064742,3,0
1000000,-0.000634,25.661011,-0.030775,-0.001827,25.677092,0.050937,0.000397,0.021097,1.570179,-0.048435,0.000159,0.002662,-0.000020,-0.005600,0.000003,0.002582,0.000656,0.126106,0.010720,0.198065,0.198060,0.172121,0.553955,0.000000,0.000000,0.000000,0.000000,0.000000,0.000000,0.000000,0.000000,0.000000,0.000000,0.000000,0.000000,0.121946,3,0
1010000,-0.000631,25.919271,-0.031352,-0.001807,25.682707,0.049900,0.000401,0.021299,1.570178,-0.048719,0.000163,0.002943,-0.000021,-0.005652,0.000003,0.000547,0.000653,0.044052,-0.037999,0.198375,0.198369,0.171948,0.547923,0.000000,0.000000,0.000000,0.000000,0.000000,0.000000,0.000000,0.000000,0.000000,0.000000,0.000000,0.000000,0.042598,3,0
1020000,-0.000628,26.178909,-0.032053,-0.001768,25.690676,0.048920,0.000408,0.021628,1.570171,-0.049261,0.000167,0.003255,-0.000022,-0.005753,0.000003,0.001421,0.000649,0.083920,-0.042060,0.198673,0.198667,0.171763,0.541995,0.000000,0.000000,0.000000,0.000000,0.000000,0.000000,0.000000,0.000000,0.000000,0.000000,0.000000,0.000000,0.081141,3,0
1030000,-0.000625,26.438587,-0.031864,-0.001778,25.698589,0.049264,0.000409,0.021958,1.570170,-0.049795,0.000171,0.003332,-0.000022,-0.005853,0.000003,0.001118,0.000646,0.082628,-0.010613,0.198961,0.198954,0.171567,0.536172,0.000000,0.000000,0.000000,0.000000,0.000000,0.000000,0.000000,0.000000,0.000000,0.000000,0.000000,0.000000,0.079890,3,0
1040000,-0.000621,26.698305,-0.032646,-0.001769,25.706409,0.048234,0.000422,0.022288,1.570167,-0.050323,0.000175,0.003669,-0.000023,-0.005954,0.000003,0.001389,0.000643,0.081295,-0.044747,0.199239,0.199232,0.171359,0.530454,0.000000,0.000000,0.000000,0.000000,0.000000,0.000000,0.000000,0.000000,0.000000,0.000000,0.000000,0.000000,0.078597,3,0
1050000,-0.000617,26.957397,-0.032834,-0.001669,25.713123,0.047918,0.000420,0.022554,1.570161,-0.050713,0.000179,0.003849,-0.000024,-0.006030,0.000003,0.000671,0.000638,0.060045,-0.023643,0.199508,0.199500,0.171141,0.524841,0.000000,0.000000,0.000000,0.000000,0.000000,0.000000,0.000000,0.000000,0.000000,0.000000,0.000000,0.000000,0.058052,3,0
1060000,-0.000612,27.216536,-0.032267,-0.001578,25.719814,0.048514,0.000427,0.022820,1.570146,-0.051100,0.000183,0.003823,-0.000025,-0.006106,0.000003,0.000568,0.000633,0.059313,0.003026,0.199767,0.199759,0.170914,0.519334,0.000000,0.000000,0.000000,0.000000,0.000000,0.000000,0.000000,0.000000,0.000000,0.000000,0.000000,0.000000,0.057342,3,0
1070000,-0.000607,27.476379,-0.031096,-0.001506,25.727594,0.050122,0.000442,0.023152,1.570135,-0.051611,0.000187,0.003632,-0.000026,-0.006207,0.000003,0.001084,0.000628,0.078411,0.024022,0.200018,0.200010,0.170676,0.513932,0.000000,0.000000,0.000000,0.000000,0.000000,0.000000,0.000000,0.000000,0.000000,0.000000,0.000000,0.000000,0.075800,3,0
1080000,-0.000600,27.735592,-0.030340,-0.001415,25.734287,0.051070,0.000451,0.023426,1.570125,-0.051984,0.000191,0.003559,-0.000026,-0.006282,0.000003,0.000537,0.000621,0.057037,0.008896,0.200260,0.200252,0.170429,0.508635,0.000000,0.000000,0.000000,0.000000,0.000000,0.000000,0.000000,0.000000,0.000000,0.000000,0.000000,0.000000,0.055137,3,0
1090000,-0.000594,27.996838,-0.029851,-0.001412,25.744389,0.051495,0.000468,0.023905,1.570124,-0.052743,0.000195,0.003559,-0.000027,-0.006438,0.000004,0.002161,0.000615,0.115820,-0.000686,0.200495,0.200486,0.170173,0.503443,0.000000,0.000000,0.000000,0.000000,0.000000,0.000000,0.000000,0.000000,0.000000,0.000000,0.000000,0.000000,0.111952,3,0
1100000,-0.000588,28.258760,-0.030475,-0.001357,25.755642,0.050594,0.000470,0.024456,1.570119,-0.053616,0.000199,0.003873,-0.000028,-0.006620,0.000004,0.003101,0.000608,0.132776,-0.040176,0.200722,0.200713,0.169908,0.498356,0.000000,0.000000,0.000000,0.000000,0.000000,0.000000,0.000000,0.000000,0.000000,0.000000,0.000000,0.000000,0.128333,3,0
1110000,-0.000582,28.518679,-0.029134,-0.001361,25.763205,0.052357,0.000478,0.024780,1.570112,-0.054072,0.000202,0.003633,-0.000029,-0.006716,0.000004,0.000919,0.000602,0.069529,0.029459,0.200943,0.200933,0.169635,0.493373,0.000000,0.000000,0.000000,0.000000,0.000000,0.000000,0.000000,0.000000,0.000000,0.000000,0.000000,0.000000,0.067204,3,0
1120000,-0.000575,28.779959,-0.029173,-0.001285,25.773077,0.052097,0.000480,0.025247,1.570097,-0.054781,0.000206,0.003788,-0.000030,-0.006868,0.000004,0.001933,0.000595,0.107718,-0.019866,0.201157,0.201147,0.169355,0.488493,0.000000,0.000000,0.000000,0.000000,0.000000,0.000000,0.000000,0.000000,0.000000,0.000000,0.000000,0.000000,0.104107,3,0
1130000,-0.000568,29.043907,-0.028168,-0.001201,25.787472,0.053494,0.000485,0.026013,1.570098,-0.055994,0.000209,0.003636,-0.000030,-0.007131,0.000004,0.005519,0.000587,0.184282,0.017365,0.201365,0.201355,0.169067,0.483715,0.000000,0.000000,0.000000,0.000000,0.000000,0.000000,0.000000,0.000000,0.000000,0.000000,0.000000,0.000000,0.178100,3,0
1140000,-0.000559,29.306486,-0.029007,-0.001066,25.799349,0.052280,0.000492,0.026622,1.570085,-0.056910,0.000213,0.004028,-0.000031,-0.007334,0.000004,0.003490,0.000579,0.138857,-0.048747,0.201568,0.201557,0.168772,0.479040,0.000000,0.000000,0.000000,0.000000,0.000000,0.000000,0.000000,0.000000,0.000000,0.000000,0.000000,0.000000,0.134191,3,0
1150000,-0.000551,29.566370,-0.029647,-0.000997,25.806324,0.051442,0.000507,0.026903,1.570080,-0.057274,0.000217,0.004367,-0.000032,-0.007416,0.000004,0.000768,0.000570,0.055069,-0.041521,0.201766,0.201754,0.168471,0.474466,0.000000,0.000000,0.000000,0.000000,0.000000,0.000000,0.000000,0.000000,0.000000,0.000000,0.000000,0.000000,0.053218,3,0
1160000,-0.000542,29.829622,-0.030907,-0.000990,25.819178,0.049574,0.000506,0.027579,1.570074,-0.058283,0.000220,0.004882,-0.000033,-0.007647,0.000004,0.004411,0.000561,0.152935,-0.063083,0.201959,0.201947,0.168164,0.469992,0.000000,0.000000,0.000000,0.000000,0.000000,0.000000,0.000000,0.000000,0.000000,0.000000,0.000000,0.000000,0.147784,3,0
1170000,-0.000533,30.090158,-0.030323,-0.000912,25.827023,0.050168,0.000507,0.027928,1.570075,-0.058735,0.000224,0.004851,-0.000034,-0.007751,0.000004,0.000757,0.000551,0.068462,0.003187,0.202148,0.202135,0.167850,0.465618,0.000000,0.000000,0.000000,0.000000,0.000000,0.000000,0.000000,0.000000,0.000000,0.000000,0.000000,0.000000,0.066159,3,0
1180000,-0.000523,30.354059,-0.031495,-0.000826,25.840788,0.048694,0.000507,0.028660,1.570072,-0.059828,0.000227,0.005343,-0.000034,-0.008008,0.000004,0.004998,0.000541,0.165670,-0.059756,0.202333,0.202320,0.167532,0.461342,0.000000,0.000000,0.000000,0.000000,0.000000,0.000000,0.000000,0.000000,0.000000,0.000000,0.000000,0.000000,0.160079,3,0
1190000,-0.000513,30.616571,-0.032365,-0.000712,25.851950,0.047451,0.000516,0.029232,1.570069,-0.060622,0.000230,0.005746,-0.000035,-0.008197,0.000004,0.002712,0.000531,0.120298,-0.048536,0.202514,0.202500,0.167208,0.457163,0.000000,0.000000,0.000000,0.000000,0.000000,0.000000,0.000000,0.000000,0.000000,0.000000,0.000000,0.000000,0.116235,3,0
1200000,-0.000502,30.875700,-0.033577,-0.000656,25.856918,0.045697,0.000516,0.029397,1.570064,-0.060734,0.000234,0.006263,-0.000036,-0.008225,0.000004,0.000643,0.000520,0.016706,-0.060751,0.202693,0.202678,0.166880,0.453080,0.000000,0.000000,0.000000,0.000000,0.000000,0.000000,0.000000,0.000000,0.000000,0.000000,0.000000,0.000000,0.016144,3,0
1210000,-0.000492,31.135527,-0.034689,-0.000671,25.863131,0.044304,0.000521,0.029626,1.570059,-0.060971,0.000237,0.006747,-0.000037,-0.008285,0.000004,0.000727,0.000509,0.035830,-0.056647,0.202868,0.202853,0.166548,0.449092,0.000000,0.000000,0.000000,0.000000,0.000000,0.000000,0.000000,0.000000,0.000000,0.000000,0.000000,0.000000,0.034616,3,0
1220000,-0.000482,31.396711,-0.035848,-0.000587,25.871542,0.042655,0.000529,0.030030,1.570060,-0.061460,0.000241,0.007240,-0.000037,-0.008407,0.000004,0.001425,0.000498,0.074129,-0.057753,0.203041,0.203026,0.166212,0.445197,0.000000,0.000000,0.000000,0.000000,0.000000,0.000000,0.000000,0.000000,0.000000,0.000000,0.000000,0.000000,0.071617,3,0
1230000,-0.000471,31.660576,-0.036256,-0.000514,25.884607,0.042083,0.000546,0.030755,1.570063,-0.062450,0.000243,0.007487,-0.000038,-0.008657,0.000005,0.003806,0.000487,0.150799,-0.029834,0.203213,0.203196,0.165872,0.441394,0.000000,0.000000,0.000000,0.000000,0.000000,0.000000,0.000000,0.000000,0.000000,0.000000,0.000000,0.000000,0.145690,3,0
1240000,-0.000460,31.921015,-0.035066,-0.000530,25.891542,0.043775,0.000555,0.031039,1.570065,-0.062750,0.000246,0.007241,-0.000039,-0.008732,0.000005,0.000463,0.000476,0.045834,0.027759,0.203382,0.203365,0.165529,0.437683,0.000000,0.000000,0.000000,0.000000,0.000000,0.000000,0.000000,0.000000,0.000000,0.000000,0.000000,0.000000,0.044285,3,0
1250000,-0.000450,32.183487,-0.036194,-0.000543,25.902035,0.042305,0.000561,0.031584,1.570061,-0.063428,0.000249,0.007730,-0.000040,-0.008909,0.000005,0.002242,0.000466,0.103386,-0.056684,0.203550,0.203533,0.165183,0.434062,0.000000,0.000000,0.000000,0.000000,0.000000,0.000000,0.000000,0.000000,0.000000,0.000000,0.000000,0.000000,0.099874,3,0
1260000,-0.000441,32.442543,-0.034773,-0.000581,25.906244,0.044354,0.000560,0.031676,1.570063,-0.063426,0.000252,0.007412,-0.000040,-0.008908,0.000005,0.000210,0.000456,-0.000160,0.036023,0.203718,0.203699,0.164835,0.430529,0.000000,0.000000,0.000000,0.000000,0.000000,0.000000,0.000000,0.000000,0.000000,0.000000,0.000000,0.000000,0.000466,3,0
1270000,-0.000432,32.702293,-0.033898,-0.000611,25.911695,0.045331,0.000571,0.031848,1.570057,-0.063549,0.000255,0.007271,-0.000041,-0.008940,0.000005,0.000098,0.000447,0.019051,0.015661,0.203884,0.203865,0.164484,0.427083,0.000000,0.000000,0.000000,0.000000,0.000000,0.000000,0.000000,0.000000,0.000000,0.000000,0.000000,0.000000,0.018411,3,0
1280000,-0.000423,32.961380,-0.033812,-0.000552,25.915920,0.045434,0.000585,0.031925,1.570047,-0.063535,0.000258,0.007393,-0.000042,-0.008937,0.000005,0.000031,0.000437,-0.002209,-0.013634,0.204050,0.204030,0.164131,0.423723,0.000000,0.000000,0.000000,0.000000,0.000000,0.000000,0.000000,0.000000,0.000000,0.000000,0.000000,0.000000,0.002178,3,0
1290000,-0.000414,33.220478,-0.032425,-0.000574,25.919889,0.047060,0.000599,0.032002,1.570039,-0.063515,0.000261,0.007087,-0.000043,-0.008930,0.000005,0.000189,0.000429,-0.002911,0.034003,0.204215,0.204195,0.163777,0.420446,0.000000,0.000000,0.000000,0.000000,0.000000,0.000000,0.000000,0.000000,0.000000,0.000000,0.000000,0.000000,0.002838,3,0
1300000,-0.000404,33.479603,-0.033165,-0.000438,25.924055,0.046087,0.000603,0.032073,1.570028,-0.063493,0.000263,0.007492,-0.000044,-0.008926,0.000005,0.000326,0.000419,-0.003628,-0.044686,0.204381,0.204359,0.163421,0.417253,0.000000,0.000000,0.000000,0.000000,0.000000,0.000000,0.000000,0.000000,0.000000,0.000000,0.000000,0.000000,0.003533,3,0
1310000,-0.000395,33.741444,-0.032390,-0.000438,25.932831,0.047191,0.000618,0.032499,1.570023,-0.063978,0.000266,0.007379,-0.000044,-0.009062,0.000005,0.000931,0.000409,0.075153,0.011615,0.204547,0.204524,0.163065,0.414139,0.000000,0.000000,0.000000,0.000000,0.000000,0.000000,0.000000,0.000000,0.000000,0.000000,0.000000,0.000000,0.072595,3,0
1320000,-0.000385,34.003941,-0.032023,-0.000374,25.942776,0.047623,0.000622,0.033015,1.570020,-0.064567,0.000268,0.007403,-0.000045,-0.009230,0.000005,0.001351,0.000399,0.091522,-0.003641,0.204713,0.204689,0.162707,0.411107,0.000000,0.000000,0.000000,0.000000,0.000000,0.000000,0.000000,0.000000,0.000000,0.000000,0.000000,0.000000,0.088399,3,0
1330000,-0.000376,34.264366,-0.032627,-0.000380,25.948820,0.046935,0.000624,0.033245,1.570009,-0.064746,0.000271,0.007768,-0.000046,-0.009284,0.000005,0.000384,0.000389,0.027721,-0.040077,0.204879,0.204855,0.162349,0.408152,0.000000,0.000000,0.000000,0.000000,0.000000,0.000000,0.000000,0.000000,0.000000,0.000000,0.000000,0.000000,0.026770,3,0
1340000,-0.000367,34.523418,-0.032756,-0.000384,25.952335,0.046953,0.000627,0.033282,1.569997,-0.064656,0.000273,0.007978,-0.000046,-0.009258,0.000005,0.000114,0.000380,-0.014103,-0.022499,0.205047,0.205022,0.161991,0.405274,0.000000,0.000000,0.000000,0.000000,0.000000,0.000000,0.000000,0.000000,0.000000,0.000000,0.000000,0.000000,0.013627,3,0
1350000,-0.000358,34.782490,-0.033914,-0.000292,25.955919,0.045634,0.000641,0.033323,1.569988,-0.064565,0.000276,0.008544,-0.000047,-0.009233,0.000005,0.000634,0.000371,-0.014759,-0.060760,0.205216,0.205189,0.161632,0.402472,0.000000,0.000000,0.000000,0.000000,0.000000,0.000000,0.000000,0.000000,0.000000,0.000000,0.000000,0.000000,0.014268,3,0
1360000,-0.000349,35.044292,-0.034727,-0.000273,25.964272,0.044659,0.000651,0.033722,1.569989,-0.064973,0.000278,0.008977,-0.000048,-0.009358,0.000005,0.001021,0.000361,0.064075,-0.047127,0.205385,0.205358,0.161274,0.399744,0.000000,0.000000,0.000000,0.000000,0.000000,0.000000,0.000000,0.000000,0.000000,0.000000,0.000000,0.000000,0.061875,3,0
1370000,-0.000339,35.303333,-0.034615,-0.000221,25.967564,0.044817,0.000660,0.033726,1.569988,-0.064854,0.000280,0.009100,-0.000048,-0.009322,0.000005,0.000084,0.000351,-0.018902,-0.012788,0.205557,0.205528,0.160916,0.397088,0.000000,0.000000,0.000000,0.000000,0.000000,0.000000,0.000000,0.000000,0.000000,0.000000,0.000000,0.000000,0.018260,3,0
1380000,-0.000329,35.566467,-0.033232,-0.000145,25.978142,0.046410,0.000665,0.034304,1.569983,-0.065480,0.000282,0.008754,-0.000049,-0.009516,0.000005,0.001803,0.000341,0.099720,0.035309,0.205729,0.205700,0.160559,0.394504,0.000000,0.000000,0.000000,0.000000,0.000000,0.000000,0.000000,0.000000,0.000000,0.000000,0.000000,0.000000,0.096306,3,0
1390000,-0.000320,35.825462,-0.033394,-0.000202,25.981192,0.046046,0.000676,0.034281,1.569981,-0.065328,0.000284,0.008982,-0.000050,-0.009469,0.000005,0.000187,0.000331,-0.024364,-0.023728,0.205903,0.205872,0.160203,0.391989,0.000000,0.000000,0.000000,0.000000,0.000000,0.000000,0.000000,0.000000,0.000000,0.000000,0.000000,0.000000,0.023535,3,0
1400000,-0.000311,36.084469,-0.033792,-0.000192,25.984241,0.045495,0.000684,0.034252,1.569981,-0.065174,0.000286,0.009296,-0.000050,-0.009421,0.000005,0.000272,0.000322,-0.024963,-0.032573,0.206078,0.206047,0.159848,0.389543,0.000000,0.000000,0.000000,0.000000,0.000000,0.000000,0.000000,0.000000,0.000000,0.000000,0.000000,0.000000,0.024115,3,0
1410000,-0.000302,36.342804,-0.034685,-0.000148,25.986046,0.044390,0.000683,0.034130,1.569976,-0.064893,0.000289,0.009793,-0.000051,-0.009331,0.000005,0.000758,0.000313,-0.045456,-0.051203,0.206255,0.206222,0.159494,0.387163,0.000000,0.000000,0.000000,0.000000,0.000000,0.000000,0.000000,0.000000,0.000000,0.000000,0.000000,0.000000,0.043904,3,0
1420000,-0.000293,36.602509,-0.033434,-0.000088,25.990072,0.045924,0.000692,0.034190,1.569964,-0.064858,0.000291,0.009503,-0.000052,-0.009318,0.000005,0.000153,0.000303,-0.005623,0.030193,0.206434,0.206400,0.159141,0.384847,0.000000,0.000000,0.000000,0.000000,0.000000,0.000000,0.000000,0.000000,0.000000,0.000000,0.000000,0.000000,0.005432,3,0
1430000,-0.000282,36.864952,-0.032765,0.000021,25.999102,0.046616,0.000708,0.034640,1.569967,-0.065303,0.000292,0.009414,-0.000052,-0.009467,0.000005,0.000859,0.000293,0.072571,0.008212,0.206614,0.206579,0.158790,0.382596,0.000000,0.000000,0.000000,0.000000,0.000000,0.000000,0.000000,0.000000,0.000000,0.000000,0.000000,0.000000,0.070073,3,0
1440000,-0.000273,37.123245,-0.033574,0.000025,26.000546,0.045686,0.000723,0.034491,1.569965,-0.064994,0.000294,0.009896,-0.000053,-0.009365,0.000005,0.000803,0.000282,-0.050808,-0.048840,0.206796,0.206760,0.158441,0.380407,0.000000,0.000000,0.000000,0.000000,0.000000,0.000000,0.000000,0.000000,0.000000,0.000000,0.000000,0.000000,0.049065,3,0
1450000,-0.000262,37.382927,-0.034029,0.000118,26.004372,0.045241,0.000731,0.034545,1.569964,-0.064929,0.000296,0.010239,-0.000053,-0.009344,0.000005,0.000217,0.000272,-0.010933,-0.034939,0.206980,0.206942,0.158094,0.378279,0.000000,0.000000,0.000000,0.000000,0.000000,0.000000,0.000000,0.000000,0.000000,0.000000,0.000000,0.000000,0.010566,3,0
1460000,-0.000251,37.646713,-0.033917,0.000252,26.015547,0.045404,0.000733,0.035190,1.569959,-0.065576,0.000297,0.010345,-0.000054,-0.009571,0.000005,0.001869,0.000260,0.107044,-0.012428,0.207165,0.207127,0.157748,0.376210,0.000000,0.000000,0.000000,0.000000,0.000000,0.000000,0.000000,0.000000,0.000000,0.000000,0.000000,0.000000,0.103348,3,0
1470000,-0.000239,37.906303,-0.033587,0.000383,26.019068,0.045946,0.000746,0.035189,1.569950,-0.065470,0.000299,0.010399,-0.000054,-0.009533,0.000005,0.000055,0.000247,-0.017700,-0.005150,0.207353,0.207313,0.157405,0.374200,0.000000,0.000000,0.000000,0.000000,0.000000,0.000000,0.000000,0.000000,0.000000,0.000000,0.000000,0.000000,0.017092,3,0
1480000,-0.000228,38.165195,-0.033085,0.000330,26.021166,0.046746,0.000748,0.035076,1.569941,-0.065239,0.000300,0.010394,-0.000055,-0.009450,0.000005,0.000242,0.000236,-0.038776,0.001071,0.207542,0.207501,0.157065,0.372246,0.000000,0.000000,0.000000,0.000000,0.000000,0.000000,0.000000,0.000000,0.000000,0.000000,0.000000,0.000000,0.037434,3,0
1490000,-0.000216,38.424091,-0.032500,0.000396,26.023216,0.047602,0.000758,0.034970,1.569933,-0.065006,0.000302,0.010361,-0.000055,-0.009364,0.000005,0.000251,0.000224,-0.039268,0.003927,0.207734,0.207691,0.156727,0.370347,0.000000,0.000000,0.000000,0.000000,0.000000,0.000000,0.000000,0.000000,0.000000,0.000000,0.000000,0.000000,0.037907,3,0
1500000,-0.000205,38.686443,-0.033031,0.000357,26.031540,0.047031,0.000765,0.035389,1.569937,-0.065358,0.000303,0.010736,-0.000056,-0.009497,0.000005,0.000812,0.000213,0.059639,-0.038424,0.207927,0.207883,0.156391,0.368503,0.000000,0.000000,0.000000,0.000000,0.000000,0.000000,0.000000,0.000000,0.000000,0.000000,0.000000,0.000000,0.057564,3,0
1510000,-0.000194,38.944599,-0.032888,0.000398,26.032116,0.047319,0.000772,0.035156,1.569926,-0.064987,0.000304,0.010881,-0.000056,-0.009358,0.000005,0.000681,0.000201,-0.063641,-0.013368,0.208122,0.208077,0.156059,0.366711,0.000000,0.000000,0.000000,0.000000,0.000000,0.000000,0.000000,0.000000,0.000000,0.000000,0.000000,0.000000,0.061436,3,0
1520000,-0.000184,39.207592,-0.032081,0.000414,26.041422,0.048178,0.000784,0.035656,1.569918,-0.065426,0.000305,0.010734,-0.000057,-0.009525,0.000005,0.000953,0.000190,0.075775,0.013319,0.208319,0.208272,0.155729,0.364971,0.000000,0.000000,0.000000,0.000000,0.000000,0.000000,0.000000,0.000000,0.000000,0.000000,0.000000,0.000000,0.073147,3,0
1530000,-0.000173,39.469833,-0.031933,0.000487,26.049297,0.048343,0.000789,0.036025,1.569903,-0.065722,0.000306,0.010853,-0.000057,-0.009641,0.000005,0.000448,0.000179,0.051231,-0.012689,0.208517,0.208469,0.155402,0.363281,0.000000,0.000000,0.000000,0.000000,0.000000,0.000000,0.000000,0.000000,0.000000,0.000000,0.000000,0.000000,0.049450,3,0
1540000,-0.000161,39.729259,-0.031810,0.000570,26.051971,0.048411,0.000794,0.035948,1.569888,-0.065538,0.000307,0.011006,-0.000057,-0.009569,0.000005,0.000200,0.000167,-0.032177,-0.014427,0.208717,0.208668,0.155078,0.361640,0.000000,0.000000,0.000000,0.000000,0.000000,0.000000,0.000000,0.000000,0.000000,0.000000,0.000000,0.000000,0.031063,3,0
1550000,-0.000150,39.988678,-0.032293,0.000656,26.054655,0.047935,0.000800,0.035875,1.569890,-0.065351,0.000308,0.011401,-0.000058,-0.009497,0.000005,0.000412,0.000155,-0.033207,-0.038033,0.208918,0.208868,0.154757,0.360048,0.000000,0.000000,0.000000,0.000000,0.000000,0.000000,0.000000,0.000000,0.000000,0.000000,0.000000,0.000000,0.032059,3,0
1560000,-0.000137,40.252239,-0.032437,0.000772,26.064774,0.047562,0.000796,0.036442,1.569888,-0.065830,0.000309,0.011628,-0.000058,-0.009693,0.000005,0.001254,0.000142,0.085052,-0.023634,0.209121,0.209069,0.154440,0.358501,0.000000,0.000000,0.000000,0.000000,0.000000,0.000000,0.000000,0.000000,0.000000,0.000000,0.000000,0.000000,0.082085,3,0
1570000,-0.000125,40.515713,-0.031210,0.000783,26.074675,0.049038,0.000795,0.036978,1.569884,-0.066275,0.000309,0.011306,-0.000058,-0.009875,0.000005,0.001169,0.000129,0.079811,0.029749,0.209325,0.209271,0.154126,0.357000,0.000000,0.000000,0.000000,0.000000,0.000000,0.000000,0.000000,0.000000,0.000000,0.000000,0.000000,0.000000,0.077034,3,0
1580000,-0.000112,40.777023,-0.029876,0.000904,26.080414,0.050387,0.000792,0.037152,1.569882,-0.066357,0.000310,0.010962,-0.000059,-0.009908,0.000005,0.000212,0.000116,0.015026,0.032898,0.209530,0.209475,0.153816,0.355543,0.000000,0.000000,0.000000,0.000000,0.000000,0.000000,0.000000,0.000000,0.000000,0.000000,0.000000,0.000000,0.014512,3,0
1590000,-0.000099,41.034832,-0.029949,0.000959,26.079670,0.050143,0.000794,0.036768,1.569870,-0.065879,0.000311,0.011224,-0.000059,-0.009705,0.000005,0.001316,0.000102,-0.087307,-0.023516,0.209736,0.209680,0.153508,0.354129,0.000000,0.000000,0.000000,0.000000,0.000000,0.000000,0.000000,0.000000,0.000000,0.000000,0.000000,0.000000,0.084263,3,0
1600000,-0.000085,41.298222,-0.030739,0.001041,26.089077,0.049041,0.000799,0.037280,1.569872,-0.066273,0.000311,0.011732,-0.000059,-0.009879,0.000005,0.001248,0.000088,0.072350,-0.050053,0.209943,0.209885,0.153205,0.352755,0.000000,0.000000,0.000000,0.000000,0.000000,0.000000,0.000000,0.000000,0.000000,0.000000,0.000000,0.000000,0.069805,3,0
1610000,-0.000072,41.558044,-0.031256,0.001066,26.091829,0.048391,0.000807,0.037199,1.569876,-0.066101,0.000312,0.012159,-0.000059,-0.009806,0.000005,0.000427,0.000075,-0.032104,-0.040070,0.210150,0.210091,0.152905,0.351422,0.000000,0.000000,0.000000,0.000000,0.000000,0.000000,0.000000,0.000000,0.000000,0.000000,0.000000,0.000000,0.030991,3,0
1620000,-0.000058,41.817837,-0.030634,0.001196,26.094429,0.048926,0.000818,0.037100,1.569872,-0.065922,0.000312,0.012114,-0.000059,-0.009726,0.000005,0.000185,0.000060,-0.033527,0.004945,0.210359,0.210298,0.152609,0.350127,0.000000,0.000000,0.000000,0.000000,0.000000,0.000000,0.000000,0.000000,0.000000,0.000000,0.000000,0.000000,0.032352,3,0
1630000,-0.000045,42.080402,-0.030937,0.001140,26.102219,0.048502,0.000819,0.037461,1.569859,-0.066159,0.000312,0.012432,-0.000059,-0.009835,0.000005,0.000475,0.000047,0.044590,-0.030950,0.210568,0.210506,0.152316,0.348872,0.000000,0.000000,0.000000,0.000000,0.000000,0.000000,0.000000,0.000000,0.000000,0.000000,0.000000,0.000000,0.043018,3,0
1640000,-0.000032,42.340115,-0.031847,0.001176,26.104666,0.047455,0.000832,0.037336,1.569862,-0.065955,0.000313,0.013032,-0.000060,-0.009745,0.000005,0.000751,0.000033,-0.039139,-0.055750,0.210777,0.210713,0.152027,0.347654,0.000000,0.000000,0.000000,0.000000,0.000000,0.000000,0.000000,0.000000,0.000000,0.000000,0.000000,0.000000,0.037781,3,0
1650000,-0.000018,42.603294,-0.032758,0.001301,26.113363,0.046271,0.000834,0.037798,1.569855,-0.066262,0.000313,0.013598,-0.000060,-0.009893,0.000005,0.001038,0.000019,0.058945,-0.054331,0.210986,0.210922,0.151742,0.346470,0.000000,0.000000,0.000000,0.000000,0.000000,0.000000,0.000000,0.000000,0.000000,0.000000,0.000000,0.000000,0.056858,3,0
1660000,-0.000005,42.862873,-0.031421,0.001345,26.115217,0.047714,0.000843,0.037631,1.569854,-0.066029,0.000313,0.013245,-0.000060,-0.009780,0.000005,0.000517,0.000005,-0.045288,0.033984,0.211196,0.211130,0.151461,0.345321,0.000000,0.000000,0.000000,0.000000,0.000000,0.000000,0.000000,0.000000,0.000000,0.000000,0.000000,0.000000,0.043686,3,0
1670000,0.000009,43.120354,-0.032312,0.001393,26.113113,0.046649,0.000850,0.037110,1.569851,-0.065492,0.000314,0.013868,-0.000060,-0.009524,0.000005,0.002315,-0.000009,-0.106098,-0.055707,0.211406,0.211338,0.151184,0.344205,0.000000,0.000000,0.000000,0.000000,0.000000,0.000000,0.000000,0.000000,0.000000,0.000000,0.000000,0.000000,0.102379,3,0
1680000,0.000022,43.381348,-0.033383,0.001389,26.117561,0.045189,0.000862,0.037191,1.569842,-0.065464,0.000314,0.014530,-0.000060,-0.009515,0.000005,0.000617,-0.000023,-0.005737,-0.061349,0.211615,0.211546,0.150911,0.343121,0.000000,0.000000,0.000000,0.000000,0.000000,0.000000,0.000000,0.000000,0.000000,0.000000,0.000000,0.000000,0.005554,3,0
1690000,0.000034,43.643692,-0.033879,0.001361,26.124432,0.044512,0.000866,0.037473,1.569827,-0.065620,0.000314,0.014929,-0.000060,-0.009596,0.000005,0.000388,-0.000036,0.031410,-0.037548,0.211824,0.211753,0.150642,0.342069,0.000000,0.000000,0.000000,0.000000,0.000000,0.000000,0.000000,0.000000,0.000000,0.000000,0.000000,0.000000,0.030289,3,0
1700000,0.000046,43.903858,-0.034342,0.001324,26.127241,0.044009,0.000874,0.037379,1.569822,-0.065463,0.000314,0.015337,-0.000059,-0.009519,0.000005,0.000388,-0.000048,-0.032215,-0.036864,0.212033,0.211960,0.150376,0.341048,0.000000,0.000000,0.000000,0.000000,0.000000,0.000000,0.000000,0.000000,0.000000,0.000000,0.000000,0.000000,0.031090,3,0
1710000,0.000058,44.165382,-0.033983,0.001377,26.132347,0.044377,0.000878,0.037503,1.569808,-0.065491,0.000313,0.015372,-0.000059,-0.009534,0.000005,0.000007,-0.000060,0.005775,-0.003353,0.212241,0.212167,0.150115,0.340055,0.000000,0.000000,0.000000,0.000000,0.000000,0.000000,0.000000,0.000000,0.000000,0.000000,0.000000,0.000000,0.005570,3,0
1720000,0.000069,44.426865,-0.034838,0.001371,26.137362,0.043160,0.000888,0.037622,1.569800,-0.065504,0.000313,0.015941,-0.000059,-0.009545,0.000005,0.000442,-0.000071,0.002625,-0.052099,0.212448,0.212372,0.149857,0.339091,0.000000,0.000000,0.000000,0.000000,0.000000,0.000000,0.000000,0.000000,0.000000,0.000000,0.000000,0.000000,0.002515,3,0
