time_us,pos_x,pos_y,pos_z,vel_x,vel_y,vel_z,roll,pitch,yaw,bias_ax,bias_ay,bias_az,bias_gx,bias_gy,bias_gz,nis,innov_x,innov_y,innov_z,cov_pos_x,cov_pos_y,cov_pos_z,cov_yaw,des_speed,des_heading,des_climb,pid_speed,pid_yaw,pid_alt,speed_meas,yaw_meas,climb_meas,fwd_accel,yaw_rate,vert_accel,drift_m,nav_mode,mission_state
0,0.000004,0.149994,-0.000001,0.000618,24.998964,-0.000173,-0.000010,-0.000000,1.570777,0.000000,0.000000,0.000000,0.000000,0.000000,0.000000,0.006250,-0.000006,-0.249992,0.000002,2.400038,2.400038,3.600017,1.000518,0.000000,0.000000,0.000000,0.000000,0.000000,0.000000,0.000000,0.000000,0.000000,0.000000,0.000000,0.000000,0.070478,1,0
10000,0.000011,0.325449,0.022162,0.001162,24.997719,-0.000200,-0.000017,-0.000000,1.570757,0.000001,-0.000000,-0.000000,0.000000,0.000000,0.000000,0.008462,-0.000015,-0.260823,0.059106,1.714420,1.714420,2.250079,1.001073,0.000000,0.000000,0.000000,0.000000,0.000000,0.000000,0.000000,0.000000,0.000000,0.000000,0.000000,0.000000,0.012493,3,0
20000,0.000023,0.478449,0.036185,0.001874,24.995590,-0.000084,-0.000019,-0.000005,1.570745,0.000005,-0.000000,-0.000001,0.000000,0.000000,0.000000,0.024991,-0.000030,-0.436265,0.051421,1.333616,1.333616,1.636554,1.001655,0.000000,0.000000,0.000000,0.000000,0.000000,0.000000,0.000000,0.000000,0.000000,0.000000,0.000000,0.000000,0.117919,3,0
30000,0.000037,0.595901,0.036069,0.002170,24.992025,-0.000272,-0.000018,-0.000017,1.570744,0.000017,-0.000000,-0.000001,0.000000,0.000000,0.000000,0.072342,-0.000045,-0.728396,-0.000532,1.091392,1.091392,1.286065,1.002257,0.000000,0.000000,0.000000,0.000000,0.000000,0.000000,0.000000,0.000000,0.000000,0.000000,0.000000,0.000000,0.258892,3,0
40000,0.000057,0.755082,0.039694,0.002769,24.987278,-0.000285,-0.000011,-0.000030,1.570734,0.000040,-0.000000,-0.000001,0.000000,0.000000,0.000000,0.079696,-0.000067,-0.751526,0.020554,0.923858,0.923858,1.059425,1.002937,0.000000,0.000000,0.000000,0.000000,0.000000,0.000000,0.000000,0.000000,0.000000,0.000000,0.000000,0.000000,0.358137,3,0
50000,0.000080,0.881389,0.035180,0.003512,24.981367,-0.000420,-0.000010,-0.000050,1.570723,0.000081,-0.000000,0.000000,-0.000000,0.000000,0.000000,0.123808,-0.000092,-0.925431,-0.030046,0.801084,0.801084,0.900863,1.003549,0.000000,0.000000,0.000000,0.000000,0.000000,0.000000,0.000000,0.000000,0.000000,0.000000,0.000000,0.000000,0.490256,3,0
60000,0.000108,1.016588,0.035979,0.004258,24.974230,-0.000312,-0.000002,-0.000068,1.570702,0.000141,-0.000000,-0.000000,0.000000,0.000001,0.000000,0.138953,-0.000122,-0.972161,0.006142,0.707319,0.707319,0.783783,1.004155,0.000000,0.000000,0.000000,0.000000,0.000000,0.000000,0.000000,0.000000,0.000000,0.000000,0.000000,0.000000,0.613483,3,0
70000,0.000139,1.141030,0.034903,0.004762,24.964783,-0.000350,0.000001,-0.000102,1.570683,0.000238,-0.000000,0.000000,0.000000,0.000002,0.000000,0.209981,-0.000155,-1.186805,-0.009275,0.633419,0.633419,0.693843,1.004747,0.000000,0.000000,0.000000,0.000000,0.000000,0.000000,0.000000,0.000000,0.000000,0.000000,0.000000,0.000000,0.747468,3,0
80000,0.000175,1.263395,0.033934,0.005447,24.953293,-0.000711,-0.000003,-0.000143,1.570657,0.000377,-0.000000,0.000001,0.000000,0.000003,0.000000,0.267053,-0.000194,-1.331032,-0.009280,0.573723,0.573723,0.622637,1.005316,0.000000,0.000000,0.000000,0.000000,0.000000,0.000000,0.000000,0.000000,0.000000,0.000000,0.000000,0.000000,0.883528,3,0
90000,0.000216,1.411938,0.039649,0.006168,24.942333,-0.000483,-0.000010,-0.000187,1.570632,0.000527,-0.000000,-0.000006,0.000000,0.000005,0.000000,0.203493,-0.000237,-1.155100,0.060802,0.524538,0.524538,0.564908,1.005853,0.000000,0.000000,0.000000,0.000000,0.000000,0.000000,0.000000,0.000000,0.000000,0.000000,0.000000,0.000000,0.993411,3,0
100000,0.000260,1.573958,0.042084,0.006667,24.931005,-0.000193,-0.000010,-0.000229,1.570630,0.000699,-0.000000,-0.000011,0.000000,0.000007,0.000000,0.180475,-0.000283,-1.084865,0.028302,0.483354,0.483354,0.517205,1.006351,0.000000,0.000000,0.000000,0.000000,0.000000,0.000000,0.000000,0.000000,0.000000,0.000000,0.000000,0.000000,1.089817,3,0
110000,0.000309,1.756823,0.039478,0.007368,24.920706,-0.000770,-0.000011,-0.000277,1.570616,0.000867,-0.000000,-0.000005,0.000000,0.000010,0.000000,0.122026,-0.000334,-0.888949,-0.032707,0.448405,0.448405,0.477164,1.006801,0.000000,0.000000,0.000000,0.000000,0.000000,0.000000,0.000000,0.000000,0.000000,0.000000,0.000000,0.000000,1.165377,3,0
120000,0.000361,1.938218,0.042092,0.007934,24.908869,-0.000431,-0.000007,-0.000354,1.570598,0.001083,-0.000000,-0.000012,0.000000,0.000013,0.000000,0.146774,-0.000388,-0.972319,0.035504,0.418410,0.418410,0.443115,1.007195,0.000000,0.000000,0.000000,0.000000,0.000000,0.000000,0.000000,0.000000,0.000000,0.000000,0.000000,0.000000,1.242409,3,0
130000,0.000417,2.128750,0.043852,0.008469,24.896975,0.000050,-0.000011,-0.000433,1.570577,0.001315,-0.000000,-0.000019,0.000000,0.000017,0.000000,0.124921,-0.000446,-0.895168,0.025550,0.392421,0.392421,0.413841,1.007523,0.000000,0.000000,0.000000,0.000000,0.000000,0.000000,0.000000,0.000000,0.000000,0.000000,0.000000,0.000000,1.310302,3,0
140000,0.000475,2.332866,0.046455,0.008995,24.886450,0.000443,-0.000011,-0.000502,1.570565,0.001532,-0.000000,-0.000030,0.000000,0.000021,0.000000,0.083085,-0.000507,-0.727760,0.040217,0.369718,0.369718,0.388437,1.007778,0.000000,0.000000,0.000000,0.000000,0.000000,0.000000,0.000000,0.000000,0.000000,0.000000,0.000000,0.000000,1.364613,3,0
150000,0.000537,2.540152,0.048418,0.009425,24.875463,0.000690,-0.000011,-0.000573,1.570542,0.001774,-0.000001,-0.000041,0.000000,0.000026,0.000000,0.079974,-0.000570,-0.713102,0.032126,0.349748,0.349748,0.366216,1.007952,0.000000,0.000000,0.000000,0.000000,0.000000,0.000000,0.000000,0.000000,0.000000,0.000000,0.000000,0.000000,1.415752,3,0
160000,0.000603,2.752268,0.049925,0.010215,24.864780,0.001104,-0.000015,-0.000658,1.570523,0.002028,-0.000001,-0.000051,0.000000,0.000032,0.000000,0.069074,-0.000639,-0.661854,0.025951,0.332073,0.332073,0.346644,1.008036,0.000000,0.000000,0.000000,0.000000,0.000000,0.000000,0.000000,0.000000,0.000000,0.000000,0.000000,0.000000,1.462063,3,0
170000,0.000674,2.968455,0.047322,0.010797,24.853985,0.000215,-0.000009,-0.000741,1.570508,0.002294,-0.000001,-0.000031,0.000000,0.000038,0.000000,0.060155,-0.000711,-0.615434,-0.047601,0.316350,0.316350,0.329304,1.008023,0.000000,0.000000,0.000000,0.000000,0.000000,0.000000,0.000000,0.000000,0.000000,0.000000,0.000000,0.000000,1.504301,3,0
180000,0.000749,3.189109,0.048107,0.011449,24.843510,0.000374,0.000010,-0.000816,1.570489,0.002560,-0.000001,-0.000038,0.000000,0.000045,0.000000,0.048472,-0.000789,-0.553207,0.014985,0.302299,0.302299,0.313861,1.007904,0.000000,0.000000,0.000000,0.000000,0.000000,0.000000,0.000000,0.000000,0.000000,0.000000,0.000000,0.000000,1.542073,3,0
190000,0.000825,3.416490,0.049940,0.011835,24.834742,0.001015,0.000012,-0.000897,1.570483,0.002792,-0.000002,-0.000057,0.000000,0.000051,0.000000,0.030339,-0.000867,-0.435816,0.036572,0.289695,0.289695,0.300047,1.007672,0.000000,0.000000,0.000000,0.000000,0.000000,0.000000,0.000000,0.000000,0.000000,0.000000,0.000000,0.000000,1.573118,3,0
200000,0.000905,3.641444,0.050514,0.012319,24.824650,0.001328,0.000012,-0.000996,1.570461,0.003088,-0.000002,-0.000064,0.000000,0.000059,0.000000,0.040407,-0.000949,-0.504081,0.011734,0.278349,0.278349,0.287642,1.007319,0.000000,0.000000,0.000000,0.000000,0.000000,0.000000,0.000000,0.000000,0.000000,0.000000,0.000000,0.000000,1.606591,3,0
210000,0.000986,3.868657,0.050033,0.012726,24.814741,0.001041,0.000019,-0.001091,1.570444,0.003391,-0.000003,-0.000057,0.000000,0.000068,0.000000,0.035266,-0.001032,-0.470507,-0.010706,0.268108,0.268108,0.276465,1.006838,0.000000,0.000000,0.000000,0.000000,0.000000,0.000000,0.000000,0.000000,0.000000,0.000000,0.000000,0.000000,1.637803,3,0
220000,0.001071,4.099563,0.047952,0.013271,24.805840,0.000042,0.000022,-0.001184,1.570428,0.003672,-0.000004,-0.000025,0.000000,0.000077,0.000000,0.025798,-0.001119,-0.399438,-0.047068,0.258841,0.258841,0.266365,1.006222,0.000000,0.000000,0.000000,0.000000,0.000000,0.000000,0.000000,0.000000,0.000000,0.000000,0.000000,0.000000,1.665323,3,0
230000,0.001158,4.329605,0.049420,0.013689,24.796059,0.000717,0.000027,-0.001293,1.570420,0.004003,-0.000005,-0.000050,0.000000,0.000088,0.000001,0.029920,-0.001208,-0.431467,0.034243,0.250440,0.250440,0.257215,1.005463,0.000000,0.000000,0.000000,0.000000,0.000000,0.000000,0.000000,0.000000,0.000000,0.000000,0.000000,0.000000,1.693707,3,0
240000,0.001247,4.560442,0.050272,0.014147,24.785778,0.000917,0.000032,-0.001397,1.570415,0.004354,-0.000006,-0.000067,0.000000,0.000100,0.000001,0.028663,-0.001299,-0.422861,0.020414,0.242810,0.242810,0.248910,1.004556,0.000000,0.000000,0.000000,0.000000,0.000000,0.000000,0.000000,0.000000,0.000000,0.000000,0.000000,0.000000,1.721296,3,0
250000,0.001338,4.797445,0.051897,0.014595,24.778700,0.001603,0.000039,-0.001484,1.570401,0.004601,-0.000007,-0.000103,0.000000,0.000109,0.000001,0.012447,-0.001393,-0.275898,0.040199,0.235873,0.235873,0.241357,1.003493,0.000000,0.000000,0.000000,0.000000,0.000000,0.000000,0.000000,0.000000,0.000000,0.000000,0.000000,0.000000,1.742718,3,0
260000,0.001432,5.033206,0.053401,0.015044,24.770182,0.002561,0.000046,-0.001575,1.570393,0.004905,-0.000008,-0.000139,0.000000,0.000120,0.000001,0.016040,-0.001489,-0.314039,0.038071,0.229560,0.229560,0.234479,1.002269,0.000000,0.000000,0.000000,0.000000,0.000000,0.000000,0.000000,0.000000,0.000000,0.000000,0.000000,0.000000,1.765384,3,0
270000,0.001528,5.270772,0.054552,0.015493,24.762434,0.003089,0.000057,-0.001658,1.570376,0.005186,-0.000010,-0.000170,0.000000,0.000131,0.000001,0.011960,-0.001587,-0.271410,0.029627,0.223810,0.223810,0.228208,1.000877,0.000000,0.000000,0.000000,0.000000,0.000000,0.000000,0.000000,0.000000,0.000000,0.000000,0.000000,0.000000,1.786244,3,0
280000,0.001626,5.509985,0.056031,0.015858,24.755486,0.003961,0.000059,-0.001743,1.570369,0.005442,-0.000012,-0.000213,0.000000,0.000141,0.000001,0.008785,-0.001687,-0.230593,0.039070,0.218572,0.218572,0.222486,0.999313,0.000000,0.000000,0.000000,0.000000,0.000000,0.000000,0.000000,0.000000,0.000000,0.000000,0.000000,0.000000,1.805457,3,0
290000,0.001725,5.748583,0.054265,0.016222,24.747923,0.002471,0.000065,-0.001835,1.570344,0.005739,-0.000014,-0.000154,0.000001,0.000153,0.000001,0.010530,-0.001788,-0.251070,-0.049775,0.213801,0.213801,0.217261,0.997571,0.000000,0.000000,0.000000,0.000000,0.000000,0.000000,0.000000,0.000000,0.000000,0.000000,0.000000,0.000000,1.825285,3,0
300000,0.001826,5.986593,0.052297,0.016655,24.739462,0.001101,0.000054,-0.001948,1.570329,0.006081,-0.000016,-0.000084,0.000001,0.000168,0.000001,0.012316,-0.001892,-0.270923,-0.056296,0.209456,0.209455,0.212489,0.995647,0.000000,0.000000,0.000000,0.000000,0.000000,0.000000,0.000000,0.000000,0.000000,0.000000,0.000000,0.000000,1.845701,3,0
310000,0.001929,6.227442,0.052945,0.017092,24.733093,0.001385,0.000053,-0.002041,1.570303,0.006337,-0.000019,-0.000109,0.000001,0.000179,0.000001,0.005914,-0.001997,-0.190787,0.018423,0.205501,0.205501,0.208129,0.993536,0.000000,0.000000,0.000000,0.000000,0.000000,0.000000,0.000000,0.000000,0.000000,0.000000,0.000000,0.000000,1.863278,3,0
320000,0.002033,6.466259,0.052932,0.017493,24.724722,0.001295,0.000059,-0.002154,1.570291,0.006696,-0.000022,-0.000108,0.000001,0.000196,0.000001,0.010282,-0.002104,-0.252660,-0.000746,0.201905,0.201905,0.204146,0.991235,0.000000,0.000000,0.000000,0.000000,0.000000,0.000000,0.000000,0.000000,0.000000,0.000000,0.000000,0.000000,1.882887,3,0
330000,0.002141,6.705780,0.052823,0.018073,24.716509,0.000915,0.000065,-0.002276,1.570274,0.007047,-0.000025,-0.000103,0.000001,0.000212,0.000001,0.008749,-0.002215,-0.232966,-0.003560,0.198640,0.198640,0.200510,0.988741,0.000000,0.000000,0.000000,0.000000,0.000000,0.000000,0.000000,0.000000,0.000000,0.000000,0.000000,0.000000,1.901792,3,0
340000,0.002250,6.946602,0.053568,0.018422,24.709349,0.001284,0.000078,-0.002382,1.570262,0.007355,-0.000029,-0.000138,0.000001,0.000228,0.000001,0.006157,-0.002326,-0.194101,0.022493,0.195680,0.195680,0.197192,0.986049,0.000000,0.000000,0.000000,0.000000,0.000000,0.000000,0.000000,0.000000,0.000000,0.000000,0.000000,0.000000,1.919395,3,0
350000,0.002361,7.187368,0.052242,0.018794,24.701918,-0.000128,0.000077,-0.002491,1.570252,0.007684,-0.000033,-0.000070,0.000001,0.000244,0.000001,0.006492,-0.002439,-0.196304,-0.041296,0.193003,0.193003,0.194166,0.983158,0.000000,0.000000,0.000000,0.000000,0.000000,0.000000,0.000000,0.000000,0.000000,0.000000,0.000000,0.000000,1.937056,3,0
360000,0.002473,7.431862,0.053343,0.019308,24.698400,0.000807,0.000080,-0.002532,1.570236,0.007824,-0.000037,-0.000130,0.000002,0.000251,0.000001,0.001206,-0.002555,-0.079178,0.034575,0.190587,0.190586,0.191409,0.980066,0.000000,0.000000,0.000000,0.000000,0.000000,0.000000,0.000000,0.000000,0.000000,0.000000,0.000000,0.000000,1.950987,3,0
370000,0.002588,7.676787,0.052991,0.019741,24.695148,0.000202,0.000081,-0.002581,1.570222,0.007944,-0.000042,-0.000110,0.000002,0.000258,0.000002,0.000708,-0.002672,-0.065211,-0.011343,0.188413,0.188413,0.188902,0.976771,0.000000,0.000000,0.000000,0.000000,0.000000,0.000000,0.000000,0.000000,0.000000,0.000000,0.000000,0.000000,1.964489,3,0
380000,0.002704,7.921502,0.051421,0.020208,24.691456,-0.001597,0.000084,-0.002626,1.570208,0.008083,-0.000047,-0.000012,0.000002,0.000266,0.000002,0.001239,-0.002791,-0.071554,-0.050468,0.186465,0.186465,0.186625,0.973273,0.000000,0.000000,0.000000,0.000000,0.000000,0.000000,0.000000,0.000000,0.000000,0.000000,0.000000,0.000000,1.978200,3,0
390000,0.002821,8.165401,0.050533,0.020588,24.687035,-0.002525,0.000091,-0.002696,1.570186,0.008282,-0.000053,0.000045,0.000002,0.000277,0.000002,0.001668,-0.002911,-0.097566,-0.028310,0.184726,0.184726,0.184561,0.969571,0.000000,0.000000,0.000000,0.000000,0.000000,0.000000,0.000000,0.000000,0.000000,0.000000,0.000000,0.000000,1.992727,3,0
400000,0.002939,8.410334,0.049902,0.020923,24.683737,-0.003336,0.000090,-0.002736,1.570174,0.008416,-0.000060,0.000087,0.000003,0.000285,0.000002,0.000709,-0.003032,-0.063116,-0.019850,0.183182,0.183182,0.182693,0.965664,0.000000,0.000000,0.000000,0.000000,0.000000,0.000000,0.000000,0.000000,0.000000,0.000000,0.000000,0.000000,2.006221,3,0
410000,0.003056,8.655656,0.049277,0.021066,24.680696,-0.004148,0.000094,-0.002770,1.570165,0.008526,-0.000067,0.000130,0.000003,0.000291,0.000002,0.000461,-0.003151,-0.049588,-0.019543,0.181819,0.181819,0.181009,0.961555,0.000000,0.000000,0.000000,0.000000,0.000000,0.000000,0.000000,0.000000,0.000000,0.000000,0.000000,0.000000,2.019325,3,0
420000,0.003174,8.900753,0.050634,0.021537,24.677233,-0.002542,0.000098,-0.002821,1.570158,0.008656,-0.000074,0.000022,0.000004,0.000299,0.000002,0.000868,-0.003272,-0.056331,0.046730,0.180626,0.180625,0.179493,0.957243,0.000000,0.000000,0.000000,0.000000,0.000000,0.000000,0.000000,0.000000,0.000000,0.000000,0.000000,0.000000,2.032653,3,0
430000,0.003293,9.144444,0.051904,0.021989,24.672335,-0.001087,0.000116,-0.002904,1.570139,0.008903,-0.000082,-0.000083,0.000004,0.000315,0.000002,0.002012,-0.003395,-0.102608,0.043654,0.179589,0.179589,0.178133,0.952731,0.000000,0.000000,0.000000,0.000000,0.000000,0.000000,0.000000,0.000000,0.000000,0.000000,0.000000,0.000000,2.047389,3,0
440000,0.003413,9.389725,0.051943,0.022392,24.669420,-0.001291,0.000113,-0.002950,1.570119,0.009023,-0.000091,-0.000088,0.000005,0.000323,0.000002,0.000376,-0.003518,-0.048065,0.001814,0.178700,0.178699,0.176918,0.948020,0.000000,0.000000,0.000000,0.000000,0.000000,0.000000,0.000000,0.000000,0.000000,0.000000,0.000000,0.000000,2.060534,3,0
450000,0.003534,9.634782,0.050482,0.022721,24.665968,-0.003201,0.000115,-0.003002,1.570110,0.009165,-0.000100,0.000040,0.000005,0.000332,0.000002,0.000881,-0.003642,-0.054769,-0.049348,0.177946,0.177946,0.175838,0.943114,0.000000,0.000000,0.000000,0.000000,0.000000,0.000000,0.000000,0.000000,0.000000,0.000000,0.000000,0.000000,2.073902,3,0
460000,0.003656,9.880207,0.050055,0.023187,24.663153,-0.003799,0.000112,-0.003040,1.570096,0.009277,-0.000111,0.000077,0.000006,0.000340,0.000002,0.000309,-0.003768,-0.041366,-0.013504,0.177320,0.177319,0.174882,0.938014,0.000000,0.000000,0.000000,0.000000,0.000000,0.000000,0.000000,0.000000,0.000000,0.000000,0.000000,0.000000,2.086903,3,0
470000,0.003780,10.128921,0.048540,0.023636,24.664923,-0.005455,0.000121,-0.002980,1.570088,0.009079,-0.000121,0.000220,0.000007,0.000326,0.000002,0.001240,-0.003894,0.071056,-0.051007,0.176812,0.176811,0.174040,0.932726,0.000000,0.000000,0.000000,0.000000,0.000000,0.000000,0.000000,0.000000,0.000000,0.000000,0.000000,0.000000,2.096616,3,0
480000,0.003904,10.377932,0.048714,0.024058,24.666941,-0.005256,0.000117,-0.002908,1.570070,0.008845,-0.000133,0.000197,0.000008,0.000309,0.000002,0.001068,-0.004022,0.080752,0.007930,0.176413,0.176412,0.173305,0.927253,0.000000,0.000000,0.000000,0.000000,0.000000,0.000000,0.000000,0.000000,0.000000,0.000000,0.000000,0.000000,2.106032,3,0
490000,0.004027,10.627816,0.049707,0.024340,24.670048,-0.004284,0.000113,-0.002793,1.570055,0.008517,-0.000146,0.000088,0.000009,0.000285,0.000002,0.002176,-0.004149,0.110029,0.036445,0.176116,0.176116,0.172667,0.921600,0.000000,0.000000,0.000000,0.000000,0.000000,0.000000,0.000000,0.000000,0.000000,0.000000,0.000000,0.000000,2.114573,3,0
500000,0.004150,10.877398,0.048991,0.024627,24.673038,-0.005244,0.000121,-0.002696,1.570040,0.008213,-0.000159,0.000161,0.000010,0.000263,0.000002,0.001667,-0.004275,0.098657,-0.023461,0.175914,0.175913,0.172119,0.915772,0.000000,0.000000,0.000000,0.000000,0.000000,0.000000,0.000000,0.000000,0.000000,0.000000,0.000000,0.000000,2.123418,3,0
510000,0.004274,11.126099,0.050005,0.025196,24.674603,-0.003761,0.000121,-0.002622,1.570026,0.007997,-0.000173,0.000042,0.000011,0.000246,0.000002,0.000969,-0.004403,0.067716,0.037233,0.175799,0.175798,0.171654,0.909773,0.000000,0.000000,0.000000,0.000000,0.000000,0.000000,0.000000,0.000000,0.000000,0.000000,0.000000,0.000000,2.133143,3,0
520000,0.004400,11.373932,0.049249,0.025605,24.674671,-0.004764,0.000129,-0.002578,1.570017,0.007874,-0.000188,0.000125,0.000012,0.000237,0.000002,0.000336,-0.004532,0.037669,-0.025181,0.175765,0.175764,0.171264,0.903611,0.000000,0.000000,0.000000,0.000000,0.000000,0.000000,0.000000,0.000000,0.000000,0.000000,0.000000,0.000000,2.143736,3,0
530000,0.004526,11.624992,0.047911,0.026083,24.680010,-0.006531,0.000122,-0.002411,1.570010,0.007376,-0.000204,0.000280,0.000013,0.000198,0.000001,0.003863,-0.004663,0.147652,-0.045330,0.175806,0.175804,0.170944,0.897289,0.000000,0.000000,0.000000,0.000000,0.000000,0.000000,0.000000,0.000000,0.000000,0.000000,0.000000,0.000000,2.151101,3,0
540000,0.004652,11.874577,0.048389,0.026396,24.683191,-0.005984,0.000122,-0.002302,1.569997,0.007045,-0.000221,0.000213,0.000014,0.000171,0.000001,0.001533,-0.004792,0.095325,0.019157,0.175914,0.175913,0.170688,0.890816,0.000000,0.000000,0.000000,0.000000,0.000000,0.000000,0.000000,0.000000,0.000000,0.000000,0.000000,0.000000,2.159943,3,0
550000,0.004776,12.124451,0.047394,0.026627,24.686613,-0.007351,0.000118,-0.002179,1.569997,0.006674,-0.000238,0.000333,0.000016,0.000140,0.000001,0.001934,-0.004920,0.104138,-0.032941,0.176086,0.176084,0.170489,0.884198,0.000000,0.000000,0.000000,0.000000,0.000000,0.000000,0.000000,0.000000,0.000000,0.000000,0.000000,0.000000,2.168495,3,0
560000,0.004898,12.373447,0.047002,0.026830,24.688858,-0.007830,0.000117,-0.002086,1.569983,0.006407,-0.000257,0.000375,0.000017,0.000118,0.000001,0.000884,-0.005047,0.072897,-0.011234,0.176314,0.176313,0.170342,0.877442,0.000000,0.000000,0.000000,0.000000,0.000000,0.000000,0.000000,0.000000,0.000000,0.000000,0.000000,0.000000,2.177925,3,0
570000,0.005023,12.625672,0.046845,0.027434,24.696180,-0.007974,0.000111,-0.001849,1.569968,0.005725,-0.000276,0.000386,0.000019,0.000059,0.000001,0.005346,-0.005175,0.181699,-0.002838,0.176595,0.176594,0.170242,0.870556,0.000000,0.000000,0.000000,0.000000,0.000000,0.000000,0.000000,0.000000,0.000000,0.000000,0.000000,0.000000,2.184126,3,0
580000,0.005147,12.876988,0.045523,0.027782,24.701958,-0.009828,0.000099,-0.001648,1.569957,0.005155,-0.000297,0.000558,0.000021,0.000009,0.000000,0.003862,-0.005303,0.148068,-0.043830,0.176923,0.176922,0.170184,0.863546,0.000000,0.000000,0.000000,0.000000,0.000000,0.000000,0.000000,0.000000,0.000000,0.000000,0.000000,0.000000,2.191236,3,0
590000,0.005270,13.129169,0.045659,0.028065,24.709249,-0.009419,0.000090,-0.001390,1.569944,0.004465,-0.000319,0.000527,0.000023,-0.000053,0.000000,0.004969,-0.005430,0.174997,0.008182,0.177294,0.177293,0.170164,0.856420,0.000000,0.000000,0.000000,0.000000,0.000000,0.000000,0.000000,0.000000,0.000000,0.000000,0.000000,0.000000,2.197482,3,0
600000,0.005392,13.380439,0.045265,0.028375,24.715059,-0.009772,0.000085,-0.001188,1.569932,0.003895,-0.000341,0.000571,0.000025,-0.000105,-0.000000,0.003258,-0.005556,0.141412,-0.010684,0.177704,0.177702,0.170177,0.849186,0.000000,0.000000,0.000000,0.000000,0.000000,0.000000,0.000000,0.000000,0.000000,0.000000,0.000000,0.000000,2.204638,3,0
610000,0.005510,13.632581,0.045819,0.028440,24.722357,-0.008993,0.000083,-0.000941,1.569924,0.003200,-0.000365,0.000476,0.000027,-0.000169,-0.000001,0.004676,-0.005679,0.168387,0.022940,0.178147,0.178145,0.170220,0.841852,0.000000,0.000000,0.000000,0.000000,0.000000,0.000000,0.000000,0.000000,0.000000,0.000000,0.000000,0.000000,2.210922,3,0
620000,0.005627,13.886768,0.044895,0.028619,24.733025,-0.010126,0.000081,-0.000587,1.569916,0.002213,-0.000390,0.000604,0.000029,-0.000263,-0.000001,0.009019,-0.005799,0.234235,-0.029540,0.178621,0.178619,0.170288,0.834427,0.000000,0.000000,0.000000,0.000000,0.000000,0.000000,0.000000,0.000000,0.000000,0.000000,0.000000,0.000000,2.215162,3,0
630000,0.005741,14.137644,0.045675,0.028786,24.737812,-0.008995,0.000072,-0.000393,1.569911,0.001700,-0.000415,0.000469,0.000032,-0.000313,-0.000001,0.002455,-0.005918,0.119096,0.031045,0.179122,0.179119,0.170379,0.826917,0.000000,0.000000,0.000000,0.000000,0.000000,0.000000,0.000000,0.000000,0.000000,0.000000,0.000000,0.000000,2.222713,3,0
640000,0.005854,14.392373,0.045242,0.029076,24.749109,-0.009353,0.000063,0.000000,1.569909,0.000621,-0.000442,0.000526,0.000034,-0.000419,-0.000002,0.009804,-0.006035,0.245872,-0.012273,0.179645,0.179643,0.170488,0.819332,0.000000,0.000000,0.000000,0.000000,0.000000,0.000000,0.000000,0.000000,0.000000,0.000000,0.000000,0.000000,2.226409,3,0
650000,0.005963,14.642572,0.046222,0.029060,24.752893,-0.007817,0.000058,0.000152,1.569888,0.000216,-0.000470,0.000353,0.000037,-0.000460,-0.000002,0.001558,-0.006148,0.090421,0.037735,0.180188,0.180186,0.170613,0.811679,0.000000,0.000000,0.000000,0.000000,0.000000,0.000000,0.000000,0.000000,0.000000,0.000000,0.000000,0.000000,2.234637,3,0
660000,0.006071,14.893663,0.046159,0.029377,24.758217,-0.007930,0.000055,0.000363,1.569887,-0.000324,-0.000499,0.000351,0.000040,-0.000515,-0.000002,0.002276,-0.006260,0.118487,0.000503,0.180749,0.180746,0.170750,0.803967,0.000000,0.000000,0.000000,0.000000,0.000000,0.000000,0.000000,0.000000,0.000000,0.000000,0.000000,0.000000,2.241971,3,0
670000,0.006178,15.149243,0.046682,0.029585,24.771027,-0.007084,0.000051,0.000831,1.569881,-0.001555,-0.000529,0.000253,0.000043,-0.000643,-0.000003,0.011422,-0.006370,0.264923,0.020992,0.181322,0.181320,0.170898,0.796203,0.000000,0.000000,0.000000,0.000000,0.000000,0.000000,0.000000,0.000000,0.000000,0.000000,0.000000,0.000000,2.244818,3,0
680000,0.006279,15.405060,0.047399,0.029419,24.783987,-0.006123,0.000043,0.001324,1.569880,-0.002820,-0.000560,0.000121,0.000047,-0.000777,-0.000004,0.011706,-0.006475,0.267641,0.027537,0.181907,0.181905,0.171053,0.788396,0.000000,0.000000,0.000000,0.000000,0.000000,0.000000,0.000000,0.000000,0.000000,0.000000,0.000000,0.000000,2.247426,3,0
690000,0.006379,15.660504,0.047651,0.029674,24.796343,-0.005912,0.000035,0.001786,1.569878,-0.004022,-0.000592,0.000069,0.000050,-0.000907,-0.000004,0.010145,-0.006579,0.250239,0.010888,0.182501,0.182498,0.171213,0.780553,0.000000,0.000000,0.000000,0.000000,0.000000,0.000000,0.000000,0.000000,0.000000,0.000000,0.000000,0.000000,2.250409,3,0
700000,0.006477,15.916186,0.048330,0.029892,24.809061,-0.004798,0.000021,0.002271,1.569871,-0.005258,-0.000625,-0.000059,0.000054,-0.001043,-0.000005,0.010464,-0.006681,0.253096,0.025648,0.183100,0.183098,0.171376,0.772683,0.000000,0.000000,0.000000,0.000000,0.000000,0.000000,0.000000,0.000000,0.000000,0.000000,0.000000,0.000000,2.253152,3,0
710000,0.006574,16.170879,0.047451,0.030021,24.819698,-0.006174,0.000008,0.002706,1.569857,-0.006330,-0.000659,0.000093,0.000058,-0.001162,-0.000006,0.007680,-0.006781,0.215958,-0.029185,0.183704,0.183701,0.171540,0.764793,0.000000,0.000000,0.000000,0.000000,0.000000,0.000000,0.000000,0.000000,0.000000,0.000000,0.000000,0.000000,2.256886,3,0
720000,0.006672,16.426424,0.046717,0.030506,24.831768,-0.007173,-0.000008,0.003193,1.569857,-0.007535,-0.000695,0.000220,0.000062,-0.001299,-0.000006,0.009362,-0.006883,0.239462,-0.023692,0.184309,0.184307,0.171703,0.756890,0.000000,0.000000,0.000000,0.000000,0.000000,0.000000,0.000000,0.000000,0.000000,0.000000,0.000000,0.000000,2.259768,3,0
730000,0.006769,16.679136,0.046978,0.030857,24.838722,-0.006893,-0.000010,0.003491,1.569857,-0.008265,-0.000731,0.000159,0.000066,-0.001383,-0.000007,0.003325,-0.006984,0.142830,0.011594,0.184915,0.184912,0.171864,0.748982,0.000000,0.000000,0.000000,0.000000,0.000000,0.000000,0.000000,0.000000,0.000000,0.000000,0.000000,0.000000,2.265481,3,0
740000,0.006865,16.932110,0.047015,0.031131,24.846226,-0.007218,-0.000021,0.003814,1.569847,-0.009034,-0.000768,0.000141,0.000070,-0.001474,-0.000007,0.003571,-0.007084,0.148470,0.003714,0.185519,0.185516,0.172020,0.741075,0.000000,0.000000,0.000000,0.000000,0.000000,0.000000,0.000000,0.000000,0.000000,0.000000,0.000000,0.000000,2.270934,3,0
750000,0.006957,17.184723,0.047943,0.031209,24.853014,-0.005913,-0.000042,0.004117,1.569840,-0.009738,-0.000806,-0.000050,0.000075,-0.001558,-0.000008,0.003103,-0.007181,0.133968,0.034816,0.186119,0.186116,0.172171,0.733178,0.000000,0.000000,0.000000,0.000000,0.000000,0.000000,0.000000,0.000000,0.000000,0.000000,0.000000,0.000000,2.276746,3,0
760000,0.007049,17.441309,0.046774,0.031349,24.866875,-0.007858,-0.000064,0.004689,1.569839,-0.011116,-0.000845,0.000170,0.000079,-0.001726,-0.000008,0.011083,-0.007275,0.258986,-0.038788,0.186714,0.186711,0.172315,0.725295,0.000000,0.000000,0.000000,0.000000,0.000000,0.000000,0.000000,0.000000,0.000000,0.000000,0.000000,0.000000,2.278587,3,0
770000,0.007136,17.695629,0.046873,0.031269,24.876398,-0.007754,-0.000084,0.005108,1.569829,-0.012092,-0.000885,0.000137,0.000084,-0.001846,-0.000009,0.005315,-0.007366,0.181173,0.006094,0.187304,0.187300,0.172451,0.717435,0.000000,0.000000,0.000000,0.000000,0.000000,0.000000,0.000000,0.000000,0.000000,0.000000,0.000000,0.000000,2.282692,3,0
780000,0.007218,17.953302,0.046886,0.031154,24.891735,-0.007652,-0.000093,0.005773,1.569823,-0.013643,-0.000927,0.000124,0.000090,-0.002041,-0.000010,0.013085,-0.007452,0.284575,0.002864,0.187886,0.187882,0.172578,0.709603,0.000000,0.000000,0.000000,0.000000,0.000000,0.000000,0.000000,0.000000,0.000000,0.000000,0.000000,0.000000,2.283445,3,0
790000,0.007300,18.208675,0.046387,0.031393,24.902836,-0.008528,-0.000110,0.006264,1.569798,-0.014777,-0.000969,0.000212,0.000095,-0.002186,-0.000011,0.006872,-0.007536,0.205660,-0.014762,0.188459,0.188456,0.172695,0.701806,0.000000,0.000000,0.000000,0.000000,0.000000,0.000000,0.000000,0.000000,0.000000,0.000000,0.000000,0.000000,2.286499,3,0
800000,0.007378,18.464272,0.046138,0.031356,24.914101,-0.008718,-0.000125,0.006774,1.569790,-0.015939,-0.001012,0.000250,0.000100,-0.002337,-0.000012,0.007039,-0.007618,0.208601,-0.005931,0.189024,0.189020,0.172801,0.694048,0.000000,0.000000,0.000000,0.000000,0.000000,0.000000,0.000000,0.000000,0.000000,0.000000,0.000000,0.000000,2.289328,3,0
810000,0.007451,18.722601,0.047164,0.031192,24.930090,-0.007153,-0.000129,0.007484,1.569787,-0.017578,-0.001056,0.000022,0.000106,-0.002554,-0.000013,0.013900,-0.007694,0.290833,0.038371,0.189578,0.189574,0.172895,0.686336,0.000000,0.000000,0.000000,0.000000,0.000000,0.000000,0.000000,0.000000,0.000000,0.000000,0.000000,0.000000,2.289426,3,0
820000,0.007523,18.978596,0.046785,0.031400,24.941921,-0.007613,-0.000147,0.008027,1.569787,-0.018780,-0.001101,0.000091,0.000112,-0.002716,-0.000013,0.007231,-0.007769,0.211250,-0.010875,0.190121,0.190117,0.172978,0.678674,0.000000,0.000000,0.000000,0.000000,0.000000,0.000000,0.000000,0.000000,0.000000,0.000000,0.000000,0.000000,2.291856,3,0
830000,0.007592,19.235435,0.046957,0.031333,24.955162,-0.007307,-0.000176,0.008638,1.569784,-0.020122,-0.001147,0.000042,0.000119,-0.002899,-0.000014,0.008815,-0.007841,0.233440,0.008367,0.190653,0.190649,0.173048,0.671068,0.000000,0.000000,0.000000,0.000000,0.000000,0.000000,0.000000,0.000000,0.000000,0.000000,0.000000,0.000000,2.293445,3,0
840000,0.007657,19.491842,0.047911,0.031324,24.967545,-0.006002,-0.000193,0.009204,1.569775,-0.021369,-0.001193,-0.000177,0.000125,-0.003072,-0.000015,0.007673,-0.007909,0.215015,0.035428,0.191173,0.191169,0.173104,0.663523,0.000000,0.000000,0.000000,0.000000,0.000000,0.000000,0.000000,0.000000,0.000000,0.000000,0.000000,0.000000,2.295463,3,0
850000,0.007719,19.749720,0.048331,0.031235,24.982254,-0.005374,-0.000222,0.009892,1.569770,-0.022871,-0.001241,-0.000278,0.000132,-0.003284,-0.000016,0.010683,-0.007974,0.256670,0.016394,0.191680,0.191676,0.173148,0.656042,0.000000,0.000000,0.000000,0.000000,0.000000,0.000000,0.000000,0.000000,0.000000,0.000000,0.000000,0.000000,2.296012,3,0
860000,0.007778,20.005234,0.049588,0.031291,24.992641,-0.003738,-0.000251,0.010386,1.569761,-0.023919,-0.001288,-0.000566,0.000139,-0.003434,-0.000017,0.005428,-0.008036,0.177553,0.045293,0.192175,0.192171,0.173177,0.648631,0.000000,0.000000,0.000000,0.000000,0.000000,0.000000,0.000000,0.000000,0.000000,0.000000,0.000000,0.000000,2.298923,3,0
870000,0.007833,20.262234,0.050491,0.031083,25.005579,-0.002535,-0.000264,0.010990,1.569757,-0.025229,-0.001337,-0.000774,0.000146,-0.003625,-0.000018,0.007996,-0.008094,0.220119,0.032377,0.192656,0.192652,0.173193,0.641292,0.000000,0.000000,0.000000,0.000000,0.000000,0.000000,0.000000,0.000000,0.000000,0.000000,0.000000,0.000000,2.300350,3,0
880000,0.007888,20.521339,0.050439,0.031225,25.021912,-0.002505,-0.000285,0.011782,1.569751,-0.026914,-0.001387,-0.000762,0.000153,-0.003874,-0.000019,0.012752,-0.008150,0.281054,-0.001263,0.193124,0.193120,0.173194,0.634031,0.000000,0.000000,0.000000,0.000000,0.000000,0.000000,0.000000,0.000000,0.000000,0.000000,0.000000,0.000000,2.299670,3,0
890000,0.007941,20.778681,0.050520,0.031320,25.035097,-0.002538,-0.000296,0.012417,1.569748,-0.028247,-0.001437,-0.000783,0.000161,-0.004074,-0.000020,0.007860,-0.008206,0.220572,0.003484,0.193579,0.193575,0.173182,0.626849,0.000000,0.000000,0.000000,0.000000,0.000000,0.000000,0.000000,0.000000,0.000000,0.000000,0.000000,0.000000,2.300755,3,0
900000,0.007991,21.034277,0.051699,0.031295,25.045185,-0.000815,-0.000326,0.012903,1.569741,-0.029232,-0.001488,-0.001059,0.000169,-0.004225,-0.000021,0.004517,-0.008259,0.161884,0.041536,0.194020,0.194016,0.173155,0.619751,0.000000,0.000000,0.000000,0.000000,0.000000,0.000000,0.000000,0.000000,0.000000,0.000000,0.000000,0.000000,2.303586,3,0
910000,0.008040,21.290714,0.052633,0.031436,25.056280,0.000303,-0.000354,0.013457,1.569729,-0.030361,-0.001540,-0.001278,0.000177,-0.004400,-0.000022,0.005671,-0.008310,0.184496,0.032512,0.194448,0.194444,0.173114,0.612739,0.000000,0.000000,0.000000,0.000000,0.000000,0.000000,0.000000,0.000000,0.000000,0.000000,0.000000,0.000000,2.305573,3,0
920000,0.008087,21.549919,0.052392,0.031271,25.072239,-0.000031,-0.000381,0.014249,1.569736,-0.032000,-0.001592,-0.001215,0.000185,-0.004658,-0.000023,0.011424,-0.008358,0.265886,-0.008791,0.194862,0.194858,0.173058,0.605816,0.000000,0.000000,0.000000,0.000000,0.000000,0.000000,0.000000,0.000000,0.000000,0.000000,0.000000,0.000000,2.304795,3,0
930000,0.008131,21.808628,0.053532,0.031343,25.087225,0.001669,-0.000403,0.014998,1.569742,-0.033520,-0.001645,-0.001483,0.000194,-0.004901,-0.000024,0.009944,-0.008405,0.245068,0.039217,0.195263,0.195259,0.172989,0.598984,0.000000,0.000000,0.000000,0.000000,0.000000,0.000000,0.000000,0.000000,0.000000,0.000000,0.000000,0.000000,2.304511,3,0
940000,0.008176,22.067484,0.052311,0.031529,25.102139,-0.000209,-0.000427,0.015750,1.569732,-0.035046,-0.001699,-0.001179,0.000202,-0.005148,-0.000026,0.009963,-0.008451,0.244635,-0.043236,0.195651,0.195647,0.172906,0.592247,0.000000,0.000000,0.000000,0.000000,0.000000,0.000000,0.000000,0.000000,0.000000,0.000000,0.000000,0.000000,2.304084,3,0
950000,0.008221,22.328436,0.051264,0.031642,25.120676,-0.001674,-0.000454,0.016694,1.569734,-0.036951,-0.001753,-0.000917,0.000211,-0.005462,-0.000027,0.015099,-0.008498,0.303692,-0.036683,0.196026,0.196022,0.172809,0.585604,0.000000,0.000000,0.000000,0.000000,0.000000,0.000000,0.000000,0.000000,0.000000,0.000000,0.000000,0.000000,2.301555,3,0
960000,0.008265,22.585600,0.050402,0.031833,25.132240,-0.003055,-0.000477,0.017291,1.569731,-0.038096,-0.001808,-0.000706,0.000220,-0.005653,-0.000028,0.005476,-0.008544,0.181707,-0.029527,0.196388,0.196384,0.172698,0.579059,0.000000,0.000000,0.000000,0.000000,0.000000,0.000000,0.000000,0.000000,0.000000,0.000000,0.000000,0.000000,2.302820,3,0
970000,0.008308,22.846189,0.050490,0.031960,25.149836,-0.003229,-0.000512,0.018207,1.569726,-0.039884,-0.001864,-0.000731,0.000229,-0.005957,-0.000030,0.012856,-0.008590,0.282244,0.003868,0.196738,0.196733,0.172575,0.572613,0.000000,0.000000,0.000000,0.000000,0.000000,0.000000,0.000000,0.000000,0.000000,0.000000,0.000000,0.000000,2.300655,3,0
980000,0.008348,23.106894,0.051292,0.031887,25.167082,-0.002071,-0.000537,0.019132,1.569727,-0.041664,-0.001920,-0.000936,0.000239,-0.006264,-0.000031,0.012774,-0.008632,0.279907,0.028665,0.197076,0.197071,0.172438,0.566267,0.000000,0.000000,0.000000,0.000000,0.000000,0.000000,0.000000,0.000000,0.000000,0.000000,0.000000,0.000000,2.298378,3,0
990000,0.008386,23.365093,0.051213,0.031794,25.180170,-0.002217,-0.000554,0.019809,1.569716,-0.042929,-0.001976,-0.000918,0.000249,-0.006485,-0.000032,0.006328,-0.008671,0.197935,-0.002242,0.197401,0.197396,0.172289,0.560022,0.000000,0.000000,0.000000,0.000000,0.000000,0.000000,0.000000,0.000000,0.000000,0.000000,0.000000,0.000000,2.298603,3,0
1000000,0.008422,23.624092,0.051386,0.031842,25.194477,-0.001850,-0.000570,0.020569,1.569704,-0.044327,-0.002033,-0.000964,0.000259,-0.006734,-0.000034,0.007672,-0.008709,0.217909,0.006473,0.197715,0.197711,0.172127,0.553880,0.000000,0.000000,0.000000,0.000000,0.000000,0.000000,0.000000,0.000000,0.000000,0.000000,0.000000,0.000000,2.298031,3,0
1010000,0.008458,23.881250,0.050064,0.031761,25.205235,-0.003697,-0.000608,0.021154,1.569696,-0.045342,-0.002090,-0.000623,0.000269,-0.006917,-0.000035,0.004351,-0.008745,0.157558,-0.045689,0.198019,0.198014,0.171953,0.547841,0.000000,0.000000,0.000000,0.000000,0.000000,0.000000,0.000000,0.000000,0.000000,0.000000,0.000000,0.000000,2.299298,3,0
1020000,0.008491,24.142509,0.049840,0.031853,25.223362,-0.004026,-0.000641,0.022135,1.569699,-0.047138,-0.002148,-0.000569,0.000279,-0.007246,-0.000036,0.012474,-0.008781,0.277987,-0.006879,0.198311,0.198306,0.171768,0.541907,0.000000,0.000000,0.000000,0.000000,0.000000,0.000000,0.000000,0.000000,0.000000,0.000000,0.000000,0.000000,2.296465,3,0
1030000,0.008521,24.401888,0.049583,0.031614,25.237671,-0.004364,-0.000657,0.022916,1.569699,-0.048534,-0.002206,-0.000509,0.000290,-0.007505,-0.000038,0.007495,-0.008813,0.215338,-0.007838,0.198593,0.198588,0.171571,0.536077,0.000000,0.000000,0.000000,0.000000,0.000000,0.000000,0.000000,0.000000,0.000000,0.000000,0.000000,0.000000,2.295512,3,0
1040000,0.008553,24.664679,0.048790,0.031852,25.258007,-0.005257,-0.000692,0.024044,1.569699,-0.050574,-0.002265,-0.000304,0.000301,-0.007890,-0.000040,0.015979,-0.008845,0.313635,-0.026695,0.198866,0.198861,0.171364,0.530352,0.000000,0.000000,0.000000,0.000000,0.000000,0.000000,0.000000,0.000000,0.000000,0.000000,0.000000,0.000000,2.291148,3,0
1050000,0.008581,24.927536,0.048528,0.031699,25.278189,-0.005657,-0.000723,0.025168,1.569689,-0.052589,-0.002324,-0.000243,0.000312,-0.008276,-0.000042,0.015414,-0.008875,0.309063,-0.007696,0.199129,0.199124,0.171146,0.524732,0.000000,0.000000,0.000000,0.000000,0.000000,0.000000,0.000000,0.000000,0.000000,0.000000,0.000000,0.000000,2.286716,3,0
1060000,0.008607,25.189135,0.049086,0.031699,25.295792,-0.005086,-0.000753,0.026161,1.569681,-0.054318,-0.002383,-0.000407,0.000324,-0.008612,-0.000043,0.011374,-0.008903,0.264673,0.021328,0.199383,0.199378,0.170917,0.519218,0.000000,0.000000,0.000000,0.000000,0.000000,0.000000,0.000000,0.000000,0.000000,0.000000,0.000000,0.000000,2.283544,3,0
1070000,0.008631,25.449486,0.049024,0.031641,25.310850,-0.005338,-0.000787,0.027023,1.569681,-0.055770,-0.002443,-0.000402,0.000335,-0.008899,-0.000045,0.007923,-0.008928,0.221567,-0.000585,0.199628,0.199623,0.170679,0.513808,0.000000,0.000000,0.000000,0.000000,0.000000,0.000000,0.000000,0.000000,0.000000,0.000000,0.000000,0.000000,2.281617,3,0
1080000,0.008650,25.711254,0.049807,0.031191,25.328403,-0.004291,-0.000818,0.028025,1.569674,-0.057471,-0.002503,-0.000630,0.000348,-0.009239,-0.000047,0.010979,-0.008949,0.259247,0.029159,0.199865,0.199860,0.170432,0.508504,0.000000,0.000000,0.000000,0.000000,0.000000,0.000000,0.000000,0.000000,0.000000,0.000000,0.000000,0.000000,2.278278,3,0
1090000,0.008668,25.969114,0.050109,0.031219,25.339018,-0.003997,-0.000841,0.028602,1.569664,-0.058367,-0.002562,-0.000725,0.000360,-0.009422,-0.000047,0.003036,-0.008967,0.136454,0.012037,0.200095,0.200090,0.170175,0.503304,0.000000,0.000000,0.000000,0.000000,0.000000,0.000000,0.000000,0.000000,0.000000,0.000000,0.000000,0.000000,2.278840,3,0
1100000,0.008684,26.231747,0.050709,0.031085,25.357693,-0.003127,-0.000866,0.029683,1.569667,-0.060185,-0.002623,-0.000903,0.000372,-0.009797,-0.000049,0.012371,-0.008984,0.276066,0.022275,0.200317,0.200312,0.169910,0.498209,0.000000,0.000000,0.000000,0.000000,0.000000,0.000000,0.000000,0.000000,0.000000,0.000000,0.000000,0.000000,2.274637,3,0
1110000,0.008698,26.491770,0.049896,0.030886,25.371365,-0.004415,-0.000901,0.030483,1.569659,-0.061452,-0.002683,-0.000680,0.000385,-0.010062,-0.000051,0.006086,-0.008998,0.192156,-0.027779,0.200533,0.200528,0.169637,0.493217,0.000000,0.000000,0.000000,0.000000,0.000000,0.000000,0.000000,0.000000,0.000000,0.000000,0.000000,0.000000,2.273038,3,0
1120000,0.008710,26.751881,0.050332,0.030890,25.385202,-0.004033,-0.000934,0.031283,1.569652,-0.062709,-0.002743,-0.000817,0.000397,-0.010329,-0.000052,0.005900,-0.009012,0.190422,0.016862,0.200742,0.200737,0.169356,0.488329,0.000000,0.000000,0.000000,0.000000,0.000000,0.000000,0.000000,0.000000,0.000000,0.000000,0.000000,0.000000,2.271354,3,0
1130000,0.008723,27.015406,0.049638,0.030917,25.405178,-0.004920,-0.000974,0.032452,1.569650,-0.064612,-0.002805,-0.000626,0.000410,-0.010739,-0.000054,0.013463,-0.009025,0.287991,-0.023496,0.200945,0.200940,0.169068,0.483544,0.000000,0.000000,0.000000,0.000000,0.000000,0.000000,0.000000,0.000000,0.000000,0.000000,0.000000,0.000000,2.266254,3,0
1140000,0.008736,27.274302,0.049176,0.030934,25.416800,-0.005600,-0.001009,0.033099,1.569646,-0.065561,-0.002865,-0.000505,0.000423,-0.010946,-0.000055,0.003367,-0.009038,0.143536,-0.014807,0.201143,0.201138,0.168773,0.478861,0.000000,0.000000,0.000000,0.000000,0.000000,0.000000,0.000000,0.000000,0.000000,0.000000,0.000000,0.000000,2.265785,3,0
1150000,0.008744,27.534632,0.049267,0.030685,25.430704,-0.005621,-0.001047,0.033909,1.569648,-0.066770,-0.002926,-0.000549,0.000437,-0.011215,-0.000057,0.005395,-0.009048,0.182709,0.005149,0.201336,0.201331,0.168471,0.474279,0.000000,0.000000,0.000000,0.000000,0.000000,0.000000,0.000000,0.000000,0.000000,0.000000,0.000000,0.000000,2.263881,3,0
1160000,0.008753,27.795038,0.048699,0.030702,25.444588,-0.006635,-0.001087,0.034722,1.569640,-0.067965,-0.002987,-0.000398,0.000450,-0.011484,-0.000058,0.005325,-0.009056,0.180664,-0.018327,0.201525,0.201519,0.168163,0.469797,0.000000,0.000000,0.000000,0.000000,0.000000,0.000000,0.000000,0.000000,0.000000,0.000000,0.000000,0.000000,2.261900,3,0
1170000,0.008757,28.057526,0.048181,0.030277,25.462053,-0.007423,-0.001125,0.035769,1.569629,-0.069542,-0.003048,-0.000263,0.000464,-0.011844,-0.000060,0.009194,-0.009061,0.238180,-0.016326,0.201709,0.201704,0.167849,0.465414,0.000000,0.000000,0.000000,0.000000,0.000000,0.000000,0.000000,0.000000,0.000000,0.000000,0.000000,0.000000,2.257839,3,0
1180000,0.008758,28.316038,0.047304,0.029927,25.472170,-0.008760,-0.001166,0.036333,1.569613,-0.070301,-0.003109,-0.000022,0.000478,-0.012019,-0.000061,0.002265,-0.009062,0.114672,-0.028761,0.201890,0.201884,0.167530,0.461130,0.000000,0.000000,0.000000,0.000000,0.000000,0.000000,0.000000,0.000000,0.000000,0.000000,0.000000,0.000000,2.257751,3,0
1190000,0.008756,28.579338,0.048429,0.029903,25.490696,-0.007208,-0.001204,0.037468,1.569615,-0.071977,-0.003170,-0.000392,0.000492,-0.012414,-0.000063,0.010678,-0.009062,0.253633,0.043312,0.202067,0.202061,0.167206,0.456943,0.000000,0.000000,0.000000,0.000000,0.000000,0.000000,0.000000,0.000000,0.000000,0.000000,0.000000,0.000000,2.252880,3,0
1200000,0.008756,28.839977,0.047751,0.029938,25.504320,-0.008237,-0.001252,0.038272,1.569607,-0.073095,-0.003231,-0.000208,0.000507,-0.012680,-0.000064,0.004693,-0.009061,0.169058,-0.021836,0.202241,0.202235,0.166878,0.452852,0.000000,0.000000,0.000000,0.000000,0.000000,0.000000,0.000000,0.000000,0.000000,0.000000,0.000000,0.000000,2.250664,3,0
1210000,0.008755,29.103361,0.046611,0.029829,25.522669,-0.009832,-0.001296,0.039395,1.569620,-0.074722,-0.003293,0.000116,0.000521,-0.013074,-0.000066,0.010013,-0.009060,0.246223,-0.038189,0.202412,0.202406,0.166545,0.448856,0.000000,0.000000,0.000000,0.000000,0.000000,0.000000,0.000000,0.000000,0.000000,0.000000,0.000000,0.000000,2.245708,3,0
1220000,0.008749,29.366096,0.046934,0.029427,25.539721,-0.009577,-0.001341,0.040442,1.569607,-0.076181,-0.003353,-0.000019,0.000536,-0.013432,-0.000068,0.007930,-0.009055,0.221201,0.015156,0.202582,0.202575,0.166208,0.444954,0.000000,0.000000,0.000000,0.000000,0.000000,0.000000,0.000000,0.000000,0.000000,0.000000,0.000000,0.000000,2.241398,3,0
1230000,0.008744,29.624826,0.046191,0.029437,25.549509,-0.010535,-0.001372,0.040974,1.569600,-0.076824,-0.003414,0.000183,0.000551,-0.013592,-0.000069,0.001631,-0.009049,0.097445,-0.023412,0.202749,0.202742,0.165868,0.441144,0.000000,0.000000,0.000000,0.000000,0.000000,0.000000,0.000000,0.000000,0.000000,0.000000,0.000000,0.000000,2.241094,3,0
1240000,0.008736,29.888348,0.047017,0.029391,25.567471,-0.009491,-0.001404,0.042093,1.569589,-0.078377,-0.003474,-0.000116,0.000566,-0.013985,-0.000071,0.009181,-0.009043,0.236197,0.033684,0.202915,0.202908,0.165524,0.437426,0.000000,0.000000,0.000000,0.000000,0.000000,0.000000,0.000000,0.000000,0.000000,0.000000,0.000000,0.000000,2.235998,3,0
1250000,0.008727,30.149189,0.048182,0.029311,25.580648,-0.008101,-0.001446,0.042877,1.569591,-0.079369,-0.003534,-0.000522,0.000582,-0.014240,-0.000072,0.004044,-0.009035,0.151405,0.045777,0.203079,0.203072,0.165178,0.433797,0.000000,0.000000,0.000000,0.000000,0.000000,0.000000,0.000000,0.000000,0.000000,0.000000,0.000000,0.000000,2.233583,3,0
1260000,0.008718,30.412773,0.047267,0.029002,25.598511,-0.009575,-0.001481,0.043994,1.569593,-0.080869,-0.003595,-0.000260,0.000597,-0.014630,-0.000074,0.008560,-0.009023,0.228374,-0.030292,0.203243,0.203235,0.164829,0.430257,0.000000,0.000000,0.000000,0.000000,0.000000,0.000000,0.000000,0.000000,0.000000,0.000000,0.000000,0.000000,2.228422,3,0
1270000,0.008706,30.677036,0.046910,0.028732,25.617414,-0.009831,-0.001529,0.045204,1.569583,-0.082459,-0.003655,-0.000181,0.000613,-0.015050,-0.000076,0.009529,-0.009011,0.242912,-0.009615,0.203405,0.203397,0.164477,0.426805,0.000000,0.000000,0.000000,0.000000,0.000000,0.000000,0.000000,0.000000,0.000000,0.000000,0.000000,0.000000,2.222589,3,0
1280000,0.008694,30.940617,0.045575,0.028588,25.634806,-0.011677,-0.001567,0.046300,1.569569,-0.083879,-0.003716,0.000217,0.000629,-0.015430,-0.000078,0.007926,-0.008997,0.217009,-0.045157,0.203568,0.203559,0.164124,0.423438,0.000000,0.000000,0.000000,0.000000,0.000000,0.000000,0.000000,0.000000,0.000000,0.000000,0.000000,0.000000,2.217432,3,0
1290000,0.008676,31.200146,0.046574,0.028356,25.644697,-0.010689,-0.001605,0.046856,1.569555,-0.084479,-0.003774,-0.000156,0.000645,-0.015593,-0.000079,0.001661,-0.008983,0.092405,0.041039,0.203730,0.203721,0.163769,0.420155,0.000000,0.000000,0.000000,0.000000,0.000000,0.000000,0.000000,0.000000,0.000000,0.000000,0.000000,0.000000,2.216329,3,0
1300000,0.008657,31.459064,0.047340,0.028077,25.653669,-0.009803,-0.001640,0.047332,1.569535,-0.084941,-0.003833,-0.000449,0.000661,-0.015720,-0.000080,0.000999,-0.008962,0.071321,0.032139,0.203892,0.203883,0.163413,0.416957,0.000000,0.000000,0.000000,0.000000,0.000000,0.000000,0.000000,0.000000,0.000000,0.000000,0.000000,0.000000,2.215837,3,0
1310000,0.008637,31.719404,0.046856,0.027819,25.664900,-0.010354,-0.001678,0.047989,1.569526,-0.085658,-0.003891,-0.000324,0.000677,-0.015920,-0.000081,0.002011,-0.008940,0.110498,-0.014195,0.204055,0.204045,0.163056,0.413839,0.000000,0.000000,0.000000,0.000000,0.000000,0.000000,0.000000,0.000000,0.000000,0.000000,0.000000,0.000000,2.213924,3,0
1320000,0.008638,32.007320,0.047430,0.027392,25.680010,-0.009826,-0.001720,0.048902,1.569515,-0.086709,-0.003950,-0.000564,0.000694,-0.016219,-0.000082,0.004359,-0.008944,0.162308,0.025488,0.204916,0.204905,0.163098,0.411193,0.000000,0.000000,0.000000,0.000000,0.000000,0.000000,0.000000,0.000000,0.000000,0.000000,0.000000,0.000000,2.184431,3,0
1330000,0.008637,32.292366,0.046115,0.027086,25.689754,-0.011634,-0.001775,0.049413,1.569501,-0.087184,-0.004009,-0.000158,0.000711,-0.016356,-0.000083,0.001188,-0.008942,0.073017,-0.044238,0.205758,0.205746,0.163125,0.408601,0.000000,0.000000,0.000000,0.000000,0.000000,0.000000,0.000000,0.000000,0.000000,0.000000,0.000000,0.000000,2.157812,3,0
1340000,0.008605,32.551102,0.046550,0.026902,25.697937,-0.011366,-0.001827,0.049816,1.569488,-0.087520,-0.004067,-0.000351,0.000728,-0.016454,-0.000083,0.000518,-0.008911,0.052113,0.020505,0.205877,0.205865,0.162740,0.405670,0.000000,0.000000,0.000000,0.000000,0.000000,0.000000,0.000000,0.000000,0.000000,0.000000,0.000000,0.000000,2.157503,3,0
1350000,0.008571,32.808540,0.047469,0.026747,25.703648,-0.010260,-0.001886,0.050023,1.569469,-0.087594,-0.004123,-0.000709,0.000745,-0.016476,-0.000083,0.000273,-0.008878,0.011959,0.038226,0.205998,0.205985,0.162357,0.402819,0.000000,0.000000,0.000000,0.000000,0.000000,0.000000,0.000000,0.000000,0.000000,0.000000,0.000000,0.000000,2.158491,3,0
1360000,0.008538,33.071533,0.048060,0.026630,25.719141,-0.009565,-0.001930,0.051006,1.569458,-0.088694,-0.004180,-0.000961,0.000763,-0.016808,-0.000085,0.004878,-0.008843,0.171921,0.025879,0.206121,0.206108,0.161974,0.400043,0.000000,0.000000,0.000000,0.000000,0.000000,0.000000,0.000000,0.000000,0.000000,0.000000,0.000000,0.000000,2.153925,3,0
1370000,0.008503,33.330418,0.047377,0.026075,25.726744,-0.010544,-0.001969,0.051412,1.569445,-0.089001,-0.004237,-0.000759,0.000780,-0.016901,-0.000085,0.000458,-0.008805,0.047932,-0.021679,0.206247,0.206233,0.161592,0.397341,0.000000,0.000000,0.000000,0.000000,0.000000,0.000000,0.000000,0.000000,0.000000,0.000000,0.000000,0.000000,2.153463,3,0
1380000,0.008440,33.565868,0.047908,0.025879,25.738297,-0.010024,-0.002017,0.052108,1.569444,-0.089714,-0.004293,-0.000988,0.000797,-0.017122,-0.000087,0.002153,-0.008741,0.112885,0.023571,0.205669,0.205654,0.160822,0.394319,0.000000,0.000000,0.000000,0.000000,0.000000,0.000000,0.000000,0.000000,0.000000,0.000000,0.000000,0.000000,2.176442,3,0
1390000,0.008403,33.825714,0.047960,0.025593,25.747829,-0.010051,-0.002073,0.052605,1.569428,-0.090157,-0.004348,-0.001048,0.000814,-0.017261,-0.000087,0.000812,-0.008701,0.070248,0.005857,0.205823,0.205808,0.160456,0.391789,0.000000,0.000000,0.000000,0.000000,0.000000,0.000000,0.000000,0.000000,0.000000,0.000000,0.000000,0.000000,2.175019,3,0
1400000,0.008365,34.086281,0.047770,0.025420,25.758204,-0.010658,-0.002111,0.053213,1.569418,-0.090713,-0.004403,-0.001024,0.000832,-0.017438,-0.000088,0.001278,-0.008662,0.088619,-0.003042,0.205980,0.205964,0.160090,0.389328,0.000000,0.000000,0.000000,0.000000,0.000000,0.000000,0.000000,0.000000,0.000000,0.000000,0.000000,0.000000,2.172879,3,0
1410000,0.008327,34.349617,0.046365,0.025136,25.774012,-0.012607,-0.002162,0.054212,1.569410,-0.091752,-0.004459,-0.000571,0.000849,-0.017774,-0.000090,0.004820,-0.008622,0.165878,-0.048382,0.206138,0.206121,0.159726,0.386937,0.000000,0.000000,0.000000,0.000000,0.000000,0.000000,0.000000,0.000000,0.000000,0.000000,0.000000,0.000000,2.167969,3,0
1420000,0.008288,34.612938,0.045104,0.024920,25.789036,-0.014164,-0.002222,0.055189,1.569404,-0.092755,-0.004514,-0.000173,0.000866,-0.018103,-0.000092,0.004466,-0.008582,0.160820,-0.042393,0.206299,0.206281,0.159364,0.384611,0.000000,0.000000,0.000000,0.000000,0.000000,0.000000,0.000000,0.000000,0.000000,0.000000,0.000000,0.000000,2.163075,3,0
1430000,0.008246,34.874191,0.045803,0.024791,25.800457,-0.013432,-0.002269,0.055842,1.569396,-0.093347,-0.004567,-0.000490,0.000884,-0.018300,-0.000093,0.001665,-0.008541,0.096130,0.031996,0.206463,0.206444,0.159004,0.382351,0.000000,0.000000,0.000000,0.000000,0.000000,0.000000,0.000000,0.000000,0.000000,0.000000,0.000000,0.000000,2.160244,3,0
1440000,0.008207,35.133408,0.044862,0.024728,25.808109,-0.014470,-0.002317,0.056190,1.569385,-0.093555,-0.004620,-0.000196,0.000901,-0.018371,-0.000093,0.000343,-0.008499,0.033550,-0.030451,0.206628,0.206608,0.158646,0.380156,0.000000,0.000000,0.000000,0.000000,0.000000,0.000000,0.000000,0.000000,0.000000,0.000000,0.000000,0.000000,2.159455,3,0
1450000,0.008166,35.392673,0.044533,0.024502,25.816175,-0.014862,-0.002362,0.056543,1.569370,-0.093756,-0.004672,-0.000132,0.000919,-0.018439,-0.000093,0.000191,-0.008458,0.032681,-0.006824,0.206796,0.206775,0.158290,0.378025,0.000000,0.000000,0.000000,0.000000,0.000000,0.000000,0.000000,0.000000,0.000000,0.000000,0.000000,0.000000,2.158615,3,0
1460000,0.008127,35.654049,0.043348,0.024428,25.827570,-0.016474,-0.002417,0.057204,1.569364,-0.094314,-0.004724,0.000244,0.000937,-0.018634,-0.000094,0.001603,-0.008416,0.091400,-0.039025,0.206967,0.206945,0.157936,0.375952,0.000000,0.000000,0.000000,0.000000,0.000000,0.000000,0.000000,0.000000,0.000000,0.000000,0.000000,0.000000,2.155666,3,0
1470000,0.008085,35.917488,0.043395,0.024238,25.842398,-0.016558,-0.002469,0.058149,1.569357,-0.095208,-0.004776,0.000146,0.000955,-0.018949,-0.000096,0.003547,-0.008375,0.147976,0.008576,0.207140,0.207116,0.157585,0.373939,0.000000,0.000000,0.000000,0.000000,0.000000,0.000000,0.000000,0.000000,0.000000,0.000000,0.000000,0.000000,2.150650,3,0
1480000,0.008044,36.176785,0.042932,0.024100,25.849976,-0.017313,-0.002527,0.058457,1.569335,-0.095350,-0.004826,0.000255,0.000973,-0.019000,-0.000096,0.000120,-0.008331,0.023533,-0.011135,0.207315,0.207290,0.157237,0.371986,0.000000,0.000000,0.000000,0.000000,0.000000,0.000000,0.000000,0.000000,0.000000,0.000000,0.000000,0.000000,2.149780,3,0
1490000,0.008002,36.440937,0.041584,0.023723,25.865871,-0.018938,-0.002587,0.059492,1.569327,-0.096318,-0.004878,0.000682,0.000990,-0.019352,-0.000098,0.004540,-0.008286,0.161743,-0.044383,0.207493,0.207466,0.156891,0.370087,0.000000,0.000000,0.000000,0.000000,0.000000,0.000000,0.000000,0.000000,0.000000,0.000000,0.000000,0.000000,2.144054,3,0
1500000,0.007957,36.702984,0.041012,0.023450,25.877707,-0.019553,-0.002635,0.060187,1.569316,-0.096890,-0.004927,0.000815,0.001008,-0.019563,-0.000099,0.001534,-0.008241,0.096222,-0.014277,0.207672,0.207645,0.156548,0.368243,0.000000,0.000000,0.000000,0.000000,0.000000,0.000000,0.000000,0.000000,0.000000,0.000000,0.000000,0.000000,2.140434,3,0
1510000,0.007912,36.962273,0.040369,0.023325,25.884495,-0.020278,-0.002694,0.060457,1.569298,-0.096967,-0.004976,0.000986,0.001026,-0.019592,-0.000099,0.000085,-0.008195,0.012962,-0.017091,0.207855,0.207826,0.156208,0.366455,0.000000,0.000000,0.000000,0.000000,0.000000,0.000000,0.000000,0.000000,0.000000,0.000000,0.000000,0.000000,2.139568,3,0
1520000,0.007866,37.222977,0.039787,0.023092,25.893900,-0.021036,-0.002745,0.060940,1.569287,-0.097271,-0.005024,0.001125,0.001044,-0.019708,-0.000100,0.000475,-0.008148,0.051788,-0.014273,0.208039,0.208008,0.155871,0.364719,0.000000,0.000000,0.000000,0.000000,0.000000,0.000000,0.000000,0.000000,0.000000,0.000000,0.000000,0.000000,2.137294,3,0
1530000,0.007818,37.485065,0.040342,0.022929,25.905439,-0.020360,-0.002798,0.061614,1.569276,-0.097786,-0.005071,0.000811,0.001063,-0.019906,-0.000101,0.001436,-0.008100,0.089176,0.029941,0.208226,0.208193,0.155538,0.363033,0.000000,0.000000,0.000000,0.000000,0.000000,0.000000,0.000000,0.000000,0.000000,0.000000,0.000000,0.000000,2.133628,3,0
1540000,0.007769,37.743694,0.040540,0.022633,25.910677,-0.020118,-0.002844,0.061746,1.569274,-0.097704,-0.005117,0.000654,0.001081,-0.019873,-0.000101,0.000081,-0.008049,-0.014000,0.015578,0.208414,0.208380,0.155207,0.361399,0.000000,0.000000,0.000000,0.000000,0.000000,0.000000,0.000000,0.000000,0.000000,0.000000,0.000000,0.000000,2.133425,3,0
1550000,0.007720,38.007206,0.040743,0.022456,25.924810,-0.019995,-0.002900,0.062624,1.569268,-0.098416,-0.005163,0.000471,0.001099,-0.020156,-0.000102,0.002563,-0.007999,0.124897,0.016349,0.208605,0.208569,0.154880,0.359813,0.000000,0.000000,0.000000,0.000000,0.000000,0.000000,0.000000,0.000000,0.000000,0.000000,0.000000,0.000000,2.128340,3,0
1560000,0.007668,38.269295,0.041162,0.022024,25.936218,-0.019646,-0.002944,0.063264,1.569265,-0.098866,-0.005208,0.000209,0.001118,-0.020337,-0.000103,0.001135,-0.007945,0.079914,0.024532,0.208797,0.208760,0.154557,0.358275,0.000000,0.000000,0.000000,0.000000,0.000000,0.000000,0.000000,0.000000,0.000000,0.000000,0.000000,0.000000,2.124678,3,0
1570000,0.007618,38.527916,0.040185,0.021849,25.941101,-0.020720,-0.003007,0.063343,1.569262,-0.098738,-0.005253,0.000526,0.001136,-0.020285,-0.000103,0.000247,-0.007891,-0.023262,-0.030419,0.208991,0.208952,0.154237,0.356783,0.000000,0.000000,0.000000,0.000000,0.000000,0.000000,0.000000,0.000000,0.000000,0.000000,0.000000,0.000000,2.124484,3,0
1580000,0.007564,38.787266,0.039496,0.021360,25.947001,-0.021696,-0.003054,0.063523,1.569251,-0.098720,-0.005297,0.000720,0.001154,-0.020278,-0.000103,0.000069,-0.007836,-0.003624,-0.018677,0.209187,0.209146,0.153921,0.355333,0.000000,0.000000,0.000000,0.000000,0.000000,0.000000,0.000000,0.000000,0.000000,0.000000,0.000000,0.000000,2.123556,3,0
1590000,0.007509,39.048721,0.038382,0.021003,25.956596,-0.022930,-0.003104,0.064036,1.569240,-0.099027,-0.005342,0.001074,0.001172,-0.020408,-0.000103,0.000692,-0.007779,0.055031,-0.034683,0.209384,0.209341,0.153608,0.353927,0.000000,0.000000,0.000000,0.000000,0.000000,0.000000,0.000000,0.000000,0.000000,0.000000,0.000000,0.000000,2.120527,3,0
1600000,0.007451,39.309467,0.038010,0.020681,25.964851,-0.023475,-0.003154,0.064428,1.569217,-0.099203,-0.005384,0.001124,0.001190,-0.020484,-0.000104,0.000179,-0.007720,0.032024,-0.005263,0.209582,0.209538,0.153300,0.352563,0.000000,0.000000,0.000000,0.000000,0.000000,0.000000,0.000000,0.000000,0.000000,0.000000,0.000000,0.000000,2.118208,3,0
1610000,0.007393,39.570915,0.036798,0.020285,25.974390,-0.024980,-0.003214,0.064923,1.569206,-0.099475,-0.005427,0.001515,0.001208,-0.020603,-0.000104,0.000637,-0.007659,0.049500,-0.037906,0.209782,0.209735,0.152995,0.351241,0.000000,0.000000,0.000000,0.000000,0.000000,0.000000,0.000000,0.000000,0.000000,0.000000,0.000000,0.000000,2.115186,3,0
1620000,0.007330,39.834423,0.037151,0.019977,25.987141,-0.024810,-0.003264,0.065734,1.569188,-0.100043,-0.005468,0.001239,0.001226,-0.020854,-0.000106,0.001916,-0.007597,0.106022,0.024589,0.209983,0.209934,0.152694,0.349956,0.000000,0.000000,0.000000,0.000000,0.000000,0.000000,0.000000,0.000000,0.000000,0.000000,0.000000,0.000000,2.110101,3,0
1630000,0.007270,40.097198,0.036148,0.019800,25.998890,-0.026067,-0.003318,0.066408,1.569174,-0.100476,-0.005510,0.001533,0.001244,-0.021049,-0.000107,0.001199,-0.007533,0.080929,-0.029053,0.210185,0.210134,0.152396,0.348714,0.000000,0.000000,0.000000,0.000000,0.000000,0.000000,0.000000,0.000000,0.000000,0.000000,0.000000,0.000000,2.105756,3,0
1640000,0.007205,40.359924,0.037279,0.019433,26.010422,-0.025014,-0.003372,0.067053,1.569169,-0.100874,-0.005548,0.000930,0.001263,-0.021229,-0.000108,0.001453,-0.007470,0.076462,0.055659,0.210387,0.210334,0.152103,0.347510,0.000000,0.000000,0.000000,0.000000,0.000000,0.000000,0.000000,0.000000,0.000000,0.000000,0.000000,0.000000,2.101453,3,0
1650000,0.007143,40.620533,0.036862,0.019295,26.018024,-0.025681,-0.003426,0.067338,1.569159,-0.100939,-0.005587,0.000995,0.001280,-0.021260,-0.000108,0.000040,-0.007403,0.012409,-0.006325,0.210591,0.210535,0.151814,0.346344,0.000000,0.000000,0.000000,0.000000,0.000000,0.000000,0.000000,0.000000,0.000000,0.000000,0.000000,0.000000,2.099271,3,0
1660000,0.007079,40.881836,0.036272,0.018802,26.026724,-0.026078,-0.003482,0.067712,1.569143,-0.101095,-0.005625,0.001129,0.001298,-0.021334,-0.000108,0.000181,-0.007336,0.030029,-0.012979,0.210794,0.210737,0.151529,0.345213,0.000000,0.000000,0.000000,0.000000,0.000000,0.000000,0.000000,0.000000,0.000000,0.000000,0.000000,0.000000,2.096394,3,0
1670000,0.007015,41.142426,0.035859,0.018716,26.033974,-0.026385,-0.003536,0.067976,1.569136,-0.101133,-0.005663,0.001192,0.001316,-0.021351,-0.000108,0.000023,-0.007271,0.007187,-0.005959,0.210998,0.210938,0.151248,0.344116,0.000000,0.000000,0.000000,0.000000,0.000000,0.000000,0.000000,0.000000,0.000000,0.000000,0.000000,0.000000,2.094231,3,0
1680000,0.006951,41.404400,0.036170,0.018513,26.043550,-0.026197,-0.003593,0.068447,1.569127,-0.101356,-0.005698,0.000931,0.001334,-0.021460,-0.000109,0.000419,-0.007205,0.044708,0.023410,0.211203,0.211141,0.150971,0.343051,0.000000,0.000000,0.000000,0.000000,0.000000,0.000000,0.000000,0.000000,0.000000,0.000000,0.000000,0.000000,2.090679,3,0
1690000,0.006883,41.664940,0.036942,0.018134,26.050119,-0.025392,-0.003651,0.068665,1.569108,-0.101359,-0.005733,0.000484,0.001352,-0.021460,-0.000109,0.000286,-0.007137,0.001308,0.041331,0.211407,0.211343,0.150698,0.342016,0.000000,0.000000,0.000000,0.000000,0.000000,0.000000,0.000000,0.000000,0.000000,0.000000,0.000000,0.000000,2.088566,3,0
1700000,0.006819,41.924084,0.036144,0.017931,26.054583,-0.026503,-0.003704,0.068635,1.569089,-0.101160,-0.005768,0.000730,0.001369,-0.021361,-0.000109,0.000351,-0.007067,-0.040634,-0.021891,0.211612,0.211545,0.150429,0.341018,0.000000,0.000000,0.000000,0.000000,0.000000,0.000000,0.000000,0.000000,0.000000,0.000000,0.000000,0.000000,2.087848,3,0
1710000,0.006749,42.182529,0.036894,0.017457,26.057648,-0.025606,-0.003764,0.068467,1.569068,-0.100857,-0.005801,0.000305,0.001387,-0.021205,-0.000108,0.000873,-0.006998,-0.061279,0.040127,0.211815,0.211746,0.150164,0.340050,0.000000,0.000000,0.000000,0.000000,0.000000,0.000000,0.000000,0.000000,0.000000,0.000000,0.000000,0.000000,2.087829,3,0
1720000,0.006683,42.443817,0.036422,0.017371,26.065466,-0.026326,-0.003815,0.068793,1.569056,-0.100945,-0.005834,0.000392,0.001404,-0.021251,-0.000108,0.000072,-0.006928,0.018192,-0.008287,0.212019,0.211947,0.149904,0.339105,0.000000,0.000000,0.000000,0.000000,0.000000,0.000000,0.000000,0.000000,0.000000,0.000000,0.000000,0.000000,2.084964,3,0
