time_us,pos_x,pos_y,pos_z,vel_x,vel_y,vel_z,roll,pitch,yaw,bias_ax,bias_ay,bias_az,bias_gx,bias_gy,bias_gz,nis,innov_x,innov_y,innov_z,cov_pos_x,cov_pos_y,cov_pos_z,cov_yaw,des_speed,des_heading,des_climb,pid_speed,pid_yaw,pid_alt,speed_meas,yaw_meas,climb_meas,fwd_accel,yaw_rate,vert_accel,drift_m,nav_mode,mission_state
0,0.000002,0.149997,-0.000003,0.000288,24.999538,-0.000727,0.000010,0.000002,1.570821,0.000000,0.000000,0.000000,0.000000,0.000000,0.000000,0.006250,-0.000003,-0.249998,0.000007,2.400038,2.400038,3.600017,1.000518,0.000000,0.000000,0.000000,0.000000,0.000000,0.000000,0.000000,0.000000,0.000000,0.000000,0.000000,0.000000,0.149997,1,0
10000,0.000005,0.336820,0.024246,0.000560,24.998915,-0.001234,0.000008,0.000010,1.570844,0.000001,-0.000000,-0.000000,0.000000,0.000000,0.000000,0.006254,-0.000007,-0.221080,0.064697,1.714420,1.714420,2.250079,1.001073,0.000000,0.000000,0.000000,0.000000,0.000000,0.000000,0.000000,0.000000,0.000000,0.000000,0.000000,0.000000,0.157910,3,0
20000,0.000011,0.540330,0.028720,0.000880,24.998287,-0.001959,0.000014,0.000013,1.570864,0.000002,-0.000000,-0.000000,0.000000,0.000000,0.000000,0.005701,-0.000014,-0.209109,0.016476,1.333616,1.333616,1.636554,1.001655,0.000000,0.000000,0.000000,0.000000,0.000000,0.000000,0.000000,0.000000,0.000000,0.000000,0.000000,0.000000,0.162630,3,0
30000,0.000018,0.787577,0.039544,0.001136,24.998161,-0.002510,0.000025,0.000012,1.570878,0.000003,-0.000000,-0.000001,0.000000,0.000000,0.000000,0.000366,-0.000022,-0.015034,0.050621,1.091392,1.091392,1.286065,1.002257,0.000000,0.000000,0.000000,0.000000,0.000000,0.000000,0.000000,0.000000,0.000000,0.000000,0.000000,0.000000,0.012300,3,0
40000,0.000028,1.040025,0.041940,0.001429,24.998104,-0.002930,0.000031,0.000015,1.570890,0.000002,-0.000000,-0.000001,0.000000,0.000000,0.000000,0.000062,-0.000033,0.016025,0.013742,0.923811,0.923811,1.059385,1.002869,0.000000,0.000000,0.000000,0.000000,0.000000,0.000000,0.000000,0.000000,0.000000,0.000000,0.000000,0.000000,0.013558,3,0
50000,0.000038,1.282326,0.048600,0.001587,24.997643,-0.003492,0.000044,0.000021,1.570914,0.000005,-0.000000,-0.000003,0.000000,0.000000,0.000000,0.000759,-0.000043,-0.057512,0.044606,0.801036,0.801036,0.900822,1.003484,0.000000,0.000000,0.000000,0.000000,0.000000,0.000000,0.000000,0.000000,0.000000,0.000000,0.000000,0.000000,0.049834,3,0
60000,0.000049,1.522738,0.041527,0.001843,24.997097,-0.004548,0.000051,0.000020,1.570933,0.000010,-0.000000,-0.000000,0.000000,0.000000,0.000000,0.001388,-0.000056,-0.081141,-0.053828,0.707270,0.707270,0.783741,1.004094,0.000000,0.000000,0.000000,0.000000,0.000000,0.000000,0.000000,0.000000,0.000000,0.000000,0.000000,0.000000,0.071577,3,0
70000,0.000063,1.776537,0.041765,0.002110,24.997292,-0.005034,0.000057,0.000029,1.570952,0.000007,-0.000000,-0.000000,0.000000,0.000000,0.000000,0.000197,-0.000071,0.036273,0.002495,0.633370,0.633370,0.693801,1.004688,0.000000,0.000000,0.000000,0.000000,0.000000,0.000000,0.000000,0.000000,0.000000,0.000000,0.000000,0.000000,0.032444,3,0
80000,0.000079,2.028518,0.043549,0.002395,24.997269,-0.005394,0.000072,0.000042,1.570965,0.000005,-0.000000,-0.000002,0.000000,0.000000,0.000000,0.000114,-0.000087,0.021020,0.017728,0.573673,0.573673,0.622594,1.005260,0.000000,0.000000,0.000000,0.000000,0.000000,0.000000,0.000000,0.000000,0.000000,0.000000,0.000000,0.000000,0.019010,3,0
90000,0.000095,2.277415,0.040777,0.002576,24.997017,-0.006230,0.000088,0.000051,1.570992,0.000006,-0.000000,0.000001,0.000000,0.000000,0.000000,0.000148,-0.000104,-0.012293,-0.028800,0.524488,0.524488,0.564865,1.005801,0.000000,0.000000,0.000000,0.000000,0.000000,0.000000,0.000000,0.000000,0.000000,0.000000,0.000000,0.000000,0.011218,3,0
100000,0.000114,2.527162,0.042342,0.002889,24.996927,-0.006751,0.000099,0.000044,1.571007,0.000007,-0.000000,-0.000001,0.000000,0.000000,0.000000,0.000056,-0.000124,-0.002762,0.018953,0.483303,0.483303,0.517162,1.006301,0.000000,0.000000,0.000000,0.000000,0.000000,0.000000,0.000000,0.000000,0.000000,0.000000,0.000000,0.000000,0.002542,3,0
110000,0.000135,2.782028,0.043366,0.003204,24.997511,-0.007291,0.000099,0.000059,1.571023,-0.000006,-0.000000,-0.000004,0.000000,-0.000000,-0.000000,0.000692,-0.000146,0.065555,0.013808,0.448353,0.448353,0.477121,1.006754,0.000000,0.000000,0.000000,0.000000,0.000000,0.000000,0.000000,0.000000,0.000000,0.000000,0.000000,0.000000,0.060657,3,0
120000,0.000158,3.032664,0.040311,0.003460,24.997570,-0.008454,0.000108,0.000066,1.571039,-0.000008,-0.000000,0.000005,0.000000,-0.000000,-0.000000,0.000264,-0.000170,0.009471,-0.040280,0.418358,0.418358,0.443071,1.007150,0.000000,0.000000,0.000000,0.000000,0.000000,0.000000,0.000000,0.000000,0.000000,0.000000,0.000000,0.000000,0.008812,3,0
130000,0.000182,3.286366,0.040119,0.003648,24.998079,-0.008961,0.000117,0.000069,1.571061,-0.000022,-0.000000,0.000005,0.000000,-0.000000,-0.000000,0.000507,-0.000195,0.057021,-0.001479,0.392369,0.392369,0.413797,1.007481,0.000000,0.000000,0.000000,0.000000,0.000000,0.000000,0.000000,0.000000,0.000000,0.000000,0.000000,0.000000,0.053292,3,0
140000,0.000207,3.534026,0.037533,0.003812,24.997522,-0.010227,0.000128,0.000063,1.571078,-0.000011,-0.000000,0.000016,0.000000,-0.000000,-0.000000,0.000452,-0.000220,-0.037657,-0.038446,0.369666,0.369666,0.388393,1.007739,0.000000,0.000000,0.000000,0.000000,0.000000,0.000000,0.000000,0.000000,0.000000,0.000000,0.000000,0.000000,0.035338,3,0
150000,0.000233,3.784751,0.034624,0.004112,24.997616,-0.011313,0.000139,0.000076,1.571086,-0.000016,-0.000000,0.000031,0.000000,-0.000000,-0.000000,0.000356,-0.000248,0.012872,-0.045905,0.349695,0.349695,0.366172,1.007915,0.000000,0.000000,0.000000,0.000000,0.000000,0.000000,0.000000,0.000000,0.000000,0.000000,0.000000,0.000000,0.012124,3,0
160000,0.000261,4.036964,0.033162,0.004352,24.998039,-0.012167,0.000150,0.000083,1.571099,-0.000031,-0.000000,0.000040,0.000000,-0.000001,-0.000000,0.000343,-0.000277,0.040452,-0.023257,0.332020,0.332020,0.346600,1.008002,0.000000,0.000000,0.000000,0.000000,0.000000,0.000000,0.000000,0.000000,0.000000,0.000000,0.000000,0.000000,0.038215,3,0
170000,0.000291,4.288355,0.030597,0.004524,24.998354,-0.013532,0.000164,0.000084,1.571112,-0.000042,-0.000001,0.000058,0.000000,-0.000001,-0.000000,0.000424,-0.000307,0.026781,-0.044408,0.316296,0.316296,0.329260,1.007991,0.000000,0.000000,0.000000,0.000000,0.000000,0.000000,0.000000,0.000000,0.000000,0.000000,0.000000,0.000000,0.025371,3,0
180000,0.000322,4.544046,0.032873,0.004803,25.000088,-0.013481,0.000163,0.000109,1.571135,-0.000096,-0.000001,0.000037,0.000000,-0.000002,-0.000000,0.002370,-0.000339,0.113329,0.046228,0.302245,0.302245,0.313817,1.007875,0.000000,0.000000,0.000000,0.000000,0.000000,0.000000,0.000000,0.000000,0.000000,0.000000,0.000000,0.000000,0.107621,3,0
190000,0.000354,4.793890,0.032047,0.004985,24.999847,-0.014359,0.000170,0.000120,1.571155,-0.000095,-0.000001,0.000044,0.000000,-0.000002,-0.000000,0.000031,-0.000372,-0.003227,-0.013687,0.289640,0.289640,0.300003,1.007645,0.000000,0.000000,0.000000,0.000000,0.000000,0.000000,0.000000,0.000000,0.000000,0.000000,0.000000,0.000000,0.003091,3,0
200000,0.000387,5.044136,0.034576,0.005224,24.999897,-0.014159,0.000176,0.000132,1.571174,-0.000098,-0.000001,0.000012,0.000000,-0.000002,-0.000000,0.000501,-0.000406,0.005357,0.055914,0.278294,0.278294,0.287598,1.007295,0.000000,0.000000,0.000000,0.000000,0.000000,0.000000,0.000000,0.000000,0.000000,0.000000,0.000000,0.000000,0.005123,3,0
210000,0.000423,5.299179,0.033994,0.005514,25.001902,-0.014861,0.000180,0.000154,1.571200,-0.000170,-0.000001,0.000018,0.000000,-0.000004,-0.000000,0.002045,-0.000442,0.112932,-0.009439,0.268052,0.268052,0.276421,1.006816,0.000000,0.000000,0.000000,0.000000,0.000000,0.000000,0.000000,0.000000,0.000000,0.000000,0.000000,0.000000,0.107887,3,0
220000,0.000460,5.555070,0.035789,0.005786,25.004498,-0.014867,0.000189,0.000187,1.571211,-0.000265,-0.000002,-0.000012,0.000000,-0.000007,-0.000000,0.003265,-0.000480,0.136173,0.043985,0.258785,0.258785,0.266321,1.006202,0.000000,0.000000,0.000000,0.000000,0.000000,0.000000,0.000000,0.000000,0.000000,0.000000,0.000000,0.000000,0.130301,3,0
230000,0.000499,5.808413,0.036151,0.006074,25.006069,-0.015391,0.000194,0.000201,1.571218,-0.000325,-0.000002,-0.000022,0.000000,-0.000009,-0.000000,0.001021,-0.000521,0.079045,0.012076,0.250383,0.250383,0.257172,1.005446,0.000000,0.000000,0.000000,0.000000,0.000000,0.000000,0.000000,0.000000,0.000000,0.000000,0.000000,0.000000,0.075748,3,0
240000,0.000541,6.058658,0.035993,0.006429,25.006023,-0.016180,0.000193,0.000196,1.571231,-0.000329,-0.000003,-0.000022,0.000000,-0.000009,-0.000000,0.000003,-0.000563,0.004598,0.000109,0.242753,0.242753,0.248866,1.004541,0.000000,0.000000,0.000000,0.000000,0.000000,0.000000,0.000000,0.000000,0.000000,0.000000,0.000000,0.000000,0.004445,3,0
250000,0.000584,6.313907,0.037729,0.006722,25.008846,-0.015829,0.000192,0.000235,1.571258,-0.000447,-0.000003,-0.000063,0.000000,-0.000014,-0.000000,0.003151,-0.000608,0.132052,0.047334,0.235815,0.235815,0.241314,1.003481,0.000000,0.000000,0.000000,0.000000,0.000000,0.000000,0.000000,0.000000,0.000000,0.000000,0.000000,0.000000,0.126863,3,0
260000,0.000630,6.566123,0.039293,0.007055,25.009947,-0.015382,0.000189,0.000245,1.571270,-0.000500,-0.000004,-0.000105,0.000000,-0.000015,-0.000000,0.000810,-0.000655,0.055686,0.044212,0.229500,0.229500,0.234436,1.002258,0.000000,0.000000,0.000000,0.000000,0.000000,0.000000,0.000000,0.000000,0.000000,0.000000,0.000000,0.000000,0.053560,3,0
270000,0.000676,6.820011,0.040396,0.007252,25.012215,-0.015453,0.000191,0.000276,1.571287,-0.000605,-0.000004,-0.000139,0.000000,-0.000019,-0.000000,0.001835,-0.000702,0.101643,0.033285,0.223750,0.223750,0.228165,1.000869,0.000000,0.000000,0.000000,0.000000,0.000000,0.000000,0.000000,0.000000,0.000000,0.000000,0.000000,0.000000,0.097855,3,0
280000,0.000724,7.076170,0.038975,0.007470,25.016275,-0.016881,0.000187,0.000340,1.571299,-0.000788,-0.000005,-0.000102,0.000000,-0.000027,-0.000000,0.004600,-0.000751,0.165794,-0.034002,0.218511,0.218511,0.222443,0.999307,0.000000,0.000000,0.000000,0.000000,0.000000,0.000000,0.000000,0.000000,0.000000,0.000000,0.000000,0.000000,0.159757,3,0
290000,0.000773,7.329485,0.037253,0.007766,25.018488,-0.018777,0.000199,0.000383,1.571324,-0.000893,-0.000006,-0.000052,0.000000,-0.000031,-0.000000,0.001551,-0.000802,0.088504,-0.042658,0.213738,0.213738,0.217219,0.997567,0.000000,0.000000,0.000000,0.000000,0.000000,0.000000,0.000000,0.000000,0.000000,0.000000,0.000000,0.000000,0.085354,3,0
300000,0.000823,7.585016,0.038646,0.007964,25.022484,-0.018351,0.000214,0.000438,1.571338,-0.001085,-0.000007,-0.000108,0.000000,-0.000039,-0.000000,0.004100,-0.000853,0.153230,0.044836,0.209392,0.209392,0.212446,0.995645,0.000000,0.000000,0.000000,0.000000,0.000000,0.000000,0.000000,0.000000,0.000000,0.000000,0.000000,0.000000,0.147885,3,0
310000,0.000875,7.841265,0.040096,0.008264,25.027220,-0.017983,0.000224,0.000523,1.571358,-0.001320,-0.000008,-0.000171,0.000000,-0.000050,-0.000000,0.005345,-0.000906,0.175963,0.047353,0.205436,0.205436,0.208087,0.993536,0.000000,0.000000,0.000000,0.000000,0.000000,0.000000,0.000000,0.000000,0.000000,0.000000,0.000000,0.000000,0.169940,3,0
320000,0.000928,8.094185,0.039914,0.008488,25.029490,-0.018556,0.000237,0.000558,1.571370,-0.001431,-0.000010,-0.000171,0.000000,-0.000055,-0.000000,0.000998,-0.000960,0.078697,0.000087,0.201839,0.201839,0.204105,0.991236,0.000000,0.000000,0.000000,0.000000,0.000000,0.000000,0.000000,0.000000,0.000000,0.000000,0.000000,0.000000,0.076055,3,0
330000,0.000982,8.346607,0.040538,0.008713,25.031240,-0.018742,0.000242,0.000597,1.571381,-0.001528,-0.000011,-0.000207,0.000000,-0.000059,-0.000000,0.000763,-0.001015,0.064303,0.024488,0.198572,0.198572,0.200469,0.988743,0.000000,0.000000,0.000000,0.000000,0.000000,0.000000,0.000000,0.000000,0.000000,0.000000,0.000000,0.000000,0.062183,3,0
340000,0.001036,8.602452,0.041646,0.008909,25.036390,-0.018137,0.000252,0.000676,1.571391,-0.001796,-0.000013,-0.000269,0.000001,-0.000072,-0.000000,0.004895,-0.001071,0.169682,0.039589,0.195611,0.195611,0.197151,0.986053,0.000000,0.000000,0.000000,0.000000,0.000000,0.000000,0.000000,0.000000,0.000000,0.000000,0.000000,0.000000,0.164153,3,0
350000,0.001091,8.858353,0.041970,0.009101,25.041594,-0.018227,0.000248,0.000764,1.571416,-0.002083,-0.000015,-0.000296,0.000001,-0.000087,-0.000000,0.004824,-0.001127,0.172214,0.015775,0.192932,0.192932,0.194125,0.983163,0.000000,0.000000,0.000000,0.000000,0.000000,0.000000,0.000000,0.000000,0.000000,0.000000,0.000000,0.000000,0.166679,3,0
360000,0.001147,9.115578,0.041537,0.009253,25.048378,-0.019154,0.000259,0.000894,1.571424,-0.002460,-0.000017,-0.000282,0.000001,-0.000106,-0.000000,0.007431,-0.001184,0.214443,-0.007646,0.190514,0.190514,0.191370,0.980072,0.000000,0.000000,0.000000,0.000000,0.000000,0.000000,0.000000,0.000000,0.000000,0.000000,0.000000,0.000000,0.207637,3,0
370000,0.001204,9.371581,0.041613,0.009568,25.054180,-0.019442,0.000261,0.001003,1.571437,-0.002784,-0.000019,-0.000298,0.000001,-0.000123,-0.000000,0.005003,-0.001243,0.175817,0.008684,0.188338,0.188338,0.188863,0.976778,0.000000,0.000000,0.000000,0.000000,0.000000,0.000000,0.000000,0.000000,0.000000,0.000000,0.000000,0.000000,0.170303,3,0
380000,0.001261,9.625805,0.042789,0.009757,25.058077,-0.018586,0.000276,0.001085,1.571450,-0.003013,-0.000021,-0.000383,0.000001,-0.000136,-0.000000,0.002586,-0.001302,0.118547,0.044228,0.186388,0.186388,0.186586,0.973281,0.000000,0.000000,0.000000,0.000000,0.000000,0.000000,0.000000,0.000000,0.000000,0.000000,0.000000,0.000000,0.114871,3,0
390000,0.001319,9.882610,0.042888,0.009902,25.065086,-0.019087,0.000276,0.001225,1.571458,-0.003422,-0.000024,-0.000403,0.000001,-0.000159,-0.000000,0.006621,-0.001361,0.202224,0.009531,0.184647,0.184647,0.184522,0.969579,0.000000,0.000000,0.000000,0.000000,0.000000,0.000000,0.000000,0.000000,0.000000,0.000000,0.000000,0.000000,0.196005,3,0
400000,0.001378,10.136446,0.041604,0.010198,25.068703,-0.021018,0.000276,0.001305,1.571473,-0.003643,-0.000027,-0.000327,0.000001,-0.000172,-0.000000,0.001966,-0.001421,0.104382,-0.035664,0.183101,0.183101,0.182656,0.965674,0.000000,0.000000,0.000000,0.000000,0.000000,0.000000,0.000000,0.000000,0.000000,0.000000,0.000000,0.000000,0.101206,3,0
410000,0.001437,10.392841,0.041321,0.010346,25.075487,-0.021679,0.000278,0.001450,1.571492,-0.004060,-0.000030,-0.000323,0.000002,-0.000196,-0.000001,0.005741,-0.001482,0.188450,-0.002215,0.181736,0.181736,0.180971,0.961565,0.000000,0.000000,0.000000,0.000000,0.000000,0.000000,0.000000,0.000000,0.000000,0.000000,0.000000,0.000000,0.182748,3,0
420000,0.001496,10.647532,0.040050,0.010475,25.080303,-0.023308,0.000281,0.001559,1.571520,-0.004361,-0.000033,-0.000242,0.000002,-0.000215,-0.000001,0.002964,-0.001542,0.130775,-0.035115,0.180540,0.180540,0.179456,0.957254,0.000000,0.000000,0.000000,0.000000,0.000000,0.000000,0.000000,0.000000,0.000000,0.000000,0.000000,0.000000,0.126849,3,0
430000,0.001556,10.904143,0.040248,0.010781,25.087692,-0.023497,0.000287,0.001709,1.571546,-0.004827,-0.000037,-0.000277,0.000002,-0.000244,-0.000001,0.006127,-0.001604,0.194098,0.014758,0.179501,0.179501,0.178097,0.952742,0.000000,0.000000,0.000000,0.000000,0.000000,0.000000,0.000000,0.000000,0.000000,0.000000,0.000000,0.000000,0.188298,3,0
440000,0.001618,11.162034,0.040124,0.011044,25.096716,-0.024037,0.000292,0.001908,1.571566,-0.005414,-0.000041,-0.000287,0.000002,-0.000281,-0.000001,0.008979,-0.001667,0.235599,0.003994,0.178608,0.178608,0.176883,0.948031,0.000000,0.000000,0.000000,0.000000,0.000000,0.000000,0.000000,0.000000,0.000000,0.000000,0.000000,0.000000,0.228591,3,0
450000,0.001679,11.417643,0.038466,0.011188,25.102955,-0.026562,0.000289,0.002054,1.571587,-0.005820,-0.000045,-0.000163,0.000002,-0.000308,-0.000001,0.004337,-0.001730,0.156527,-0.048080,0.177852,0.177852,0.175803,0.943125,0.000000,0.000000,0.000000,0.000000,0.000000,0.000000,0.000000,0.000000,0.000000,0.000000,0.000000,0.000000,0.151896,3,0
460000,0.001741,11.672205,0.039125,0.011418,25.107868,-0.026068,0.000293,0.002159,1.571614,-0.006141,-0.000050,-0.000249,0.000003,-0.000330,-0.000001,0.002476,-0.001794,0.119523,0.031933,0.177223,0.177223,0.174847,0.938026,0.000000,0.000000,0.000000,0.000000,0.000000,0.000000,0.000000,0.000000,0.000000,0.000000,0.000000,0.000000,0.116006,3,0
470000,0.001802,11.930429,0.038930,0.011534,25.117718,-0.026653,0.000293,0.002397,1.571631,-0.006816,-0.000055,-0.000256,0.000003,-0.000376,-0.000001,0.009523,-0.001857,0.242612,0.002478,0.176712,0.176712,0.174006,0.932737,0.000000,0.000000,0.000000,0.000000,0.000000,0.000000,0.000000,0.000000,0.000000,0.000000,0.000000,0.000000,0.235474,3,0
480000,0.001864,12.188742,0.037375,0.011752,25.127874,-0.029000,0.000303,0.002637,1.571641,-0.007516,-0.000060,-0.000128,0.000004,-0.000425,-0.000001,0.009849,-0.001921,0.242714,-0.044360,0.176310,0.176310,0.173271,0.927264,0.000000,0.000000,0.000000,0.000000,0.000000,0.000000,0.000000,0.000000,0.000000,0.000000,0.000000,0.000000,0.235589,3,0
490000,0.001927,12.447143,0.037377,0.011995,25.138195,-0.029231,0.000301,0.002890,1.571653,-0.008238,-0.000066,-0.000159,0.000004,-0.000477,-0.000001,0.009549,-0.001985,0.242726,0.010353,0.176010,0.176010,0.172634,0.921611,0.000000,0.000000,0.000000,0.000000,0.000000,0.000000,0.000000,0.000000,0.000000,0.000000,0.000000,0.000000,0.235614,3,0
500000,0.001990,12.702724,0.037017,0.012247,25.144442,-0.029948,0.000315,0.003046,1.571669,-0.008679,-0.000072,-0.000153,0.000004,-0.000510,-0.000001,0.003321,-0.002050,0.143253,-0.002125,0.175805,0.175805,0.172087,0.915781,0.000000,0.000000,0.000000,0.000000,0.000000,0.000000,0.000000,0.000000,0.000000,0.000000,0.000000,0.000000,0.139070,3,0
510000,0.002054,12.957863,0.035683,0.012535,25.150015,-0.031928,0.000321,0.003188,1.571684,-0.009079,-0.000079,-0.000038,0.000005,-0.000540,-0.000001,0.002785,-0.002116,0.126157,-0.035947,0.175686,0.175686,0.171622,0.909782,0.000000,0.000000,0.000000,0.000000,0.000000,0.000000,0.000000,0.000000,0.000000,0.000000,0.000000,0.000000,0.122480,3,0
520000,0.002118,13.215482,0.035235,0.012652,25.159426,-0.032773,0.000326,0.003435,1.571698,-0.009762,-0.000086,-0.000024,0.000005,-0.000593,-0.000002,0.007064,-0.002182,0.208902,-0.004277,0.175649,0.175649,0.171234,0.903618,0.000000,0.000000,0.000000,0.000000,0.000000,0.000000,0.000000,0.000000,0.000000,0.000000,0.000000,0.000000,0.202798,3,0
530000,0.002181,13.473799,0.035156,0.012738,25.169823,-0.033065,0.000325,0.003717,1.571719,-0.010535,-0.000093,-0.000055,0.000006,-0.000653,-0.000002,0.008535,-0.002246,0.229495,0.008932,0.175685,0.175685,0.170914,0.897296,0.000000,0.000000,0.000000,0.000000,0.000000,0.000000,0.000000,0.000000,0.000000,0.000000,0.000000,0.000000,0.222786,3,0
540000,0.002243,13.730475,0.035689,0.012937,25.177683,-0.032542,0.000334,0.003923,1.571740,-0.011123,-0.000101,-0.000162,0.000007,-0.000701,-0.000002,0.004821,-0.002311,0.169864,0.030598,0.175790,0.175790,0.170658,0.890822,0.000000,0.000000,0.000000,0.000000,0.000000,0.000000,0.000000,0.000000,0.000000,0.000000,0.000000,0.000000,0.164903,3,0
550000,0.002307,13.987868,0.034429,0.013207,25.186628,-0.034667,0.000342,0.004179,1.571754,-0.011804,-0.000109,-0.000045,0.000007,-0.000756,-0.000002,0.006100,-0.002376,0.191412,-0.032603,0.175957,0.175958,0.170460,0.884203,0.000000,0.000000,0.000000,0.000000,0.000000,0.000000,0.000000,0.000000,0.000000,0.000000,0.000000,0.000000,0.185813,3,0
560000,0.002370,14.244802,0.033108,0.013383,25.194866,-0.036638,0.000343,0.004419,1.571767,-0.012434,-0.000118,0.000081,0.000008,-0.000809,-0.000002,0.005002,-0.002442,0.172477,-0.034132,0.176182,0.176182,0.170314,0.877446,0.000000,0.000000,0.000000,0.000000,0.000000,0.000000,0.000000,0.000000,0.000000,0.000000,0.000000,0.000000,0.167429,3,0
570000,0.002433,14.503039,0.032519,0.013558,25.205296,-0.037776,0.000353,0.004710,1.571784,-0.013235,-0.000127,0.000109,0.000009,-0.000878,-0.000002,0.007394,-0.002507,0.213641,-0.007542,0.176459,0.176459,0.170214,0.870558,0.000000,0.000000,0.000000,0.000000,0.000000,0.000000,0.000000,0.000000,0.000000,0.000000,0.000000,0.000000,0.207373,3,0
580000,0.002496,14.758466,0.031052,0.013685,25.211155,-0.040102,0.000353,0.004882,1.571804,-0.013674,-0.000136,0.000258,0.000010,-0.000916,-0.000002,0.002351,-0.002571,0.114332,-0.038134,0.176783,0.176783,0.170157,0.863547,0.000000,0.000000,0.000000,0.000000,0.000000,0.000000,0.000000,0.000000,0.000000,0.000000,0.000000,0.000000,0.110992,3,0
590000,0.002557,15.016392,0.031996,0.013853,25.220901,-0.038748,0.000362,0.005166,1.571832,-0.014448,-0.000146,0.000067,0.000011,-0.000985,-0.000003,0.006632,-0.002635,0.196791,0.047637,0.177150,0.177150,0.170138,0.856419,0.000000,0.000000,0.000000,0.000000,0.000000,0.000000,0.000000,0.000000,0.000000,0.000000,0.000000,0.000000,0.190997,3,0
600000,0.002618,15.273264,0.032691,0.013953,25.228914,-0.037943,0.000357,0.005400,1.571858,-0.015082,-0.000157,-0.000091,0.000012,-0.001042,-0.000003,0.004249,-0.002698,0.157434,0.038441,0.177554,0.177555,0.170152,0.849184,0.000000,0.000000,0.000000,0.000000,0.000000,0.000000,0.000000,0.000000,0.000000,0.000000,0.000000,0.000000,0.152797,3,0
610000,0.002679,15.528503,0.032050,0.014154,25.234274,-0.038914,0.000366,0.005567,1.571882,-0.015491,-0.000168,-0.000053,0.000013,-0.001080,-0.000003,0.001608,-0.002761,0.099270,-0.009010,0.177993,0.177994,0.170195,0.841849,0.000000,0.000000,0.000000,0.000000,0.000000,0.000000,0.000000,0.000000,0.000000,0.000000,0.000000,0.000000,0.096362,3,0
620000,0.002740,15.785082,0.031695,0.014321,25.241909,-0.039377,0.000376,0.005795,1.571898,-0.016089,-0.000180,-0.000060,0.000014,-0.001136,-0.000003,0.003270,-0.002824,0.142159,0.001385,0.178463,0.178463,0.170264,0.834422,0.000000,0.000000,0.000000,0.000000,0.000000,0.000000,0.000000,0.000000,0.000000,0.000000,0.000000,0.000000,0.137957,3,0
630000,0.002800,16.042984,0.030168,0.014514,25.251596,-0.041650,0.000384,0.006107,1.571911,-0.016878,-0.000192,0.000114,0.000015,-0.001212,-0.000003,0.005713,-0.002886,0.183689,-0.039722,0.178959,0.178959,0.170355,0.826911,0.000000,0.000000,0.000000,0.000000,0.000000,0.000000,0.000000,0.000000,0.000000,0.000000,0.000000,0.000000,0.178233,3,0
640000,0.002860,16.301607,0.031325,0.014607,25.262386,-0.040057,0.000389,0.006460,1.571925,-0.017772,-0.000204,-0.000136,0.000016,-0.001299,-0.000003,0.007231,-0.002948,0.203995,0.055652,0.179477,0.179478,0.170465,0.819324,0.000000,0.000000,0.000000,0.000000,0.000000,0.000000,0.000000,0.000000,0.000000,0.000000,0.000000,0.000000,0.197914,3,0
650000,0.002919,16.562138,0.032526,0.014788,25.276320,-0.038325,0.000399,0.006908,1.571943,-0.018949,-0.000217,-0.000396,0.000017,-0.001416,-0.000004,0.011729,-0.003009,0.263327,0.056529,0.180016,0.180016,0.170591,0.811670,0.000000,0.000000,0.000000,0.000000,0.000000,0.000000,0.000000,0.000000,0.000000,0.000000,0.000000,0.000000,0.255443,3,0
660000,0.002977,16.822166,0.031739,0.014876,25.289221,-0.039589,0.000408,0.007332,1.571957,-0.020047,-0.000231,-0.000332,0.000019,-0.001528,-0.000004,0.009438,-0.003069,0.241203,-0.013958,0.180571,0.180572,0.170729,0.803956,0.000000,0.000000,0.000000,0.000000,0.000000,0.000000,0.000000,0.000000,0.000000,0.000000,0.000000,0.000000,0.233963,3,0
670000,0.003034,17.078695,0.030212,0.015027,25.296068,-0.041846,0.000418,0.007570,1.571975,-0.020605,-0.000245,-0.000144,0.000020,-0.001585,-0.000004,0.002589,-0.003128,0.120197,-0.039483,0.181140,0.181141,0.170877,0.796191,0.000000,0.000000,0.000000,0.000000,0.000000,0.000000,0.000000,0.000000,0.000000,0.000000,0.000000,0.000000,0.116607,3,0
680000,0.003091,17.335960,0.029981,0.015197,25.304192,-0.042408,0.000411,0.007844,1.571989,-0.021275,-0.000260,-0.000178,0.000022,-0.001656,-0.000004,0.003264,-0.003188,0.141905,0.006852,0.181721,0.181721,0.171032,0.788383,0.000000,0.000000,0.000000,0.000000,0.000000,0.000000,0.000000,0.000000,0.000000,0.000000,0.000000,0.000000,0.137642,3,0
690000,0.003146,17.592146,0.030095,0.015215,25.310427,-0.042155,0.000407,0.008050,1.572000,-0.021770,-0.000275,-0.000273,0.000023,-0.001709,-0.000004,0.001783,-0.003245,0.103226,0.019065,0.182309,0.182309,0.171193,0.780539,0.000000,0.000000,0.000000,0.000000,0.000000,0.000000,0.000000,0.000000,0.000000,0.000000,0.000000,0.000000,0.100139,3,0
700000,0.003201,17.848473,0.029964,0.015351,25.316824,-0.042461,0.000398,0.008261,1.572027,-0.022284,-0.000291,-0.000326,0.000025,-0.001765,-0.000005,0.001815,-0.003302,0.105402,0.010432,0.182904,0.182904,0.171357,0.772667,0.000000,0.000000,0.000000,0.000000,0.000000,0.000000,0.000000,0.000000,0.000000,0.000000,0.000000,0.000000,0.102238,3,0
710000,0.003255,18.107975,0.030403,0.015547,25.328699,-0.041825,0.000403,0.008682,1.572044,-0.023309,-0.000307,-0.000484,0.000027,-0.001878,-0.000005,0.007064,-0.003358,0.206831,0.030445,0.183503,0.183503,0.171521,0.764775,0.000000,0.000000,0.000000,0.000000,0.000000,0.000000,0.000000,0.000000,0.000000,0.000000,0.000000,0.000000,0.200533,3,0
720000,0.003309,18.366362,0.031630,0.015739,25.338428,-0.040093,0.000409,0.009029,1.572065,-0.024143,-0.000324,-0.000787,0.000029,-0.001972,-0.000005,0.004987,-0.003414,0.165878,0.057759,0.184103,0.184103,0.171685,0.756871,0.000000,0.000000,0.000000,0.000000,0.000000,0.000000,0.000000,0.000000,0.000000,0.000000,0.000000,0.000000,0.160822,3,0
730000,0.003362,18.624247,0.031659,0.015778,25.347178,-0.040203,0.000408,0.009346,1.572086,-0.024888,-0.000341,-0.000870,0.000031,-0.002058,-0.000005,0.003480,-0.003469,0.145941,0.015275,0.184704,0.184704,0.171846,0.748962,0.000000,0.000000,0.000000,0.000000,0.000000,0.000000,0.000000,0.000000,0.000000,0.000000,0.000000,0.000000,0.141489,3,0
740000,0.003414,18.884092,0.032415,0.015856,25.359272,-0.039174,0.000400,0.009794,1.572109,-0.025955,-0.000359,-0.001091,0.000033,-0.002182,-0.000006,0.007126,-0.003523,0.206030,0.040647,0.185303,0.185303,0.172003,0.741054,0.000000,0.000000,0.000000,0.000000,0.000000,0.000000,0.000000,0.000000,0.000000,0.000000,0.000000,0.000000,0.199696,3,0
750000,0.003464,19.142799,0.032956,0.015936,25.369249,-0.038384,0.000403,0.010156,1.572126,-0.026819,-0.000377,-0.001273,0.000035,-0.002285,-0.000006,0.004558,-0.003575,0.164732,0.032750,0.185898,0.185898,0.172154,0.733156,0.000000,0.000000,0.000000,0.000000,0.000000,0.000000,0.000000,0.000000,0.000000,0.000000,0.000000,0.000000,0.159665,3,0
760000,0.003514,19.402229,0.032099,0.016089,25.380392,-0.039695,0.000392,0.010568,1.572137,-0.027798,-0.000396,-0.001183,0.000038,-0.002403,-0.000006,0.005526,-0.003627,0.184229,-0.016277,0.186489,0.186489,0.172299,0.725273,0.000000,0.000000,0.000000,0.000000,0.000000,0.000000,0.000000,0.000000,0.000000,0.000000,0.000000,0.000000,0.178538,3,0
770000,0.003564,19.664234,0.031678,0.016238,25.395857,-0.040545,0.000394,0.011158,1.572164,-0.029212,-0.000415,-0.001182,0.000040,-0.002576,-0.000007,0.011139,-0.003679,0.262629,-0.000519,0.187073,0.187074,0.172435,0.717412,0.000000,0.000000,0.000000,0.000000,0.000000,0.000000,0.000000,0.000000,0.000000,0.000000,0.000000,0.000000,0.254465,3,0
780000,0.003611,19.926302,0.032384,0.016227,25.411289,-0.039514,0.000389,0.011753,1.572191,-0.030622,-0.000434,-0.001408,0.000043,-0.002752,-0.000007,0.011068,-0.003728,0.258894,0.038864,0.187651,0.187651,0.172562,0.709579,0.000000,0.000000,0.000000,0.000000,0.000000,0.000000,0.000000,0.000000,0.000000,0.000000,0.000000,0.000000,0.250823,3,0
790000,0.003657,20.186560,0.033556,0.016251,25.423315,-0.037661,0.000396,0.012218,1.572206,-0.031699,-0.000455,-0.001729,0.000045,-0.002889,-0.000008,0.006653,-0.003776,0.195461,0.054632,0.188220,0.188220,0.172680,0.701781,0.000000,0.000000,0.000000,0.000000,0.000000,0.000000,0.000000,0.000000,0.000000,0.000000,0.000000,0.000000,0.189364,3,0
800000,0.003703,20.445642,0.032769,0.016400,25.433096,-0.038909,0.000386,0.012596,1.572231,-0.032555,-0.000475,-0.001648,0.000048,-0.003000,-0.000008,0.003850,-0.003823,0.153751,-0.013997,0.188780,0.188780,0.172786,0.694023,0.000000,0.000000,0.000000,0.000000,0.000000,0.000000,0.000000,0.000000,0.000000,0.000000,0.000000,0.000000,0.148960,3,0
810000,0.003746,20.704187,0.033825,0.016386,25.441799,-0.037508,0.000389,0.012950,1.572251,-0.033305,-0.000497,-0.001952,0.000051,-0.003098,-0.000008,0.003274,-0.003869,0.133118,0.050415,0.189329,0.189330,0.172881,0.686311,0.000000,0.000000,0.000000,0.000000,0.000000,0.000000,0.000000,0.000000,0.000000,0.000000,0.000000,0.000000,0.128972,3,0
820000,0.003790,20.962196,0.034994,0.016540,25.449524,-0.035880,0.000394,0.013253,1.572265,-0.033947,-0.000519,-0.002280,0.000054,-0.003183,-0.000008,0.002533,-0.003914,0.113031,0.053802,0.189868,0.189868,0.172964,0.678650,0.000000,0.000000,0.000000,0.000000,0.000000,0.000000,0.000000,0.000000,0.000000,0.000000,0.000000,0.000000,0.109521,3,0
830000,0.003833,21.222828,0.035795,0.016668,25.461756,-0.034895,0.000390,0.013753,1.572291,-0.035055,-0.000541,-0.002532,0.000057,-0.003333,-0.000009,0.006272,-0.003959,0.192886,0.040488,0.190396,0.190396,0.173034,0.671044,0.000000,0.000000,0.000000,0.000000,0.000000,0.000000,0.000000,0.000000,0.000000,0.000000,0.000000,0.000000,0.186805,3,0
840000,0.003875,21.482260,0.036063,0.016790,25.471664,-0.034711,0.000388,0.014158,1.572311,-0.035929,-0.000563,-0.002669,0.000060,-0.003454,-0.000009,0.003748,-0.004003,0.150801,0.021660,0.190911,0.190911,0.173091,0.663499,0.000000,0.000000,0.000000,0.000000,0.000000,0.000000,0.000000,0.000000,0.000000,0.000000,0.000000,0.000000,0.146053,3,0
850000,0.003917,21.741770,0.034762,0.016849,25.481752,-0.036676,0.000385,0.014569,1.572328,-0.036806,-0.000587,-0.002464,0.000063,-0.003576,-0.000009,0.003792,-0.004046,0.149694,-0.032810,0.191414,0.191414,0.173135,0.656020,0.000000,0.000000,0.000000,0.000000,0.000000,0.000000,0.000000,0.000000,0.000000,0.000000,0.000000,0.000000,0.144971,3,0
860000,0.003957,22.004534,0.034576,0.016807,25.497419,-0.036878,0.000379,0.015234,1.572342,-0.038269,-0.000610,-0.002508,0.000067,-0.003784,-0.000010,0.009924,-0.004088,0.247902,0.006456,0.191905,0.191905,0.173165,0.648609,0.000000,0.000000,0.000000,0.000000,0.000000,0.000000,0.000000,0.000000,0.000000,0.000000,0.000000,0.000000,0.240006,3,0
870000,0.003995,22.262869,0.034105,0.016825,25.504950,-0.037873,0.000366,0.015555,1.572367,-0.038889,-0.000634,-0.002489,0.000070,-0.003874,-0.000010,0.001758,-0.004127,0.104256,-0.003221,0.192382,0.192382,0.173181,0.641272,0.000000,0.000000,0.000000,0.000000,0.000000,0.000000,0.000000,0.000000,0.000000,0.000000,0.000000,0.000000,0.100991,3,0
880000,0.004032,22.521927,0.035151,0.016933,25.513769,-0.036548,0.000356,0.015919,1.572386,-0.039633,-0.000658,-0.002816,0.000074,-0.003983,-0.000011,0.002888,-0.004167,0.124149,0.049657,0.192846,0.192846,0.173183,0.634012,0.000000,0.000000,0.000000,0.000000,0.000000,0.000000,0.000000,0.000000,0.000000,0.000000,0.000000,0.000000,0.120227,3,0
890000,0.004070,22.779778,0.033611,0.016998,25.520350,-0.038858,0.000358,0.016186,1.572399,-0.040139,-0.000683,-0.002550,0.000078,-0.004058,-0.000011,0.001397,-0.004205,0.083672,-0.040465,0.193297,0.193296,0.173170,0.626832,0.000000,0.000000,0.000000,0.000000,0.000000,0.000000,0.000000,0.000000,0.000000,0.000000,0.000000,0.000000,0.081079,3,0
900000,0.004106,23.040283,0.033174,0.017129,25.531404,-0.039748,0.000356,0.016678,1.572419,-0.041135,-0.000709,-0.002543,0.000081,-0.004209,-0.000011,0.004325,-0.004243,0.163698,-0.001360,0.193734,0.193734,0.173144,0.619735,0.000000,0.000000,0.000000,0.000000,0.000000,0.000000,0.000000,0.000000,0.000000,0.000000,0.000000,0.000000,0.158466,3,0
910000,0.004142,23.298269,0.033750,0.017163,25.537893,-0.039133,0.000341,0.016953,1.572439,-0.041637,-0.000734,-0.002775,0.000086,-0.004286,-0.000011,0.001275,-0.004281,0.081989,0.034029,0.194158,0.194157,0.173103,0.612725,0.000000,0.000000,0.000000,0.000000,0.000000,0.000000,0.000000,0.000000,0.000000,0.000000,0.000000,0.000000,0.079444,3,0
920000,0.004176,23.558273,0.034343,0.017213,25.548014,-0.038501,0.000336,0.017401,1.572464,-0.042512,-0.000760,-0.003013,0.000090,-0.004423,-0.000012,0.003447,-0.004316,0.141998,0.034475,0.194568,0.194568,0.173048,0.605804,0.000000,0.000000,0.000000,0.000000,0.000000,0.000000,0.000000,0.000000,0.000000,0.000000,0.000000,0.000000,0.137457,3,0
930000,0.004209,23.820271,0.035359,0.017246,25.561523,-0.037181,0.000336,0.018026,1.572486,-0.043752,-0.000787,-0.003354,0.000094,-0.004619,-0.000012,0.006837,-0.004351,0.199957,0.048883,0.194965,0.194965,0.172979,0.598975,0.000000,0.000000,0.000000,0.000000,0.000000,0.000000,0.000000,0.000000,0.000000,0.000000,0.000000,0.000000,0.193506,3,0
940000,0.004240,24.079704,0.036383,0.017211,25.570173,-0.035934,0.000339,0.018414,1.572503,-0.044480,-0.000813,-0.003697,0.000099,-0.004736,-0.000013,0.002585,-0.004384,0.116735,0.048760,0.195349,0.195349,0.172896,0.592239,0.000000,0.000000,0.000000,0.000000,0.000000,0.000000,0.000000,0.000000,0.000000,0.000000,0.000000,0.000000,0.113016,3,0
950000,0.004272,24.340498,0.035125,0.017288,25.581282,-0.037812,0.000335,0.018931,1.572524,-0.045455,-0.000840,-0.003482,0.000103,-0.004896,-0.000013,0.004051,-0.004416,0.155396,-0.030943,0.195720,0.195720,0.172799,0.585600,0.000000,0.000000,0.000000,0.000000,0.000000,0.000000,0.000000,0.000000,0.000000,0.000000,0.000000,0.000000,0.150386,3,0
960000,0.004303,24.600681,0.033930,0.017329,25.591080,-0.039622,0.000321,0.019377,1.572544,-0.046295,-0.000868,-0.003285,0.000107,-0.005036,-0.000013,0.002985,-0.004448,0.133039,-0.028119,0.196078,0.196078,0.172689,0.579057,0.000000,0.000000,0.000000,0.000000,0.000000,0.000000,0.000000,0.000000,0.000000,0.000000,0.000000,0.000000,0.128763,3,0
970000,0.004332,24.864162,0.034824,0.017373,25.606588,-0.038274,0.000308,0.020131,1.572565,-0.047756,-0.000895,-0.003615,0.000112,-0.005282,-0.000014,0.008904,-0.004479,0.230577,0.045161,0.196424,0.196424,0.172566,0.572614,0.000000,0.000000,0.000000,0.000000,0.000000,0.000000,0.000000,0.000000,0.000000,0.000000,0.000000,0.000000,0.223072,3,0
980000,0.004360,25.123730,0.034739,0.017283,25.614920,-0.038698,0.000295,0.020505,1.572580,-0.048431,-0.000923,-0.003695,0.000117,-0.005397,-0.000014,0.001836,-0.004507,0.106092,0.010705,0.196758,0.196758,0.172430,0.566271,0.000000,0.000000,0.000000,0.000000,0.000000,0.000000,0.000000,0.000000,0.000000,0.000000,0.000000,0.000000,0.102706,3,0
990000,0.004387,25.382044,0.033493,0.017325,25.621119,-0.040598,0.000284,0.020758,1.572605,-0.048848,-0.000952,-0.003480,0.000122,-0.005470,-0.000015,0.000829,-0.004535,0.065109,-0.029640,0.197081,0.197080,0.172281,0.560031,0.000000,0.000000,0.000000,0.000000,0.000000,0.000000,0.000000,0.000000,0.000000,0.000000,0.000000,0.000000,0.063122,3,0
1000000,0.004411,25.642384,0.034480,0.017260,25.630623,-0.039397,0.000277,0.021219,1.572628,-0.049649,-0.000981,-0.003844,0.000127,-0.005611,-0.000015,0.002900,-0.004562,0.124796,0.048876,0.197391,0.197390,0.172119,0.553892,0.000000,0.000000,0.000000,0.000000,0.000000,0.000000,0.000000,0.000000,0.000000,0.000000,0.000000,0.000000,0.120772,3,0
1010000,0.004436,25.901449,0.035252,0.017330,25.637917,-0.038253,0.000272,0.021535,1.572638,-0.050183,-0.001010,-0.004150,0.000133,-0.005706,-0.000015,0.001385,-0.004587,0.083029,0.040911,0.197691,0.197690,0.171946,0.547858,0.000000,0.000000,0.000000,0.000000,0.000000,0.000000,0.000000,0.000000,0.000000,0.000000,0.000000,0.000000,0.080416,3,0
1020000,0.004460,26.161224,0.034223,0.017383,25.646269,-0.039641,0.000268,0.021927,1.572661,-0.050845,-0.001039,-0.003986,0.000138,-0.005827,-0.000016,0.001767,-0.004612,0.102196,-0.022349,0.197980,0.197979,0.171761,0.541927,0.000000,0.000000,0.000000,0.000000,0.000000,0.000000,0.000000,0.000000,0.000000,0.000000,0.000000,0.000000,0.098924,3,0
1030000,0.004483,26.424328,0.033035,0.017280,25.660393,-0.041421,0.000255,0.022644,1.572685,-0.052144,-0.001068,-0.003785,0.000143,-0.006067,-0.000016,0.006581,-0.004636,0.200155,-0.027311,0.198259,0.198258,0.171564,0.536102,0.000000,0.000000,0.000000,0.000000,0.000000,0.000000,0.000000,0.000000,0.000000,0.000000,0.000000,0.000000,0.193592,3,0
1040000,0.004503,26.687420,0.034205,0.017197,25.674393,-0.039866,0.000249,0.023358,1.572698,-0.053415,-0.001097,-0.004217,0.000149,-0.006304,-0.000017,0.006658,-0.004658,0.195339,0.055861,0.198528,0.198527,0.171357,0.530381,0.000000,0.000000,0.000000,0.000000,0.000000,0.000000,0.000000,0.000000,0.000000,0.000000,0.000000,0.000000,0.188931,3,0
1050000,0.004522,26.948526,0.035080,0.017243,25.684681,-0.038635,0.000244,0.023866,1.572721,-0.054268,-0.001127,-0.004567,0.000155,-0.006466,-0.000018,0.003092,-0.004678,0.130894,0.044941,0.198788,0.198786,0.171139,0.524766,0.000000,0.000000,0.000000,0.000000,0.000000,0.000000,0.000000,0.000000,0.000000,0.000000,0.000000,0.000000,0.126639,3,0
1060000,0.004542,27.208332,0.033963,0.017197,25.692589,-0.040255,0.000243,0.024229,1.572740,-0.054847,-0.001157,-0.004374,0.000161,-0.006578,-0.000018,0.001366,-0.004697,0.088352,-0.025369,0.199039,0.199037,0.170911,0.519256,0.000000,0.000000,0.000000,0.000000,0.000000,0.000000,0.000000,0.000000,0.000000,0.000000,0.000000,0.000000,0.085541,3,0
1070000,0.004559,27.472132,0.033384,0.017110,25.707296,-0.041077,0.000237,0.025007,1.572771,-0.056200,-0.001187,-0.004336,0.000166,-0.006843,-0.000019,0.006858,-0.004715,0.206167,-0.005810,0.199281,0.199279,0.170673,0.513852,0.000000,0.000000,0.000000,0.000000,0.000000,0.000000,0.000000,0.000000,0.000000,0.000000,0.000000,0.000000,0.199372,3,0
1080000,0.004574,27.735905,0.033154,0.017026,25.721905,-0.041500,0.000218,0.025779,1.572784,-0.057519,-0.001217,-0.004397,0.000172,-0.007105,-0.000019,0.006498,-0.004732,0.200644,0.006788,0.199516,0.199513,0.170426,0.508552,0.000000,0.000000,0.000000,0.000000,0.000000,0.000000,0.000000,0.000000,0.000000,0.000000,0.000000,0.000000,0.194026,3,0
1090000,0.004589,27.995018,0.033940,0.017019,25.728207,-0.040420,0.000203,0.026048,1.572800,-0.057886,-0.001248,-0.004736,0.000179,-0.007179,-0.000020,0.000803,-0.004747,0.055996,0.042587,0.199742,0.199740,0.170170,0.503358,0.000000,0.000000,0.000000,0.000000,0.000000,0.000000,0.000000,0.000000,0.000000,0.000000,0.000000,0.000000,0.054327,3,0
1100000,0.004603,28.257484,0.033786,0.017035,25.740265,-0.040650,0.000191,0.026674,1.572821,-0.058906,-0.001278,-0.004816,0.000185,-0.007388,-0.000020,0.003870,-0.004762,0.154640,0.009215,0.199962,0.199960,0.169905,0.498268,0.000000,0.000000,0.000000,0.000000,0.000000,0.000000,0.000000,0.000000,0.000000,0.000000,0.000000,0.000000,0.149557,3,0
1110000,0.004616,28.519278,0.032993,0.016930,25.751038,-0.041752,0.000181,0.027218,1.572842,-0.059769,-0.001309,-0.004715,0.000192,-0.007567,-0.000021,0.002780,-0.004775,0.130600,-0.013344,0.200175,0.200172,0.169632,0.493282,0.000000,0.000000,0.000000,0.000000,0.000000,0.000000,0.000000,0.000000,0.000000,0.000000,0.000000,0.000000,0.126326,3,0
1120000,0.004628,28.782393,0.032134,0.016906,25.763887,-0.043111,0.000164,0.027913,1.572856,-0.060874,-0.001340,-0.004599,0.000198,-0.007800,-0.000021,0.004528,-0.004788,0.166883,-0.015170,0.200382,0.200379,0.169351,0.488400,0.000000,0.000000,0.000000,0.000000,0.000000,0.000000,0.000000,0.000000,0.000000,0.000000,0.000000,0.000000,0.161377,3,0
1130000,0.004638,29.041492,0.032859,0.016787,25.769638,-0.042418,0.000145,0.028147,1.572880,-0.061155,-0.001371,-0.004939,0.000205,-0.007860,-0.000021,0.000577,-0.004799,0.042789,0.041417,0.200583,0.200580,0.169063,0.483620,0.000000,0.000000,0.000000,0.000000,0.000000,0.000000,0.000000,0.000000,0.000000,0.000000,0.000000,0.000000,0.041620,3,0
1140000,0.004648,29.305285,0.032428,0.016823,25.783468,-0.043004,0.000134,0.028901,1.572904,-0.062356,-0.001402,-0.004949,0.000212,-0.008121,-0.000022,0.005294,-0.004809,0.181213,0.000179,0.200779,0.200775,0.168769,0.478942,0.000000,0.000000,0.000000,0.000000,0.000000,0.000000,0.000000,0.000000,0.000000,0.000000,0.000000,0.000000,0.175212,3,0
1150000,0.004657,29.563709,0.033248,0.016873,25.787785,-0.041888,0.000122,0.029041,1.572923,-0.062465,-0.001434,-0.005319,0.000219,-0.008144,-0.000022,0.000373,-0.004820,0.016676,0.044742,0.200970,0.200966,0.168467,0.474365,0.000000,0.000000,0.000000,0.000000,0.000000,0.000000,0.000000,0.000000,0.000000,0.000000,0.000000,0.000000,0.016778,3,0
1160000,0.004665,29.822844,0.034052,0.016738,25.793224,-0.040928,0.000110,0.029267,1.572945,-0.062705,-0.001465,-0.005686,0.000226,-0.008197,-0.000022,0.000531,-0.004828,0.036510,0.043941,0.201156,0.201152,0.168160,0.469889,0.000000,0.000000,0.000000,0.000000,0.000000,0.000000,0.000000,0.000000,0.000000,0.000000,0.000000,0.000000,0.035595,3,0
1170000,0.004673,30.081343,0.032588,0.016622,25.797531,-0.042803,0.000100,0.029406,1.572958,-0.062812,-0.001497,-0.005373,0.000233,-0.008222,-0.000023,0.000273,-0.004834,0.015871,-0.037534,0.201339,0.201334,0.167846,0.465511,0.000000,0.000000,0.000000,0.000000,0.000000,0.000000,0.000000,0.000000,0.000000,0.000000,0.000000,0.000000,0.016033,3,0
1180000,0.004678,30.343220,0.031148,0.016477,25.807642,-0.044888,0.000083,0.029942,1.572974,-0.063577,-0.001529,-0.005078,0.000240,-0.008398,-0.000023,0.002347,-0.004840,0.115147,-0.035764,0.201517,0.201512,0.167528,0.461232,0.000000,0.000000,0.000000,0.000000,0.000000,0.000000,0.000000,0.000000,0.000000,0.000000,0.000000,0.000000,0.111377,3,0
1190000,0.004683,30.605751,0.029941,0.016434,25.818830,-0.046704,0.000079,0.030559,1.572990,-0.064450,-0.001560,-0.004860,0.000248,-0.008602,-0.000024,0.002903,-0.004845,0.131475,-0.026701,0.201693,0.201687,0.167204,0.457049,0.000000,0.000000,0.000000,0.000000,0.000000,0.000000,0.000000,0.000000,0.000000,0.000000,0.000000,0.000000,0.127140,3,0
1200000,0.004687,30.868254,0.029833,0.016415,25.829861,-0.046873,0.000059,0.031166,1.573013,-0.065293,-0.001591,-0.004982,0.000255,-0.008802,-0.000024,0.002641,-0.004850,0.127256,0.013389,0.201865,0.201859,0.166876,0.452963,0.000000,0.000000,0.000000,0.000000,0.000000,0.000000,0.000000,0.000000,0.000000,0.000000,0.000000,0.000000,0.123066,3,0
1210000,0.004689,31.128727,0.028402,0.016287,25.837217,-0.048771,0.000039,0.031515,1.573040,-0.065715,-0.001623,-0.004691,0.000263,-0.008903,-0.000025,0.000843,-0.004852,0.063431,-0.034315,0.202035,0.202029,0.166543,0.448972,0.000000,0.000000,0.000000,0.000000,0.000000,0.000000,0.000000,0.000000,0.000000,0.000000,0.000000,0.000000,0.061472,3,0
1220000,0.004691,31.387194,0.026995,0.016142,25.840956,-0.050624,0.000017,0.031625,1.573054,-0.065727,-0.001655,-0.004407,0.000270,-0.008907,-0.000025,0.000180,-0.004854,0.001673,-0.032971,0.202203,0.202196,0.166207,0.445074,0.000000,0.000000,0.000000,0.000000,0.000000,0.000000,0.000000,0.000000,0.000000,0.000000,0.000000,0.000000,0.004960,3,0
1230000,0.004691,31.647703,0.027267,0.016160,25.848265,-0.050402,0.000005,0.031974,1.573074,-0.066131,-0.001687,-0.004659,0.000278,-0.009006,-0.000025,0.000740,-0.004855,0.061232,0.028583,0.202369,0.202361,0.165867,0.441269,0.000000,0.000000,0.000000,0.000000,0.000000,0.000000,0.000000,0.000000,0.000000,0.000000,0.000000,0.000000,0.059354,3,0
1240000,0.004691,31.908888,0.026879,0.016126,25.856676,-0.050768,-0.000015,0.032405,1.573086,-0.066652,-0.001718,-0.004704,0.000286,-0.009137,-0.000025,0.001011,-0.004855,0.078955,0.004556,0.202533,0.202525,0.165524,0.437555,0.000000,0.000000,0.000000,0.000000,0.000000,0.000000,0.000000,0.000000,0.000000,0.000000,0.000000,0.000000,0.076434,3,0
1250000,0.004691,32.170059,0.027350,0.016122,25.864855,-0.050088,-0.000037,0.032821,1.573114,-0.067152,-0.001750,-0.005025,0.000295,-0.009263,-0.000026,0.001146,-0.004855,0.076111,0.035933,0.202696,0.202688,0.165177,0.433930,0.000000,0.000000,0.000000,0.000000,0.000000,0.000000,0.000000,0.000000,0.000000,0.000000,0.000000,0.000000,0.073693,3,0
1260000,0.004690,32.430550,0.027675,0.016113,25.871702,-0.049723,-0.000053,0.033141,1.573128,-0.067502,-0.001781,-0.005298,0.000303,-0.009353,-0.000026,0.000613,-0.004855,0.053406,0.030436,0.202858,0.202850,0.164829,0.430393,0.000000,0.000000,0.000000,0.000000,0.000000,0.000000,0.000000,0.000000,0.000000,0.000000,0.000000,0.000000,0.051814,3,0
1270000,0.004688,32.692379,0.028669,0.015989,25.880850,-0.048401,-0.000061,0.033624,1.573153,-0.068097,-0.001812,-0.005793,0.000311,-0.009508,-0.000026,0.001826,-0.004853,0.091030,0.054860,0.203020,0.203011,0.164478,0.426943,0.000000,0.000000,0.000000,0.000000,0.000000,0.000000,0.000000,0.000000,0.000000,0.000000,0.000000,0.000000,0.088080,3,0
1280000,0.004685,32.951492,0.029648,0.015928,25.885225,-0.047098,-0.000070,0.033750,1.573175,-0.068147,-0.001843,-0.006274,0.000320,-0.009521,-0.000026,0.000482,-0.004850,0.008018,0.053696,0.203181,0.203171,0.164125,0.423580,0.000000,0.000000,0.000000,0.000000,0.000000,0.000000,0.000000,0.000000,0.000000,0.000000,0.000000,0.000000,0.009057,3,0
1290000,0.004683,33.214668,0.029280,0.015951,25.896593,-0.047843,-0.000084,0.034403,1.573205,-0.068974,-0.001874,-0.006325,0.000328,-0.009744,-0.000027,0.002586,-0.004847,0.126564,0.004440,0.203343,0.203332,0.163770,0.420300,0.000000,0.000000,0.000000,0.000000,0.000000,0.000000,0.000000,0.000000,0.000000,0.000000,0.000000,0.000000,0.122366,3,0
1300000,0.004681,33.475780,0.027895,0.015915,25.904350,-0.049759,-0.000109,0.034777,1.573219,-0.069381,-0.001905,-0.006033,0.000337,-0.009855,-0.000027,0.000798,-0.004845,0.062057,-0.032815,0.203504,0.203493,0.163415,0.417104,0.000000,0.000000,0.000000,0.000000,0.000000,0.000000,0.000000,0.000000,0.000000,0.000000,0.000000,0.000000,0.060134,3,0
1310000,0.004678,33.736877,0.027005,0.015792,25.911812,-0.050778,-0.000123,0.035142,1.573242,-0.069767,-0.001936,-0.005910,0.000345,-0.009963,-0.000028,0.000602,-0.004842,0.059292,-0.014071,0.203666,0.203654,0.163058,0.413988,0.000000,0.000000,0.000000,0.000000,0.000000,0.000000,0.000000,0.000000,0.000000,0.000000,0.000000,0.000000,0.057468,3,0
1320000,0.004673,33.995930,0.026797,0.015733,25.915546,-0.050929,-0.000150,0.035235,1.573267,-0.069747,-0.001968,-0.006012,0.000354,-0.009957,-0.000028,0.000026,-0.004838,-0.003090,0.011217,0.203828,0.203816,0.162700,0.410952,0.000000,0.000000,0.000000,0.000000,0.000000,0.000000,0.000000,0.000000,0.000000,0.000000,0.000000,0.000000,0.005544,3,0
1330000,0.004669,34.258373,0.026681,0.015714,25.925241,-0.051193,-0.000163,0.035775,1.573278,-0.070365,-0.001998,-0.006160,0.000363,-0.010133,-0.000028,0.001514,-0.004833,0.095646,0.015129,0.203991,0.203978,0.162342,0.407994,0.000000,0.000000,0.000000,0.000000,0.000000,0.000000,0.000000,0.000000,0.000000,0.000000,0.000000,0.000000,0.092514,3,0
1340000,0.004664,34.521458,0.026119,0.015707,25.936111,-0.051843,-0.000173,0.036390,1.573306,-0.071083,-0.002028,-0.006159,0.000372,-0.010341,-0.000029,0.002002,-0.004829,0.111404,-0.001272,0.204156,0.204142,0.161983,0.405114,0.000000,0.000000,0.000000,0.000000,0.000000,0.000000,0.000000,0.000000,0.000000,0.000000,0.000000,0.000000,0.107714,3,0
1350000,0.004658,34.781105,0.026670,0.015561,25.940678,-0.051183,-0.000201,0.036531,1.573321,-0.071127,-0.002059,-0.006531,0.000381,-0.010353,-0.000029,0.000272,-0.004823,0.007244,0.039991,0.204321,0.204306,0.161625,0.402310,0.000000,0.000000,0.000000,0.000000,0.000000,0.000000,0.000000,0.000000,0.000000,0.000000,0.000000,0.000000,0.008408,3,0
1360000,0.004651,35.041431,0.027367,0.015499,25.946352,-0.050199,-0.000214,0.036762,1.573346,-0.071290,-0.002090,-0.006957,0.000391,-0.010401,-0.000029,0.000444,-0.004816,0.025852,0.045264,0.204488,0.204472,0.161266,0.399579,0.000000,0.000000,0.000000,0.000000,0.000000,0.000000,0.000000,0.000000,0.000000,0.000000,0.000000,0.000000,0.025404,3,0
1370000,0.004645,35.301075,0.026521,0.015495,25.950712,-0.051303,-0.000225,0.036891,1.573357,-0.071317,-0.002120,-0.006839,0.000400,-0.010409,-0.000029,0.000032,-0.004809,0.004017,-0.012566,0.204656,0.204639,0.160908,0.396921,0.000000,0.000000,0.000000,0.000000,0.000000,0.000000,0.000000,0.000000,0.000000,0.000000,0.000000,0.000000,0.006052,3,0
1380000,0.004637,35.561394,0.026387,0.015306,25.956310,-0.051506,-0.000249,0.037112,1.573375,-0.071460,-0.002150,-0.006979,0.000409,-0.010453,-0.000029,0.000120,-0.004801,0.022636,0.014523,0.204825,0.204808,0.160551,0.394334,0.000000,0.000000,0.000000,0.000000,0.000000,0.000000,0.000000,0.000000,0.000000,0.000000,0.000000,0.000000,0.022352,3,0
1390000,0.004628,35.821705,0.025822,0.015181,25.961868,-0.052173,-0.000272,0.037316,1.573390,-0.071591,-0.002181,-0.006966,0.000419,-0.010493,-0.000029,0.000073,-0.004791,0.020687,-0.001578,0.204996,0.204979,0.160194,0.391817,0.000000,0.000000,0.000000,0.000000,0.000000,0.000000,0.000000,0.000000,0.000000,0.000000,0.000000,0.000000,0.020510,3,0
1400000,0.004618,36.082005,0.026331,0.015111,25.967218,-0.051605,-0.000285,0.037503,1.573408,-0.071707,-0.002210,-0.007340,0.000428,-0.010529,-0.000030,0.000307,-0.004782,0.018745,0.039032,0.205169,0.205151,0.159839,0.389368,0.000000,0.000000,0.000000,0.000000,0.000000,0.000000,0.000000,0.000000,0.000000,0.000000,0.000000,0.000000,0.018688,3,0
1410000,0.004607,36.345699,0.025287,0.014961,25.978687,-0.053019,-0.000297,0.038177,1.573436,-0.072436,-0.002239,-0.007171,0.000438,-0.010763,-0.000030,0.002236,-0.004770,0.116211,-0.019042,0.205344,0.205325,0.159484,0.386987,0.000000,0.000000,0.000000,0.000000,0.000000,0.000000,0.000000,0.000000,0.000000,0.000000,0.000000,0.000000,0.112327,3,0
1420000,0.004595,36.603874,0.025559,0.014887,25.980093,-0.052837,-0.000321,0.038053,1.573462,-0.072134,-0.002269,-0.007457,0.000448,-0.010664,-0.000030,0.000527,-0.004759,-0.048203,0.030312,0.205521,0.205500,0.159132,0.384670,0.000000,0.000000,0.000000,0.000000,0.000000,0.000000,0.000000,0.000000,0.000000,0.000000,0.000000,0.000000,0.046773,3,0
1430000,0.004584,36.864113,0.025722,0.014857,25.985071,-0.052689,-0.000349,0.038219,1.573478,-0.072205,-0.002298,-0.007715,0.000457,-0.010687,-0.000030,0.000139,-0.004747,0.011673,0.026467,0.205699,0.205678,0.158780,0.382417,0.000000,0.000000,0.000000,0.000000,0.000000,0.000000,0.000000,0.000000,0.000000,0.000000,0.000000,0.000000,0.012172,3,0
1440000,0.004571,37.126385,0.025616,0.014699,25.993589,-0.053049,-0.000371,0.038669,1.573490,-0.072633,-0.002327,-0.007885,0.000467,-0.010830,-0.000031,0.000825,-0.004733,0.069450,0.016590,0.205880,0.205857,0.158431,0.380226,0.000000,0.000000,0.000000,0.000000,0.000000,0.000000,0.000000,0.000000,0.000000,0.000000,0.000000,0.000000,0.067226,3,0
1450000,0.004559,37.385887,0.024321,0.014661,25.997091,-0.054634,-0.000383,0.038707,1.573511,-0.072549,-0.002356,-0.007601,0.000477,-0.010802,-0.000031,0.000170,-0.004720,-0.014000,-0.028842,0.206062,0.206038,0.158083,0.378097,0.000000,0.000000,0.000000,0.000000,0.000000,0.000000,0.000000,0.000000,0.000000,0.000000,0.000000,0.000000,0.014271,3,0
1460000,0.004543,37.648788,0.025329,0.014444,26.006617,-0.053505,-0.000400,0.039250,1.573527,-0.073060,-0.002384,-0.008201,0.000487,-0.010976,-0.000031,0.001729,-0.004706,0.084282,0.059869,0.206246,0.206222,0.157738,0.376027,0.000000,0.000000,0.000000,0.000000,0.000000,0.000000,0.000000,0.000000,0.000000,0.000000,0.000000,0.000000,0.081521,3,0
1470000,0.004526,37.910950,0.025835,0.014260,26.014730,-0.053084,-0.000420,0.039676,1.573547,-0.073421,-0.002411,-0.008606,0.000497,-0.011101,-0.000031,0.000843,-0.004689,0.059834,0.040308,0.206432,0.206407,0.157395,0.374015,0.000000,0.000000,0.000000,0.000000,0.000000,0.000000,0.000000,0.000000,0.000000,0.000000,0.000000,0.000000,0.057958,3,0
1480000,0.004511,38.173073,0.025248,0.014228,26.022638,-0.053782,-0.000451,0.040072,1.573576,-0.073759,-0.002439,-0.008598,0.000507,-0.011221,-0.000032,0.000509,-0.004671,0.056015,-0.001586,0.206620,0.206594,0.157054,0.372061,0.000000,0.000000,0.000000,0.000000,0.000000,0.000000,0.000000,0.000000,0.000000,0.000000,0.000000,0.000000,0.054273,3,0
1490000,0.004494,38.432407,0.024438,0.014032,26.025450,-0.054876,-0.000465,0.040054,1.573599,-0.073596,-0.002467,-0.008492,0.000517,-0.011163,-0.000032,0.000140,-0.004654,-0.027279,-0.010297,0.206811,0.206783,0.156716,0.370162,0.000000,0.000000,0.000000,0.000000,0.000000,0.000000,0.000000,0.000000,0.000000,0.000000,0.000000,0.000000,0.026721,3,0
1500000,0.004474,38.690353,0.025334,0.013864,26.025629,-0.053731,-0.000495,0.039805,1.573608,-0.073187,-0.002495,-0.009035,0.000527,-0.011012,-0.000031,0.001242,-0.004635,-0.067974,0.055259,0.207003,0.206974,0.156380,0.368318,0.000000,0.000000,0.000000,0.000000,0.000000,0.000000,0.000000,0.000000,0.000000,0.000000,0.000000,0.000000,0.065773,3,0
1510000,0.004455,38.951065,0.025209,0.013774,26.030869,-0.053851,-0.000510,0.039978,1.573632,-0.073258,-0.002522,-0.009199,0.000538,-0.011038,-0.000032,0.000069,-0.004615,0.012024,0.016172,0.207196,0.207167,0.156047,0.366526,0.000000,0.000000,0.000000,0.000000,0.000000,0.000000,0.000000,0.000000,0.000000,0.000000,0.000000,0.000000,0.012437,3,0
1520000,0.004435,39.213116,0.026114,0.013721,26.038401,-0.052684,-0.000535,0.040346,1.573653,-0.073545,-0.002548,-0.009774,0.000548,-0.011144,-0.000032,0.000909,-0.004595,0.049442,0.056159,0.207392,0.207361,0.155717,0.364785,0.000000,0.000000,0.000000,0.000000,0.000000,0.000000,0.000000,0.000000,0.000000,0.000000,0.000000,0.000000,0.047950,3,0
1530000,0.004414,39.471680,0.027142,0.013598,26.039553,-0.051612,-0.000561,0.040166,1.573661,-0.073228,-0.002575,-0.010374,0.000559,-0.011021,-0.000032,0.001051,-0.004574,-0.053654,0.060003,0.207590,0.207558,0.155390,0.363096,0.000000,0.000000,0.000000,0.000000,0.000000,0.000000,0.000000,0.000000,0.000000,0.000000,0.000000,0.000000,0.051976,3,0
1540000,0.004394,39.730949,0.025947,0.013413,26.041906,-0.053216,-0.000587,0.040093,1.573668,-0.073033,-0.002602,-0.010102,0.000569,-0.010946,-0.000031,0.000300,-0.004551,-0.033924,-0.026187,0.207789,0.207756,0.155066,0.361454,0.000000,0.000000,0.000000,0.000000,0.000000,0.000000,0.000000,0.000000,0.000000,0.000000,0.000000,0.000000,0.033046,3,0
1550000,0.004371,39.993645,0.026326,0.013206,26.050529,-0.053025,-0.000612,0.040551,1.573678,-0.073402,-0.002627,-0.010482,0.000579,-0.011090,-0.000032,0.000887,-0.004529,0.064602,0.036119,0.207990,0.207955,0.154745,0.359861,0.000000,0.000000,0.000000,0.000000,0.000000,0.000000,0.000000,0.000000,0.000000,0.000000,0.000000,0.000000,0.062523,3,0
1560000,0.004348,40.254910,0.025326,0.013017,26.056381,-0.054148,-0.000635,0.040773,1.573694,-0.073520,-0.002653,-0.010301,0.000589,-0.011138,-0.000032,0.000123,-0.004504,0.020489,-0.017884,0.208192,0.208156,0.154427,0.358314,0.000000,0.000000,0.000000,0.000000,0.000000,0.000000,0.000000,0.000000,0.000000,0.000000,0.000000,0.000000,0.020248,3,0
1570000,0.004324,40.516136,0.023975,0.012809,26.062006,-0.055775,-0.000655,0.040994,1.573718,-0.073622,-0.002678,-0.009983,0.000599,-0.011180,-0.000032,0.000210,-0.004479,0.017593,-0.031134,0.208396,0.208359,0.154113,0.356811,0.000000,0.000000,0.000000,0.000000,0.000000,0.000000,0.000000,0.000000,0.000000,0.000000,0.000000,0.000000,0.017518,3,0
1580000,0.004299,40.775940,0.022565,0.012603,26.065084,-0.057601,-0.000671,0.040979,1.573732,-0.073484,-0.002704,-0.009635,0.000609,-0.011125,-0.000032,0.000282,-0.004453,-0.025024,-0.033114,0.208601,0.208563,0.153802,0.355353,0.000000,0.000000,0.000000,0.000000,0.000000,0.000000,0.000000,0.000000,0.000000,0.000000,0.000000,0.000000,0.024542,3,0
1590000,0.004271,41.038471,0.023301,0.012439,26.073071,-0.056767,-0.000689,0.041383,1.573754,-0.073776,-0.002727,-0.010186,0.000620,-0.011245,-0.000033,0.000895,-0.004427,0.053082,0.051971,0.208808,0.208768,0.153495,0.353938,0.000000,0.000000,0.000000,0.000000,0.000000,0.000000,0.000000,0.000000,0.000000,0.000000,0.000000,0.000000,0.051424,3,0
1600000,0.004244,41.296112,0.021919,0.012237,26.072039,-0.058276,-0.000723,0.040989,1.573762,-0.073280,-0.002753,-0.009831,0.000630,-0.011036,-0.000032,0.001484,-0.004396,-0.090256,-0.032399,0.209015,0.208974,0.153191,0.352565,0.000000,0.000000,0.000000,0.000000,0.000000,0.000000,0.000000,0.000000,0.000000,0.000000,0.000000,0.000000,0.087223,3,0
1610000,0.004216,41.559311,0.020483,0.012083,26.081106,-0.059828,-0.000739,0.041503,1.573784,-0.073662,-0.002776,-0.009500,0.000640,-0.011202,-0.000033,0.000955,-0.004368,0.069572,-0.032717,0.209224,0.209181,0.152891,0.351232,0.000000,0.000000,0.000000,0.000000,0.000000,0.000000,0.000000,0.000000,0.000000,0.000000,0.000000,0.000000,0.067271,3,0
1620000,0.004187,41.820335,0.021002,0.012023,26.086050,-0.059044,-0.000768,0.041647,1.573797,-0.073687,-0.002799,-0.009966,0.000651,-0.011211,-0.000033,0.000324,-0.004339,0.005070,0.044167,0.209433,0.209389,0.152595,0.349938,0.000000,0.000000,0.000000,0.000000,0.000000,0.000000,0.000000,0.000000,0.000000,0.000000,0.000000,0.000000,0.006446,3,0
1630000,0.004157,42.077839,0.021934,0.011951,26.084431,-0.057950,-0.000797,0.041191,1.573818,-0.073163,-0.002823,-0.010576,0.000662,-0.010975,-0.000032,0.002089,-0.004309,-0.096970,0.059428,0.209643,0.209598,0.152302,0.348681,0.000000,0.000000,0.000000,0.000000,0.000000,0.000000,0.000000,0.000000,0.000000,0.000000,0.000000,0.000000,0.093659,3,0
1640000,0.004127,42.340237,0.021356,0.011718,26.091858,-0.058500,-0.000822,0.041561,1.573838,-0.073393,-0.002845,-0.010591,0.000672,-0.011079,-0.000032,0.000302,-0.004277,0.043121,0.000666,0.209854,0.209808,0.152013,0.347462,0.000000,0.000000,0.000000,0.000000,0.000000,0.000000,0.000000,0.000000,0.000000,0.000000,0.000000,0.000000,0.041819,3,0
1650000,0.004098,42.602573,0.020400,0.011584,26.099102,-0.059700,-0.000848,0.041913,1.573857,-0.073599,-0.002867,-0.010450,0.000682,-0.011174,-0.000033,0.000280,-0.004246,0.039074,-0.014022,0.210066,0.210018,0.151728,0.346279,0.000000,0.000000,0.000000,0.000000,0.000000,0.000000,0.000000,0.000000,0.000000,0.000000,0.000000,0.000000,0.037926,3,0
1660000,0.004066,42.864830,0.021036,0.011464,26.106070,-0.058799,-0.000866,0.042223,1.573880,-0.073779,-0.002888,-0.010985,0.000692,-0.011256,-0.000033,0.000597,-0.004215,0.035088,0.049378,0.210277,0.210228,0.151447,0.345131,0.000000,0.000000,0.000000,0.000000,0.000000,0.000000,0.000000,0.000000,0.000000,0.000000,0.000000,0.000000,0.034114,3,0
1670000,0.004033,43.124928,0.021659,0.011221,26.108921,-0.058147,-0.000897,0.042158,1.573900,-0.073630,-0.002909,-0.011496,0.000703,-0.011183,-0.000033,0.000509,-0.004181,-0.028450,0.048123,0.210489,0.210438,0.151169,0.344016,0.000000,0.000000,0.000000,0.000000,0.000000,0.000000,0.000000,0.000000,0.000000,0.000000,0.000000,0.000000,0.027734,3,0
1680000,0.004001,43.383610,0.021075,0.011065,26.109159,-0.058570,-0.000913,0.041870,1.573924,-0.073273,-0.002931,-0.011474,0.000713,-0.011011,-0.000033,0.000789,-0.004146,-0.069904,-0.000610,0.210701,0.210649,0.150896,0.342934,0.000000,0.000000,0.000000,0.000000,0.000000,0.000000,0.000000,0.000000,0.000000,0.000000,0.000000,0.000000,0.067570,3,0
1690000,0.003969,43.644382,0.019957,0.010928,26.113205,-0.059858,-0.000931,0.041917,1.573950,-0.073221,-0.002952,-0.011244,0.000723,-0.010987,-0.000033,0.000092,-0.004113,-0.010529,-0.021036,0.210913,0.210859,0.150627,0.341883,0.000000,0.000000,0.000000,0.000000,0.000000,0.000000,0.000000,0.000000,0.000000,0.000000,0.000000,0.000000,0.010910,3,0
1700000,0.003935,43.905113,0.018964,0.010681,26.117126,-0.060838,-0.000957,0.041950,1.573957,-0.073158,-0.002973,-0.011071,0.000733,-0.010956,-0.000033,0.000069,-0.004078,-0.012917,-0.015683,0.211125,0.211069,0.150361,0.340863,0.000000,0.000000,0.000000,0.000000,0.000000,0.000000,0.000000,0.000000,0.000000,0.000000,0.000000,0.000000,0.013073,3,0
1710000,0.003900,44.165783,0.019485,0.010609,26.120823,-0.060126,-0.000981,0.041960,1.573971,-0.073080,-0.002992,-0.011561,0.000744,-0.010915,-0.000033,0.000373,-0.004044,-0.015259,0.045258,0.211336,0.211279,0.150099,0.339872,0.000000,0.000000,0.000000,0.000000,0.000000,0.000000,0.000000,0.000000,0.000000,0.000000,0.000000,0.000000,0.015218,3,0
1720000,0.003868,44.427132,0.018207,0.010538,26.125723,-0.061663,-0.000998,0.042089,1.573994,-0.073093,-0.003012,-0.011268,0.000754,-0.010923,-0.000033,0.000120,-0.004008,0.002338,-0.026801,0.211547,0.211488,0.149842,0.338909,0.000000,0.000000,0.000000,0.000000,0.000000,0.000000,0.000000,0.000000,0.000000,0.000000,0.000000,0.000000,0.004473,3,0
