time_us,pos_x,pos_y,pos_z,vel_x,vel_y,vel_z,roll,pitch,yaw,bias_ax,bias_ay,bias_az,bias_gx,bias_gy,bias_gz,nis,innov_x,innov_y,innov_z,cov_pos_x,cov_pos_y,cov_pos_z,cov_yaw,des_speed,des_heading,des_climb,pid_speed,pid_yaw,pid_alt,speed_meas,yaw_meas,climb_meas,fwd_accel,yaw_rate,vert_accel,drift_m,nav_mode,mission_state
0,-0.000002,0.149997,-0.000000,-0.000340,24.999523,-0.000085,0.000002,-0.000003,1.570779,0.000000,0.000000,0.000000,0.000000,0.000000,0.000000,0.006250,0.000003,-0.249998,0.000001,2.400038,2.400038,3.600017,1.000518,0.000000,0.000000,0.000000,0.000000,0.000000,0.000000,0.000000,0.000000,0.000000,0.000000,0.000000,0.000000,0.149997,1,0
10000,-0.000007,0.365221,-0.007029,-0.000806,24.999178,-0.000254,0.000014,-0.000000,1.570769,0.000000,0.000000,0.000000,0.000000,0.000000,0.000000,0.001799,0.000010,-0.121686,-0.018736,1.714420,1.714420,2.250079,1.001073,0.000000,0.000000,0.000000,0.000000,0.000000,0.000000,0.000000,0.000000,0.000000,0.000000,0.000000,0.000000,0.086916,3,0
20000,-0.000014,0.580093,-0.014954,-0.001141,24.998541,-0.000546,0.000011,-0.000005,1.570765,0.000002,0.000000,0.000000,0.000000,0.000000,-0.000000,0.003338,0.000019,-0.157996,-0.029038,1.333616,1.333616,1.636554,1.001655,0.000000,0.000000,0.000000,0.000000,0.000000,0.000000,0.000000,0.000000,0.000000,0.000000,0.000000,0.000000,0.122878,3,0
30000,-0.000025,0.812877,-0.010986,-0.001564,24.998039,-0.000334,0.000020,-0.000012,1.570757,0.000003,0.000000,-0.000000,-0.000000,0.000000,-0.000000,0.001264,0.000030,-0.094557,0.018533,1.091392,1.091392,1.286065,1.002257,0.000000,0.000000,0.000000,0.000000,0.000000,0.000000,0.000000,0.000000,0.000000,0.000000,0.000000,0.000000,0.077357,3,0
40000,-0.000038,1.061429,-0.002319,-0.002068,24.997890,-0.000001,0.000021,-0.000004,1.570754,0.000004,0.000000,-0.000001,-0.000000,0.000000,-0.000000,0.000343,0.000045,-0.009274,0.049096,0.923811,0.923811,1.059385,1.002869,0.000000,0.000000,0.000000,0.000000,0.000000,0.000000,0.000000,0.000000,0.000000,0.000000,0.000000,0.000000,0.007846,3,0
50000,-0.000055,1.300871,0.003569,-0.002504,24.997309,0.000016,0.000017,0.000007,1.570755,0.000007,0.000000,-0.000003,-0.000000,0.000000,-0.000000,0.001117,0.000063,-0.078913,0.039226,0.801036,0.801036,0.900822,1.003484,0.000000,0.000000,0.000000,0.000000,0.000000,0.000000,0.000000,0.000000,0.000000,0.000000,0.000000,0.000000,0.068378,3,0
60000,-0.000074,1.546121,-0.001659,-0.002852,24.996838,-0.000091,0.000022,0.000013,1.570756,0.000009,0.000000,-0.000001,-0.000000,0.000000,-0.000000,0.000468,0.000083,-0.040044,-0.040034,0.707270,0.707270,0.783741,1.004094,0.000000,0.000000,0.000000,0.000000,0.000000,0.000000,0.000000,0.000000,0.000000,0.000000,0.000000,0.000000,0.035324,3,0
70000,-0.000095,1.795351,-0.001980,-0.003294,24.996628,-0.000241,0.000024,0.000022,1.570753,0.000010,0.000000,-0.000000,-0.000000,0.000000,-0.000000,0.000008,0.000107,-0.006985,-0.002753,0.633370,0.633370,0.693801,1.004688,0.000000,0.000000,0.000000,0.000000,0.000000,0.000000,0.000000,0.000000,0.000000,0.000000,0.000000,0.000000,0.006249,3,0
80000,-0.000119,2.047428,-0.005541,-0.003620,24.996643,-0.000693,0.000025,0.000025,1.570747,0.000008,0.000000,0.000003,-0.000000,0.000000,-0.000000,0.000249,0.000132,0.022092,-0.034279,0.573673,0.573673,0.622594,1.005260,0.000000,0.000000,0.000000,0.000000,0.000000,0.000000,0.000000,0.000000,0.000000,0.000000,0.000000,0.000000,0.019980,3,0
90000,-0.000145,2.292927,-0.005429,-0.003950,24.995958,-0.000539,0.000037,0.000019,1.570738,0.000014,0.000000,0.000003,-0.000000,0.000000,-0.000000,0.000397,0.000158,-0.051074,0.001250,0.524488,0.524488,0.564865,1.005801,0.000000,0.000000,0.000000,0.000000,0.000000,0.000000,0.000000,0.000000,0.000000,0.000000,0.000000,0.000000,0.046610,3,0
100000,-0.000174,2.541413,-0.002267,-0.004432,24.995548,-0.000208,0.000034,0.000029,1.570738,0.000017,0.000000,-0.000003,-0.000000,0.000000,-0.000000,0.000257,0.000189,-0.018262,0.036745,0.483304,0.483304,0.517162,1.006301,0.000000,0.000000,0.000000,0.000000,0.000000,0.000000,0.000000,0.000000,0.000000,0.000000,0.000000,0.000000,0.016792,3,0
110000,-0.000206,2.786288,-0.000688,-0.004852,24.994589,0.000094,0.000043,0.000033,1.570728,0.000030,0.000000,-0.000006,-0.000000,0.000000,-0.000000,0.000773,0.000222,-0.067955,0.019867,0.448354,0.448354,0.477121,1.006754,0.000000,0.000000,0.000000,0.000000,0.000000,0.000000,0.000000,0.000000,0.000000,0.000000,0.000000,0.000000,0.062877,3,0
120000,-0.000240,3.037984,0.002204,-0.005210,24.994694,0.000353,0.000052,0.000036,1.570726,0.000024,0.000000,-0.000015,-0.000000,0.000000,-0.000000,0.000335,0.000258,0.025120,0.039183,0.418359,0.418359,0.443071,1.007150,0.000000,0.000000,0.000000,0.000000,0.000000,0.000000,0.000000,0.000000,0.000000,0.000000,0.000000,0.000000,0.023370,3,0
130000,-0.000277,3.295211,0.005131,-0.005638,24.995781,0.000603,0.000066,0.000057,1.570724,-0.000004,0.000000,-0.000025,-0.000000,-0.000000,0.000000,0.002211,0.000296,0.111366,0.042412,0.392369,0.392369,0.413797,1.007481,0.000000,0.000000,0.000000,0.000000,0.000000,0.000000,0.000000,0.000000,0.000000,0.000000,0.000000,0.000000,0.104084,3,0
140000,-0.000316,3.548428,0.007559,-0.005955,24.996370,0.000930,0.000082,0.000071,1.570718,-0.000020,0.000000,-0.000036,-0.000000,-0.000001,0.000000,0.000656,0.000336,0.052916,0.037441,0.369666,0.369666,0.388393,1.007739,0.000000,0.000000,0.000000,0.000000,0.000000,0.000000,0.000000,0.000000,0.000000,0.000000,0.000000,0.000000,0.049657,3,0
150000,-0.000357,3.798301,0.009462,-0.006369,24.996120,0.001362,0.000078,0.000083,1.570713,-0.000019,0.000000,-0.000046,-0.000000,-0.000001,0.000000,0.000151,0.000379,-0.001516,0.031032,0.349695,0.349695,0.366172,1.007915,0.000000,0.000000,0.000000,0.000000,0.000000,0.000000,0.000000,0.000000,0.000000,0.000000,0.000000,0.000000,0.001472,3,0
160000,-0.000401,4.047549,0.007898,-0.006735,24.995689,0.000756,0.000080,0.000096,1.570697,-0.000014,0.000001,-0.000036,-0.000000,-0.000000,0.000000,0.000143,0.000425,-0.012840,-0.027286,0.332021,0.332021,0.346600,1.008002,0.000000,0.000000,0.000000,0.000000,0.000000,0.000000,0.000000,0.000000,0.000000,0.000000,0.000000,0.000000,0.012136,3,0
170000,-0.000447,4.302552,0.007843,-0.007059,24.997057,0.000539,0.000082,0.000118,1.570693,-0.000055,0.000001,-0.000036,-0.000000,-0.000001,0.000000,0.001447,0.000472,0.095736,-0.001103,0.316297,0.316297,0.329260,1.007991,0.000000,0.000000,0.000000,0.000000,0.000000,0.000000,0.000000,0.000000,0.000000,0.000000,0.000000,0.000000,0.090690,3,0
180000,-0.000495,4.559517,0.006778,-0.007371,24.999159,0.000293,0.000079,0.000140,1.570680,-0.000122,0.000001,-0.000026,-0.000000,-0.000003,0.000000,0.003120,0.000521,0.138904,-0.020469,0.302246,0.302246,0.313817,1.007875,0.000000,0.000000,0.000000,0.000000,0.000000,0.000000,0.000000,0.000000,0.000000,0.000000,0.000000,0.000000,0.131907,3,0
190000,-0.000545,4.808604,0.007255,-0.007754,24.998581,0.000502,0.000092,0.000142,1.570663,-0.000112,0.000001,-0.000031,-0.000000,-0.000003,0.000000,0.000070,0.000572,-0.018688,0.009467,0.289641,0.289641,0.300003,1.007645,0.000000,0.000000,0.000000,0.000000,0.000000,0.000000,0.000000,0.000000,0.000000,0.000000,0.000000,0.000000,0.017794,3,0
200000,-0.000597,5.062764,0.008632,-0.008102,24.999983,0.000923,0.000092,0.000164,1.570648,-0.000164,0.000002,-0.000047,-0.000000,-0.000004,0.000000,0.001419,0.000626,0.090052,0.028628,0.278295,0.278295,0.287598,1.007295,0.000000,0.000000,0.000000,0.000000,0.000000,0.000000,0.000000,0.000000,0.000000,0.000000,0.000000,0.000000,0.085877,3,0
210000,-0.000652,5.318752,0.009040,-0.008557,25.002478,0.001143,0.000105,0.000186,1.570638,-0.000250,0.000002,-0.000053,-0.000000,-0.000007,0.000000,0.002874,0.000682,0.134060,0.008654,0.268054,0.268054,0.276421,1.006816,0.000000,0.000000,0.000000,0.000000,0.000000,0.000000,0.000000,0.000000,0.000000,0.000000,0.000000,0.000000,0.128072,3,0
220000,-0.000709,5.571233,0.008341,-0.008874,25.003496,0.000778,0.000115,0.000208,1.570630,-0.000290,0.000003,-0.000042,-0.000000,-0.000008,0.000000,0.000558,0.000741,0.056957,-0.015991,0.258787,0.258787,0.266321,1.006202,0.000000,0.000000,0.000000,0.000000,0.000000,0.000000,0.000000,0.000000,0.000000,0.000000,0.000000,0.000000,0.054505,3,0
230000,-0.000768,5.823061,0.007280,-0.009192,25.004141,0.000173,0.000129,0.000229,1.570616,-0.000322,0.000003,-0.000023,-0.000000,-0.000009,0.000000,0.000395,0.000801,0.043015,-0.024921,0.250386,0.250386,0.257172,1.005446,0.000000,0.000000,0.000000,0.000000,0.000000,0.000000,0.000000,0.000000,0.000000,0.000000,0.000000,0.000000,0.041227,3,0
240000,-0.000828,6.079129,0.008987,-0.009502,25.007189,0.001085,0.000128,0.000264,1.570612,-0.000445,0.000004,-0.000057,-0.000000,-0.000013,0.000000,0.003820,0.000863,0.149001,0.041093,0.242756,0.242756,0.248866,1.004541,0.000000,0.000000,0.000000,0.000000,0.000000,0.000000,0.000000,0.000000,0.000000,0.000000,0.000000,0.000000,0.142975,3,0
250000,-0.000891,6.335927,0.008447,-0.009943,25.010826,0.000854,0.000143,0.000315,1.570596,-0.000598,0.000005,-0.000045,-0.000000,-0.000019,0.000000,0.004723,0.000927,0.171207,-0.013696,0.235819,0.235819,0.241314,1.003481,0.000000,0.000000,0.000000,0.000000,0.000000,0.000000,0.000000,0.000000,0.000000,0.000000,0.000000,0.000000,0.164481,3,0
260000,-0.000957,6.591124,0.007503,-0.010356,25.013868,0.000408,0.000154,0.000354,1.570589,-0.000726,0.000006,-0.000021,-0.000000,-0.000023,0.000000,0.002933,0.000995,0.133039,-0.024404,0.229505,0.229505,0.234436,1.002258,0.000000,0.000000,0.000000,0.000000,0.000000,0.000000,0.000000,0.000000,0.000000,0.000000,0.000000,0.000000,0.127954,3,0
270000,-0.001025,6.846341,0.007062,-0.010799,25.016953,0.000207,0.000164,0.000405,1.570586,-0.000866,0.000007,-0.000009,-0.000000,-0.000029,0.000000,0.003000,0.001065,0.136240,-0.011712,0.223755,0.223755,0.228165,1.000869,0.000000,0.000000,0.000000,0.000000,0.000000,0.000000,0.000000,0.000000,0.000000,0.000000,0.000000,0.000000,0.131163,3,0
280000,-0.001096,7.098691,0.005607,-0.011224,25.018406,-0.000614,0.000177,0.000420,1.570583,-0.000932,0.000008,0.000033,-0.000000,-0.000031,0.000000,0.000825,0.001138,0.059900,-0.039352,0.218517,0.218517,0.222443,0.999307,0.000000,0.000000,0.000000,0.000000,0.000000,0.000000,0.000000,0.000000,0.000000,0.000000,0.000000,0.000000,0.057729,3,0
290000,-0.001169,7.355473,0.004531,-0.011577,25.023045,-0.001189,0.000176,0.000497,1.570580,-0.001151,0.000010,0.000068,-0.000000,-0.000040,0.000000,0.005656,0.001212,0.185236,-0.029595,0.213746,0.213746,0.217219,0.997567,0.000000,0.000000,0.000000,0.000000,0.000000,0.000000,0.000000,0.000000,0.000000,0.000000,0.000000,0.000000,0.178640,3,0
300000,-0.001243,7.609448,0.004928,-0.011840,25.025866,-0.001108,0.000192,0.000544,1.570578,-0.001286,0.000011,0.000054,-0.000000,-0.000046,0.000000,0.001874,0.001288,0.107317,0.011621,0.209400,0.209400,0.212446,0.995645,0.000000,0.000000,0.000000,0.000000,0.000000,0.000000,0.000000,0.000000,0.000000,0.000000,0.000000,0.000000,0.103579,3,0
310000,-0.001319,7.861489,0.005532,-0.012265,25.027143,-0.000512,0.000204,0.000560,1.570560,-0.001355,0.000013,0.000030,-0.000000,-0.000049,0.000000,0.000488,0.001366,0.052104,0.017685,0.205446,0.205446,0.208087,0.993536,0.000000,0.000000,0.000000,0.000000,0.000000,0.000000,0.000000,0.000000,0.000000,0.000000,0.000000,0.000000,0.050337,3,0
320000,-0.001398,8.113058,0.003921,-0.012657,25.028214,-0.001762,0.000206,0.000590,1.570546,-0.001410,0.000015,0.000096,-0.000001,-0.000052,0.000000,0.000599,0.001446,0.038596,-0.047198,0.201850,0.201850,0.204105,0.991237,0.000000,0.000000,0.000000,0.000000,0.000000,0.000000,0.000000,0.000000,0.000000,0.000000,0.000000,0.000000,0.037324,3,0
330000,-0.001478,8.365502,0.003154,-0.013090,25.030117,-0.002540,0.000217,0.000625,1.570542,-0.001508,0.000017,0.000130,-0.000001,-0.000056,0.000000,0.000769,0.001529,0.065320,-0.022370,0.198585,0.198585,0.200469,0.988743,0.000000,0.000000,0.000000,0.000000,0.000000,0.000000,0.000000,0.000000,0.000000,0.000000,0.000000,0.000000,0.063175,3,0
340000,-0.001561,8.620071,0.004859,-0.013432,25.034016,-0.000932,0.000218,0.000706,1.570542,-0.001715,0.000020,0.000047,-0.000001,-0.000067,0.000000,0.003210,0.001613,0.130920,0.052614,0.195625,0.195625,0.197151,0.986053,0.000000,0.000000,0.000000,0.000000,0.000000,0.000000,0.000000,0.000000,0.000000,0.000000,0.000000,0.000000,0.126661,3,0
350000,-0.001643,8.874744,0.005449,-0.013685,25.038176,-0.000472,0.000223,0.000776,1.570527,-0.001939,0.000023,0.000016,-0.000001,-0.000078,0.000000,0.002984,0.001698,0.134737,0.018553,0.192947,0.192947,0.194125,0.983163,0.000000,0.000000,0.000000,0.000000,0.000000,0.000000,0.000000,0.000000,0.000000,0.000000,0.000000,0.000000,0.130415,3,0
360000,-0.001728,9.129521,0.005591,-0.014062,25.042429,-0.000483,0.000233,0.000865,1.570525,-0.002182,0.000026,0.000008,-0.000001,-0.000090,0.000000,0.003097,0.001785,0.138450,0.004638,0.190531,0.190531,0.191370,0.980073,0.000000,0.000000,0.000000,0.000000,0.000000,0.000000,0.000000,0.000000,0.000000,0.000000,0.000000,0.000000,0.134064,3,0
370000,-0.001814,9.383155,0.006327,-0.014420,25.045610,0.000381,0.000240,0.000941,1.570517,-0.002371,0.000029,-0.000035,-0.000001,-0.000101,0.000000,0.001779,0.001873,0.102300,0.023461,0.188357,0.188357,0.188863,0.976779,0.000000,0.000000,0.000000,0.000000,0.000000,0.000000,0.000000,0.000000,0.000000,0.000000,0.000000,0.000000,0.099105,3,0
380000,-0.001900,9.639408,0.007566,-0.014667,25.051882,0.001571,0.000252,0.001073,1.570501,-0.002732,0.000033,-0.000111,-0.000002,-0.000120,0.000000,0.005877,0.001961,0.186573,0.039728,0.186409,0.186409,0.186586,0.973282,0.000000,0.000000,0.000000,0.000000,0.000000,0.000000,0.000000,0.000000,0.000000,0.000000,0.000000,0.000000,0.180787,3,0
390000,-0.001988,9.896957,0.007478,-0.014997,25.059633,0.001308,0.000255,0.001238,1.570489,-0.003194,0.000037,-0.000105,-0.000002,-0.000147,0.000001,0.008432,0.002051,0.228442,-0.003304,0.184670,0.184670,0.184522,0.969580,0.000000,0.000000,0.000000,0.000000,0.000000,0.000000,0.000000,0.000000,0.000000,0.000000,0.000000,0.000000,0.221420,3,0
400000,-0.002077,10.152731,0.007164,-0.015373,25.065607,0.001029,0.000261,0.001356,1.570480,-0.003553,0.000042,-0.000082,-0.000002,-0.000168,0.000001,0.004667,0.002142,0.169603,-0.010777,0.183126,0.183126,0.182656,0.965675,0.000000,0.000000,0.000000,0.000000,0.000000,0.000000,0.000000,0.000000,0.000000,0.000000,0.000000,0.000000,0.164440,3,0
410000,-0.002166,10.408001,0.006723,-0.015581,25.071098,0.000657,0.000264,0.001474,1.570475,-0.003890,0.000046,-0.000049,-0.000002,-0.000188,0.000001,0.003787,0.002234,0.152318,-0.014998,0.181763,0.181764,0.180971,0.961566,0.000000,0.000000,0.000000,0.000000,0.000000,0.000000,0.000000,0.000000,0.000000,0.000000,0.000000,0.000000,0.147720,3,0
420000,-0.002255,10.663987,0.006041,-0.015824,25.077482,-0.000088,0.000280,0.001618,1.570458,-0.004294,0.000052,0.000004,-0.000003,-0.000212,0.000001,0.005054,0.002325,0.175298,-0.023040,0.180570,0.180570,0.179456,0.957255,0.000000,0.000000,0.000000,0.000000,0.000000,0.000000,0.000000,0.000000,0.000000,0.000000,0.000000,0.000000,0.170037,3,0
430000,-0.002344,10.919484,0.004674,-0.016025,25.083374,-0.001513,0.000289,0.001752,1.570455,-0.004672,0.000057,0.000114,-0.000003,-0.000236,0.000001,0.004370,0.002416,0.157794,-0.046077,0.179534,0.179534,0.178097,0.952743,0.000000,0.000000,0.000000,0.000000,0.000000,0.000000,0.000000,0.000000,0.000000,0.000000,0.000000,0.000000,0.153090,3,0
440000,-0.002433,11.173327,0.003829,-0.016271,25.087347,-0.002510,0.000295,0.001838,1.570455,-0.004924,0.000064,0.000184,-0.000003,-0.000252,0.000001,0.001779,0.002508,0.101026,-0.028136,0.178644,0.178644,0.176883,0.948033,0.000000,0.000000,0.000000,0.000000,0.000000,0.000000,0.000000,0.000000,0.000000,0.000000,0.000000,0.000000,0.098048,3,0
450000,-0.002523,11.430278,0.002979,-0.016628,25.095335,-0.003554,0.000309,0.002020,1.570442,-0.005455,0.000070,0.000257,-0.000004,-0.000288,0.000001,0.006923,0.002600,0.204965,-0.028138,0.177891,0.177891,0.175803,0.943126,0.000000,0.000000,0.000000,0.000000,0.000000,0.000000,0.000000,0.000000,0.000000,0.000000,0.000000,0.000000,0.198904,3,0
460000,-0.002615,11.683805,0.002780,-0.016982,25.098898,-0.003895,0.000307,0.002098,1.570439,-0.005689,0.000078,0.000272,-0.000004,-0.000303,0.000001,0.001233,0.002694,0.087086,-0.005566,0.177264,0.177265,0.174847,0.938027,0.000000,0.000000,0.000000,0.000000,0.000000,0.000000,0.000000,0.000000,0.000000,0.000000,0.000000,0.000000,0.084553,3,0
470000,-0.002706,11.939847,0.002150,-0.017265,25.105894,-0.004551,0.000321,0.002275,1.570438,-0.006166,0.000085,0.000329,-0.000005,-0.000336,0.000001,0.004824,0.002788,0.171465,-0.020411,0.176756,0.176757,0.174006,0.932739,0.000000,0.000000,0.000000,0.000000,0.000000,0.000000,0.000000,0.000000,0.000000,0.000000,0.000000,0.000000,0.166435,3,0
480000,-0.002798,12.196599,0.002316,-0.017554,25.113909,-0.004232,0.000321,0.002467,1.570429,-0.006724,0.000094,0.000307,-0.000005,-0.000376,0.000002,0.006077,0.002883,0.193659,0.007309,0.176358,0.176358,0.173271,0.927266,0.000000,0.000000,0.000000,0.000000,0.000000,0.000000,0.000000,0.000000,0.000000,0.000000,0.000000,0.000000,0.187987,3,0
490000,-0.002890,12.454051,0.003266,-0.017820,25.122961,-0.003102,0.000338,0.002689,1.570415,-0.007365,0.000102,0.000204,-0.000006,-0.000422,0.000002,0.007682,0.002978,0.215131,0.034529,0.176062,0.176062,0.172634,0.921612,0.000000,0.000000,0.000000,0.000000,0.000000,0.000000,0.000000,0.000000,0.000000,0.000000,0.000000,0.000000,0.208838,3,0
500000,-0.002982,12.711031,0.004436,-0.018020,25.131397,-0.001742,0.000341,0.002899,1.570407,-0.007968,0.000112,0.000074,-0.000007,-0.000467,0.000002,0.006510,0.003072,0.196135,0.041955,0.175860,0.175860,0.172087,0.915783,0.000000,0.000000,0.000000,0.000000,0.000000,0.000000,0.000000,0.000000,0.000000,0.000000,0.000000,0.000000,0.190409,3,0
510000,-0.003073,12.966967,0.004982,-0.018255,25.138309,-0.001223,0.000342,0.003079,1.570396,-0.008468,0.000122,0.000011,-0.000008,-0.000505,0.000002,0.004090,0.003165,0.157740,0.019771,0.175745,0.175745,0.171622,0.909784,0.000000,0.000000,0.000000,0.000000,0.000000,0.000000,0.000000,0.000000,0.000000,0.000000,0.000000,0.000000,0.153150,3,0
520000,-0.003164,13.225952,0.006084,-0.018512,25.149769,0.000189,0.000353,0.003375,1.570391,-0.009317,0.000132,-0.000118,-0.000008,-0.000571,0.000002,0.011148,0.003259,0.259554,0.039036,0.175711,0.175711,0.171234,0.903620,0.000000,0.000000,0.000000,0.000000,0.000000,0.000000,0.000000,0.000000,0.000000,0.000000,0.000000,0.000000,0.251973,3,0
530000,-0.003254,13.483290,0.006134,-0.018656,25.158875,0.000032,0.000372,0.003610,1.570371,-0.009987,0.000143,-0.000124,-0.000009,-0.000624,0.000003,0.006425,0.003352,0.199242,0.001759,0.175752,0.175752,0.170914,0.897298,0.000000,0.000000,0.000000,0.000000,0.000000,0.000000,0.000000,0.000000,0.000000,0.000000,0.000000,0.000000,0.193433,3,0
540000,-0.003342,13.739584,0.006751,-0.018841,25.166267,0.000725,0.000389,0.003811,1.570370,-0.010543,0.000155,-0.000200,-0.000010,-0.000669,0.000003,0.004245,0.003443,0.160482,0.021747,0.175860,0.175861,0.170658,0.890824,0.000000,0.000000,0.000000,0.000000,0.000000,0.000000,0.000000,0.000000,0.000000,0.000000,0.000000,0.000000,0.155815,3,0
550000,-0.003431,13.998352,0.008043,-0.019083,25.177599,0.002591,0.000395,0.004118,1.570360,-0.011404,0.000168,-0.000363,-0.000011,-0.000740,0.000003,0.009811,0.003535,0.242054,0.045184,0.176032,0.176032,0.170460,0.884205,0.000000,0.000000,0.000000,0.000000,0.000000,0.000000,0.000000,0.000000,0.000000,0.000000,0.000000,0.000000,0.234977,3,0
560000,-0.003519,14.254893,0.007805,-0.019311,25.185373,0.002141,0.000397,0.004345,1.570347,-0.011996,0.000181,-0.000329,-0.000012,-0.000790,0.000003,0.004266,0.003626,0.162083,-0.009277,0.176261,0.176261,0.170314,0.877448,0.000000,0.000000,0.000000,0.000000,0.000000,0.000000,0.000000,0.000000,0.000000,0.000000,0.000000,0.000000,0.157360,3,0
570000,-0.003606,14.511574,0.008838,-0.019461,25.193382,0.003347,0.000404,0.004571,1.570347,-0.012610,0.000194,-0.000465,-0.000014,-0.000843,0.000003,0.004554,0.003716,0.163889,0.035702,0.176542,0.176542,0.170214,0.870559,0.000000,0.000000,0.000000,0.000000,0.000000,0.000000,0.000000,0.000000,0.000000,0.000000,0.000000,0.000000,0.159107,3,0
580000,-0.003693,14.768393,0.009690,-0.019695,25.201645,0.004560,0.000418,0.004803,1.570332,-0.013246,0.000209,-0.000578,-0.000015,-0.000899,0.000004,0.004571,0.003805,0.165553,0.028860,0.176870,0.176871,0.170157,0.863548,0.000000,0.000000,0.000000,0.000000,0.000000,0.000000,0.000000,0.000000,0.000000,0.000000,0.000000,0.000000,0.160716,3,0
590000,-0.003778,15.028285,0.008548,-0.019835,25.214798,0.002756,0.000434,0.005190,1.570322,-0.014294,0.000224,-0.000411,-0.000016,-0.000992,0.000004,0.011772,0.003893,0.266473,-0.041881,0.177241,0.177242,0.170138,0.856421,0.000000,0.000000,0.000000,0.000000,0.000000,0.000000,0.000000,0.000000,0.000000,0.000000,0.000000,0.000000,0.258629,3,0
600000,-0.003861,15.287104,0.008339,-0.019907,25.226133,0.002223,0.000456,0.005530,1.570319,-0.015200,0.000240,-0.000377,-0.000018,-0.001075,0.000004,0.008210,0.003979,0.225117,-0.008280,0.177651,0.177651,0.170152,0.849186,0.000000,0.000000,0.000000,0.000000,0.000000,0.000000,0.000000,0.000000,0.000000,0.000000,0.000000,0.000000,0.218486,3,0
610000,-0.003943,15.544268,0.007999,-0.019980,25.234682,0.001636,0.000473,0.005800,1.570314,-0.015879,0.000257,-0.000324,-0.000019,-0.001138,0.000005,0.004430,0.004063,0.164973,-0.012729,0.178095,0.178095,0.170195,0.841850,0.000000,0.000000,0.000000,0.000000,0.000000,0.000000,0.000000,0.000000,0.000000,0.000000,0.000000,0.000000,0.160125,3,0
620000,-0.004022,15.802156,0.008682,-0.020057,25.244450,0.002640,0.000489,0.006103,1.570313,-0.016662,0.000274,-0.000426,-0.000021,-0.001212,0.000005,0.005688,0.004145,0.186028,0.023461,0.178569,0.178569,0.170264,0.834423,0.000000,0.000000,0.000000,0.000000,0.000000,0.000000,0.000000,0.000000,0.000000,0.000000,0.000000,0.000000,0.180537,3,0
630000,-0.004099,16.058393,0.008188,-0.020162,25.251394,0.001687,0.000504,0.006326,1.570298,-0.017206,0.000292,-0.000346,-0.000023,-0.001265,0.000005,0.002658,0.004225,0.126831,-0.018269,0.179069,0.179070,0.170355,0.826912,0.000000,0.000000,0.000000,0.000000,0.000000,0.000000,0.000000,0.000000,0.000000,0.000000,0.000000,0.000000,0.123113,3,0
640000,-0.004176,16.318342,0.007743,-0.020318,25.264360,0.000964,0.000512,0.006744,1.570293,-0.018294,0.000311,-0.000273,-0.000024,-0.001372,0.000006,0.010008,0.004305,0.248224,-0.016278,0.179593,0.179593,0.170465,0.819326,0.000000,0.000000,0.000000,0.000000,0.000000,0.000000,0.000000,0.000000,0.000000,0.000000,0.000000,0.000000,0.240831,3,0
650000,-0.004251,16.574816,0.008629,-0.020427,25.271536,0.002123,0.000516,0.006976,1.570277,-0.018863,0.000330,-0.000415,-0.000026,-0.001429,0.000006,0.002777,0.004382,0.127296,0.030872,0.180136,0.180137,0.170591,0.811671,0.000000,0.000000,0.000000,0.000000,0.000000,0.000000,0.000000,0.000000,0.000000,0.000000,0.000000,0.000000,0.123547,3,0
660000,-0.004325,16.832027,0.009980,-0.020654,25.279722,0.004053,0.000521,0.007240,1.570271,-0.019541,0.000350,-0.000635,-0.000029,-0.001498,0.000006,0.003949,0.004460,0.149057,0.046770,0.180697,0.180697,0.170729,0.803957,0.000000,0.000000,0.000000,0.000000,0.000000,0.000000,0.000000,0.000000,0.000000,0.000000,0.000000,0.000000,0.144632,3,0
670000,-0.004399,17.090570,0.010463,-0.020868,25.290201,0.004606,0.000536,0.007603,1.570250,-0.020422,0.000371,-0.000710,-0.000031,-0.001590,0.000006,0.005874,0.004536,0.189947,0.015554,0.181271,0.181271,0.170877,0.796192,0.000000,0.000000,0.000000,0.000000,0.000000,0.000000,0.000000,0.000000,0.000000,0.000000,0.000000,0.000000,0.184260,3,0
680000,-0.004472,17.351639,0.010006,-0.021051,25.304871,0.003996,0.000557,0.008103,1.570229,-0.021692,0.000393,-0.000625,-0.000033,-0.001724,0.000007,0.011770,0.004612,0.269241,-0.017718,0.181856,0.181856,0.171033,0.788384,0.000000,0.000000,0.000000,0.000000,0.000000,0.000000,0.000000,0.000000,0.000000,0.000000,0.000000,0.000000,0.261120,3,0
690000,-0.004544,17.612194,0.010754,-0.021215,25.318590,0.005167,0.000580,0.008580,1.570214,-0.022875,0.000415,-0.000749,-0.000036,-0.001851,0.000007,0.009928,0.004687,0.246571,0.024757,0.182449,0.182450,0.171193,0.780540,0.000000,0.000000,0.000000,0.000000,0.000000,0.000000,0.000000,0.000000,0.000000,0.000000,0.000000,0.000000,0.239116,3,0
700000,-0.004614,17.871630,0.010683,-0.021251,25.330189,0.004792,0.000591,0.008993,1.570200,-0.023872,0.000438,-0.000728,-0.000038,-0.001961,0.000008,0.006767,0.004759,0.204546,-0.004243,0.183049,0.183050,0.171357,0.772668,0.000000,0.000000,0.000000,0.000000,0.000000,0.000000,0.000000,0.000000,0.000000,0.000000,0.000000,0.000000,0.198359,3,0
710000,-0.004683,18.129950,0.011818,-0.021434,25.339750,0.006561,0.000607,0.009328,1.570193,-0.024683,0.000461,-0.000925,-0.000041,-0.002051,0.000008,0.004565,0.004831,0.163662,0.037995,0.183653,0.183654,0.171522,0.764776,0.000000,0.000000,0.000000,0.000000,0.000000,0.000000,0.000000,0.000000,0.000000,0.000000,0.000000,0.000000,0.158722,3,0
720000,-0.004751,18.387774,0.012825,-0.021615,25.348448,0.007784,0.000629,0.009644,1.570189,-0.025405,0.000486,-0.001098,-0.000044,-0.002133,0.000009,0.003520,0.004901,0.143791,0.032939,0.184259,0.184259,0.171685,0.756872,0.000000,0.000000,0.000000,0.000000,0.000000,0.000000,0.000000,0.000000,0.000000,0.000000,0.000000,0.000000,0.139457,3,0
730000,-0.004817,18.648779,0.013604,-0.021707,25.362543,0.008740,0.000644,0.010165,1.570173,-0.026649,0.000511,-0.001230,-0.000047,-0.002277,0.000009,0.009695,0.004970,0.243700,0.024524,0.184865,0.184865,0.171846,0.748963,0.000000,0.000000,0.000000,0.000000,0.000000,0.000000,0.000000,0.000000,0.000000,0.000000,0.000000,0.000000,0.236240,3,0
740000,-0.004882,18.907406,0.014930,-0.021797,25.372271,0.010643,0.000651,0.010530,1.570156,-0.027484,0.000537,-0.001465,-0.000050,-0.002375,0.000009,0.004517,0.005038,0.161467,0.043178,0.185468,0.185469,0.172003,0.741055,0.000000,0.000000,0.000000,0.000000,0.000000,0.000000,0.000000,0.000000,0.000000,0.000000,0.000000,0.000000,0.156551,3,0
750000,-0.004945,19.166754,0.015116,-0.021898,25.383125,0.010681,0.000663,0.010932,1.570139,-0.028433,0.000563,-0.001482,-0.000053,-0.002488,0.000010,0.005299,0.005103,0.181046,0.002790,0.186069,0.186070,0.172154,0.733157,0.000000,0.000000,0.000000,0.000000,0.000000,0.000000,0.000000,0.000000,0.000000,0.000000,0.000000,0.000000,0.175500,3,0
760000,-0.005006,19.428053,0.014377,-0.021880,25.397291,0.009390,0.000689,0.011485,1.570125,-0.029707,0.000590,-0.001319,-0.000056,-0.002643,0.000011,0.009419,0.005167,0.239651,-0.029442,0.186665,0.186666,0.172299,0.725274,0.000000,0.000000,0.000000,0.000000,0.000000,0.000000,0.000000,0.000000,0.000000,0.000000,0.000000,0.000000,0.232249,3,0
770000,-0.005065,19.689425,0.015031,-0.021987,25.411530,0.010170,0.000708,0.012039,1.570108,-0.030979,0.000618,-0.001432,-0.000060,-0.002800,0.000011,0.009108,0.005229,0.236635,0.019534,0.187255,0.187256,0.172435,0.717413,0.000000,0.000000,0.000000,0.000000,0.000000,0.000000,0.000000,0.000000,0.000000,0.000000,0.000000,0.000000,0.229306,3,0
780000,-0.005124,19.948374,0.015465,-0.022099,25.421234,0.010435,0.000716,0.012411,1.570101,-0.031818,0.000647,-0.001500,-0.000063,-0.002906,0.000012,0.003857,0.005289,0.154032,0.011625,0.187837,0.187838,0.172563,0.709580,0.000000,0.000000,0.000000,0.000000,0.000000,0.000000,0.000000,0.000000,0.000000,0.000000,0.000000,0.000000,0.149298,3,0
790000,-0.005181,20.208666,0.015097,-0.022179,25.433203,0.009715,0.000733,0.012887,1.570087,-0.032882,0.000676,-0.001406,-0.000067,-0.003041,0.000012,0.006072,0.005348,0.193167,-0.016390,0.188412,0.188412,0.172680,0.701782,0.000000,0.000000,0.000000,0.000000,0.000000,0.000000,0.000000,0.000000,0.000000,0.000000,0.000000,0.000000,0.187173,3,0
800000,-0.005234,20.470285,0.016252,-0.022126,25.447445,0.011264,0.000743,0.013449,1.570065,-0.034167,0.000706,-0.001626,-0.000071,-0.003208,0.000013,0.008832,0.005405,0.230940,0.036745,0.188977,0.188977,0.172786,0.694024,0.000000,0.000000,0.000000,0.000000,0.000000,0.000000,0.000000,0.000000,0.000000,0.000000,0.000000,0.000000,0.223728,3,0
810000,-0.005287,20.731964,0.015796,-0.022224,25.461454,0.010491,0.000752,0.014023,1.570042,-0.035448,0.000736,-0.001510,-0.000075,-0.003377,0.000013,0.008429,0.005460,0.227606,-0.019749,0.189531,0.189532,0.172881,0.686312,0.000000,0.000000,0.000000,0.000000,0.000000,0.000000,0.000000,0.000000,0.000000,0.000000,0.000000,0.000000,0.220479,3,0
820000,-0.005338,20.993696,0.016861,-0.022264,25.475430,0.012006,0.000768,0.014598,1.570031,-0.036722,0.000767,-0.001715,-0.000079,-0.003548,0.000014,0.008297,0.005513,0.224211,0.033276,0.190075,0.190076,0.172964,0.678651,0.000000,0.000000,0.000000,0.000000,0.000000,0.000000,0.000000,0.000000,0.000000,0.000000,0.000000,0.000000,0.217173,3,0
830000,-0.005388,21.254217,0.017483,-0.022365,25.487089,0.012689,0.000779,0.015071,1.570009,-0.037761,0.000799,-0.001824,-0.000084,-0.003690,0.000015,0.005341,0.005565,0.181005,0.017432,0.190608,0.190608,0.173034,0.671045,0.000000,0.000000,0.000000,0.000000,0.000000,0.000000,0.000000,0.000000,0.000000,0.000000,0.000000,0.000000,0.175338,3,0
840000,-0.005436,21.512899,0.018067,-0.022407,25.495375,0.013336,0.000804,0.015404,1.569998,-0.038451,0.000831,-0.001925,-0.000088,-0.003786,0.000015,0.002337,0.005615,0.119158,0.015880,0.191128,0.191129,0.173092,0.663501,0.000000,0.000000,0.000000,0.000000,0.000000,0.000000,0.000000,0.000000,0.000000,0.000000,0.000000,0.000000,0.115490,3,0
850000,-0.005483,21.774204,0.018249,-0.022463,25.508280,0.013425,0.000832,0.015951,1.569977,-0.039611,0.000864,-0.001938,-0.000093,-0.003949,0.000016,0.006352,0.005664,0.198332,0.001691,0.191636,0.191637,0.173135,0.656021,0.000000,0.000000,0.000000,0.000000,0.000000,0.000000,0.000000,0.000000,0.000000,0.000000,0.000000,0.000000,0.192076,3,0
860000,-0.005528,22.034286,0.018918,-0.022481,25.518856,0.014144,0.000846,0.016399,1.569972,-0.040528,0.000897,-0.002059,-0.000098,-0.004080,0.000016,0.003965,0.005711,0.155565,0.018561,0.192132,0.192132,0.173165,0.648611,0.000000,0.000000,0.000000,0.000000,0.000000,0.000000,0.000000,0.000000,0.000000,0.000000,0.000000,0.000000,0.150685,3,0
870000,-0.005572,22.295708,0.018282,-0.022546,25.531576,0.012905,0.000868,0.016955,1.569963,-0.041679,0.000931,-0.001888,-0.000102,-0.004247,0.000017,0.006166,0.005756,0.193560,-0.026859,0.192614,0.192614,0.173181,0.641274,0.000000,0.000000,0.000000,0.000000,0.000000,0.000000,0.000000,0.000000,0.000000,0.000000,0.000000,0.000000,0.187428,3,0
880000,-0.005614,22.555891,0.016674,-0.022467,25.541994,0.010237,0.000895,0.017396,1.569958,-0.042583,0.000966,-0.001497,-0.000107,-0.004381,0.000018,0.004253,0.005800,0.150681,-0.060108,0.193083,0.193083,0.173183,0.634013,0.000000,0.000000,0.000000,0.000000,0.000000,0.000000,0.000000,0.000000,0.000000,0.000000,0.000000,0.000000,0.145940,3,0
890000,-0.005652,22.818054,0.017775,-0.022367,25.555733,0.011532,0.000925,0.018011,1.569942,-0.043840,0.001000,-0.001730,-0.000113,-0.004570,0.000018,0.007209,0.005841,0.208454,0.034690,0.193538,0.193539,0.173170,0.626833,0.000000,0.000000,0.000000,0.000000,0.000000,0.000000,0.000000,0.000000,0.000000,0.000000,0.000000,0.000000,0.201810,3,0
900000,-0.005690,23.079603,0.016580,-0.022374,25.568304,0.009682,0.000943,0.018564,1.569931,-0.044964,0.001036,-0.001429,-0.000118,-0.004741,0.000019,0.005841,0.005879,0.184700,-0.045409,0.193980,0.193981,0.173144,0.619737,0.000000,0.000000,0.000000,0.000000,0.000000,0.000000,0.000000,0.000000,0.000000,0.000000,0.000000,0.000000,0.178819,3,0
910000,-0.005724,23.340544,0.015768,-0.022255,25.579624,0.008217,0.000957,0.019061,1.569921,-0.045953,0.001072,-0.001220,-0.000123,-0.004894,0.000020,0.004375,0.005916,0.161572,-0.031406,0.194409,0.194409,0.173103,0.612727,0.000000,0.000000,0.000000,0.000000,0.000000,0.000000,0.000000,0.000000,0.000000,0.000000,0.000000,0.000000,0.156441,3,0
920000,-0.005757,23.602169,0.014233,-0.022178,25.592064,0.005899,0.000979,0.019615,1.569903,-0.047055,0.001109,-0.000841,-0.000129,-0.005067,0.000020,0.005670,0.005950,0.178820,-0.056009,0.194824,0.194824,0.173048,0.605806,0.000000,0.000000,0.000000,0.000000,0.000000,0.000000,0.000000,0.000000,0.000000,0.000000,0.000000,0.000000,0.173109,3,0
930000,-0.005787,23.864470,0.014394,-0.022113,25.605499,0.006086,0.001010,0.020232,1.569880,-0.048266,0.001145,-0.000869,-0.000135,-0.005261,0.000021,0.006163,0.005982,0.195377,0.003555,0.195226,0.195226,0.172979,0.598977,0.000000,0.000000,0.000000,0.000000,0.000000,0.000000,0.000000,0.000000,0.000000,0.000000,0.000000,0.000000,0.189109,3,0
940000,-0.005815,24.124842,0.014561,-0.022002,25.615309,0.006306,0.001037,0.020671,1.569866,-0.049087,0.001182,-0.000898,-0.000141,-0.005394,0.000022,0.002806,0.006011,0.131733,0.003697,0.195615,0.195615,0.172896,0.592242,0.000000,0.000000,0.000000,0.000000,0.000000,0.000000,0.000000,0.000000,0.000000,0.000000,0.000000,0.000000,0.127570,3,0
950000,-0.005840,24.386553,0.015012,-0.021918,25.627394,0.006788,0.001056,0.021235,1.569857,-0.050148,0.001220,-0.000997,-0.000147,-0.005569,0.000022,0.004665,0.006037,0.169445,0.013547,0.195990,0.195990,0.172800,0.585602,0.000000,0.000000,0.000000,0.000000,0.000000,0.000000,0.000000,0.000000,0.000000,0.000000,0.000000,0.000000,0.164014,3,0
960000,-0.005864,24.646984,0.014249,-0.021816,25.637091,0.005463,0.001083,0.021672,1.569846,-0.050944,0.001258,-0.000796,-0.000153,-0.005702,0.000023,0.002711,0.006061,0.126280,-0.028755,0.196354,0.196353,0.172689,0.579060,0.000000,0.000000,0.000000,0.000000,0.000000,0.000000,0.000000,0.000000,0.000000,0.000000,0.000000,0.000000,0.122287,3,0
970000,-0.005885,24.906147,0.013486,-0.021654,25.644497,0.004123,0.001117,0.021997,1.569844,-0.051479,0.001296,-0.000594,-0.000160,-0.005793,0.000023,0.001285,0.006084,0.084419,-0.028353,0.196704,0.196704,0.172566,0.572617,0.000000,0.000000,0.000000,0.000000,0.000000,0.000000,0.000000,0.000000,0.000000,0.000000,0.000000,0.000000,0.081863,3,0
980000,-0.005904,25.165363,0.013747,-0.021651,25.651922,0.004245,0.001147,0.022320,1.569826,-0.052011,0.001335,-0.000653,-0.000166,-0.005884,0.000024,0.001142,0.006105,0.083605,0.007751,0.197042,0.197042,0.172430,0.566275,0.000000,0.000000,0.000000,0.000000,0.000000,0.000000,0.000000,0.000000,0.000000,0.000000,0.000000,0.000000,0.081075,3,0
990000,-0.005922,25.426592,0.013661,-0.021595,25.662725,0.004077,0.001170,0.022835,1.569823,-0.052920,0.001374,-0.000624,-0.000173,-0.006043,0.000024,0.003277,0.006124,0.142378,-0.004404,0.197369,0.197369,0.172281,0.560035,0.000000,0.000000,0.000000,0.000000,0.000000,0.000000,0.000000,0.000000,0.000000,0.000000,0.000000,0.000000,0.137821,3,0
1000000,-0.005938,25.687183,0.014604,-0.021519,25.672216,0.005407,0.001199,0.023282,1.569818,-0.053686,0.001413,-0.000860,-0.000180,-0.006179,0.000025,0.002472,0.006141,0.119589,0.031489,0.197684,0.197683,0.172119,0.553897,0.000000,0.000000,0.000000,0.000000,0.000000,0.000000,0.000000,0.000000,0.000000,0.000000,0.000000,0.000000,0.115803,3,0
1010000,-0.005953,25.949772,0.013532,-0.021383,25.685120,0.003644,0.001232,0.023926,1.569814,-0.054826,0.001452,-0.000574,-0.000187,-0.006385,0.000026,0.005301,0.006155,0.176966,-0.039115,0.197988,0.197987,0.171946,0.547863,0.000000,0.000000,0.000000,0.000000,0.000000,0.000000,0.000000,0.000000,0.000000,0.000000,0.000000,0.000000,0.171229,3,0
1020000,-0.005966,26.212357,0.012805,-0.021284,25.697805,0.002567,0.001251,0.024560,1.569794,-0.055941,0.001492,-0.000381,-0.000194,-0.006589,0.000026,0.004925,0.006169,0.172670,-0.026575,0.198281,0.198280,0.171761,0.541933,0.000000,0.000000,0.000000,0.000000,0.000000,0.000000,0.000000,0.000000,0.000000,0.000000,0.000000,0.000000,0.167070,3,0
1030000,-0.005977,26.472963,0.011735,-0.021148,25.707010,0.000846,0.001287,0.024994,1.569773,-0.056647,0.001532,-0.000096,-0.000202,-0.006721,0.000027,0.002148,0.006181,0.108746,-0.038168,0.198564,0.198563,0.171564,0.536108,0.000000,0.000000,0.000000,0.000000,0.000000,0.000000,0.000000,0.000000,0.000000,0.000000,0.000000,0.000000,0.105316,3,0
1040000,-0.005985,26.731613,0.011932,-0.020965,25.712492,0.001169,0.001313,0.025230,1.569756,-0.056951,0.001572,-0.000148,-0.000209,-0.006778,0.000027,0.000367,0.006190,0.046839,0.006630,0.198837,0.198836,0.171357,0.530388,0.000000,0.000000,0.000000,0.000000,0.000000,0.000000,0.000000,0.000000,0.000000,0.000000,0.000000,0.000000,0.045680,3,0
1050000,-0.005990,26.994270,0.013177,-0.020808,25.725130,0.002788,0.001337,0.025861,1.569738,-0.058030,0.001611,-0.000487,-0.000217,-0.006984,0.000028,0.004742,0.006197,0.165833,0.043380,0.199101,0.199100,0.171139,0.524773,0.000000,0.000000,0.000000,0.000000,0.000000,0.000000,0.000000,0.000000,0.000000,0.000000,0.000000,0.000000,0.160442,3,0
1060000,-0.005995,27.257576,0.013945,-0.020719,25.738569,0.003808,0.001372,0.026555,1.569717,-0.059214,0.001651,-0.000696,-0.000225,-0.007214,0.000029,0.005416,0.006201,0.181353,0.026115,0.199356,0.199354,0.170911,0.519264,0.000000,0.000000,0.000000,0.000000,0.000000,0.000000,0.000000,0.000000,0.000000,0.000000,0.000000,0.000000,0.175430,3,0
1070000,-0.005998,27.517551,0.013166,-0.020589,25.746124,0.002623,0.001396,0.026900,1.569707,-0.059719,0.001692,-0.000476,-0.000233,-0.007314,0.000029,0.001093,0.006204,0.076944,-0.028618,0.199602,0.199600,0.170673,0.513860,0.000000,0.000000,0.000000,0.000000,0.000000,0.000000,0.000000,0.000000,0.000000,0.000000,0.000000,0.000000,0.074626,3,0
1080000,-0.006000,27.776228,0.012953,-0.020508,25.751270,0.002356,0.001425,0.027104,1.569706,-0.059953,0.001733,-0.000411,-0.000241,-0.007361,0.000029,0.000221,0.006207,0.035563,-0.008432,0.199840,0.199838,0.170426,0.508561,0.000000,0.000000,0.000000,0.000000,0.000000,0.000000,0.000000,0.000000,0.000000,0.000000,0.000000,0.000000,0.034898,3,0
1090000,-0.006002,28.037600,0.012218,-0.020419,25.761057,0.001214,0.001447,0.027596,1.569691,-0.060708,0.001773,-0.000205,-0.000249,-0.007514,0.000030,0.002243,0.006208,0.114773,-0.026581,0.200071,0.200068,0.170170,0.503367,0.000000,0.000000,0.000000,0.000000,0.000000,0.000000,0.000000,0.000000,0.000000,0.000000,0.000000,0.000000,0.111107,3,0
1100000,-0.006002,28.300962,0.011269,-0.020312,25.774204,-0.000340,0.001480,0.028290,1.569673,-0.061837,0.001814,0.000056,-0.000257,-0.007747,0.000031,0.004921,0.006208,0.171368,-0.033677,0.200294,0.200291,0.169905,0.498278,0.000000,0.000000,0.000000,0.000000,0.000000,0.000000,0.000000,0.000000,0.000000,0.000000,0.000000,0.000000,0.165754,3,0
1110000,-0.005999,28.561636,0.011756,-0.020153,25.782457,0.000076,0.001518,0.028694,1.569658,-0.062408,0.001854,-0.000089,-0.000266,-0.007867,0.000032,0.001269,0.006207,0.086782,0.017548,0.200510,0.200507,0.169632,0.493292,0.000000,0.000000,0.000000,0.000000,0.000000,0.000000,0.000000,0.000000,0.000000,0.000000,0.000000,0.000000,0.084098,3,0
1120000,-0.005996,28.820324,0.012411,-0.020078,25.787207,0.001034,0.001548,0.028875,1.569643,-0.062571,0.001895,-0.000277,-0.000275,-0.007901,0.000032,0.000192,0.006204,0.024815,0.023147,0.200720,0.200717,0.169351,0.488410,0.000000,0.000000,0.000000,0.000000,0.000000,0.000000,0.000000,0.000000,0.000000,0.000000,0.000000,0.000000,0.024723,3,0
1130000,-0.005993,29.081715,0.011215,-0.019993,25.796669,-0.000796,0.001576,0.029343,1.569640,-0.063260,0.001936,0.000064,-0.000283,-0.008050,0.000032,0.002043,0.006199,0.104017,-0.042599,0.200925,0.200921,0.169063,0.483631,0.000000,0.000000,0.000000,0.000000,0.000000,0.000000,0.000000,0.000000,0.000000,0.000000,0.000000,0.000000,0.100711,3,0
1140000,-0.005986,29.339767,0.012171,-0.019804,25.800177,0.000482,0.001618,0.029424,1.569632,-0.063269,0.001977,-0.000217,-0.000292,-0.008051,0.000032,0.000197,0.006194,0.001564,0.034278,0.201124,0.201120,0.168769,0.478954,0.000000,0.000000,0.000000,0.000000,0.000000,0.000000,0.000000,0.000000,0.000000,0.000000,0.000000,0.000000,0.006174,3,0
1150000,-0.005979,29.603203,0.011595,-0.019612,25.813103,-0.000424,0.001646,0.030127,1.569610,-0.064334,0.002017,-0.000057,-0.000301,-0.008288,0.000033,0.004245,0.006186,0.160934,-0.020418,0.201318,0.201313,0.168467,0.474378,0.000000,0.000000,0.000000,0.000000,0.000000,0.000000,0.000000,0.000000,0.000000,0.000000,0.000000,0.000000,0.155650,3,0
1160000,-0.005971,29.861261,0.010261,-0.019491,25.816402,-0.002406,0.001676,0.030205,1.569595,-0.064314,0.002059,0.000337,-0.000310,-0.008284,0.000033,0.000371,0.006177,-0.003237,-0.047364,0.201507,0.201502,0.168160,0.469902,0.000000,0.000000,0.000000,0.000000,0.000000,0.000000,0.000000,0.000000,0.000000,0.000000,0.000000,0.000000,0.006741,3,0
1170000,-0.005961,30.121370,0.009136,-0.019349,25.823296,-0.003845,0.001716,0.030511,1.569585,-0.064691,0.002100,0.000662,-0.000319,-0.008370,0.000034,0.000774,0.006168,0.056734,-0.039271,0.201692,0.201687,0.167846,0.465526,0.000000,0.000000,0.000000,0.000000,0.000000,0.000000,0.000000,0.000000,0.000000,0.000000,0.000000,0.000000,0.055148,3,0
1180000,-0.005949,30.380819,0.009127,-0.019159,25.828884,-0.003749,0.001740,0.030741,1.569575,-0.064924,0.002140,0.000651,-0.000329,-0.008424,0.000034,0.000205,0.006156,0.035105,0.001074,0.201873,0.201868,0.167528,0.461247,0.000000,0.000000,0.000000,0.000000,0.000000,0.000000,0.000000,0.000000,0.000000,0.000000,0.000000,0.000000,0.034442,3,0
1190000,-0.005937,30.644308,0.008500,-0.019076,25.841566,-0.004723,0.001774,0.031445,1.569569,-0.065938,0.002181,0.000818,-0.000338,-0.008663,0.000035,0.003861,0.006144,0.153296,-0.020808,0.202052,0.202046,0.167204,0.457066,0.000000,0.000000,0.000000,0.000000,0.000000,0.000000,0.000000,0.000000,0.000000,0.000000,0.000000,0.000000,0.148251,3,0
1200000,-0.005925,30.903734,0.007102,-0.018945,25.846848,-0.006679,0.001814,0.031662,1.569566,-0.066131,0.002221,0.001229,-0.000347,-0.008709,0.000035,0.000520,0.006130,0.028835,-0.048436,0.202227,0.202220,0.166876,0.452980,0.000000,0.000000,0.000000,0.000000,0.000000,0.000000,0.000000,0.000000,0.000000,0.000000,0.000000,0.000000,0.028484,3,0
1210000,-0.005910,31.165190,0.006411,-0.018766,25.855686,-0.007662,0.001846,0.032103,1.569551,-0.066709,0.002262,0.001414,-0.000357,-0.008849,0.000035,0.001317,0.006116,0.087418,-0.022259,0.202399,0.202392,0.166543,0.448989,0.000000,0.000000,0.000000,0.000000,0.000000,0.000000,0.000000,0.000000,0.000000,0.000000,0.000000,0.000000,0.084673,3,0
1220000,-0.005894,31.424618,0.005302,-0.018592,25.860704,-0.009273,0.001886,0.032299,1.569548,-0.066873,0.002302,0.001733,-0.000367,-0.008890,0.000036,0.000328,0.006100,0.024664,-0.037145,0.202569,0.202562,0.166207,0.445092,0.000000,0.000000,0.000000,0.000000,0.000000,0.000000,0.000000,0.000000,0.000000,0.000000,0.000000,0.000000,0.024547,3,0
1230000,-0.005876,31.686745,0.005525,-0.018390,25.870565,-0.009185,0.001923,0.032811,1.569541,-0.067552,0.002342,0.001624,-0.000377,-0.009059,0.000036,0.001741,0.006082,0.103127,0.011750,0.202737,0.202730,0.165867,0.441287,0.000000,0.000000,0.000000,0.000000,0.000000,0.000000,0.000000,0.000000,0.000000,0.000000,0.000000,0.000000,0.099817,3,0
1240000,-0.005856,31.950191,0.005542,-0.018160,25.882572,-0.009201,0.001954,0.033485,1.569523,-0.068467,0.002381,0.001576,-0.000387,-0.009290,0.000037,0.003124,0.006061,0.139084,0.004330,0.202904,0.202896,0.165524,0.437573,0.000000,0.000000,0.000000,0.000000,0.000000,0.000000,0.000000,0.000000,0.000000,0.000000,0.000000,0.000000,0.134508,3,0
1250000,-0.005834,32.208206,0.006813,-0.017988,25.884861,-0.007520,0.001998,0.033466,1.569523,-0.068300,0.002420,0.001143,-0.000397,-0.009247,0.000037,0.000504,0.006040,-0.025089,0.049484,0.203069,0.203060,0.165178,0.433949,0.000000,0.000000,0.000000,0.000000,0.000000,0.000000,0.000000,0.000000,0.000000,0.000000,0.000000,0.000000,0.024931,3,0
1260000,-0.005812,32.471642,0.005883,-0.017725,25.896637,-0.008704,0.002036,0.034142,1.569503,-0.069183,0.002460,0.001404,-0.000407,-0.009476,0.000038,0.003065,0.006015,0.134335,-0.030760,0.203233,0.203224,0.164829,0.430412,0.000000,0.000000,0.000000,0.000000,0.000000,0.000000,0.000000,0.000000,0.000000,0.000000,0.000000,0.000000,0.129914,3,0
1270000,-0.005789,32.731659,0.004740,-0.017513,25.902222,-0.010118,0.002070,0.034372,1.569489,-0.069380,0.002499,0.001744,-0.000417,-0.009529,0.000038,0.000388,0.005991,0.029808,-0.038433,0.203397,0.203387,0.164478,0.426963,0.000000,0.000000,0.000000,0.000000,0.000000,0.000000,0.000000,0.000000,0.000000,0.000000,0.000000,0.000000,0.029369,3,0
1280000,-0.005762,32.994370,0.005317,-0.017305,25.912510,-0.009580,0.002100,0.034940,1.569488,-0.070082,0.002538,0.001509,-0.000428,-0.009716,0.000039,0.001976,0.005965,0.107677,0.025225,0.203560,0.203549,0.164125,0.423600,0.000000,0.000000,0.000000,0.000000,0.000000,0.000000,0.000000,0.000000,0.000000,0.000000,0.000000,0.000000,0.104186,3,0
1290000,-0.005735,33.256363,0.005838,-0.017110,25.921440,-0.009120,0.002142,0.035403,1.569469,-0.070624,0.002576,0.001295,-0.000438,-0.009863,0.000040,0.001211,0.005937,0.083412,0.022936,0.203723,0.203712,0.163771,0.420320,0.000000,0.000000,0.000000,0.000000,0.000000,0.000000,0.000000,0.000000,0.000000,0.000000,0.000000,0.000000,0.080785,3,0
1300000,-0.005707,33.518322,0.006911,-0.017015,25.930275,-0.008008,0.002184,0.035866,1.569457,-0.071140,0.002613,0.000898,-0.000449,-0.010005,0.000040,0.001331,0.005909,0.079750,0.043124,0.203886,0.203874,0.163415,0.417124,0.000000,0.000000,0.000000,0.000000,0.000000,0.000000,0.000000,0.000000,0.000000,0.000000,0.000000,0.000000,0.077257,3,0
1310000,-0.005678,33.777550,0.007149,-0.016790,25.934204,-0.007623,0.002230,0.035953,1.569445,-0.071117,0.002651,0.000792,-0.000460,-0.009998,0.000040,0.000030,0.005878,-0.003391,0.011675,0.204049,0.204036,0.163058,0.414010,0.000000,0.000000,0.000000,0.000000,0.000000,0.000000,0.000000,0.000000,0.000000,0.000000,0.000000,0.000000,0.006554,3,0
1320000,-0.005649,34.036118,0.006300,-0.016611,25.936790,-0.008681,0.002265,0.035957,1.569448,-0.070963,0.002689,0.001056,-0.000470,-0.009955,0.000040,0.000231,0.005848,-0.024109,-0.028527,0.204213,0.204199,0.162701,0.410975,0.000000,0.000000,0.000000,0.000000,0.000000,0.000000,0.000000,0.000000,0.000000,0.000000,0.000000,0.000000,0.023968,3,0
1330000,-0.005618,34.294697,0.006771,-0.016391,25.939310,-0.008083,0.002302,0.035946,1.569433,-0.070805,0.002727,0.000869,-0.000481,-0.009909,0.000040,0.000169,0.005817,-0.024273,0.020569,0.204377,0.204363,0.162342,0.408017,0.000000,0.000000,0.000000,0.000000,0.000000,0.000000,0.000000,0.000000,0.000000,0.000000,0.000000,0.000000,0.024109,3,0
1340000,-0.005586,34.557362,0.006865,-0.016154,25.949198,-0.007913,0.002344,0.036480,1.569426,-0.071414,0.002763,0.000796,-0.000492,-0.010087,0.000041,0.001460,0.005783,0.094822,0.006820,0.204543,0.204528,0.161984,0.405138,0.000000,0.000000,0.000000,0.000000,0.000000,0.000000,0.000000,0.000000,0.000000,0.000000,0.000000,0.000000,0.091761,3,0
1350000,-0.005552,34.816589,0.007319,-0.015965,25.952684,-0.007329,0.002375,0.036537,1.569424,-0.071356,0.002800,0.000613,-0.000503,-0.010069,0.000041,0.000082,0.005749,-0.008911,0.019775,0.204709,0.204693,0.161625,0.402333,0.000000,0.000000,0.000000,0.000000,0.000000,0.000000,0.000000,0.000000,0.000000,0.000000,0.000000,0.000000,0.010242,3,0
1360000,-0.005517,35.078537,0.008010,-0.015716,25.960957,-0.006603,0.002407,0.036977,1.569412,-0.071799,0.002835,0.000337,-0.000514,-0.010202,0.000041,0.000923,0.005713,0.069767,0.028789,0.204877,0.204860,0.161267,0.399602,0.000000,0.000000,0.000000,0.000000,0.000000,0.000000,0.000000,0.000000,0.000000,0.000000,0.000000,0.000000,0.067612,3,0
1370000,-0.005481,35.340446,0.008254,-0.015483,25.969231,-0.006232,0.002449,0.037395,1.569406,-0.072219,0.002871,0.000219,-0.000525,-0.010329,0.000042,0.000732,0.005676,0.066162,0.011800,0.205045,0.205028,0.160909,0.396945,0.000000,0.000000,0.000000,0.000000,0.000000,0.000000,0.000000,0.000000,0.000000,0.000000,0.000000,0.000000,0.064138,3,0
1380000,-0.005444,35.598919,0.009286,-0.015314,25.971220,-0.005074,0.002485,0.037325,1.569399,-0.071983,0.002906,-0.000162,-0.000536,-0.010256,0.000041,0.000493,0.005638,-0.036800,0.040812,0.205216,0.205198,0.160551,0.394358,0.000000,0.000000,0.000000,0.000000,0.000000,0.000000,0.000000,0.000000,0.000000,0.000000,0.000000,0.000000,0.035952,3,0
1390000,-0.005407,35.858768,0.009820,-0.015192,25.975616,-0.004292,0.002533,0.037447,1.569396,-0.072000,0.002941,-0.000370,-0.000547,-0.010260,0.000041,0.000084,0.005600,0.002892,0.021905,0.205388,0.205369,0.160195,0.391841,0.000000,0.000000,0.000000,0.000000,0.000000,0.000000,0.000000,0.000000,0.000000,0.000000,0.000000,0.000000,0.006088,3,0
1400000,-0.005370,36.118610,0.010790,-0.015060,25.979866,-0.003307,0.002564,0.037555,1.569381,-0.072007,0.002975,-0.000734,-0.000559,-0.010262,0.000041,0.000241,0.005561,0.001427,0.038130,0.205562,0.205542,0.159840,0.389392,0.000000,0.000000,0.000000,0.000000,0.000000,0.000000,0.000000,0.000000,0.000000,0.000000,0.000000,0.000000,0.005545,3,0
1410000,-0.005334,36.376411,0.009487,-0.014871,25.980539,-0.004877,0.002610,0.037380,1.569367,-0.071637,0.003011,-0.000266,-0.000570,-0.010144,0.000041,0.000953,0.005522,-0.059673,-0.048058,0.205737,0.205716,0.159485,0.387010,0.000000,0.000000,0.000000,0.000000,0.000000,0.000000,0.000000,0.000000,0.000000,0.000000,0.000000,0.000000,0.057879,3,0
1420000,-0.005296,36.639694,0.008617,-0.014651,25.990993,-0.006242,0.002648,0.037985,1.569361,-0.072260,0.003045,0.000014,-0.000581,-0.010348,0.000042,0.001763,0.005484,0.099976,-0.030363,0.205914,0.205892,0.159132,0.384694,0.000000,0.000000,0.000000,0.000000,0.000000,0.000000,0.000000,0.000000,0.000000,0.000000,0.000000,0.000000,0.096688,3,0
1430000,-0.005256,36.902225,0.009075,-0.014361,25.999899,-0.005965,0.002687,0.038473,1.569361,-0.072723,0.003078,-0.000191,-0.000592,-0.010502,0.000043,0.000979,0.005443,0.075138,0.020159,0.206093,0.206070,0.158781,0.382441,0.000000,0.000000,0.000000,0.000000,0.000000,0.000000,0.000000,0.000000,0.000000,0.000000,0.000000,0.000000,0.072749,3,0
1440000,-0.005215,37.163345,0.007709,-0.014050,26.006132,-0.007877,0.002720,0.038748,1.569352,-0.072918,0.003112,0.000284,-0.000603,-0.010568,0.000043,0.000554,0.005400,0.031189,-0.049213,0.206274,0.206250,0.158432,0.380250,0.000000,0.000000,0.000000,0.000000,0.000000,0.000000,0.000000,0.000000,0.000000,0.000000,0.000000,0.000000,0.030558,3,0
1450000,-0.005174,37.421700,0.006528,-0.013903,26.007336,-0.009246,0.002749,0.038599,1.569348,-0.072609,0.003146,0.000702,-0.000614,-0.010464,0.000042,0.000712,0.005357,-0.051086,-0.042085,0.206456,0.206431,0.158084,0.378120,0.000000,0.000000,0.000000,0.000000,0.000000,0.000000,0.000000,0.000000,0.000000,0.000000,0.000000,0.000000,0.049606,3,0
1460000,-0.005131,37.679379,0.005786,-0.013625,26.007240,-0.010118,0.002794,0.038340,1.569351,-0.072179,0.003179,0.000958,-0.000625,-0.010315,0.000042,0.000915,0.005314,-0.070904,-0.025043,0.206641,0.206615,0.157739,0.376050,0.000000,0.000000,0.000000,0.000000,0.000000,0.000000,0.000000,0.000000,0.000000,0.000000,0.000000,0.000000,0.068658,3,0
1470000,-0.005086,37.938438,0.006313,-0.013405,26.009556,-0.009535,0.002833,0.038286,1.569340,-0.071994,0.003210,0.000727,-0.000636,-0.010249,0.000042,0.000245,0.005269,-0.030399,0.023826,0.206827,0.206800,0.157396,0.374038,0.000000,0.000000,0.000000,0.000000,0.000000,0.000000,0.000000,0.000000,0.000000,0.000000,0.000000,0.000000,0.029784,3,0
1480000,-0.005042,38.196823,0.005818,-0.013183,26.010679,-0.010169,0.002875,0.038127,1.569337,-0.071689,0.003242,0.000888,-0.000647,-0.010141,0.000041,0.000461,0.005222,-0.050938,-0.015516,0.207016,0.206988,0.157055,0.372082,0.000000,0.000000,0.000000,0.000000,0.000000,0.000000,0.000000,0.000000,0.000000,0.000000,0.000000,0.000000,0.049441,3,0
1490000,-0.004996,38.460018,0.005294,-0.012915,26.020391,-0.010883,0.002912,0.038696,1.569323,-0.072217,0.003273,0.001031,-0.000658,-0.010333,0.000042,0.001297,0.005174,0.088249,-0.015581,0.207206,0.207177,0.156717,0.370182,0.000000,0.000000,0.000000,0.000000,0.000000,0.000000,0.000000,0.000000,0.000000,0.000000,0.000000,0.000000,0.085348,3,0
1500000,-0.004948,38.719707,0.005478,-0.012642,26.023689,-0.010490,0.002949,0.038725,1.569321,-0.072121,0.003303,0.000922,-0.000670,-0.010297,0.000042,0.000066,0.005125,-0.016014,0.011141,0.207398,0.207368,0.156381,0.368336,0.000000,0.000000,0.000000,0.000000,0.000000,0.000000,0.000000,0.000000,0.000000,0.000000,0.000000,0.000000,0.016230,3,0
1510000,-0.004899,38.978012,0.005598,-0.012368,26.024429,-0.010201,0.002989,0.038518,1.569322,-0.071785,0.003333,0.000847,-0.000681,-0.010171,0.000042,0.000539,0.005075,-0.057072,0.008268,0.207592,0.207561,0.156048,0.366543,0.000000,0.000000,0.000000,0.000000,0.000000,0.000000,0.000000,0.000000,0.000000,0.000000,0.000000,0.000000,0.055313,3,0
1520000,-0.004849,39.236320,0.006423,-0.012102,26.025110,-0.009245,0.003025,0.038315,1.569309,-0.071449,0.003362,0.000499,-0.000692,-0.010043,0.000041,0.000729,0.005023,-0.056957,0.035397,0.207788,0.207755,0.155718,0.364801,0.000000,0.000000,0.000000,0.000000,0.000000,0.000000,0.000000,0.000000,0.000000,0.000000,0.000000,0.000000,0.055191,3,0
1530000,-0.004799,39.496029,0.005739,-0.011886,26.028404,-0.010273,0.003054,0.038331,1.569306,-0.071352,0.003392,0.000733,-0.000703,-0.010006,0.000041,0.000136,0.004970,-0.017090,-0.022824,0.207985,0.207952,0.155391,0.363110,0.000000,0.000000,0.000000,0.000000,0.000000,0.000000,0.000000,0.000000,0.000000,0.000000,0.000000,0.000000,0.017186,3,0
1540000,-0.004749,39.754345,0.004574,-0.011671,26.029072,-0.011714,0.003094,0.038132,1.569298,-0.071020,0.003421,0.001165,-0.000714,-0.009878,0.000041,0.000827,0.004919,-0.058159,-0.041442,0.208184,0.208149,0.155067,0.361467,0.000000,0.000000,0.000000,0.000000,0.000000,0.000000,0.000000,0.000000,0.000000,0.000000,0.000000,0.000000,0.056349,3,0
1550000,-0.004697,40.014729,0.005123,-0.011444,26.033504,-0.011127,0.003142,0.038245,1.569287,-0.071027,0.003448,0.000900,-0.000725,-0.009880,0.000041,0.000113,0.004867,0.001579,0.025903,0.208385,0.208349,0.154746,0.359872,0.000000,0.000000,0.000000,0.000000,0.000000,0.000000,0.000000,0.000000,0.000000,0.000000,0.000000,0.000000,0.004940,3,0
1560000,-0.004644,40.273708,0.005230,-0.011116,26.035238,-0.010922,0.003188,0.038123,1.569276,-0.070798,0.003476,0.000823,-0.000737,-0.009788,0.000041,0.000274,0.004811,-0.040180,0.008215,0.208587,0.208550,0.154429,0.358323,0.000000,0.000000,0.000000,0.000000,0.000000,0.000000,0.000000,0.000000,0.000000,0.000000,0.000000,0.000000,0.039057,3,0
1570000,-0.004588,40.531296,0.005855,-0.010790,26.034443,-0.010131,0.003233,0.037779,1.569266,-0.070344,0.003502,0.000548,-0.000748,-0.009601,0.000040,0.001174,0.004755,-0.080509,0.028003,0.208790,0.208752,0.154114,0.356819,0.000000,0.000000,0.000000,0.000000,0.000000,0.000000,0.000000,0.000000,0.000000,0.000000,0.000000,0.000000,0.077837,3,0
1580000,-0.004534,40.794453,0.005020,-0.010509,26.043846,-0.011378,0.003280,0.038335,1.569256,-0.070788,0.003529,0.000822,-0.000758,-0.009786,0.000041,0.001143,0.004697,0.079369,-0.027858,0.208995,0.208955,0.153804,0.355359,0.000000,0.000000,0.000000,0.000000,0.000000,0.000000,0.000000,0.000000,0.000000,0.000000,0.000000,0.000000,0.076733,3,0
1590000,-0.004477,41.055458,0.004266,-0.010175,26.049021,-0.012389,0.003310,0.038518,1.569245,-0.070872,0.003555,0.001078,-0.000769,-0.009823,0.000041,0.000139,0.004638,0.014912,-0.024835,0.209201,0.209160,0.153496,0.353940,0.000000,0.000000,0.000000,0.000000,0.000000,0.000000,0.000000,0.000000,0.000000,0.000000,0.000000,0.000000,0.015066,3,0
1600000,-0.004420,41.316425,0.003591,-0.009900,26.054056,-0.013171,0.003346,0.038690,1.569230,-0.070941,0.003580,0.001299,-0.000780,-0.009853,0.000041,0.000102,0.004579,0.012276,-0.021410,0.209408,0.209365,0.153193,0.352564,0.000000,0.000000,0.000000,0.000000,0.000000,0.000000,0.000000,0.000000,0.000000,0.000000,0.000000,0.000000,0.012639,3,0
1610000,-0.004361,41.578033,0.004675,-0.009693,26.060274,-0.011954,0.003385,0.038962,1.569218,-0.071099,0.003604,0.000790,-0.000791,-0.009919,0.000041,0.000518,0.004520,0.029560,0.048022,0.209615,0.209572,0.152893,0.351228,0.000000,0.000000,0.000000,0.000000,0.000000,0.000000,0.000000,0.000000,0.000000,0.000000,0.000000,0.000000,0.028869,3,0
1620000,-0.004301,41.839592,0.005358,-0.009448,26.066345,-0.011027,0.003434,0.039215,1.569219,-0.071238,0.003627,0.000450,-0.000801,-0.009980,0.000042,0.000279,0.004458,0.026318,0.031814,0.209824,0.209779,0.152596,0.349932,0.000000,0.000000,0.000000,0.000000,0.000000,0.000000,0.000000,0.000000,0.000000,0.000000,0.000000,0.000000,0.025767,3,0
1630000,-0.004243,42.101116,0.004593,-0.009213,26.072159,-0.011978,0.003480,0.039464,1.569219,-0.071363,0.003651,0.000715,-0.000812,-0.010037,0.000042,0.000195,0.004396,0.023121,-0.025549,0.210033,0.209987,0.152303,0.348672,0.000000,0.000000,0.000000,0.000000,0.000000,0.000000,0.000000,0.000000,0.000000,0.000000,0.000000,0.000000,0.022705,3,0
1640000,-0.004185,42.363983,0.003460,-0.009020,26.080439,-0.013369,0.003509,0.039918,1.569212,-0.071681,0.003674,0.001122,-0.000822,-0.010183,0.000043,0.000829,0.004336,0.059727,-0.039405,0.210243,0.210196,0.152014,0.347451,0.000000,0.000000,0.000000,0.000000,0.000000,0.000000,0.000000,0.000000,0.000000,0.000000,0.000000,0.000000,0.057777,3,0
1650000,-0.004125,42.621193,0.003303,-0.008762,26.078148,-0.013366,0.003542,0.039419,1.569210,-0.071139,0.003697,0.001163,-0.000832,-0.009932,0.000042,0.001737,0.004275,-0.103828,-0.001869,0.210453,0.210405,0.151729,0.346265,0.000000,0.000000,0.000000,0.000000,0.000000,0.000000,0.000000,0.000000,0.000000,0.000000,0.000000,0.000000,0.100274,3,0
1660000,-0.004064,42.882595,0.004030,-0.008479,26.083649,-0.012478,0.003577,0.039615,1.569200,-0.071223,0.003718,0.000793,-0.000843,-0.009970,0.000042,0.000239,0.004213,0.016682,0.034302,0.210664,0.210614,0.151448,0.345114,0.000000,0.000000,0.000000,0.000000,0.000000,0.000000,0.000000,0.000000,0.000000,0.000000,0.000000,0.000000,0.016611,3,0
1670000,-0.004003,43.143951,0.004272,-0.008279,26.088991,-0.012212,0.003613,0.039806,1.569202,-0.071292,0.003739,0.000631,-0.000853,-0.010003,0.000042,0.000068,0.004150,0.013653,0.014756,0.210875,0.210823,0.151170,0.343997,0.000000,0.000000,0.000000,0.000000,0.000000,0.000000,0.000000,0.000000,0.000000,0.000000,0.000000,0.000000,0.013771,3,0
1680000,-0.003944,43.401073,0.003126,-0.008062,26.086456,-0.013480,0.003647,0.039284,1.569196,-0.070744,0.003761,0.001105,-0.000863,-0.009739,0.000041,0.002183,0.004087,-0.108604,-0.041744,0.211085,0.211033,0.150897,0.342912,0.000000,0.000000,0.000000,0.000000,0.000000,0.000000,0.000000,0.000000,0.000000,0.000000,0.000000,0.000000,0.104868,3,0
1690000,-0.003881,43.660290,0.004286,-0.007767,26.087654,-0.012055,0.003684,0.039099,1.569196,-0.070503,0.003780,0.000563,-0.000873,-0.009617,0.000041,0.000792,0.004024,-0.047638,0.051139,0.211296,0.211242,0.150627,0.341857,0.000000,0.000000,0.000000,0.000000,0.000000,0.000000,0.000000,0.000000,0.000000,0.000000,0.000000,0.000000,0.046112,3,0
1700000,-0.003820,43.919514,0.003413,-0.007529,26.088892,-0.013164,0.003721,0.038922,1.569195,-0.070265,0.003801,0.000905,-0.000883,-0.009500,0.000041,0.000531,0.003959,-0.048443,-0.030466,0.211506,0.211450,0.150362,0.340834,0.000000,0.000000,0.000000,0.000000,0.000000,0.000000,0.000000,0.000000,0.000000,0.000000,0.000000,0.000000,0.046901,3,0
1710000,-0.003758,44.177998,0.004375,-0.007362,26.088747,-0.011762,0.003754,0.038597,1.569181,-0.069924,0.003819,0.000453,-0.000893,-0.009324,0.000040,0.001071,0.003897,-0.069134,0.042965,0.211715,0.211659,0.150100,0.339839,0.000000,0.000000,0.000000,0.000000,0.000000,0.000000,0.000000,0.000000,0.000000,0.000000,0.000000,0.000000,0.066791,3,0
1720000,-0.003696,44.439285,0.004768,-0.007089,26.093637,-0.011160,0.003789,0.038752,1.569168,-0.069973,0.003837,0.000226,-0.000903,-0.009348,0.000040,0.000088,0.003832,0.010330,0.020541,0.211924,0.211866,0.149843,0.338872,0.000000,0.000000,0.000000,0.000000,0.000000,0.000000,0.000000,0.000000,0.000000,0.000000,0.000000,0.000000,0.010634,3,0
