time_us,pos_x,pos_y,pos_z,vel_x,vel_y,vel_z,roll,pitch,yaw,bias_ax,bias_ay,bias_az,bias_gx,bias_gy,bias_gz,nis,innov_x,innov_y,innov_z,cov_pos_x,cov_pos_y,cov_pos_z,cov_yaw,des_speed,des_heading,des_climb,pid_speed,pid_yaw,pid_alt,speed_meas,yaw_meas,climb_meas,fwd_accel,yaw_rate,vert_accel,drift_m,nav_mode,mission_state
0,0.000001,0.149996,0.000000,0.000213,24.999376,0.000048,-0.000006,-0.000024,1.570788,0.000000,0.000000,0.000000,0.000000,0.000000,0.000000,0.006250,-0.000002,-0.249996,-0.000000,2.400038,2.400038,3.600017,1.000518,0.000000,0.000000,0.000000,0.000000,0.000000,0.000000,0.000000,0.000000,0.000000,0.000000,0.000000,0.000000,0.149996,1,0
10000,0.000004,0.359538,0.016540,0.000432,24.998774,0.000408,-0.000017,-0.000044,1.570786,0.000000,-0.000000,-0.000000,0.000000,0.000000,0.000000,0.002588,-0.000006,-0.141561,0.044094,1.714420,1.714420,2.250079,1.001073,0.000000,0.000000,0.000000,0.000000,0.000000,0.000000,0.000000,0.000000,0.000000,0.000000,0.000000,0.000000,0.101112,3,0
20000,0.000007,0.597761,0.021074,0.000513,24.998295,0.000832,-0.000010,-0.000051,1.570784,0.000001,-0.000000,-0.000000,0.000000,0.000000,0.000000,0.000396,-0.000009,-0.052912,0.016595,1.333616,1.333616,1.636554,1.001655,0.000000,0.000000,0.000000,0.000000,0.000000,0.000000,0.000000,0.000000,0.000000,0.000000,0.000000,0.000000,0.041152,3,0
30000,0.000011,0.845408,0.025465,0.000647,24.997976,0.001148,-0.000021,-0.000070,1.570769,0.000001,-0.000000,-0.000001,0.000000,0.000000,0.000000,0.000077,-0.000014,-0.012827,0.020438,1.091392,1.091392,1.286065,1.002257,0.000000,0.000000,0.000000,0.000000,0.000000,0.000000,0.000000,0.000000,0.000000,0.000000,0.000000,0.000000,0.010494,3,0
40000,0.000016,1.095070,0.030628,0.000840,24.997650,0.001638,-0.000020,-0.000083,1.570763,0.000001,-0.000000,-0.000001,0.000000,0.000000,0.000000,0.000117,-0.000019,-0.002044,0.029151,0.923811,0.923811,1.059385,1.002869,0.000000,0.000000,0.000000,0.000000,0.000000,0.000000,0.000000,0.000000,0.000000,0.000000,0.000000,0.000000,0.001730,3,0
50000,0.000023,1.356556,0.022959,0.001048,24.997742,0.001691,-0.000020,-0.000088,1.570760,-0.000003,-0.000000,0.000001,-0.000000,-0.000000,-0.000000,0.001446,-0.000027,0.086239,-0.051210,0.801036,0.801036,0.900822,1.003484,0.000000,0.000000,0.000000,0.000000,0.000000,0.000000,0.000000,0.000000,0.000000,0.000000,0.000000,0.000000,0.074726,3,0
60000,0.000030,1.609306,0.016644,0.001102,24.997604,0.001808,-0.000027,-0.000101,1.570762,-0.000004,-0.000000,0.000003,-0.000000,-0.000000,-0.000000,0.000422,-0.000034,0.023540,-0.048499,0.707270,0.707270,0.783741,1.004094,0.000000,0.000000,0.000000,0.000000,0.000000,0.000000,0.000000,0.000000,0.000000,0.000000,0.000000,0.000000,0.020765,3,0
70000,0.000039,1.868658,0.012872,0.001273,24.997885,0.001970,-0.000035,-0.000112,1.570750,-0.000011,-0.000000,0.000006,-0.000000,-0.000000,-0.000000,0.001336,-0.000043,0.088855,-0.032815,0.633370,0.633370,0.693801,1.004688,0.000000,0.000000,0.000000,0.000000,0.000000,0.000000,0.000000,0.000000,0.000000,0.000000,0.000000,0.000000,0.079476,3,0
80000,0.000048,2.125139,0.016684,0.001487,24.998022,0.002496,-0.000038,-0.000130,1.570739,-0.000018,-0.000000,0.000002,0.000000,-0.000000,-0.000000,0.000897,-0.000053,0.068048,0.036526,0.573673,0.573673,0.622594,1.005260,0.000000,0.000000,0.000000,0.000000,0.000000,0.000000,0.000000,0.000000,0.000000,0.000000,0.000000,0.000000,0.061542,3,0
90000,0.000060,2.382972,0.015685,0.001699,24.998514,0.002739,-0.000033,-0.000135,1.570733,-0.000029,-0.000000,0.000004,0.000000,-0.000000,-0.000000,0.001246,-0.000065,0.089869,-0.010916,0.524488,0.524488,0.564865,1.005801,0.000000,0.000000,0.000000,0.000000,0.000000,0.000000,0.000000,0.000000,0.000000,0.000000,0.000000,0.000000,0.082013,3,0
100000,0.000071,2.633836,0.012698,0.001767,24.998301,0.002575,-0.000031,-0.000159,1.570725,-0.000031,-0.000000,0.000009,0.000000,-0.000000,-0.000000,0.000205,-0.000077,0.010942,-0.034985,0.483303,0.483303,0.517162,1.006301,0.000000,0.000000,0.000000,0.000000,0.000000,0.000000,0.000000,0.000000,0.000000,0.000000,0.000000,0.000000,0.010060,3,0
110000,0.000083,2.880741,0.012399,0.001891,24.997450,0.002709,-0.000029,-0.000185,1.570724,-0.000024,-0.000000,0.000010,0.000000,-0.000000,-0.000000,0.000263,-0.000090,-0.041130,-0.004103,0.448354,0.448354,0.477121,1.006754,0.000000,0.000000,0.000000,0.000000,0.000000,0.000000,0.000000,0.000000,0.000000,0.000000,0.000000,0.000000,0.038056,3,0
120000,0.000097,3.128647,0.013976,0.002126,24.996693,0.003347,-0.000037,-0.000194,1.570712,-0.000017,-0.000000,0.000005,0.000000,-0.000000,-0.000000,0.000203,-0.000105,-0.029600,0.020929,0.418359,0.418359,0.443071,1.007150,0.000000,0.000000,0.000000,0.000000,0.000000,0.000000,0.000000,0.000000,0.000000,0.000000,0.000000,0.000000,0.027537,3,0
130000,0.000111,3.378664,0.014230,0.002206,24.996424,0.003592,-0.000047,-0.000210,1.570699,-0.000017,-0.000000,0.000004,0.000000,-0.000000,-0.000000,0.000002,-0.000119,0.000804,0.003171,0.392369,0.392369,0.413797,1.007481,0.000000,0.000000,0.000000,0.000000,0.000000,0.000000,0.000000,0.000000,0.000000,0.000000,0.000000,0.000000,0.000760,3,0
140000,0.000126,3.635317,0.015284,0.002282,24.997522,0.004073,-0.000057,-0.000217,1.570702,-0.000049,-0.000000,-0.000000,0.000000,-0.000001,-0.000000,0.001883,-0.000134,0.108611,0.015675,0.369667,0.369667,0.388393,1.007739,0.000000,0.000000,0.000000,0.000000,0.000000,0.000000,0.000000,0.000000,0.000000,0.000000,0.000000,0.000000,0.101919,3,0
150000,0.000141,3.889405,0.014513,0.002334,24.998198,0.003975,-0.000049,-0.000231,1.570688,-0.000073,-0.000000,0.000004,0.000000,-0.000001,-0.000000,0.000810,-0.000149,0.070615,-0.013304,0.349695,0.349695,0.366172,1.007915,0.000000,0.000000,0.000000,0.000000,0.000000,0.000000,0.000000,0.000000,0.000000,0.000000,0.000000,0.000000,0.066500,3,0
160000,0.000156,4.140231,0.013127,0.002440,24.998116,0.003948,-0.000046,-0.000243,1.570683,-0.000079,-0.000000,0.000014,0.000000,-0.000001,-0.000000,0.000133,-0.000165,0.015310,-0.024744,0.332021,0.332021,0.346600,1.008002,0.000000,0.000000,0.000000,0.000000,0.000000,0.000000,0.000000,0.000000,0.000000,0.000000,0.000000,0.000000,0.014463,3,0
170000,0.000172,4.392465,0.014109,0.002578,24.998446,0.004398,-0.000058,-0.000247,1.570680,-0.000097,-0.000000,0.000006,0.000000,-0.000002,-0.000000,0.000335,-0.000182,0.042789,0.017130,0.316298,0.316298,0.329260,1.007991,0.000000,0.000000,0.000000,0.000000,0.000000,0.000000,0.000000,0.000000,0.000000,0.000000,0.000000,0.000000,0.040534,3,0
180000,0.000189,4.649920,0.016752,0.002715,25.000494,0.005440,-0.000060,-0.000236,1.570683,-0.000168,-0.000000,-0.000017,0.000000,-0.000004,-0.000000,0.003874,-0.000199,0.148374,0.049646,0.302247,0.302247,0.313817,1.007875,0.000000,0.000000,0.000000,0.000000,0.000000,0.000000,0.000000,0.000000,0.000000,0.000000,0.000000,0.000000,0.140899,3,0
190000,0.000208,4.900413,0.016371,0.002949,25.000395,0.005566,-0.000059,-0.000246,1.570668,-0.000173,-0.000001,-0.000012,0.000000,-0.000004,-0.000000,0.000029,-0.000219,0.010170,-0.008757,0.289642,0.289642,0.300003,1.007645,0.000000,0.000000,0.000000,0.000000,0.000000,0.000000,0.000000,0.000000,0.000000,0.000000,0.000000,0.000000,0.009682,3,0
200000,0.000227,5.151252,0.015659,0.003005,25.000271,0.005479,-0.000054,-0.000252,1.570661,-0.000184,-0.000001,-0.000003,0.000000,-0.000004,-0.000000,0.000093,-0.000238,0.018106,-0.016062,0.278296,0.278296,0.287598,1.007295,0.000000,0.000000,0.000000,0.000000,0.000000,0.000000,0.000000,0.000000,0.000000,0.000000,0.000000,0.000000,0.017267,3,0
210000,0.000247,5.401512,0.016869,0.003165,25.000040,0.006133,-0.000047,-0.000268,1.570664,-0.000187,-0.000001,-0.000019,0.000000,-0.000004,-0.000000,0.000105,-0.000259,0.005814,0.025045,0.268055,0.268055,0.276421,1.006816,0.000000,0.000000,0.000000,0.000000,0.000000,0.000000,0.000000,0.000000,0.000000,0.000000,0.000000,0.000000,0.005559,3,0
220000,0.000269,5.655542,0.017434,0.003379,25.001604,0.006766,-0.000049,-0.000261,1.570651,-0.000253,-0.000001,-0.000027,0.000000,-0.000006,-0.000000,0.001414,-0.000281,0.093498,0.011250,0.258789,0.258789,0.266321,1.006202,0.000000,0.000000,0.000000,0.000000,0.000000,0.000000,0.000000,0.000000,0.000000,0.000000,0.000000,0.000000,0.089466,3,0
230000,0.000292,5.907151,0.019721,0.003586,25.002123,0.008055,-0.000057,-0.000277,1.570648,-0.000282,-0.000001,-0.000065,0.000000,-0.000007,-0.000000,0.000660,-0.000305,0.038240,0.051713,0.250387,0.250387,0.257172,1.005446,0.000000,0.000000,0.000000,0.000000,0.000000,0.000000,0.000000,0.000000,0.000000,0.000000,0.000000,0.000000,0.036646,3,0
240000,0.000316,6.163818,0.018834,0.003662,25.005415,0.007942,-0.000061,-0.000242,1.570649,-0.000417,-0.000002,-0.000046,0.000000,-0.000012,-0.000000,0.004406,-0.000329,0.164326,-0.023431,0.242758,0.242758,0.248866,1.004541,0.000000,0.000000,0.000000,0.000000,0.000000,0.000000,0.000000,0.000000,0.000000,0.000000,0.000000,0.000000,0.157678,3,0
250000,0.000339,6.418832,0.019127,0.003726,25.007812,0.008349,-0.000064,-0.000228,1.570643,-0.000530,-0.000002,-0.000051,0.000000,-0.000016,-0.000000,0.002558,-0.000353,0.126295,0.005257,0.235821,0.235821,0.241314,1.003481,0.000000,0.000000,0.000000,0.000000,0.000000,0.000000,0.000000,0.000000,0.000000,0.000000,0.000000,0.000000,0.121332,3,0
260000,0.000363,6.670825,0.020798,0.003763,25.008583,0.009659,-0.000072,-0.000231,1.570635,-0.000578,-0.000002,-0.000089,0.000000,-0.000017,-0.000000,0.000666,-0.000377,0.050169,0.040516,0.229508,0.229508,0.234436,1.002258,0.000000,0.000000,0.000000,0.000000,0.000000,0.000000,0.000000,0.000000,0.000000,0.000000,0.000000,0.000000,0.048251,3,0
270000,0.000387,6.925983,0.019780,0.003944,25.011528,0.009308,-0.000083,-0.000193,1.570622,-0.000719,-0.000003,-0.000059,0.000000,-0.000023,-0.000000,0.003111,-0.000402,0.136108,-0.029388,0.223758,0.223758,0.228165,1.000869,0.000000,0.000000,0.000000,0.000000,0.000000,0.000000,0.000000,0.000000,0.000000,0.000000,0.000000,0.000000,0.131033,3,0
280000,0.000412,7.181894,0.020910,0.004021,25.015188,0.010158,-0.000083,-0.000150,1.570625,-0.000894,-0.000003,-0.000090,0.000000,-0.000030,-0.000000,0.004197,-0.000427,0.159225,0.027908,0.218521,0.218521,0.222443,0.999307,0.000000,0.000000,0.000000,0.000000,0.000000,0.000000,0.000000,0.000000,0.000000,0.000000,0.000000,0.000000,0.153427,3,0
290000,0.000437,7.436387,0.019929,0.004125,25.018057,0.009541,-0.000079,-0.000111,1.570613,-0.001038,-0.000004,-0.000055,0.000000,-0.000036,-0.000000,0.002534,-0.000453,0.121946,-0.029927,0.213750,0.213750,0.217219,0.997567,0.000000,0.000000,0.000000,0.000000,0.000000,0.000000,0.000000,0.000000,0.000000,0.000000,0.000000,0.000000,0.117602,3,0
300000,0.000463,7.692344,0.021692,0.004222,25.022144,0.011139,-0.000072,-0.000069,1.570605,-0.001246,-0.000004,-0.000113,0.000000,-0.000045,-0.000000,0.004766,-0.000479,0.165608,0.046955,0.209405,0.209405,0.212446,0.995645,0.000000,0.000000,0.000000,0.000000,0.000000,0.000000,0.000000,0.000000,0.000000,0.000000,0.000000,0.000000,0.159829,3,0
310000,0.000490,7.947635,0.021206,0.004412,25.025892,0.010977,-0.000079,-0.000021,1.570599,-0.001444,-0.000005,-0.000090,0.000000,-0.000054,-0.000000,0.003581,-0.000507,0.148158,-0.017303,0.205451,0.205451,0.208087,0.993536,0.000000,0.000000,0.000000,0.000000,0.000000,0.000000,0.000000,0.000000,0.000000,0.000000,0.000000,0.000000,0.143085,3,0
320000,0.000517,8.200972,0.020024,0.004494,25.028095,0.010072,-0.000087,0.000010,1.570583,-0.001574,-0.000006,-0.000037,0.000000,-0.000060,-0.000000,0.001584,-0.000535,0.091619,-0.037993,0.201855,0.201855,0.204105,0.991237,0.000000,0.000000,0.000000,0.000000,0.000000,0.000000,0.000000,0.000000,0.000000,0.000000,0.000000,0.000000,0.088538,3,0
330000,0.000545,8.456424,0.020458,0.004689,25.032406,0.010553,-0.000099,0.000073,1.570570,-0.001808,-0.000007,-0.000052,0.000000,-0.000071,-0.000000,0.003954,-0.000564,0.156321,0.009913,0.198591,0.198591,0.200469,0.988743,0.000000,0.000000,0.000000,0.000000,0.000000,0.000000,0.000000,0.000000,0.000000,0.000000,0.000000,0.000000,0.151148,3,0
340000,0.000575,8.711937,0.021245,0.004892,25.036854,0.011422,-0.000093,0.000134,1.570571,-0.002060,-0.000008,-0.000084,0.000000,-0.000083,-0.000000,0.004158,-0.000594,0.159252,0.020637,0.195632,0.195632,0.197151,0.986053,0.000000,0.000000,0.000000,0.000000,0.000000,0.000000,0.000000,0.000000,0.000000,0.000000,0.000000,0.000000,0.154060,3,0
350000,0.000604,8.964960,0.022782,0.004936,25.039139,0.012814,-0.000095,0.000159,1.570573,-0.002198,-0.000009,-0.000157,0.000000,-0.000090,-0.000000,0.001412,-0.000624,0.082603,0.043938,0.192955,0.192955,0.194125,0.983163,0.000000,0.000000,0.000000,0.000000,0.000000,0.000000,0.000000,0.000000,0.000000,0.000000,0.000000,0.000000,0.079949,3,0
360000,0.000634,9.220667,0.021540,0.005029,25.044077,0.011649,-0.000090,0.000245,1.570570,-0.002491,-0.000010,-0.000082,0.000000,-0.000105,-0.000000,0.004826,-0.000655,0.167500,-0.042998,0.190539,0.190539,0.191370,0.980072,0.000000,0.000000,0.000000,0.000000,0.000000,0.000000,0.000000,0.000000,0.000000,0.000000,0.000000,0.000000,0.162182,3,0
370000,0.000664,9.477696,0.020258,0.005174,25.050734,0.010440,-0.000098,0.000360,1.570568,-0.002878,-0.000011,-0.000000,0.000000,-0.000126,-0.000000,0.007434,-0.000686,0.209927,-0.044474,0.188367,0.188367,0.188863,0.976779,0.000000,0.000000,0.000000,0.000000,0.000000,0.000000,0.000000,0.000000,0.000000,0.000000,0.000000,0.000000,0.203337,3,0
380000,0.000695,9.730442,0.021285,0.005256,25.052912,0.011733,-0.000096,0.000394,1.570556,-0.003018,-0.000013,-0.000057,0.000001,-0.000134,-0.000000,0.000981,-0.000717,0.072104,0.029539,0.186419,0.186419,0.186586,0.973281,0.000000,0.000000,0.000000,0.000000,0.000000,0.000000,0.000000,0.000000,0.000000,0.000000,0.000000,0.000000,0.069867,3,0
390000,0.000725,9.986422,0.022859,0.005284,25.058676,0.013269,-0.000102,0.000501,1.570555,-0.003377,-0.000014,-0.000152,0.000001,-0.000154,-0.000000,0.005432,-0.000748,0.177158,0.047334,0.184681,0.184681,0.184522,0.969580,0.000000,0.000000,0.000000,0.000000,0.000000,0.000000,0.000000,0.000000,0.000000,0.000000,0.000000,0.000000,0.171707,3,0
400000,0.000755,10.242486,0.022750,0.005314,25.064627,0.013237,-0.000100,0.000613,1.570542,-0.003757,-0.000016,-0.000135,0.000001,-0.000176,-0.000000,0.005219,-0.000778,0.179547,-0.007990,0.183138,0.183138,0.182655,0.965675,0.000000,0.000000,0.000000,0.000000,0.000000,0.000000,0.000000,0.000000,0.000000,0.000000,0.000000,0.000000,0.174068,3,0
410000,0.000785,10.500446,0.024319,0.005438,25.073008,0.015214,-0.000106,0.000776,1.570540,-0.004290,-0.000018,-0.000240,0.000001,-0.000208,-0.000000,0.009789,-0.000809,0.241486,0.047472,0.181777,0.181777,0.180971,0.961566,0.000000,0.000000,0.000000,0.000000,0.000000,0.000000,0.000000,0.000000,0.000000,0.000000,0.000000,0.000000,0.234170,3,0
420000,0.000815,10.757257,0.025099,0.005572,25.080151,0.016105,-0.000116,0.000916,1.570534,-0.004756,-0.000020,-0.000288,0.000001,-0.000237,-0.000000,0.006674,-0.000841,0.202108,0.020898,0.180584,0.180584,0.179456,0.957254,0.000000,0.000000,0.000000,0.000000,0.000000,0.000000,0.000000,0.000000,0.000000,0.000000,0.000000,0.000000,0.196028,3,0
430000,0.000847,11.011770,0.024033,0.005777,25.084591,0.015116,-0.000112,0.001012,1.570535,-0.005054,-0.000022,-0.000188,0.000001,-0.000256,-0.000000,0.002770,-0.000874,0.124137,-0.041463,0.179549,0.179549,0.178097,0.952742,0.000000,0.000000,0.000000,0.000000,0.000000,0.000000,0.000000,0.000000,0.000000,0.000000,0.000000,0.000000,0.120425,3,0
440000,0.000880,11.267609,0.023482,0.005946,25.090738,0.014556,-0.000120,0.001146,1.570522,-0.005472,-0.000024,-0.000129,0.000001,-0.000283,-0.000000,0.004644,-0.000907,0.167764,-0.023910,0.178661,0.178660,0.176883,0.948032,0.000000,0.000000,0.000000,0.000000,0.000000,0.000000,0.000000,0.000000,0.000000,0.000000,0.000000,0.000000,0.162771,3,0
450000,0.000913,11.525332,0.022256,0.006018,25.099483,0.013195,-0.000117,0.001343,1.570515,-0.006067,-0.000027,-0.000007,0.000001,-0.000322,-0.000000,0.008906,-0.000941,0.229925,-0.046916,0.177909,0.177908,0.175803,0.943125,0.000000,0.000000,0.000000,0.000000,0.000000,0.000000,0.000000,0.000000,0.000000,0.000000,0.000000,0.000000,0.223109,3,0
460000,0.000947,11.779613,0.023389,0.006205,25.103670,0.014533,-0.000124,0.001428,1.570507,-0.006366,-0.000029,-0.000099,0.000002,-0.000343,-0.000000,0.002193,-0.000975,0.111266,0.034285,0.177284,0.177284,0.174847,0.938026,0.000000,0.000000,0.000000,0.000000,0.000000,0.000000,0.000000,0.000000,0.000000,0.000000,0.000000,0.000000,0.107983,3,0
470000,0.000981,12.033461,0.024908,0.006342,25.107327,0.016438,-0.000137,0.001504,1.570508,-0.006632,-0.000032,-0.000231,0.000002,-0.000361,-0.000001,0.001837,-0.001010,0.095492,0.047296,0.176777,0.176777,0.174006,0.932738,0.000000,0.000000,0.000000,0.000000,0.000000,0.000000,0.000000,0.000000,0.000000,0.000000,0.000000,0.000000,0.092684,3,0
480000,0.001015,12.289227,0.024435,0.006472,25.113724,0.016027,-0.000133,0.001653,1.570495,-0.007092,-0.000035,-0.000167,0.000002,-0.000394,-0.000001,0.004204,-0.001046,0.159670,-0.022230,0.176380,0.176380,0.173271,0.927265,0.000000,0.000000,0.000000,0.000000,0.000000,0.000000,0.000000,0.000000,0.000000,0.000000,0.000000,0.000000,0.154979,3,0
490000,0.001050,12.543375,0.024394,0.006657,25.117949,0.015844,-0.000146,0.001738,1.570499,-0.007398,-0.000038,-0.000146,0.000002,-0.000416,-0.000001,0.001712,-0.001082,0.102628,-0.007015,0.176085,0.176085,0.172634,0.921611,0.000000,0.000000,0.000000,0.000000,0.000000,0.000000,0.000000,0.000000,0.000000,0.000000,0.000000,0.000000,0.099622,3,0
500000,0.001086,12.799434,0.025377,0.006840,25.124861,0.017242,-0.000140,0.001906,1.570484,-0.007910,-0.000042,-0.000234,0.000003,-0.000454,-0.000001,0.004618,-0.001119,0.166501,0.028615,0.175885,0.175885,0.172087,0.915782,0.000000,0.000000,0.000000,0.000000,0.000000,0.000000,0.000000,0.000000,0.000000,0.000000,0.000000,0.000000,0.161624,3,0
510000,0.001122,13.057373,0.026372,0.006952,25.134512,0.018713,-0.000142,0.002152,1.570478,-0.008634,-0.000046,-0.000325,0.000003,-0.000509,-0.000001,0.008575,-0.001156,0.228436,0.028609,0.175772,0.175772,0.171622,0.909782,0.000000,0.000000,0.000000,0.000000,0.000000,0.000000,0.000000,0.000000,0.000000,0.000000,0.000000,0.000000,0.221746,3,0
520000,0.001159,13.316001,0.026844,0.007102,25.145264,0.019386,-0.000143,0.002425,1.570470,-0.009447,-0.000050,-0.000358,0.000003,-0.000572,-0.000001,0.010023,-0.001194,0.248704,0.009838,0.175740,0.175739,0.171234,0.903618,0.000000,0.000000,0.000000,0.000000,0.000000,0.000000,0.000000,0.000000,0.000000,0.000000,0.000000,0.000000,0.241423,3,0
530000,0.001195,13.572402,0.026725,0.007118,25.152765,0.019285,-0.000145,0.002614,1.570459,-0.010015,-0.000054,-0.000320,0.000003,-0.000617,-0.000001,0.004634,-0.001231,0.168877,-0.011095,0.175782,0.175782,0.170914,0.897296,0.000000,0.000000,0.000000,0.000000,0.000000,0.000000,0.000000,0.000000,0.000000,0.000000,0.000000,0.000000,0.163933,3,0
540000,0.001229,13.827772,0.026764,0.007133,25.158649,0.019248,-0.000145,0.002771,1.570449,-0.010469,-0.000058,-0.000301,0.000004,-0.000654,-0.000001,0.002784,-0.001267,0.131070,-0.005486,0.175893,0.175892,0.170658,0.890822,0.000000,0.000000,0.000000,0.000000,0.000000,0.000000,0.000000,0.000000,0.000000,0.000000,0.000000,0.000000,0.127234,3,0
550000,0.001263,14.086793,0.027927,0.007163,25.170218,0.020983,-0.000141,0.003080,1.570442,-0.011370,-0.000063,-0.000423,0.000004,-0.000729,-0.000001,0.010570,-0.001302,0.253339,0.033997,0.176066,0.176066,0.170460,0.884203,0.000000,0.000000,0.000000,0.000000,0.000000,0.000000,0.000000,0.000000,0.000000,0.000000,0.000000,0.000000,0.245908,3,0
560000,0.001297,14.341830,0.027643,0.007212,25.175531,0.020656,-0.000139,0.003228,1.570438,-0.011785,-0.000068,-0.000358,0.000005,-0.000764,-0.000001,0.002133,-0.001336,0.113476,-0.017564,0.176297,0.176297,0.170314,0.877446,0.000000,0.000000,0.000000,0.000000,0.000000,0.000000,0.000000,0.000000,0.000000,0.000000,0.000000,0.000000,0.110149,3,0
570000,0.001330,14.600534,0.028719,0.007300,25.186529,0.022242,-0.000142,0.003541,1.570434,-0.012669,-0.000073,-0.000474,0.000005,-0.000840,-0.000001,0.009167,-0.001371,0.236086,0.030516,0.176580,0.176580,0.170214,0.870557,0.000000,0.000000,0.000000,0.000000,0.000000,0.000000,0.000000,0.000000,0.000000,0.000000,0.000000,0.000000,0.229141,3,0
580000,0.001363,14.858178,0.027653,0.007304,25.195885,0.020816,-0.000138,0.003807,1.570437,-0.013422,-0.000079,-0.000296,0.000006,-0.000906,-0.000001,0.006547,-0.001404,0.195939,-0.045600,0.176911,0.176910,0.170157,0.863546,0.000000,0.000000,0.000000,0.000000,0.000000,0.000000,0.000000,0.000000,0.000000,0.000000,0.000000,0.000000,0.190167,3,0
590000,0.001395,15.117710,0.028140,0.007385,25.208200,0.021649,-0.000152,0.004173,1.570424,-0.014430,-0.000085,-0.000335,0.000006,-0.000997,-0.000001,0.010637,-0.001437,0.256265,0.009630,0.177284,0.177284,0.170138,0.856419,0.000000,0.000000,0.000000,0.000000,0.000000,0.000000,0.000000,0.000000,0.000000,0.000000,0.000000,0.000000,0.248696,3,0
600000,0.001426,15.377934,0.027299,0.007418,25.221571,0.020494,-0.000148,0.004567,1.570420,-0.015536,-0.000091,-0.000182,0.000007,-0.001098,-0.000002,0.012451,-0.001470,0.274914,-0.037472,0.177696,0.177695,0.170152,0.849183,0.000000,0.000000,0.000000,0.000000,0.000000,0.000000,0.000000,0.000000,0.000000,0.000000,0.000000,0.000000,0.266776,3,0
610000,0.001458,15.635305,0.027177,0.007580,25.230219,0.020269,-0.000150,0.004820,1.570413,-0.016251,-0.000097,-0.000133,0.000007,-0.001165,-0.000002,0.004895,-0.001503,0.173587,-0.011614,0.178142,0.178142,0.170195,0.841848,0.000000,0.000000,0.000000,0.000000,0.000000,0.000000,0.000000,0.000000,0.000000,0.000000,0.000000,0.000000,0.168439,3,0
620000,0.001490,15.892807,0.026940,0.007656,25.239113,0.019901,-0.000150,0.005086,1.570401,-0.016985,-0.000104,-0.000066,0.000008,-0.001234,-0.000002,0.004967,-0.001535,0.174554,-0.015622,0.178618,0.178618,0.170264,0.834421,0.000000,0.000000,0.000000,0.000000,0.000000,0.000000,0.000000,0.000000,0.000000,0.000000,0.000000,0.000000,0.169364,3,0
630000,0.001522,16.149843,0.025846,0.007796,25.247169,0.018095,-0.000149,0.005340,1.570387,-0.017653,-0.000110,0.000134,0.000008,-0.001299,-0.000002,0.004247,-0.001568,0.155512,-0.045598,0.179121,0.179121,0.170355,0.826910,0.000000,0.000000,0.000000,0.000000,0.000000,0.000000,0.000000,0.000000,0.000000,0.000000,0.000000,0.000000,0.150877,3,0
640000,0.001553,16.407608,0.027189,0.007841,25.256325,0.020155,-0.000151,0.005626,1.570389,-0.018427,-0.000117,-0.000049,0.000009,-0.001375,-0.000002,0.005317,-0.001601,0.176699,0.040746,0.179647,0.179647,0.170465,0.819323,0.000000,0.000000,0.000000,0.000000,0.000000,0.000000,0.000000,0.000000,0.000000,0.000000,0.000000,0.000000,0.171415,3,0
650000,0.001583,16.665499,0.027242,0.007831,25.265676,0.020308,-0.000156,0.005917,1.570391,-0.019219,-0.000125,-0.000024,0.000010,-0.001455,-0.000002,0.005085,-0.001632,0.177267,-0.005406,0.180194,0.180193,0.170591,0.811668,0.000000,0.000000,0.000000,0.000000,0.000000,0.000000,0.000000,0.000000,0.000000,0.000000,0.000000,0.000000,0.171951,3,0
660000,0.001612,16.923513,0.025956,0.007841,25.275124,0.018356,-0.000164,0.006219,1.570390,-0.020028,-0.000133,0.000221,0.000011,-0.001538,-0.000002,0.005550,-0.001662,0.177708,-0.052430,0.180756,0.180756,0.170729,0.803954,0.000000,0.000000,0.000000,0.000000,0.000000,0.000000,0.000000,0.000000,0.000000,0.000000,0.000000,0.000000,0.172361,3,0
670000,0.001640,17.182852,0.026547,0.007800,25.286768,0.019041,-0.000163,0.006614,1.570385,-0.021037,-0.000141,0.000153,0.000011,-0.001643,-0.000002,0.007699,-0.001691,0.217783,0.014221,0.181333,0.181333,0.170877,0.796189,0.000000,0.000000,0.000000,0.000000,0.000000,0.000000,0.000000,0.000000,0.000000,0.000000,0.000000,0.000000,0.211207,3,0
680000,0.001666,17.439886,0.026791,0.007747,25.294365,0.019282,-0.000177,0.006864,1.570373,-0.021684,-0.000149,0.000144,0.000012,-0.001712,-0.000002,0.003045,-0.001718,0.137238,0.001828,0.181921,0.181920,0.171033,0.788380,0.000000,0.000000,0.000000,0.000000,0.000000,0.000000,0.000000,0.000000,0.000000,0.000000,0.000000,0.000000,0.133086,3,0
690000,0.001691,17.697655,0.027226,0.007706,25.303225,0.020010,-0.000191,0.007159,1.570377,-0.022444,-0.000157,0.000102,0.000013,-0.001794,-0.000003,0.004068,-0.001744,0.158432,0.008326,0.182517,0.182517,0.171193,0.780535,0.000000,0.000000,0.000000,0.000000,0.000000,0.000000,0.000000,0.000000,0.000000,0.000000,0.000000,0.000000,0.153621,3,0
700000,0.001716,17.955545,0.026501,0.007772,25.312164,0.018670,-0.000198,0.007473,1.570369,-0.023220,-0.000166,0.000266,0.000014,-0.001879,-0.000003,0.004256,-0.001770,0.159000,-0.032450,0.183119,0.183119,0.171357,0.772663,0.000000,0.000000,0.000000,0.000000,0.000000,0.000000,0.000000,0.000000,0.000000,0.000000,0.000000,0.000000,0.154158,3,0
710000,0.001741,18.214165,0.027710,0.007906,25.322271,0.020489,-0.000213,0.007821,1.570358,-0.024108,-0.000175,0.000082,0.000015,-0.001978,-0.000003,0.005402,-0.001796,0.179325,0.035635,0.183726,0.183725,0.171521,0.764771,0.000000,0.000000,0.000000,0.000000,0.000000,0.000000,0.000000,0.000000,0.000000,0.000000,0.000000,0.000000,0.173843,3,0
720000,0.001766,18.475948,0.027506,0.007959,25.337742,0.020299,-0.000212,0.008382,1.570356,-0.025507,-0.000185,0.000157,0.000016,-0.002138,-0.000003,0.012558,-0.001821,0.278425,-0.014498,0.184334,0.184334,0.171685,0.756867,0.000000,0.000000,0.000000,0.000000,0.000000,0.000000,0.000000,0.000000,0.000000,0.000000,0.000000,0.000000,0.269877,3,0
730000,0.001789,18.735357,0.027977,0.007941,25.348915,0.020782,-0.000211,0.008774,1.570354,-0.026504,-0.000194,0.000107,0.000017,-0.002253,-0.000003,0.006182,-0.001846,0.195395,0.009296,0.184942,0.184942,0.171846,0.748957,0.000000,0.000000,0.000000,0.000000,0.000000,0.000000,0.000000,0.000000,0.000000,0.000000,0.000000,0.000000,0.189380,3,0
740000,0.001812,18.996094,0.028213,0.008006,25.362362,0.021063,-0.000217,0.009272,1.570343,-0.027715,-0.000204,0.000102,0.000019,-0.002396,-0.000004,0.008849,-0.001870,0.234056,0.000851,0.185549,0.185548,0.172003,0.741049,0.000000,0.000000,0.000000,0.000000,0.000000,0.000000,0.000000,0.000000,0.000000,0.000000,0.000000,0.000000,0.226825,3,0
750000,0.001835,19.254444,0.027065,0.007987,25.371443,0.019243,-0.000231,0.009610,1.570339,-0.028512,-0.000214,0.000362,0.000020,-0.002491,-0.000004,0.004101,-0.001893,0.152096,-0.047449,0.186152,0.186152,0.172154,0.733150,0.000000,0.000000,0.000000,0.000000,0.000000,0.000000,0.000000,0.000000,0.000000,0.000000,0.000000,0.000000,0.147388,3,0
760000,0.001857,19.514757,0.028049,0.008072,25.383860,0.020502,-0.000232,0.010078,1.570333,-0.029637,-0.000225,0.000208,0.000021,-0.002628,-0.000004,0.007361,-0.001916,0.211718,0.027483,0.186751,0.186750,0.172299,0.725267,0.000000,0.000000,0.000000,0.000000,0.000000,0.000000,0.000000,0.000000,0.000000,0.000000,0.000000,0.000000,0.205136,3,0
770000,0.001879,19.776394,0.027999,0.008189,25.398394,0.020228,-0.000240,0.010640,1.570324,-0.030978,-0.000235,0.000257,0.000022,-0.002795,-0.000004,0.010062,-0.001940,0.249464,-0.008927,0.187343,0.187343,0.172435,0.717405,0.000000,0.000000,0.000000,0.000000,0.000000,0.000000,0.000000,0.000000,0.000000,0.000000,0.000000,0.000000,0.241682,3,0
780000,0.001901,20.035606,0.027997,0.008282,25.408567,0.020214,-0.000246,0.011022,1.570312,-0.031885,-0.000246,0.000298,0.000024,-0.002909,-0.000004,0.004490,-0.001963,0.166592,-0.007232,0.187928,0.187928,0.172562,0.709572,0.000000,0.000000,0.000000,0.000000,0.000000,0.000000,0.000000,0.000000,0.000000,0.000000,0.000000,0.000000,0.161384,3,0
790000,0.001923,20.295534,0.029266,0.008307,25.419931,0.022149,-0.000251,0.011463,1.570307,-0.032906,-0.000257,0.000082,0.000025,-0.003040,-0.000004,0.005781,-0.001986,0.185581,0.036909,0.188505,0.188504,0.172680,0.701774,0.000000,0.000000,0.000000,0.000000,0.000000,0.000000,0.000000,0.000000,0.000000,0.000000,0.000000,0.000000,0.179761,3,0
800000,0.001944,20.554916,0.029000,0.008304,25.430199,0.021788,-0.000249,0.011865,1.570301,-0.033819,-0.000269,0.000182,0.000027,-0.003159,-0.000005,0.004394,-0.002007,0.164085,-0.017078,0.189072,0.189072,0.172786,0.694015,0.000000,0.000000,0.000000,0.000000,0.000000,0.000000,0.000000,0.000000,0.000000,0.000000,0.000000,0.000000,0.158926,3,0
810000,0.001965,20.812498,0.028713,0.008369,25.437153,0.021083,-0.000258,0.012136,1.570297,-0.034401,-0.000280,0.000287,0.000028,-0.003236,-0.000005,0.001776,-0.002029,0.103388,-0.017556,0.189630,0.189629,0.172881,0.686302,0.000000,0.000000,0.000000,0.000000,0.000000,0.000000,0.000000,0.000000,0.000000,0.000000,0.000000,0.000000,0.100140,3,0
820000,0.001985,21.073334,0.029045,0.008431,25.449654,0.021468,-0.000269,0.012638,1.570300,-0.035558,-0.000292,0.000261,0.000030,-0.003392,-0.000005,0.006690,-0.002050,0.203558,0.004074,0.190176,0.190175,0.172964,0.678641,0.000000,0.000000,0.000000,0.000000,0.000000,0.000000,0.000000,0.000000,0.000000,0.000000,0.000000,0.000000,0.197115,3,0
830000,0.002005,21.333601,0.029970,0.008412,25.460993,0.022687,-0.000276,0.013107,1.570291,-0.036597,-0.000304,0.000108,0.000031,-0.003534,-0.000005,0.005393,-0.002071,0.181145,0.024570,0.190711,0.190710,0.173034,0.671035,0.000000,0.000000,0.000000,0.000000,0.000000,0.000000,0.000000,0.000000,0.000000,0.000000,0.000000,0.000000,0.175398,3,0
840000,0.002023,21.593302,0.028960,0.008400,25.471191,0.021022,-0.000280,0.013522,1.570278,-0.037520,-0.000317,0.000375,0.000033,-0.003662,-0.000005,0.004394,-0.002090,0.159309,-0.042952,0.191234,0.191233,0.173091,0.663489,0.000000,0.000000,0.000000,0.000000,0.000000,0.000000,0.000000,0.000000,0.000000,0.000000,0.000000,0.000000,0.154245,3,0
850000,0.002042,21.853073,0.027628,0.008416,25.481398,0.018979,-0.000286,0.013937,1.570282,-0.038443,-0.000329,0.000712,0.000035,-0.003793,-0.000006,0.004489,-0.002109,0.157934,-0.053563,0.191744,0.191743,0.173135,0.656009,0.000000,0.000000,0.000000,0.000000,0.000000,0.000000,0.000000,0.000000,0.000000,0.000000,0.000000,0.000000,0.152901,3,0
860000,0.002058,22.114824,0.027049,0.008324,25.494934,0.018071,-0.000286,0.014511,1.570282,-0.039717,-0.000342,0.000881,0.000037,-0.003975,-0.000006,0.007652,-0.002126,0.216122,-0.026731,0.192242,0.192241,0.173165,0.648598,0.000000,0.000000,0.000000,0.000000,0.000000,0.000000,0.000000,0.000000,0.000000,0.000000,0.000000,0.000000,0.209208,3,0
870000,0.002073,22.376617,0.028225,0.008314,25.508408,0.019910,-0.000301,0.015101,1.570282,-0.040981,-0.000355,0.000657,0.000038,-0.004160,-0.000006,0.007486,-0.002142,0.212662,0.034295,0.192726,0.192725,0.173181,0.641260,0.000000,0.000000,0.000000,0.000000,0.000000,0.000000,0.000000,0.000000,0.000000,0.000000,0.000000,0.000000,0.205842,3,0
880000,0.002088,22.639093,0.027554,0.008299,25.522940,0.018714,-0.000310,0.015746,1.570279,-0.042352,-0.000368,0.000852,0.000040,-0.004363,-0.000006,0.008610,-0.002158,0.229036,-0.030193,0.193197,0.193196,0.173183,0.633999,0.000000,0.000000,0.000000,0.000000,0.000000,0.000000,0.000000,0.000000,0.000000,0.000000,0.000000,0.000000,0.221670,3,0
890000,0.002102,22.899672,0.028898,0.008224,25.533957,0.020548,-0.000320,0.016231,1.570274,-0.043348,-0.000382,0.000586,0.000042,-0.004513,-0.000007,0.004662,-0.002172,0.165203,0.040032,0.193655,0.193654,0.173170,0.626818,0.000000,0.000000,0.000000,0.000000,0.000000,0.000000,0.000000,0.000000,0.000000,0.000000,0.000000,0.000000,0.159884,3,0
900000,0.002114,23.157728,0.027634,0.008181,25.540464,0.018524,-0.000333,0.016488,1.570276,-0.043856,-0.000395,0.000926,0.000044,-0.004590,-0.000007,0.001544,-0.002185,0.083424,-0.050980,0.194099,0.194098,0.173144,0.619721,0.000000,0.000000,0.000000,0.000000,0.000000,0.000000,0.000000,0.000000,0.000000,0.000000,0.000000,0.000000,0.080752,3,0
910000,0.002126,23.418444,0.027830,0.008138,25.551508,0.018817,-0.000334,0.016978,1.570276,-0.044854,-0.000409,0.000922,0.000046,-0.004745,-0.000007,0.004298,-0.002197,0.163244,0.000293,0.194530,0.194529,0.173103,0.612710,0.000000,0.000000,0.000000,0.000000,0.000000,0.000000,0.000000,0.000000,0.000000,0.000000,0.000000,0.000000,0.157966,3,0
920000,0.002136,23.679203,0.028768,0.008074,25.562590,0.019972,-0.000350,0.017460,1.570263,-0.045844,-0.000423,0.000742,0.000049,-0.004901,-0.000007,0.004282,-0.002208,0.160843,0.025970,0.194947,0.194946,0.173048,0.605788,0.000000,0.000000,0.000000,0.000000,0.000000,0.000000,0.000000,0.000000,0.000000,0.000000,0.000000,0.000000,0.155631,3,0
930000,0.002146,23.939358,0.028366,0.008104,25.572353,0.019211,-0.000350,0.017889,1.570268,-0.046702,-0.000437,0.000885,0.000051,-0.005039,-0.000007,0.003165,-0.002218,0.138519,-0.020919,0.195351,0.195350,0.172979,0.598958,0.000000,0.000000,0.000000,0.000000,0.000000,0.000000,0.000000,0.000000,0.000000,0.000000,0.000000,0.000000,0.134026,3,0
940000,0.002156,24.200857,0.029235,0.008115,25.584440,0.020371,-0.000358,0.018441,1.570265,-0.047801,-0.000451,0.000719,0.000053,-0.005218,-0.000008,0.005110,-0.002228,0.176453,0.023414,0.195741,0.195740,0.172896,0.592222,0.000000,0.000000,0.000000,0.000000,0.000000,0.000000,0.000000,0.000000,0.000000,0.000000,0.000000,0.000000,0.170710,3,0
950000,0.002165,24.460434,0.028288,0.008158,25.592926,0.018979,-0.000374,0.018809,1.570266,-0.048513,-0.000465,0.000999,0.000055,-0.005335,-0.000008,0.002342,-0.002238,0.113621,-0.040041,0.196119,0.196118,0.172799,0.585581,0.000000,0.000000,0.000000,0.000000,0.000000,0.000000,0.000000,0.000000,0.000000,0.000000,0.000000,0.000000,0.109928,3,0
960000,0.002175,24.719412,0.028578,0.008230,25.600210,0.019287,-0.000379,0.019135,1.570253,-0.049095,-0.000479,0.000973,0.000058,-0.005433,-0.000008,0.001382,-0.002249,0.092505,0.003435,0.196484,0.196482,0.172689,0.579038,0.000000,0.000000,0.000000,0.000000,0.000000,0.000000,0.000000,0.000000,0.000000,0.000000,0.000000,0.000000,0.089502,3,0
970000,0.002186,24.982363,0.027418,0.008269,25.614477,0.017459,-0.000397,0.019825,1.570243,-0.050431,-0.000494,0.001307,0.000060,-0.005660,-0.000008,0.007546,-0.002259,0.211153,-0.047058,0.196836,0.196835,0.172565,0.572594,0.000000,0.000000,0.000000,0.000000,0.000000,0.000000,0.000000,0.000000,0.000000,0.000000,0.000000,0.000000,0.204237,3,0
980000,0.002194,25.244007,0.027060,0.008179,25.626184,0.016718,-0.000408,0.020374,1.570247,-0.051491,-0.000509,0.001438,0.000063,-0.005844,-0.000009,0.004537,-0.002269,0.166729,-0.018520,0.197176,0.197175,0.172429,0.566251,0.000000,0.000000,0.000000,0.000000,0.000000,0.000000,0.000000,0.000000,0.000000,0.000000,0.000000,0.000000,0.161264,3,0
990000,0.002202,25.502398,0.027831,0.008205,25.632139,0.017758,-0.000416,0.020610,1.570243,-0.051899,-0.000523,0.001283,0.000065,-0.005915,-0.000009,0.000732,-0.002278,0.063993,0.020956,0.197504,0.197503,0.172280,0.560009,0.000000,0.000000,0.000000,0.000000,0.000000,0.000000,0.000000,0.000000,0.000000,0.000000,0.000000,0.000000,0.061927,3,0
1000000,0.002210,25.764784,0.027182,0.008127,25.645021,0.016855,-0.000424,0.021228,1.570238,-0.053073,-0.000538,0.001492,0.000068,-0.006125,-0.000009,0.005547,-0.002285,0.183243,-0.028860,0.197821,0.197819,0.172119,0.553870,0.000000,0.000000,0.000000,0.000000,0.000000,0.000000,0.000000,0.000000,0.000000,0.000000,0.000000,0.000000,0.177214,3,0
1010000,0.002217,26.023891,0.027113,0.008186,25.651957,0.016518,-0.000430,0.021530,1.570236,-0.053586,-0.000553,0.001552,0.000071,-0.006217,-0.000009,0.001037,-0.002293,0.079760,-0.008258,0.198126,0.198125,0.171945,0.547834,0.000000,0.000000,0.000000,0.000000,0.000000,0.000000,0.000000,0.000000,0.000000,0.000000,0.000000,0.000000,0.077157,3,0
1020000,0.002225,26.287651,0.025835,0.008194,25.667046,0.014693,-0.000444,0.022299,1.570223,-0.054995,-0.000569,0.001924,0.000073,-0.006476,-0.000009,0.008083,-0.002301,0.218159,-0.050448,0.198421,0.198419,0.171760,0.541903,0.000000,0.000000,0.000000,0.000000,0.000000,0.000000,0.000000,0.000000,0.000000,0.000000,0.000000,0.000000,0.210955,3,0
1030000,0.002231,26.549414,0.026979,0.008086,25.678463,0.016329,-0.000447,0.022850,1.570217,-0.055985,-0.000584,0.001658,0.000076,-0.006661,-0.000010,0.003972,-0.002307,0.153038,0.034838,0.198705,0.198704,0.171563,0.536077,0.000000,0.000000,0.000000,0.000000,0.000000,0.000000,0.000000,0.000000,0.000000,0.000000,0.000000,0.000000,0.147987,3,0
1040000,0.002236,26.812504,0.028329,0.008057,25.692080,0.018243,-0.000455,0.023535,1.570212,-0.057213,-0.000599,0.001337,0.000079,-0.006893,-0.000010,0.006057,-0.002312,0.189342,0.041504,0.198980,0.198978,0.171356,0.530355,0.000000,0.000000,0.000000,0.000000,0.000000,0.000000,0.000000,0.000000,0.000000,0.000000,0.000000,0.000000,0.183077,3,0
1050000,0.002240,27.072937,0.029445,0.008036,25.700726,0.019793,-0.000457,0.023950,1.570212,-0.057896,-0.000614,0.001083,0.000082,-0.007024,-0.000010,0.001951,-0.002317,0.105028,0.032683,0.199245,0.199243,0.171138,0.524739,0.000000,0.000000,0.000000,0.000000,0.000000,0.000000,0.000000,0.000000,0.000000,0.000000,0.000000,0.000000,0.101566,3,0
1060000,0.002244,27.331409,0.028356,0.007933,25.705803,0.018359,-0.000465,0.024148,1.570214,-0.058180,-0.000630,0.001432,0.000085,-0.007079,-0.000010,0.000635,-0.002321,0.043299,-0.045305,0.199501,0.199499,0.170910,0.519228,0.000000,0.000000,0.000000,0.000000,0.000000,0.000000,0.000000,0.000000,0.000000,0.000000,0.000000,0.000000,0.041919,3,0
1070000,0.002247,27.590593,0.027937,0.007858,25.712091,0.017638,-0.000485,0.024421,1.570219,-0.058593,-0.000645,0.001595,0.000088,-0.007161,-0.000010,0.000715,-0.002324,0.063080,-0.021188,0.199749,0.199746,0.170672,0.513823,0.000000,0.000000,0.000000,0.000000,0.000000,0.000000,0.000000,0.000000,0.000000,0.000000,0.000000,0.000000,0.061021,3,0
1080000,0.002248,27.849154,0.026664,0.007757,25.717218,0.015657,-0.000488,0.024637,1.570208,-0.058872,-0.000660,0.001995,0.000091,-0.007217,-0.000011,0.000711,-0.002326,0.042379,-0.050982,0.199988,0.199985,0.170425,0.508522,0.000000,0.000000,0.000000,0.000000,0.000000,0.000000,0.000000,0.000000,0.000000,0.000000,0.000000,0.000000,0.041028,3,0
1090000,0.002250,28.110415,0.025339,0.007717,25.727036,0.013974,-0.000494,0.025128,1.570211,-0.059673,-0.000676,0.002404,0.000094,-0.007381,-0.000011,0.002830,-0.002327,0.121710,-0.052290,0.200219,0.200217,0.170169,0.503327,0.000000,0.000000,0.000000,0.000000,0.000000,0.000000,0.000000,0.000000,0.000000,0.000000,0.000000,0.000000,0.117669,3,0
1100000,0.002251,28.369688,0.026151,0.007761,25.733160,0.014902,-0.000507,0.025391,1.570196,-0.060061,-0.000692,0.002213,0.000097,-0.007461,-0.000011,0.000656,-0.002329,0.059139,0.023765,0.200444,0.200441,0.169904,0.498235,0.000000,0.000000,0.000000,0.000000,0.000000,0.000000,0.000000,0.000000,0.000000,0.000000,0.000000,0.000000,0.057208,3,0
1110000,0.002252,28.628328,0.027487,0.007790,25.738104,0.016832,-0.000518,0.025589,1.570185,-0.060312,-0.000707,0.001875,0.000101,-0.007513,-0.000011,0.000522,-0.002330,0.038349,0.041871,0.200662,0.200658,0.169631,0.493248,0.000000,0.000000,0.000000,0.000000,0.000000,0.000000,0.000000,0.000000,0.000000,0.000000,0.000000,0.000000,0.037136,3,0
1120000,0.002252,28.890341,0.028531,0.007764,25.749079,0.018027,-0.000538,0.026160,1.570182,-0.061217,-0.000722,0.001619,0.000104,-0.007706,-0.000011,0.003203,-0.002331,0.137480,0.031132,0.200873,0.200870,0.169350,0.488364,0.000000,0.000000,0.000000,0.000000,0.000000,0.000000,0.000000,0.000000,0.000000,0.000000,0.000000,0.000000,0.132896,3,0
1130000,0.002253,29.149012,0.029302,0.007741,25.753956,0.018928,-0.000552,0.026355,1.570170,-0.061443,-0.000738,0.001447,0.000107,-0.007755,-0.000011,0.000262,-0.002331,0.034388,0.020937,0.201078,0.201075,0.169062,0.483583,0.000000,0.000000,0.000000,0.000000,0.000000,0.000000,0.000000,0.000000,0.000000,0.000000,0.000000,0.000000,0.033312,3,0
1140000,0.002254,29.409725,0.028286,0.007740,25.762300,0.017651,-0.000567,0.026772,1.570173,-0.062064,-0.000754,0.001795,0.000111,-0.007891,-0.000012,0.001714,-0.002332,0.093731,-0.042882,0.201278,0.201274,0.168767,0.478903,0.000000,0.000000,0.000000,0.000000,0.000000,0.000000,0.000000,0.000000,0.000000,0.000000,0.000000,0.000000,0.090614,3,0
1150000,0.002254,29.673115,0.028514,0.007712,25.775368,0.017777,-0.000582,0.027489,1.570167,-0.063192,-0.000769,0.001771,0.000114,-0.008142,-0.000012,0.004705,-0.002332,0.170876,0.001979,0.201473,0.201469,0.168466,0.474325,0.000000,0.000000,0.000000,0.000000,0.000000,0.000000,0.000000,0.000000,0.000000,0.000000,0.000000,0.000000,0.165154,3,0
1160000,0.002254,29.932463,0.028538,0.007717,25.781084,0.017769,-0.000592,0.027745,1.570164,-0.063500,-0.000785,0.001815,0.000118,-0.008212,-0.000012,0.000354,-0.002333,0.046507,-0.005523,0.201663,0.201659,0.168158,0.469846,0.000000,0.000000,0.000000,0.000000,0.000000,0.000000,0.000000,0.000000,0.000000,0.000000,0.000000,0.000000,0.044999,3,0
1170000,0.002255,30.191837,0.027489,0.007746,25.786812,0.016155,-0.000596,0.027991,1.570154,-0.063802,-0.000801,0.002179,0.000121,-0.008281,-0.000012,0.000646,-0.002333,0.045527,-0.043814,0.201849,0.201845,0.167845,0.465467,0.000000,0.000000,0.000000,0.000000,0.000000,0.000000,0.000000,0.000000,0.000000,0.000000,0.000000,0.000000,0.044051,3,0
1180000,0.002255,30.451235,0.027205,0.007729,25.792557,0.015585,-0.000616,0.028239,1.570140,-0.064097,-0.000816,0.002311,0.000125,-0.008350,-0.000012,0.000361,-0.002334,0.044521,-0.015915,0.202032,0.202027,0.167526,0.461187,0.000000,0.000000,0.000000,0.000000,0.000000,0.000000,0.000000,0.000000,0.000000,0.000000,0.000000,0.000000,0.043081,3,0
1190000,0.002254,30.712666,0.027738,0.007605,25.801775,0.016083,-0.000631,0.028717,1.570144,-0.064777,-0.000832,0.002190,0.000128,-0.008510,-0.000012,0.001744,-0.002333,0.103130,0.013652,0.202211,0.202205,0.167202,0.457003,0.000000,0.000000,0.000000,0.000000,0.000000,0.000000,0.000000,0.000000,0.000000,0.000000,0.000000,0.000000,0.099681,3,0
1200000,0.002253,30.974089,0.027864,0.007609,25.810936,0.016070,-0.000642,0.029183,1.570139,-0.065437,-0.000847,0.002195,0.000132,-0.008668,-0.000013,0.001613,-0.002331,0.100031,-0.001109,0.202386,0.202381,0.166874,0.452915,0.000000,0.000000,0.000000,0.000000,0.000000,0.000000,0.000000,0.000000,0.000000,0.000000,0.000000,0.000000,0.096683,3,0
1210000,0.002252,31.232821,0.027580,0.007621,25.815247,0.015549,-0.000660,0.029332,1.570141,-0.065553,-0.000863,0.002331,0.000136,-0.008696,-0.000013,0.000091,-0.002330,0.017426,-0.016040,0.202559,0.202554,0.166541,0.448922,0.000000,0.000000,0.000000,0.000000,0.000000,0.000000,0.000000,0.000000,0.000000,0.000000,0.000000,0.000000,0.016986,3,0
1220000,0.002250,31.494942,0.026986,0.007586,25.825382,0.014554,-0.000677,0.029895,1.570132,-0.066321,-0.000879,0.002557,0.000139,-0.008885,-0.000013,0.002302,-0.002329,0.116472,-0.026881,0.202730,0.202724,0.166205,0.445022,0.000000,0.000000,0.000000,0.000000,0.000000,0.000000,0.000000,0.000000,0.000000,0.000000,0.000000,0.000000,0.112558,3,0
1230000,0.002249,31.756367,0.027187,0.007616,25.834251,0.014655,-0.000697,0.030353,1.570137,-0.066932,-0.000894,0.002533,0.000143,-0.009038,-0.000013,0.001388,-0.002328,0.092794,0.002146,0.202899,0.202892,0.165865,0.441215,0.000000,0.000000,0.000000,0.000000,0.000000,0.000000,0.000000,0.000000,0.000000,0.000000,0.000000,0.000000,0.089685,3,0
1240000,0.002247,32.020470,0.026175,0.007488,25.847637,0.013283,-0.000702,0.031136,1.570141,-0.068045,-0.000910,0.002888,0.000147,-0.009321,-0.000014,0.004895,-0.002326,0.169228,-0.041780,0.203066,0.203059,0.165521,0.437498,0.000000,0.000000,0.000000,0.000000,0.000000,0.000000,0.000000,0.000000,0.000000,0.000000,0.000000,0.000000,0.163513,3,0
1250000,0.002245,32.282497,0.025207,0.007498,25.857317,0.011887,-0.000711,0.031668,1.570130,-0.068728,-0.000926,0.003232,0.000151,-0.009496,-0.000014,0.001992,-0.002324,0.103775,-0.039828,0.203231,0.203224,0.165175,0.433872,0.000000,0.000000,0.000000,0.000000,0.000000,0.000000,0.000000,0.000000,0.000000,0.000000,0.000000,0.000000,0.100283,3,0
1260000,0.002243,32.541801,0.025309,0.007524,25.861950,0.012049,-0.000720,0.031846,1.570115,-0.068863,-0.000941,0.003236,0.000155,-0.009532,-0.000014,0.000069,-0.002322,0.020561,-0.000638,0.203396,0.203389,0.164827,0.430334,0.000000,0.000000,0.000000,0.000000,0.000000,0.000000,0.000000,0.000000,0.000000,0.000000,0.000000,0.000000,0.019989,3,0
1270000,0.002240,32.803822,0.025591,0.007442,25.871426,0.012296,-0.000731,0.032354,1.570111,-0.069510,-0.000956,0.003175,0.000159,-0.009703,-0.000014,0.001590,-0.002319,0.099152,0.006086,0.203560,0.203552,0.164476,0.426882,0.000000,0.000000,0.000000,0.000000,0.000000,0.000000,0.000000,0.000000,0.000000,0.000000,0.000000,0.000000,0.095813,3,0
1280000,0.002236,33.067837,0.026213,0.007313,25.884375,0.012910,-0.000741,0.033119,1.570110,-0.070521,-0.000972,0.002999,0.000163,-0.009974,-0.000015,0.003930,-0.002315,0.155098,0.018549,0.203724,0.203715,0.164123,0.423517,0.000000,0.000000,0.000000,0.000000,0.000000,0.000000,0.000000,0.000000,0.000000,0.000000,0.000000,0.000000,0.149850,3,0
1290000,0.002232,33.329094,0.025400,0.007273,25.892235,0.011920,-0.000760,0.033509,1.570102,-0.070977,-0.000987,0.003304,0.000167,-0.010099,-0.000015,0.000979,-0.002310,0.069862,-0.034462,0.203887,0.203878,0.163768,0.420235,0.000000,0.000000,0.000000,0.000000,0.000000,0.000000,0.000000,0.000000,0.000000,0.000000,0.000000,0.000000,0.067523,3,0
1300000,0.002227,33.587624,0.025038,0.007223,25.895069,0.011610,-0.000769,0.033540,1.570103,-0.070897,-0.001002,0.003466,0.000171,-0.010076,-0.000015,0.000078,-0.002306,-0.012562,-0.017797,0.204050,0.204041,0.163412,0.417036,0.000000,0.000000,0.000000,0.000000,0.000000,0.000000,0.000000,0.000000,0.000000,0.000000,0.000000,0.000000,0.012337,3,0
1310000,0.002222,33.848209,0.024974,0.007204,25.901575,0.011388,-0.000785,0.033838,1.570089,-0.071201,-0.001017,0.003521,0.000176,-0.010162,-0.000015,0.000362,-0.002301,0.046940,-0.006502,0.204214,0.204204,0.163055,0.413919,0.000000,0.000000,0.000000,0.000000,0.000000,0.000000,0.000000,0.000000,0.000000,0.000000,0.000000,0.000000,0.045396,3,0
1320000,0.002217,34.109459,0.025649,0.007155,25.909145,0.012155,-0.000800,0.034227,1.570076,-0.071616,-0.001032,0.003326,0.000180,-0.010280,-0.000015,0.000743,-0.002295,0.064598,0.020809,0.204378,0.204368,0.162697,0.410881,0.000000,0.000000,0.000000,0.000000,0.000000,0.000000,0.000000,0.000000,0.000000,0.000000,0.000000,0.000000,0.062440,3,0
1330000,0.002211,34.372726,0.024518,0.007039,25.920229,0.010485,-0.000814,0.034877,1.570064,-0.072399,-0.001047,0.003739,0.000184,-0.010506,-0.000015,0.002713,-0.002289,0.121334,-0.045956,0.204543,0.204532,0.162339,0.407922,0.000000,0.000000,0.000000,0.000000,0.000000,0.000000,0.000000,0.000000,0.000000,0.000000,0.000000,0.000000,0.117216,3,0
1340000,0.002205,34.636620,0.023521,0.007044,25.932409,0.009194,-0.000835,0.035594,1.570065,-0.073275,-0.001063,0.004102,0.000188,-0.010763,-0.000016,0.003255,-0.002283,0.136257,-0.040484,0.204709,0.204697,0.161980,0.405040,0.000000,0.000000,0.000000,0.000000,0.000000,0.000000,0.000000,0.000000,0.000000,0.000000,0.000000,0.000000,0.131626,3,0
1350000,0.002199,34.898411,0.022454,0.006911,25.940647,0.007832,-0.000849,0.036028,1.570061,-0.073731,-0.001078,0.004494,0.000193,-0.010899,-0.000016,0.001111,-0.002276,0.071033,-0.042848,0.204875,0.204863,0.161621,0.402233,0.000000,0.000000,0.000000,0.000000,0.000000,0.000000,0.000000,0.000000,0.000000,0.000000,0.000000,0.000000,0.068639,3,0
1360000,0.002191,35.161526,0.022483,0.006856,25.951225,0.007858,-0.000870,0.036629,1.570052,-0.074415,-0.001092,0.004499,0.000197,-0.011105,-0.000016,0.001856,-0.002269,0.107342,-0.001537,0.205043,0.205030,0.161263,0.399502,0.000000,0.000000,0.000000,0.000000,0.000000,0.000000,0.000000,0.000000,0.000000,0.000000,0.000000,0.000000,0.103695,3,0
1370000,0.002183,35.422546,0.021689,0.006718,25.957855,0.006846,-0.000881,0.036935,1.570039,-0.074689,-0.001107,0.004800,0.000201,-0.011189,-0.000017,0.000468,-0.002260,0.042908,-0.032457,0.205212,0.205199,0.160905,0.396842,0.000000,0.000000,0.000000,0.000000,0.000000,0.000000,0.000000,0.000000,0.000000,0.000000,0.000000,0.000000,0.041496,3,0
1380000,0.002173,35.683540,0.022618,0.006614,25.964424,0.008093,-0.000893,0.037232,1.570027,-0.074941,-0.001121,0.004492,0.000206,-0.011267,-0.000017,0.000430,-0.002250,0.040245,0.032225,0.205383,0.205369,0.160547,0.394254,0.000000,0.000000,0.000000,0.000000,0.000000,0.000000,0.000000,0.000000,0.000000,0.000000,0.000000,0.000000,0.038932,3,0
1390000,0.002163,35.942471,0.022962,0.006535,25.967087,0.008690,-0.000917,0.037231,1.570028,-0.074802,-0.001135,0.004402,0.000210,-0.011223,-0.000017,0.000094,-0.002240,-0.022022,0.009668,0.205555,0.205540,0.160191,0.391735,0.000000,0.000000,0.000000,0.000000,0.000000,0.000000,0.000000,0.000000,0.000000,0.000000,0.000000,0.000000,0.021377,3,0
1400000,0.002153,36.205498,0.023038,0.006510,25.977100,0.008595,-0.000934,0.037806,1.570022,-0.075407,-0.001149,0.004393,0.000215,-0.011416,-0.000017,0.001506,-0.002229,0.096718,-0.000037,0.205729,0.205713,0.159835,0.389284,0.000000,0.000000,0.000000,0.000000,0.000000,0.000000,0.000000,0.000000,0.000000,0.000000,0.000000,0.000000,0.093428,3,0
1410000,0.002142,36.465736,0.023238,0.006419,25.981962,0.008858,-0.000956,0.037971,1.570023,-0.075485,-0.001163,0.004351,0.000219,-0.011441,-0.000017,0.000029,-0.002218,0.012505,0.004291,0.205904,0.205888,0.159481,0.386900,0.000000,0.000000,0.000000,0.000000,0.000000,0.000000,0.000000,0.000000,0.000000,0.000000,0.000000,0.000000,0.012266,3,0
1420000,0.002132,36.729378,0.023338,0.006395,25.992857,0.008937,-0.000968,0.038625,1.570011,-0.076167,-0.001177,0.004331,0.000224,-0.011665,-0.000017,0.001950,-0.002207,0.110035,0.000844,0.206081,0.206065,0.159128,0.384582,0.000000,0.000000,0.000000,0.000000,0.000000,0.000000,0.000000,0.000000,0.000000,0.000000,0.000000,0.000000,0.106276,3,0
1430000,0.002120,36.992260,0.024443,0.006263,26.002384,0.010298,-0.000988,0.039151,1.570004,-0.076687,-0.001191,0.003947,0.000228,-0.011838,-0.000018,0.001402,-0.002196,0.084831,0.038671,0.206260,0.206243,0.158776,0.382328,0.000000,0.000000,0.000000,0.000000,0.000000,0.000000,0.000000,0.000000,0.000000,0.000000,0.000000,0.000000,0.081948,3,0
1440000,0.002107,37.250298,0.025234,0.006136,26.002956,0.011367,-0.000995,0.038955,1.569994,-0.076324,-0.001204,0.003704,0.000233,-0.011715,-0.000017,0.000666,-0.002182,-0.058872,0.025698,0.206441,0.206423,0.158427,0.380136,0.000000,0.000000,0.000000,0.000000,0.000000,0.000000,0.000000,0.000000,0.000000,0.000000,0.000000,0.000000,0.056882,3,0
1450000,0.002094,37.512466,0.024550,0.006023,26.011034,0.010507,-0.001003,0.039375,1.569982,-0.076697,-0.001217,0.003991,0.000237,-0.011843,-0.000018,0.000742,-0.002169,0.060783,-0.030052,0.206624,0.206605,0.158079,0.378006,0.000000,0.000000,0.000000,0.000000,0.000000,0.000000,0.000000,0.000000,0.000000,0.000000,0.000000,0.000000,0.058723,3,0
1460000,0.002082,37.771164,0.023737,0.006030,26.012653,0.009702,-0.001010,0.039262,1.569967,-0.076442,-0.001230,0.004342,0.000242,-0.011755,-0.000017,0.000492,-0.002156,-0.042439,-0.035243,0.206809,0.206789,0.157734,0.375935,0.000000,0.000000,0.000000,0.000000,0.000000,0.000000,0.000000,0.000000,0.000000,0.000000,0.000000,0.000000,0.041034,3,0
1470000,0.002068,38.029171,0.024169,0.005854,26.013096,0.010085,-0.001019,0.039032,1.569958,-0.076064,-0.001243,0.004226,0.000246,-0.011621,-0.000017,0.000657,-0.002142,-0.062603,0.012499,0.206996,0.206975,0.157390,0.373923,0.000000,0.000000,0.000000,0.000000,0.000000,0.000000,0.000000,0.000000,0.000000,0.000000,0.000000,0.000000,0.060475,3,0
1480000,0.002053,38.289261,0.023814,0.005687,26.017174,0.009663,-0.001033,0.039127,1.569952,-0.076050,-0.001256,0.004400,0.000251,-0.011617,-0.000017,0.000051,-0.002126,-0.002552,-0.017472,0.207185,0.207163,0.157049,0.371967,0.000000,0.000000,0.000000,0.000000,0.000000,0.000000,0.000000,0.000000,0.000000,0.000000,0.000000,0.000000,0.003210,3,0
1490000,0.002036,38.552765,0.024175,0.005500,26.027407,0.010192,-0.001050,0.039735,1.569946,-0.076615,-0.001269,0.004283,0.000256,-0.011822,-0.000018,0.001475,-0.002109,0.095139,0.010508,0.207375,0.207352,0.156711,0.370067,0.000000,0.000000,0.000000,0.000000,0.000000,0.000000,0.000000,0.000000,0.000000,0.000000,0.000000,0.000000,0.091873,3,0
1500000,0.002021,38.812077,0.023090,0.005506,26.029924,0.008791,-0.001059,0.039689,1.569937,-0.076445,-0.001281,0.004744,0.000260,-0.011760,-0.000017,0.000478,-0.002092,-0.029320,-0.045720,0.207568,0.207544,0.156375,0.368221,0.000000,0.000000,0.000000,0.000000,0.000000,0.000000,0.000000,0.000000,0.000000,0.000000,0.000000,0.000000,0.028385,3,0
1510000,0.002004,39.072754,0.022042,0.005374,26.034916,0.007596,-0.001077,0.039850,1.569922,-0.076504,-0.001294,0.005182,0.000265,-0.011783,-0.000018,0.000325,-0.002076,0.009533,-0.043688,0.207762,0.207737,0.156042,0.366428,0.000000,0.000000,0.000000,0.000000,0.000000,0.000000,0.000000,0.000000,0.000000,0.000000,0.000000,0.000000,0.009413,3,0
1520000,0.001987,39.334087,0.021404,0.005228,26.040894,0.006781,-0.001086,0.040110,1.569911,-0.076664,-0.001306,0.005455,0.000269,-0.011845,-0.000018,0.000241,-0.002058,0.027111,-0.027397,0.207958,0.207932,0.155712,0.364686,0.000000,0.000000,0.000000,0.000000,0.000000,0.000000,0.000000,0.000000,0.000000,0.000000,0.000000,0.000000,0.026244,3,0
1530000,0.001969,39.592613,0.022147,0.005217,26.041759,0.007805,-0.001098,0.039910,1.569913,-0.076341,-0.001318,0.005202,0.000274,-0.011720,-0.000017,0.000601,-0.002040,-0.055374,0.025709,0.208155,0.208129,0.155384,0.362994,0.000000,0.000000,0.000000,0.000000,0.000000,0.000000,0.000000,0.000000,0.000000,0.000000,0.000000,0.000000,0.053484,3,0
1540000,0.001950,39.851830,0.023510,0.005070,26.043736,0.009341,-0.001115,0.039822,1.569901,-0.076133,-0.001329,0.004703,0.000278,-0.011637,-0.000017,0.000602,-0.002021,-0.035603,0.049500,0.208355,0.208327,0.155060,0.361351,0.000000,0.000000,0.000000,0.000000,0.000000,0.000000,0.000000,0.000000,0.000000,0.000000,0.000000,0.000000,0.034414,3,0
1550000,0.001933,40.115192,0.023277,0.005035,26.053410,0.008976,-0.001122,0.040374,1.569904,-0.076607,-0.001341,0.004815,0.000283,-0.011826,-0.000018,0.001129,-0.002002,0.082855,-0.012152,0.208556,0.208527,0.154739,0.359757,0.000000,0.000000,0.000000,0.000000,0.000000,0.000000,0.000000,0.000000,0.000000,0.000000,0.000000,0.000000,0.079998,3,0
1560000,0.001913,40.378471,0.024111,0.004854,26.062807,0.009754,-0.001131,0.040900,1.569901,-0.077045,-0.001352,0.004501,0.000288,-0.012002,-0.000018,0.001116,-0.001982,0.077824,0.029445,0.208758,0.208728,0.154422,0.358209,0.000000,0.000000,0.000000,0.000000,0.000000,0.000000,0.000000,0.000000,0.000000,0.000000,0.000000,0.000000,0.075147,3,0
1570000,0.001894,40.638916,0.023824,0.004761,26.066824,0.009211,-0.001141,0.040963,1.569896,-0.077009,-0.001363,0.004657,0.000292,-0.011987,-0.000018,0.000044,-0.001962,-0.006638,-0.015004,0.208961,0.208930,0.154107,0.356706,0.000000,0.000000,0.000000,0.000000,0.000000,0.000000,0.000000,0.000000,0.000000,0.000000,0.000000,0.000000,0.006683,3,0
1580000,0.001874,40.897247,0.024040,0.004653,26.066996,0.009488,-0.001152,0.040689,1.569881,-0.076628,-0.001373,0.004622,0.000297,-0.011829,-0.000018,0.000755,-0.001942,-0.068336,0.004357,0.209166,0.209134,0.153796,0.355247,0.000000,0.000000,0.000000,0.000000,0.000000,0.000000,0.000000,0.000000,0.000000,0.000000,0.000000,0.000000,0.065979,3,0
1590000,0.001853,41.155575,0.024666,0.004479,26.066967,0.010171,-0.001170,0.040405,1.569868,-0.076251,-0.001384,0.004423,0.000301,-0.011668,-0.000017,0.000816,-0.001920,-0.068241,0.020273,0.209372,0.209338,0.153489,0.353830,0.000000,0.000000,0.000000,0.000000,0.000000,0.000000,0.000000,0.000000,0.000000,0.000000,0.000000,0.000000,0.065883,3,0
1600000,0.001832,41.414604,0.024664,0.004401,26.068266,0.010034,-0.001182,0.040241,1.569864,-0.075987,-0.001394,0.004476,0.000305,-0.011555,-0.000017,0.000378,-0.001898,-0.048264,-0.004399,0.209578,0.209544,0.153185,0.352455,0.000000,0.000000,0.000000,0.000000,0.000000,0.000000,0.000000,0.000000,0.000000,0.000000,0.000000,0.000000,0.046613,3,0
1610000,0.001811,41.677792,0.024871,0.004404,26.077244,0.010061,-0.001192,0.040732,1.569861,-0.076368,-0.001404,0.004415,0.000310,-0.011721,-0.000018,0.000801,-0.001877,0.070393,0.004732,0.209786,0.209750,0.152885,0.351121,0.000000,0.000000,0.000000,0.000000,0.000000,0.000000,0.000000,0.000000,0.000000,0.000000,0.000000,0.000000,0.067956,3,0
1620000,0.001791,41.940216,0.023911,0.004339,26.084723,0.008819,-0.001219,0.041106,1.569850,-0.076616,-0.001415,0.004843,0.000314,-0.011833,-0.000018,0.000614,-0.001856,0.045662,-0.041375,0.209994,0.209957,0.152588,0.349826,0.000000,0.000000,0.000000,0.000000,0.000000,0.000000,0.000000,0.000000,0.000000,0.000000,0.000000,0.000000,0.044092,3,0
1630000,0.001771,42.199085,0.023879,0.004282,26.085442,0.008763,-0.001224,0.040885,1.569851,-0.076309,-0.001424,0.004908,0.000319,-0.011695,-0.000018,0.000542,-0.001835,-0.057804,-0.005206,0.210203,0.210165,0.152295,0.348568,0.000000,0.000000,0.000000,0.000000,0.000000,0.000000,0.000000,0.000000,0.000000,0.000000,0.000000,0.000000,0.055810,3,0
1640000,0.001751,42.460724,0.024798,0.004233,26.091314,0.009939,-0.001246,0.041097,1.569836,-0.076419,-0.001434,0.004555,0.000323,-0.011744,-0.000018,0.000249,-0.001815,0.021259,0.032871,0.210412,0.210373,0.152006,0.347348,0.000000,0.000000,0.000000,0.000000,0.000000,0.000000,0.000000,0.000000,0.000000,0.000000,0.000000,0.000000,0.020594,3,0
1650000,0.001731,42.718822,0.025480,0.004230,26.090492,0.010645,-0.001271,0.040729,1.569828,-0.075993,-0.001442,0.004332,0.000327,-0.011545,-0.000017,0.001148,-0.001794,-0.081406,0.022402,0.210622,0.210582,0.151721,0.346163,0.000000,0.000000,0.000000,0.000000,0.000000,0.000000,0.000000,0.000000,0.000000,0.000000,0.000000,0.000000,0.078564,3,0
1660000,0.001710,42.978325,0.025030,0.004046,26.092230,0.010136,-0.001282,0.040589,1.569818,-0.075781,-0.001452,0.004580,0.000332,-0.011446,-0.000017,0.000357,-0.001772,-0.041309,-0.022474,0.210832,0.210790,0.151440,0.345012,0.000000,0.000000,0.000000,0.000000,0.000000,0.000000,0.000000,0.000000,0.000000,0.000000,0.000000,0.000000,0.039900,3,0
1670000,0.001689,43.237106,0.024507,0.003853,26.092554,0.009680,-0.001302,0.040325,1.569803,-0.075465,-0.001461,0.004864,0.000336,-0.011296,-0.000017,0.000729,-0.001750,-0.062286,-0.025387,0.211042,0.210999,0.151162,0.343894,0.000000,0.000000,0.000000,0.000000,0.000000,0.000000,0.000000,0.000000,0.000000,0.000000,0.000000,0.000000,0.060124,3,0
1680000,0.001667,43.495884,0.023490,0.003732,26.092945,0.008446,-0.001317,0.040054,1.569804,-0.075152,-0.001470,0.005361,0.000340,-0.011145,-0.000017,0.000959,-0.001727,-0.062645,-0.044902,0.211252,0.211208,0.150889,0.342810,0.000000,0.000000,0.000000,0.000000,0.000000,0.000000,0.000000,0.000000,0.000000,0.000000,0.000000,0.000000,0.060474,3,0
1690000,0.001646,43.755348,0.022324,0.003733,26.094442,0.007182,-0.001339,0.039899,1.569788,-0.074940,-0.001479,0.005913,0.000344,-0.011042,-0.000017,0.000710,-0.001705,-0.043118,-0.050255,0.211462,0.211417,0.150619,0.341756,0.000000,0.000000,0.000000,0.000000,0.000000,0.000000,0.000000,0.000000,0.000000,0.000000,0.000000,0.000000,0.041643,3,0
1700000,0.001623,44.014786,0.021647,0.003556,26.095915,0.006584,-0.001355,0.039737,1.569774,-0.074724,-0.001487,0.006252,0.000348,-0.010934,-0.000017,0.000465,-0.001682,-0.044170,-0.030429,0.211672,0.211625,0.150353,0.340732,0.000000,0.000000,0.000000,0.000000,0.000000,0.000000,0.000000,0.000000,0.000000,0.000000,0.000000,0.000000,0.042653,3,0
1710000,0.001601,44.274200,0.020878,0.003526,26.097260,0.005582,-0.001372,0.039573,1.569774,-0.074505,-0.001495,0.006630,0.000352,-0.010824,-0.000017,0.000515,-0.001660,-0.045200,-0.033788,0.211881,0.211833,0.150092,0.339738,0.000000,0.000000,0.000000,0.000000,0.000000,0.000000,0.000000,0.000000,0.000000,0.000000,0.000000,0.000000,0.043643,3,0
1720000,0.001579,44.533573,0.022161,0.003473,26.098476,0.007254,-0.001396,0.039386,1.569761,-0.074280,-0.001503,0.006108,0.000356,-0.010704,-0.000016,0.000727,-0.001637,-0.046204,0.048604,0.212089,0.212040,0.149834,0.338772,0.000000,0.000000,0.000000,0.000000,0.000000,0.000000,0.000000,0.000000,0.000000,0.000000,0.000000,0.000000,0.044587,3,0
