time_us,pos_x,pos_y,pos_z,vel_x,vel_y,vel_z,roll,pitch,yaw,bias_ax,bias_ay,bias_az,bias_gx,bias_gy,bias_gz,nis,innov_x,innov_y,innov_z,cov_pos_x,cov_pos_y,cov_pos_z,cov_yaw,des_speed,des_heading,des_climb,pid_speed,pid_yaw,pid_alt,speed_meas,yaw_meas,climb_meas,fwd_accel,yaw_rate,vert_accel,drift_m,nav_mode,mission_state
0,0.000005,0.149997,-0.000000,0.000838,24.999435,-0.000061,-0.000027,-0.000004,1.570805,0.000000,0.000000,0.000000,0.000000,0.000000,0.000000,0.006250,-0.000008,-0.249997,0.000001,2.400038,2.400038,3.600017,1.000518,0.000000,0.000000,0.000000,0.000000,0.000000,0.000000,0.000000,0.000000,0.000000,0.000000,0.000000,0.000000,0.149997,1,0
10000,0.000015,0.319778,0.019397,0.001636,24.998604,-0.000048,-0.000038,-0.000007,1.570806,0.000001,-0.000000,-0.000000,0.000000,0.000000,0.000000,0.009659,-0.000021,-0.280714,0.051728,1.714420,1.714420,2.250079,1.001073,0.000000,0.000000,0.000000,0.000000,0.000000,0.000000,0.000000,0.000000,0.000000,0.000000,0.000000,0.000000,0.200504,3,0
20000,0.000030,0.544745,0.016845,0.002375,24.997986,-0.000438,-0.000046,-0.000017,1.570796,0.000002,-0.000000,-0.000000,-0.000000,0.000000,0.000000,0.001652,-0.000039,-0.112545,-0.009340,1.333616,1.333616,1.636554,1.001655,0.000000,0.000000,0.000000,0.000000,0.000000,0.000000,0.000000,0.000000,0.000000,0.000000,0.000000,0.000000,0.087530,3,0
30000,0.000051,0.780337,0.024599,0.003230,24.997324,-0.000664,-0.000073,-0.000018,1.570799,0.000003,-0.000000,-0.000001,0.000000,0.000000,0.000000,0.001024,-0.000063,-0.079080,0.036209,1.091392,1.091392,1.286065,1.002257,0.000000,0.000000,0.000000,0.000000,0.000000,0.000000,0.000000,0.000000,0.000000,0.000000,0.000000,0.000000,0.064696,3,0
40000,0.000077,1.030829,0.022669,0.003929,24.996895,-0.001010,-0.000097,-0.000027,1.570801,0.000003,-0.000000,-0.000000,0.000000,0.000000,0.000000,0.000018,-0.000091,0.003398,-0.010876,0.923811,0.923811,1.059385,1.002869,0.000000,0.000000,0.000000,0.000000,0.000000,0.000000,0.000000,0.000000,0.000000,0.000000,0.000000,0.000000,0.002876,3,0
50000,0.000108,1.279653,0.019735,0.004759,24.996420,-0.001490,-0.000122,-0.000043,1.570804,0.000003,-0.000000,0.000000,0.000000,0.000000,0.000000,0.000064,-0.000124,-0.008543,-0.019445,0.801036,0.801036,0.900822,1.003484,0.000000,0.000000,0.000000,0.000000,0.000000,0.000000,0.000000,0.000000,0.000000,0.000000,0.000000,0.000000,0.007403,3,0
60000,0.000143,1.532082,0.018849,0.005487,24.996212,-0.001728,-0.000139,-0.000040,1.570810,0.000002,-0.000000,0.000001,0.000000,-0.000000,-0.000000,0.000071,-0.000162,0.020942,-0.006657,0.707270,0.707270,0.783741,1.004094,0.000000,0.000000,0.000000,0.000000,0.000000,0.000000,0.000000,0.000000,0.000000,0.000000,0.000000,0.000000,0.018474,3,0
70000,0.000185,1.782786,0.025130,0.006319,24.995876,-0.001644,-0.000160,-0.000053,1.570815,0.000002,-0.000000,-0.000003,0.000000,-0.000000,-0.000000,0.000445,-0.000207,0.007062,0.054488,0.633370,0.633370,0.693801,1.004688,0.000000,0.000000,0.000000,0.000000,0.000000,0.000000,0.000000,0.000000,0.000000,0.000000,0.000000,0.000000,0.006319,3,0
80000,0.000231,2.028453,0.030861,0.007063,24.995150,-0.001645,-0.000182,-0.000069,1.570820,0.000006,-0.000000,-0.000009,0.000000,0.000000,0.000000,0.000762,-0.000255,-0.044850,0.055429,0.573673,0.573673,0.622594,1.005260,0.000000,0.000000,0.000000,0.000000,0.000000,0.000000,0.000000,0.000000,0.000000,0.000000,0.000000,0.000000,0.040562,3,0
90000,0.000282,2.279071,0.031353,0.007806,24.994755,-0.001838,-0.000201,-0.000067,1.570814,0.000005,-0.000000,-0.000009,0.000000,0.000000,0.000000,0.000013,-0.000309,0.007676,0.005424,0.524488,0.524488,0.564865,1.005801,0.000000,0.000000,0.000000,0.000000,0.000000,0.000000,0.000000,0.000000,0.000000,0.000000,0.000000,0.000000,0.007010,3,0
100000,0.000338,2.522256,0.033870,0.008580,24.993633,-0.001910,-0.000228,-0.000080,1.570808,0.000018,-0.000000,-0.000014,0.000000,0.000000,0.000000,0.001211,-0.000368,-0.083908,0.029454,0.483303,0.483303,0.517162,1.006301,0.000000,0.000000,0.000000,0.000000,0.000000,0.000000,0.000000,0.000000,0.000000,0.000000,0.000000,0.000000,0.077150,3,0
110000,0.000400,2.775971,0.037480,0.009351,24.993832,-0.001581,-0.000254,-0.000076,1.570802,0.000009,-0.000000,-0.000022,0.000000,0.000000,0.000000,0.000715,-0.000432,0.050617,0.045661,0.448353,0.448353,0.477121,1.006754,0.000000,0.000000,0.000000,0.000000,0.000000,0.000000,0.000000,0.000000,0.000000,0.000000,0.000000,0.000000,0.046836,3,0
120000,0.000466,3.024218,0.034864,0.010086,24.993080,-0.002188,-0.000271,-0.000082,1.570792,0.000014,-0.000000,-0.000015,0.000000,0.000000,0.000000,0.000282,-0.000500,-0.024189,-0.035178,0.418358,0.418358,0.443071,1.007150,0.000000,0.000000,0.000000,0.000000,0.000000,0.000000,0.000000,0.000000,0.000000,0.000000,0.000000,0.000000,0.022507,3,0
130000,0.000536,3.270630,0.033917,0.010795,24.992044,-0.002466,-0.000298,-0.000101,1.570797,0.000028,-0.000000,-0.000011,0.000000,0.000000,0.000000,0.000478,-0.000574,-0.053761,-0.013402,0.392369,0.392369,0.413797,1.007481,0.000000,0.000000,0.000000,0.000000,0.000000,0.000000,0.000000,0.000000,0.000000,0.000000,0.000000,0.000000,0.050248,3,0
140000,0.000612,3.522874,0.031309,0.011607,24.992142,-0.003159,-0.000310,-0.000102,1.570794,0.000017,-0.000001,0.000000,0.000000,0.000000,0.000000,0.000471,-0.000652,0.037780,-0.039876,0.369666,0.369666,0.388393,1.007739,0.000000,0.000000,0.000000,0.000000,0.000000,0.000000,0.000000,0.000000,0.000000,0.000000,0.000000,0.000000,0.035457,3,0
150000,0.000693,3.779988,0.029924,0.012325,24.993473,-0.003622,-0.000324,-0.000101,1.570784,-0.000025,-0.000001,0.000007,0.000000,-0.000001,-0.000000,0.002470,-0.000735,0.123476,-0.022156,0.349695,0.349695,0.366172,1.007916,0.000000,0.000000,0.000000,0.000000,0.000000,0.000000,0.000000,0.000000,0.000000,0.000000,0.000000,0.000000,0.116282,3,0
160000,0.000779,4.034623,0.030350,0.013159,24.994303,-0.003579,-0.000345,-0.000106,1.570781,-0.000057,-0.000001,0.000004,0.000000,-0.000001,-0.000000,0.001148,-0.000824,0.085018,0.008016,0.332020,0.332020,0.346600,1.008003,0.000000,0.000000,0.000000,0.000000,0.000000,0.000000,0.000000,0.000000,0.000000,0.000000,0.000000,0.000000,0.080317,3,0
170000,0.000870,4.289242,0.031239,0.013951,24.995243,-0.003676,-0.000354,-0.000110,1.570772,-0.000095,-0.000002,-0.000003,0.000000,-0.000002,-0.000000,0.001290,-0.000918,0.088800,0.016929,0.316297,0.316297,0.329260,1.007992,0.000000,0.000000,0.000000,0.000000,0.000000,0.000000,0.000000,0.000000,0.000000,0.000000,0.000000,0.000000,0.084124,3,0
180000,0.000966,4.542855,0.031647,0.014688,24.996126,-0.003870,-0.000366,-0.000099,1.570765,-0.000130,-0.000002,-0.000007,0.000000,-0.000003,-0.000000,0.000849,-0.001017,0.072717,0.008565,0.302246,0.302246,0.313817,1.007876,0.000000,0.000000,0.000000,0.000000,0.000000,0.000000,0.000000,0.000000,0.000000,0.000000,0.000000,0.000000,0.069061,3,0
190000,0.001066,4.794635,0.033143,0.015374,24.996405,-0.003544,-0.000388,-0.000101,1.570764,-0.000150,-0.000003,-0.000023,0.000000,-0.000004,-0.000000,0.000376,-0.001120,0.037765,0.030720,0.289641,0.289641,0.300003,1.007647,0.000000,0.000000,0.000000,0.000000,0.000000,0.000000,0.000000,0.000000,0.000000,0.000000,0.000000,0.000000,0.035957,3,0
200000,0.001170,5.049420,0.035042,0.016143,24.997814,-0.002880,-0.000411,-0.000083,1.570764,-0.000210,-0.000003,-0.000046,0.000000,-0.000005,-0.000000,0.001979,-0.001227,0.104045,0.040365,0.278295,0.278295,0.287598,1.007297,0.000000,0.000000,0.000000,0.000000,0.000000,0.000000,0.000000,0.000000,0.000000,0.000000,0.000000,0.000000,0.099226,3,0
210000,0.001279,5.302428,0.033508,0.016785,24.998648,-0.003486,-0.000438,-0.000068,1.570766,-0.000254,-0.000004,-0.000025,0.000000,-0.000007,-0.000000,0.000904,-0.001338,0.067914,-0.032672,0.268053,0.268053,0.276421,1.006818,0.000000,0.000000,0.000000,0.000000,0.000000,0.000000,0.000000,0.000000,0.000000,0.000000,0.000000,0.000000,0.064892,3,0
220000,0.001391,5.557287,0.032900,0.017500,25.000414,-0.003779,-0.000455,-0.000052,1.570765,-0.000333,-0.000005,-0.000016,0.000000,-0.000009,-0.000000,0.002066,-0.001454,0.113081,-0.012908,0.258786,0.258787,0.266321,1.006205,0.000000,0.000000,0.000000,0.000000,0.000000,0.000000,0.000000,0.000000,0.000000,0.000000,0.000000,0.000000,0.108213,3,0
230000,0.001507,5.811325,0.034897,0.018143,25.002087,-0.003212,-0.000465,-0.000038,1.570755,-0.000406,-0.000006,-0.000052,0.000000,-0.000011,-0.000000,0.001856,-0.001573,0.096751,0.047571,0.250385,0.250385,0.257172,1.005449,0.000000,0.000000,0.000000,0.000000,0.000000,0.000000,0.000000,0.000000,0.000000,0.000000,0.000000,0.000000,0.092726,3,0
240000,0.001627,6.067043,0.034964,0.018791,25.004841,-0.003307,-0.000484,-0.000014,1.570748,-0.000523,-0.000008,-0.000054,0.000000,-0.000015,-0.000000,0.003175,-0.001696,0.140879,0.002418,0.242755,0.242755,0.248866,1.004544,0.000000,0.000000,0.000000,0.000000,0.000000,0.000000,0.000000,0.000000,0.000000,0.000000,0.000000,0.000000,0.135189,3,0
250000,0.001751,6.319605,0.034226,0.019500,25.005922,-0.004023,-0.000502,-0.000007,1.570742,-0.000580,-0.000010,-0.000038,0.000000,-0.000017,-0.000000,0.000706,-0.001822,0.064044,-0.017426,0.235818,0.235818,0.241314,1.003484,0.000000,0.000000,0.000000,0.000000,0.000000,0.000000,0.000000,0.000000,0.000000,0.000000,0.000000,0.000000,0.061552,3,0
260000,0.001879,6.573854,0.034936,0.020259,25.008114,-0.003711,-0.000523,0.000014,1.570735,-0.000685,-0.000011,-0.000057,0.000000,-0.000021,-0.000000,0.001987,-0.001954,0.109656,0.019210,0.229504,0.229504,0.234436,1.002262,0.000000,0.000000,0.000000,0.000000,0.000000,0.000000,0.000000,0.000000,0.000000,0.000000,0.000000,0.000000,0.105478,3,0
270000,0.002010,6.830400,0.036563,0.020880,25.011946,-0.002945,-0.000549,0.000070,1.570734,-0.000864,-0.000014,-0.000101,0.000000,-0.000028,-0.000000,0.005136,-0.002088,0.173447,0.043829,0.223754,0.223754,0.228165,1.000872,0.000000,0.000000,0.000000,0.000000,0.000000,0.000000,0.000000,0.000000,0.000000,0.000000,0.000000,0.000000,0.166991,3,0
280000,0.002146,7.082557,0.037239,0.021644,25.013071,-0.002779,-0.000569,0.000073,1.570730,-0.000926,-0.000016,-0.000122,0.000001,-0.000031,-0.000000,0.000563,-0.002227,0.056015,0.019091,0.218515,0.218515,0.222443,0.999311,0.000000,0.000000,0.000000,0.000000,0.000000,0.000000,0.000000,0.000000,0.000000,0.000000,0.000000,0.000000,0.054017,3,0
290000,0.002285,7.334194,0.037124,0.022228,25.013836,-0.003240,-0.000595,0.000079,1.570736,-0.000976,-0.000019,-0.000119,0.000001,-0.000033,-0.000000,0.000291,-0.002369,0.042394,-0.002292,0.213744,0.213744,0.217219,0.997571,0.000000,0.000000,0.000000,0.000000,0.000000,0.000000,0.000000,0.000000,0.000000,0.000000,0.000000,0.000000,0.040947,3,0
300000,0.002427,7.586045,0.035399,0.022927,25.014830,-0.004561,-0.000609,0.000096,1.570734,-0.001037,-0.000022,-0.000060,0.000001,-0.000035,-0.000000,0.000757,-0.002515,0.049175,-0.047766,0.209398,0.209398,0.212446,0.995649,0.000000,0.000000,0.000000,0.000000,0.000000,0.000000,0.000000,0.000000,0.000000,0.000000,0.000000,0.000000,0.047521,3,0
310000,0.002573,7.842863,0.033675,0.023588,25.019796,-0.005988,-0.000620,0.000173,1.570731,-0.001298,-0.000026,0.000004,0.000001,-0.000047,-0.000000,0.006491,-0.002664,0.194893,-0.048336,0.205443,0.205443,0.208087,0.993540,0.000000,0.000000,0.000000,0.000000,0.000000,0.000000,0.000000,0.000000,0.000000,0.000000,0.000000,0.000000,0.188237,3,0
320000,0.002721,8.099667,0.034604,0.024254,25.025116,-0.005405,-0.000648,0.000262,1.570723,-0.001576,-0.000030,-0.000037,0.000001,-0.000060,-0.000000,0.006353,-0.002816,0.196450,0.029106,0.201847,0.201847,0.204105,0.991241,0.000000,0.000000,0.000000,0.000000,0.000000,0.000000,0.000000,0.000000,0.000000,0.000000,0.000000,0.000000,0.189861,3,0
330000,0.002873,8.355809,0.034036,0.024976,25.029964,-0.005996,-0.000663,0.000346,1.570722,-0.001843,-0.000034,-0.000014,0.000001,-0.000072,-0.000001,0.005153,-0.002972,0.178142,-0.015329,0.198581,0.198581,0.200469,0.988748,0.000000,0.000000,0.000000,0.000000,0.000000,0.000000,0.000000,0.000000,0.000000,0.000000,0.000000,0.000000,0.172270,3,0
340000,0.003029,8.607449,0.035160,0.025631,25.030844,-0.005251,-0.000685,0.000369,1.570729,-0.001908,-0.000039,-0.000071,0.000002,-0.000075,-0.000001,0.000486,-0.003131,0.041224,0.036103,0.195621,0.195621,0.197151,0.986058,0.000000,0.000000,0.000000,0.000000,0.000000,0.000000,0.000000,0.000000,0.000000,0.000000,0.000000,0.000000,0.039995,3,0
350000,0.003186,8.862494,0.033609,0.026203,25.035101,-0.006684,-0.000697,0.000437,1.570722,-0.002154,-0.000044,0.000006,0.000002,-0.000088,-0.000001,0.003852,-0.003292,0.147395,-0.046273,0.192943,0.192943,0.194125,0.983169,0.000000,0.000000,0.000000,0.000000,0.000000,0.000000,0.000000,0.000000,0.000000,0.000000,0.000000,0.000000,0.142691,3,0
360000,0.003345,9.114470,0.032423,0.026728,25.036366,-0.007983,-0.000724,0.000458,1.570716,-0.002244,-0.000051,0.000067,0.000002,-0.000092,-0.000001,0.000625,-0.003454,0.051340,-0.034999,0.190526,0.190526,0.191370,0.980078,0.000000,0.000000,0.000000,0.000000,0.000000,0.000000,0.000000,0.000000,0.000000,0.000000,0.000000,0.000000,0.049823,3,0
370000,0.003506,9.368518,0.032510,0.027369,25.039965,-0.007931,-0.000734,0.000530,1.570718,-0.002460,-0.000057,0.000057,0.000002,-0.000104,-0.000001,0.002232,-0.003619,0.117412,0.005334,0.188352,0.188352,0.188863,0.976785,0.000000,0.000000,0.000000,0.000000,0.000000,0.000000,0.000000,0.000000,0.000000,0.000000,0.000000,0.000000,0.113780,3,0
380000,0.003669,9.625168,0.032076,0.027917,25.046415,-0.008330,-0.000763,0.000653,1.570727,-0.002849,-0.000065,0.000079,0.000003,-0.000125,-0.000001,0.006565,-0.003786,0.201270,-0.011414,0.186403,0.186403,0.186586,0.973288,0.000000,0.000000,0.000000,0.000000,0.000000,0.000000,0.000000,0.000000,0.000000,0.000000,0.000000,0.000000,0.195051,3,0
390000,0.003834,9.882488,0.031227,0.028567,25.053825,-0.009190,-0.000773,0.000793,1.570736,-0.003301,-0.000073,0.000129,0.000003,-0.000151,-0.000001,0.008125,-0.003956,0.222860,-0.024856,0.184663,0.184664,0.184522,0.969587,0.000000,0.000000,0.000000,0.000000,0.000000,0.000000,0.000000,0.000000,0.000000,0.000000,0.000000,0.000000,0.216036,3,0
400000,0.004001,10.138643,0.032438,0.029136,25.059992,-0.008008,-0.000785,0.000914,1.570732,-0.003690,-0.000081,0.000039,0.000004,-0.000173,-0.000001,0.005778,-0.004127,0.184134,0.042856,0.183119,0.183119,0.182656,0.965682,0.000000,0.000000,0.000000,0.000000,0.000000,0.000000,0.000000,0.000000,0.000000,0.000000,0.000000,0.000000,0.178559,3,0
410000,0.004170,10.393681,0.031520,0.029785,25.064966,-0.009278,-0.000799,0.001019,1.570736,-0.004014,-0.000091,0.000100,0.000004,-0.000193,-0.000002,0.003600,-0.004300,0.146585,-0.027681,0.181755,0.181756,0.180971,0.961573,0.000000,0.000000,0.000000,0.000000,0.000000,0.000000,0.000000,0.000000,0.000000,0.000000,0.000000,0.000000,0.142206,3,0
420000,0.004341,10.648241,0.031644,0.030371,25.069386,-0.009370,-0.000822,0.001104,1.570734,-0.004314,-0.000101,0.000083,0.000005,-0.000211,-0.000002,0.002746,-0.004475,0.130045,0.007365,0.180561,0.180562,0.179456,0.957262,0.000000,0.000000,0.000000,0.000000,0.000000,0.000000,0.000000,0.000000,0.000000,0.000000,0.000000,0.000000,0.126206,3,0
430000,0.004513,10.902939,0.030453,0.030937,25.074230,-0.010986,-0.000852,0.001210,1.570737,-0.004635,-0.000112,0.000171,0.000006,-0.000231,-0.000002,0.003120,-0.004652,0.133865,-0.036850,0.179524,0.179524,0.178097,0.952751,0.000000,0.000000,0.000000,0.000000,0.000000,0.000000,0.000000,0.000000,0.000000,0.000000,0.000000,0.000000,0.129938,3,0
440000,0.004685,11.159551,0.029116,0.031393,25.081579,-0.012707,-0.000865,0.001375,1.570743,-0.005127,-0.000124,0.000275,0.000006,-0.000263,-0.000002,0.006570,-0.004828,0.197182,-0.041561,0.178634,0.178634,0.176883,0.948040,0.000000,0.000000,0.000000,0.000000,0.000000,0.000000,0.000000,0.000000,0.000000,0.000000,0.000000,0.000000,0.191368,3,0
450000,0.004858,11.413315,0.028917,0.031983,25.085209,-0.013003,-0.000894,0.001456,1.570744,-0.005384,-0.000137,0.000281,0.000007,-0.000280,-0.000002,0.001607,-0.005007,0.099528,-0.002376,0.177879,0.177880,0.175803,0.943134,0.000000,0.000000,0.000000,0.000000,0.000000,0.000000,0.000000,0.000000,0.000000,0.000000,0.000000,0.000000,0.096700,3,0
460000,0.005032,11.669592,0.029344,0.032550,25.092321,-0.012587,-0.000921,0.001618,1.570742,-0.005878,-0.000151,0.000229,0.000008,-0.000313,-0.000002,0.005520,-0.005186,0.183668,0.019181,0.177252,0.177253,0.174847,0.938035,0.000000,0.000000,0.000000,0.000000,0.000000,0.000000,0.000000,0.000000,0.000000,0.000000,0.000000,0.000000,0.178313,3,0
470000,0.005207,11.924813,0.029676,0.033029,25.098030,-0.012147,-0.000954,0.001751,1.570746,-0.006284,-0.000166,0.000185,0.000009,-0.000341,-0.000003,0.003493,-0.005365,0.145989,0.015826,0.176743,0.176744,0.174006,0.932747,0.000000,0.000000,0.000000,0.000000,0.000000,0.000000,0.000000,0.000000,0.000000,0.000000,0.000000,0.000000,0.141785,3,0
480000,0.005382,12.181344,0.028935,0.033534,25.105654,-0.013260,-0.000976,0.001934,1.570741,-0.006828,-0.000182,0.000247,0.000010,-0.000380,-0.000003,0.005851,-0.005544,0.188893,-0.021343,0.176344,0.176344,0.173271,0.927274,0.000000,0.000000,0.000000,0.000000,0.000000,0.000000,0.000000,0.000000,0.000000,0.000000,0.000000,0.000000,0.183421,3,0
490000,0.005556,12.435079,0.028403,0.033942,25.109415,-0.014078,-0.000999,0.002026,1.570737,-0.007100,-0.000199,0.000288,0.000012,-0.000400,-0.000003,0.001385,-0.005723,0.091317,-0.013792,0.176046,0.176047,0.172634,0.921621,0.000000,0.000000,0.000000,0.000000,0.000000,0.000000,0.000000,0.000000,0.000000,0.000000,0.000000,0.000000,0.088812,3,0
500000,0.005729,12.691315,0.028092,0.034382,25.116671,-0.014431,-0.001017,0.002210,1.570739,-0.007640,-0.000217,0.000306,0.000013,-0.000439,-0.000003,0.004993,-0.005902,0.175488,-0.005889,0.175843,0.175844,0.172087,0.915792,0.000000,0.000000,0.000000,0.000000,0.000000,0.000000,0.000000,0.000000,0.000000,0.000000,0.000000,0.000000,0.170441,3,0
510000,0.005902,12.946518,0.028583,0.034817,25.122532,-0.013615,-0.001045,0.002354,1.570742,-0.008077,-0.000237,0.000235,0.000014,-0.000473,-0.000004,0.003160,-0.006080,0.137845,0.022199,0.175728,0.175728,0.171623,0.909793,0.000000,0.000000,0.000000,0.000000,0.000000,0.000000,0.000000,0.000000,0.000000,0.000000,0.000000,0.000000,0.133938,3,0
520000,0.006073,13.205364,0.029329,0.035200,25.133753,-0.012812,-0.001067,0.002639,1.570742,-0.008928,-0.000257,0.000133,0.000016,-0.000538,-0.000004,0.011123,-0.006256,0.260283,0.031011,0.175692,0.175693,0.171234,0.903629,0.000000,0.000000,0.000000,0.000000,0.000000,0.000000,0.000000,0.000000,0.000000,0.000000,0.000000,0.000000,0.252735,3,0
530000,0.006244,13.461980,0.028918,0.035647,25.141638,-0.013220,-0.001101,0.002852,1.570747,-0.009535,-0.000279,0.000167,0.000018,-0.000586,-0.000005,0.005278,-0.006432,0.180236,-0.009943,0.175732,0.175733,0.170915,0.897307,0.000000,0.000000,0.000000,0.000000,0.000000,0.000000,0.000000,0.000000,0.000000,0.000000,0.000000,0.000000,0.175069,3,0
540000,0.006413,13.719894,0.028884,0.035960,25.151541,-0.013426,-0.001134,0.003119,1.570762,-0.010302,-0.000302,0.000154,0.000020,-0.000648,-0.000005,0.007963,-0.006606,0.221725,0.003566,0.175840,0.175840,0.170659,0.890834,0.000000,0.000000,0.000000,0.000000,0.000000,0.000000,0.000000,0.000000,0.000000,0.000000,0.000000,0.000000,0.215322,3,0
550000,0.006582,13.976176,0.027654,0.036424,25.158913,-0.015143,-0.001163,0.003324,1.570763,-0.010880,-0.000326,0.000293,0.000022,-0.000696,-0.000005,0.004520,-0.006780,0.162499,-0.038537,0.176010,0.176011,0.170460,0.884215,0.000000,0.000000,0.000000,0.000000,0.000000,0.000000,0.000000,0.000000,0.000000,0.000000,0.000000,0.000000,0.157870,3,0
560000,0.006749,14.231433,0.026642,0.036840,25.164776,-0.016458,-0.001180,0.003480,1.570763,-0.011336,-0.000351,0.000405,0.000024,-0.000734,-0.000006,0.002677,-0.006953,0.124810,-0.030304,0.176238,0.176239,0.170314,0.877458,0.000000,0.000000,0.000000,0.000000,0.000000,0.000000,0.000000,0.000000,0.000000,0.000000,0.000000,0.000000,0.121332,3,0
570000,0.006913,14.488014,0.028168,0.037095,25.172571,-0.014282,-0.001212,0.003711,1.570774,-0.011965,-0.000378,0.000178,0.000026,-0.000788,-0.000006,0.005133,-0.007123,0.167680,0.059652,0.176517,0.176518,0.170215,0.870570,0.000000,0.000000,0.000000,0.000000,0.000000,0.000000,0.000000,0.000000,0.000000,0.000000,0.000000,0.000000,0.162893,3,0
580000,0.007077,14.745321,0.026914,0.037457,25.181606,-0.015977,-0.001243,0.003977,1.570780,-0.012692,-0.000406,0.000331,0.000028,-0.000852,-0.000007,0.006055,-0.007291,0.189324,-0.039179,0.176845,0.176846,0.170158,0.863559,0.000000,0.000000,0.000000,0.000000,0.000000,0.000000,0.000000,0.000000,0.000000,0.000000,0.000000,0.000000,0.183881,3,0
590000,0.007238,15.000999,0.026658,0.037787,25.188002,-0.016279,-0.001269,0.004160,1.570782,-0.013206,-0.000435,0.000344,0.000031,-0.000898,-0.000007,0.002774,-0.007458,0.130716,-0.003324,0.177215,0.177216,0.170138,0.856432,0.000000,0.000000,0.000000,0.000000,0.000000,0.000000,0.000000,0.000000,0.000000,0.000000,0.000000,0.000000,0.127062,3,0
600000,0.007397,15.259185,0.025726,0.038026,25.198496,-0.017791,-0.001288,0.004472,1.570787,-0.014063,-0.000466,0.000454,0.000034,-0.000976,-0.000008,0.007459,-0.007622,0.212915,-0.027011,0.177623,0.177624,0.170152,0.849196,0.000000,0.000000,0.000000,0.000000,0.000000,0.000000,0.000000,0.000000,0.000000,0.000000,0.000000,0.000000,0.206745,3,0
610000,0.007552,15.518675,0.025773,0.038259,25.211069,-0.017492,-0.001326,0.004849,1.570788,-0.015104,-0.000498,0.000421,0.000037,-0.001072,-0.000008,0.010356,-0.007783,0.252809,0.007865,0.178065,0.178066,0.170196,0.841861,0.000000,0.000000,0.000000,0.000000,0.000000,0.000000,0.000000,0.000000,0.000000,0.000000,0.000000,0.000000,0.245422,3,0
620000,0.007705,15.775319,0.027228,0.038592,25.218885,-0.015123,-0.001357,0.005094,1.570795,-0.015744,-0.000532,0.000174,0.000040,-0.001133,-0.000009,0.004292,-0.007942,0.152223,0.057449,0.178538,0.178539,0.170265,0.834434,0.000000,0.000000,0.000000,0.000000,0.000000,0.000000,0.000000,0.000000,0.000000,0.000000,0.000000,0.000000,0.147894,3,0
630000,0.007856,16.031509,0.027257,0.038928,25.225784,-0.014923,-0.001397,0.005308,1.570791,-0.016320,-0.000566,0.000146,0.000043,-0.001188,-0.000009,0.002923,-0.008098,0.134048,0.006342,0.179037,0.179039,0.170356,0.826924,0.000000,0.000000,0.000000,0.000000,0.000000,0.000000,0.000000,0.000000,0.000000,0.000000,0.000000,0.000000,0.130286,3,0
640000,0.008005,16.290228,0.026899,0.039148,25.236946,-0.015267,-0.001438,0.005660,1.570795,-0.017265,-0.000603,0.000179,0.000047,-0.001281,-0.000010,0.007544,-0.008252,0.215729,-0.007387,0.179560,0.179561,0.170466,0.819337,0.000000,0.000000,0.000000,0.000000,0.000000,0.000000,0.000000,0.000000,0.000000,0.000000,0.000000,0.000000,0.209425,3,0
650000,0.008151,16.546080,0.026045,0.039296,25.243065,-0.016670,-0.001470,0.005858,1.570803,-0.017783,-0.000640,0.000291,0.000051,-0.001333,-0.000010,0.002282,-0.008402,0.115931,-0.024563,0.180102,0.180104,0.170591,0.811683,0.000000,0.000000,0.000000,0.000000,0.000000,0.000000,0.000000,0.000000,0.000000,0.000000,0.000000,0.000000,0.112747,3,0
660000,0.008293,16.802679,0.025748,0.039522,25.250486,-0.016934,-0.001498,0.006100,1.570801,-0.018413,-0.000679,0.000312,0.000055,-0.001397,-0.000011,0.003108,-0.008550,0.138325,-0.004585,0.180661,0.180663,0.170729,0.803969,0.000000,0.000000,0.000000,0.000000,0.000000,0.000000,0.000000,0.000000,0.000000,0.000000,0.000000,0.000000,0.134415,3,0
670000,0.008431,17.062422,0.025925,0.039630,25.263252,-0.016523,-0.001539,0.006520,1.570807,-0.019523,-0.000720,0.000254,0.000059,-0.001512,-0.000012,0.009305,-0.008694,0.239468,0.012156,0.181234,0.181236,0.170878,0.796204,0.000000,0.000000,0.000000,0.000000,0.000000,0.000000,0.000000,0.000000,0.000000,0.000000,0.000000,0.000000,0.232388,3,0
680000,0.008566,17.323475,0.025335,0.039836,25.278011,-0.017319,-0.001568,0.007023,1.570827,-0.020834,-0.000761,0.000326,0.000063,-0.001651,-0.000013,0.012519,-0.008834,0.277782,-0.014889,0.181818,0.181820,0.171033,0.788395,0.000000,0.000000,0.000000,0.000000,0.000000,0.000000,0.000000,0.000000,0.000000,0.000000,0.000000,0.000000,0.269501,3,0
690000,0.008697,17.582809,0.025734,0.039905,25.289825,-0.016752,-0.001601,0.007420,1.570839,-0.021867,-0.000804,0.000225,0.000068,-0.001762,-0.000014,0.007574,-0.008970,0.215368,0.020093,0.182410,0.182412,0.171194,0.780551,0.000000,0.000000,0.000000,0.000000,0.000000,0.000000,0.000000,0.000000,0.000000,0.000000,0.000000,0.000000,0.209001,3,0
700000,0.008825,17.839218,0.025138,0.040052,25.296356,-0.017729,-0.001645,0.007643,1.570843,-0.022428,-0.000849,0.000300,0.000073,-0.001823,-0.000014,0.002184,-0.009102,0.114948,-0.014909,0.183009,0.183011,0.171358,0.772679,0.000000,0.000000,0.000000,0.000000,0.000000,0.000000,0.000000,0.000000,0.000000,0.000000,0.000000,0.000000,0.111791,3,0
710000,0.008949,18.098198,0.025987,0.040207,25.307329,-0.016394,-0.001682,0.008039,1.570842,-0.023401,-0.000894,0.000115,0.000078,-0.001931,-0.000015,0.006456,-0.009232,0.196415,0.035954,0.183612,0.183613,0.171522,0.764787,0.000000,0.000000,0.000000,0.000000,0.000000,0.000000,0.000000,0.000000,0.000000,0.000000,0.000000,0.000000,0.190615,3,0
720000,0.009070,18.355455,0.024923,0.040276,25.315109,-0.017860,-0.001710,0.008322,1.570858,-0.024086,-0.000942,0.000279,0.000083,-0.002009,-0.000015,0.003167,-0.009357,0.136116,-0.031456,0.184216,0.184218,0.171686,0.756882,0.000000,0.000000,0.000000,0.000000,0.000000,0.000000,0.000000,0.000000,0.000000,0.000000,0.000000,0.000000,0.132248,3,0
730000,0.009186,18.613451,0.024687,0.040321,25.324131,-0.018330,-0.001747,0.008646,1.570863,-0.024887,-0.000990,0.000288,0.000089,-0.002101,-0.000016,0.004001,-0.009478,0.157084,-0.001897,0.184820,0.184822,0.171847,0.748973,0.000000,0.000000,0.000000,0.000000,0.000000,0.000000,0.000000,0.000000,0.000000,0.000000,0.000000,0.000000,0.152521,3,0
740000,0.009298,18.870951,0.025196,0.040344,25.332272,-0.017571,-0.001781,0.008945,1.570865,-0.025599,-0.001040,0.000157,0.000095,-0.002185,-0.000017,0.003165,-0.009595,0.137545,0.024196,0.185423,0.185425,0.172004,0.741065,0.000000,0.000000,0.000000,0.000000,0.000000,0.000000,0.000000,0.000000,0.000000,0.000000,0.000000,0.000000,0.133617,3,0
750000,0.009406,19.131037,0.025184,0.040417,25.344749,-0.017347,-0.001823,0.009412,1.570878,-0.026742,-0.001090,0.000125,0.000101,-0.002321,-0.000018,0.007689,-0.009707,0.217903,0.005694,0.186023,0.186025,0.172155,0.733166,0.000000,0.000000,0.000000,0.000000,0.000000,0.000000,0.000000,0.000000,0.000000,0.000000,0.000000,0.000000,0.211357,3,0
760000,0.009511,19.390596,0.026683,0.040530,25.356203,-0.015202,-0.001862,0.009857,1.570885,-0.027784,-0.001142,-0.000202,0.000107,-0.002448,-0.000019,0.006785,-0.009817,0.196239,0.058308,0.186617,0.186619,0.172300,0.725283,0.000000,0.000000,0.000000,0.000000,0.000000,0.000000,0.000000,0.000000,0.000000,0.000000,0.000000,0.000000,0.190374,3,0
770000,0.009613,19.652111,0.027154,0.040660,25.371014,-0.014621,-0.001907,0.010427,1.570904,-0.029154,-0.001196,-0.000327,0.000114,-0.002617,-0.000020,0.010561,-0.009923,0.254629,0.021740,0.187206,0.187208,0.172436,0.717422,0.000000,0.000000,0.000000,0.000000,0.000000,0.000000,0.000000,0.000000,0.000000,0.000000,0.000000,0.000000,0.246872,3,0
780000,0.009711,19.914320,0.026842,0.040665,25.386869,-0.015182,-0.001941,0.011042,1.570910,-0.030631,-0.001250,-0.000296,0.000121,-0.002802,-0.000021,0.011902,-0.010025,0.271269,-0.005714,0.187787,0.187789,0.172563,0.709589,0.000000,0.000000,0.000000,0.000000,0.000000,0.000000,0.000000,0.000000,0.000000,0.000000,0.000000,0.000000,0.262959,3,0
790000,0.009806,20.175344,0.027046,0.040758,25.400419,-0.014936,-0.001978,0.011571,1.570918,-0.031884,-0.001306,-0.000369,0.000128,-0.002962,-0.000023,0.008402,-0.010124,0.227568,0.012424,0.188360,0.188362,0.172681,0.701791,0.000000,0.000000,0.000000,0.000000,0.000000,0.000000,0.000000,0.000000,0.000000,0.000000,0.000000,0.000000,0.220641,3,0
800000,0.009898,20.434561,0.027262,0.040829,25.410576,-0.014737,-0.002016,0.011983,1.570930,-0.032804,-0.001363,-0.000446,0.000135,-0.003081,-0.000024,0.004448,-0.010220,0.165197,0.012786,0.188923,0.188926,0.172787,0.694032,0.000000,0.000000,0.000000,0.000000,0.000000,0.000000,0.000000,0.000000,0.000000,0.000000,0.000000,0.000000,0.160302,3,0
810000,0.009986,20.693867,0.028393,0.040871,25.420849,-0.012876,-0.002058,0.012404,1.570933,-0.033728,-0.001421,-0.000714,0.000143,-0.003203,-0.000024,0.004693,-0.010313,0.164303,0.044348,0.189477,0.189479,0.172882,0.686320,0.000000,0.000000,0.000000,0.000000,0.000000,0.000000,0.000000,0.000000,0.000000,0.000000,0.000000,0.000000,0.159428,3,0
820000,0.010070,20.955149,0.028523,0.040779,25.434454,-0.012892,-0.002092,0.012966,1.570936,-0.034996,-0.001480,-0.000771,0.000151,-0.003373,-0.000026,0.008053,-0.010400,0.222958,0.009070,0.190019,0.190022,0.172965,0.678658,0.000000,0.000000,0.000000,0.000000,0.000000,0.000000,0.000000,0.000000,0.000000,0.000000,0.000000,0.000000,0.216131,3,0
830000,0.010151,21.212706,0.028111,0.040728,25.441368,-0.013385,-0.002143,0.013249,1.570933,-0.035574,-0.001540,-0.000711,0.000159,-0.003452,-0.000026,0.001669,-0.010483,0.100691,-0.009827,0.190551,0.190553,0.173035,0.671052,0.000000,0.000000,0.000000,0.000000,0.000000,0.000000,0.000000,0.000000,0.000000,0.000000,0.000000,0.000000,0.098019,3,0
840000,0.010227,21.474796,0.028117,0.040731,25.456093,-0.013560,-0.002187,0.013884,1.570949,-0.036969,-0.001601,-0.000744,0.000168,-0.003644,-0.000028,0.009366,-0.010564,0.240644,0.004930,0.191070,0.191072,0.173092,0.663506,0.000000,0.000000,0.000000,0.000000,0.000000,0.000000,0.000000,0.000000,0.000000,0.000000,0.000000,0.000000,0.233205,3,0
850000,0.010301,21.734396,0.027642,0.040654,25.466339,-0.014297,-0.002236,0.014306,1.570966,-0.037889,-0.001664,-0.000671,0.000177,-0.003774,-0.000029,0.004034,-0.010640,0.157316,-0.011715,0.191576,0.191579,0.173136,0.656026,0.000000,0.000000,0.000000,0.000000,0.000000,0.000000,0.000000,0.000000,0.000000,0.000000,0.000000,0.000000,0.152640,3,0
860000,0.010369,21.995979,0.027320,0.040505,25.479975,-0.014630,-0.002292,0.014888,1.570985,-0.039161,-0.001727,-0.000633,0.000186,-0.003955,-0.000030,0.007529,-0.010712,0.215675,-0.006223,0.192070,0.192073,0.173166,0.648615,0.000000,0.000000,0.000000,0.000000,0.000000,0.000000,0.000000,0.000000,0.000000,0.000000,0.000000,0.000000,0.209028,3,0
870000,0.010434,22.255056,0.026316,0.040424,25.488995,-0.016151,-0.002344,0.015267,1.570997,-0.039951,-0.001791,-0.000443,0.000195,-0.004070,-0.000031,0.003009,-0.010779,0.132866,-0.029629,0.192551,0.192554,0.173182,0.641277,0.000000,0.000000,0.000000,0.000000,0.000000,0.000000,0.000000,0.000000,0.000000,0.000000,0.000000,0.000000,0.129026,3,0
880000,0.010495,22.516771,0.025322,0.040292,25.502563,-0.017415,-0.002391,0.015857,1.571016,-0.041220,-0.001857,-0.000256,0.000204,-0.004257,-0.000032,0.007379,-0.010843,0.211639,-0.028875,0.193019,0.193021,0.173184,0.634016,0.000000,0.000000,0.000000,0.000000,0.000000,0.000000,0.000000,0.000000,0.000000,0.000000,0.000000,0.000000,0.205099,3,0
890000,0.010552,22.776604,0.024694,0.040236,25.512493,-0.018449,-0.002438,0.016292,1.571022,-0.042117,-0.001923,-0.000155,0.000214,-0.004391,-0.000033,0.003619,-0.010904,0.148579,-0.015594,0.193473,0.193475,0.173171,0.626835,0.000000,0.000000,0.000000,0.000000,0.000000,0.000000,0.000000,0.000000,0.000000,0.000000,0.000000,0.000000,0.144174,3,0
900000,0.010603,23.035856,0.026178,0.040037,25.521458,-0.016434,-0.002487,0.016677,1.571036,-0.042890,-0.001989,-0.000544,0.000224,-0.004509,-0.000034,0.003171,-0.010959,0.127192,0.057910,0.193913,0.193916,0.173145,0.619738,0.000000,0.000000,0.000000,0.000000,0.000000,0.000000,0.000000,0.000000,0.000000,0.000000,0.000000,0.000000,0.123537,3,0
910000,0.010651,23.297108,0.027411,0.039883,25.533684,-0.014503,-0.002529,0.017236,1.571056,-0.044027,-0.002056,-0.000874,0.000235,-0.004685,-0.000035,0.005974,-0.011009,0.185913,0.048454,0.194341,0.194343,0.173104,0.612727,0.000000,0.000000,0.000000,0.000000,0.000000,0.000000,0.000000,0.000000,0.000000,0.000000,0.000000,0.000000,0.180207,3,0
920000,0.010696,23.559046,0.026518,0.039740,25.547031,-0.015677,-0.002583,0.017851,1.571068,-0.045277,-0.002124,-0.000700,0.000246,-0.004881,-0.000037,0.006763,-0.011054,0.202843,-0.025909,0.194754,0.194757,0.173049,0.605805,0.000000,0.000000,0.000000,0.000000,0.000000,0.000000,0.000000,0.000000,0.000000,0.000000,0.000000,0.000000,0.196550,3,0
930000,0.010739,23.818428,0.025302,0.039660,25.555729,-0.017406,-0.002625,0.018243,1.571071,-0.046020,-0.002193,-0.000448,0.000256,-0.004999,-0.000038,0.002547,-0.011099,0.119678,-0.036697,0.195155,0.195158,0.172980,0.598975,0.000000,0.000000,0.000000,0.000000,0.000000,0.000000,0.000000,0.000000,0.000000,0.000000,0.000000,0.000000,0.116283,3,0
940000,0.010777,24.078520,0.025949,0.039555,25.565624,-0.016374,-0.002670,0.018694,1.571078,-0.046883,-0.002262,-0.000650,0.000268,-0.005139,-0.000039,0.003246,-0.011141,0.138515,0.028554,0.195542,0.195545,0.172897,0.592239,0.000000,0.000000,0.000000,0.000000,0.000000,0.000000,0.000000,0.000000,0.000000,0.000000,0.000000,0.000000,0.134433,3,0
950000,0.010814,24.339960,0.025507,0.039505,25.577742,-0.016859,-0.002724,0.019265,1.571097,-0.047989,-0.002333,-0.000585,0.000279,-0.005321,-0.000040,0.005058,-0.011179,0.176508,-0.009654,0.195917,0.195919,0.172800,0.585598,0.000000,0.000000,0.000000,0.000000,0.000000,0.000000,0.000000,0.000000,0.000000,0.000000,0.000000,0.000000,0.171086,3,0
960000,0.010847,24.600779,0.025436,0.039366,25.588490,-0.017052,-0.002786,0.019771,1.571103,-0.048956,-0.002403,-0.000612,0.000291,-0.005482,-0.000041,0.003821,-0.011214,0.153494,0.003500,0.196279,0.196281,0.172690,0.579055,0.000000,0.000000,0.000000,0.000000,0.000000,0.000000,0.000000,0.000000,0.000000,0.000000,0.000000,0.000000,0.148868,3,0
970000,0.010877,24.862936,0.025297,0.039196,25.601627,-0.017305,-0.002845,0.020407,1.571117,-0.050164,-0.002474,-0.000624,0.000303,-0.005687,-0.000043,0.005886,-0.011246,0.190748,0.001212,0.196628,0.196630,0.172567,0.572611,0.000000,0.000000,0.000000,0.000000,0.000000,0.000000,0.000000,0.000000,0.000000,0.000000,0.000000,0.000000,0.184818,3,0
980000,0.010905,25.125761,0.024898,0.039081,25.615641,-0.017904,-0.002902,0.021102,1.571124,-0.051480,-0.002546,-0.000572,0.000315,-0.005913,-0.000045,0.006922,-0.011275,0.206766,-0.007771,0.196965,0.196968,0.172430,0.566267,0.000000,0.000000,0.000000,0.000000,0.000000,0.000000,0.000000,0.000000,0.000000,0.000000,0.000000,0.000000,0.200275,3,0
990000,0.010929,25.388588,0.025336,0.038997,25.629457,-0.017241,-0.002950,0.021787,1.571139,-0.052771,-0.002618,-0.000734,0.000328,-0.006139,-0.000046,0.006688,-0.011301,0.202227,0.021594,0.197291,0.197293,0.172281,0.560026,0.000000,0.000000,0.000000,0.000000,0.000000,0.000000,0.000000,0.000000,0.000000,0.000000,0.000000,0.000000,0.195883,3,0
1000000,0.010949,25.651417,0.026702,0.038827,25.643286,-0.015178,-0.003009,0.022473,1.571158,-0.054038,-0.002690,-0.001134,0.000341,-0.006363,-0.000048,0.006786,-0.011324,0.197683,0.053681,0.197604,0.197607,0.172120,0.553887,0.000000,0.000000,0.000000,0.000000,0.000000,0.000000,0.000000,0.000000,0.000000,0.000000,0.000000,0.000000,0.191487,3,0
1010000,0.010968,25.914900,0.026526,0.038594,25.657940,-0.015529,-0.003074,0.023215,1.571160,-0.055409,-0.002763,-0.001133,0.000354,-0.006610,-0.000050,0.007335,-0.011342,0.213024,-0.000712,0.197907,0.197910,0.171946,0.547851,0.000000,0.000000,0.000000,0.000000,0.000000,0.000000,0.000000,0.000000,0.000000,0.000000,0.000000,0.000000,0.206289,3,0
1020000,0.010984,26.178370,0.025983,0.038448,25.672546,-0.016337,-0.003141,0.023947,1.571180,-0.056752,-0.002837,-0.001038,0.000368,-0.006856,-0.000051,0.007010,-0.011359,0.207815,-0.013415,0.198199,0.198202,0.171761,0.541920,0.000000,0.000000,0.000000,0.000000,0.000000,0.000000,0.000000,0.000000,0.000000,0.000000,0.000000,0.000000,0.201251,3,0
1030000,0.010999,26.436562,0.025035,0.038339,25.677610,-0.017747,-0.003207,0.024158,1.571188,-0.057036,-0.002911,-0.000832,0.000381,-0.006908,-0.000052,0.000448,-0.011374,0.043596,-0.027355,0.198481,0.198483,0.171565,0.536094,0.000000,0.000000,0.000000,0.000000,0.000000,0.000000,0.000000,0.000000,0.000000,0.000000,0.000000,0.000000,0.043566,3,0
1040000,0.011008,26.698105,0.025727,0.038092,25.688560,-0.016781,-0.003257,0.024690,1.571203,-0.057965,-0.002984,-0.001069,0.000395,-0.007083,-0.000053,0.003476,-0.011386,0.143173,0.030577,0.198753,0.198755,0.171357,0.530372,0.000000,0.000000,0.000000,0.000000,0.000000,0.000000,0.000000,0.000000,0.000000,0.000000,0.000000,0.000000,0.138869,3,0
1050000,0.011016,26.961637,0.025271,0.037846,25.702894,-0.017345,-0.003323,0.025440,1.571215,-0.059267,-0.003059,-0.000998,0.000409,-0.007332,-0.000055,0.006456,-0.011393,0.199583,-0.009990,0.199016,0.199018,0.171139,0.524756,0.000000,0.000000,0.000000,0.000000,0.000000,0.000000,0.000000,0.000000,0.000000,0.000000,0.000000,0.000000,0.193277,3,0
1060000,0.011019,27.224487,0.025925,0.037586,25.715794,-0.016593,-0.003375,0.026103,1.571221,-0.060406,-0.003133,-0.001229,0.000424,-0.007553,-0.000056,0.005063,-0.011398,0.174456,0.029229,0.199269,0.199271,0.170911,0.519246,0.000000,0.000000,0.000000,0.000000,0.000000,0.000000,0.000000,0.000000,0.000000,0.000000,0.000000,0.000000,0.169021,3,0
1070000,0.011021,27.483356,0.025230,0.037439,25.721525,-0.017398,-0.003435,0.026339,1.571221,-0.060738,-0.003208,-0.001086,0.000439,-0.007618,-0.000057,0.000490,-0.011400,0.050627,-0.018547,0.199514,0.199516,0.170673,0.513840,0.000000,0.000000,0.000000,0.000000,0.000000,0.000000,0.000000,0.000000,0.000000,0.000000,0.000000,0.000000,0.050168,3,0
1080000,0.011020,27.744255,0.024717,0.037092,25.730810,-0.018035,-0.003490,0.026800,1.571218,-0.061459,-0.003283,-0.000996,0.000453,-0.007762,-0.000058,0.001985,-0.011399,0.109760,-0.011845,0.199751,0.199753,0.170426,0.508540,0.000000,0.000000,0.000000,0.000000,0.000000,0.000000,0.000000,0.000000,0.000000,0.000000,0.000000,0.000000,0.106677,3,0
1090000,0.011016,28.007153,0.024501,0.036911,25.743435,-0.018265,-0.003549,0.027462,1.571225,-0.062556,-0.003358,-0.000993,0.000469,-0.007985,-0.000060,0.004505,-0.011396,0.166832,-0.001114,0.199981,0.199982,0.170170,0.503345,0.000000,0.000000,0.000000,0.000000,0.000000,0.000000,0.000000,0.000000,0.000000,0.000000,0.000000,0.000000,0.161648,3,0
1100000,0.011007,28.267376,0.025321,0.036572,25.751278,-0.017291,-0.003618,0.027835,1.571234,-0.063100,-0.003432,-0.001280,0.000484,-0.008096,-0.000060,0.001328,-0.011388,0.082718,0.035564,0.200203,0.200204,0.169905,0.498254,0.000000,0.000000,0.000000,0.000000,0.000000,0.000000,0.000000,0.000000,0.000000,0.000000,0.000000,0.000000,0.080712,3,0
1110000,0.010996,28.526291,0.025354,0.036285,25.756685,-0.017327,-0.003685,0.028062,1.571246,-0.063371,-0.003507,-0.001341,0.000500,-0.008153,-0.000061,0.000302,-0.011377,0.041082,0.007411,0.200418,0.200419,0.169632,0.493267,0.000000,0.000000,0.000000,0.000000,0.000000,0.000000,0.000000,0.000000,0.000000,0.000000,0.000000,0.000000,0.041205,3,0
1120000,0.010982,28.787901,0.026769,0.036078,25.766663,-0.015534,-0.003759,0.028578,1.571249,-0.064161,-0.003581,-0.001802,0.000516,-0.008320,-0.000062,0.002859,-0.011364,0.120056,0.056466,0.200627,0.200628,0.169351,0.488383,0.000000,0.000000,0.000000,0.000000,0.000000,0.000000,0.000000,0.000000,0.000000,0.000000,0.000000,0.000000,0.116562,3,0
1130000,0.010965,29.051502,0.026974,0.035700,25.780039,-0.015423,-0.003817,0.029304,1.571262,-0.065327,-0.003656,-0.001915,0.000533,-0.008571,-0.000064,0.005061,-0.011346,0.176409,0.013045,0.200831,0.200831,0.169063,0.483602,0.000000,0.000000,0.000000,0.000000,0.000000,0.000000,0.000000,0.000000,0.000000,0.000000,0.000000,0.000000,0.170856,3,0
1140000,0.010947,29.310404,0.026614,0.035398,25.785114,-0.015857,-0.003884,0.029496,1.571259,-0.065538,-0.003731,-0.001857,0.000549,-0.008617,-0.000064,0.000194,-0.011326,0.031946,-0.007261,0.201028,0.201029,0.168768,0.478923,0.000000,0.000000,0.000000,0.000000,0.000000,0.000000,0.000000,0.000000,0.000000,0.000000,0.000000,0.000000,0.032759,3,0
1150000,0.010926,29.569342,0.025624,0.035022,25.790192,-0.017152,-0.003944,0.029687,1.571257,-0.065747,-0.003806,-0.001615,0.000565,-0.008663,-0.000064,0.000321,-0.011304,0.031418,-0.029525,0.201221,0.201221,0.168467,0.474346,0.000000,0.000000,0.000000,0.000000,0.000000,0.000000,0.000000,0.000000,0.000000,0.000000,0.000000,0.000000,0.032269,3,0
1160000,0.010899,29.832312,0.027146,0.034724,25.802216,-0.015372,-0.004013,0.030342,1.571262,-0.066738,-0.003879,-0.002126,0.000583,-0.008886,-0.000066,0.004249,-0.011280,0.150131,0.060736,0.201410,0.201409,0.168159,0.469868,0.000000,0.000000,0.000000,0.000000,0.000000,0.000000,0.000000,0.000000,0.000000,0.000000,0.000000,0.000000,0.145503,3,0
1170000,0.010871,30.091246,0.027546,0.034458,25.807028,-0.014778,-0.004089,0.030533,1.571253,-0.066911,-0.003953,-0.002293,0.000600,-0.008925,-0.000066,0.000195,-0.011250,0.026190,0.019843,0.201594,0.201593,0.167846,0.465490,0.000000,0.000000,0.000000,0.000000,0.000000,0.000000,0.000000,0.000000,0.000000,0.000000,0.000000,0.000000,0.027546,3,0
1180000,0.010844,30.352217,0.026709,0.034201,25.815338,-0.016083,-0.004149,0.030952,1.571253,-0.067476,-0.004028,-0.002092,0.000617,-0.009056,-0.000067,0.001288,-0.011220,0.085272,-0.024434,0.201774,0.201773,0.167527,0.461209,0.000000,0.000000,0.000000,0.000000,0.000000,0.000000,0.000000,0.000000,0.000000,0.000000,0.000000,0.000000,0.083114,3,0
1190000,0.010813,30.615192,0.026228,0.033853,25.827072,-0.016905,-0.004223,0.031594,1.571253,-0.068418,-0.004102,-0.002004,0.000634,-0.009277,-0.000069,0.003301,-0.011189,0.142279,-0.011201,0.201951,0.201950,0.167204,0.457026,0.000000,0.000000,0.000000,0.000000,0.000000,0.000000,0.000000,0.000000,0.000000,0.000000,0.000000,0.000000,0.137914,3,0
1200000,0.010779,30.876795,0.025289,0.033465,25.836308,-0.018119,-0.004296,0.032069,1.571253,-0.069066,-0.004177,-0.001775,0.000651,-0.009431,-0.000070,0.001685,-0.011154,0.097855,-0.027517,0.202125,0.202123,0.166875,0.452939,0.000000,0.000000,0.000000,0.000000,0.000000,0.000000,0.000000,0.000000,0.000000,0.000000,0.000000,0.000000,0.095169,3,0
1210000,0.010743,31.135702,0.024577,0.033125,25.840664,-0.019254,-0.004368,0.032220,1.571248,-0.069167,-0.004251,-0.001613,0.000669,-0.009456,-0.000070,0.000115,-0.011117,0.015070,-0.018931,0.202297,0.202295,0.166543,0.448946,0.000000,0.000000,0.000000,0.000000,0.000000,0.000000,0.000000,0.000000,0.000000,0.000000,0.000000,0.000000,0.018095,3,0
1220000,0.010701,31.396645,0.025779,0.032704,25.848597,-0.017887,-0.004441,0.032604,1.571252,-0.069654,-0.004323,-0.002054,0.000687,-0.009575,-0.000071,0.001321,-0.011077,0.074183,0.050604,0.202466,0.202463,0.166206,0.445048,0.000000,0.000000,0.000000,0.000000,0.000000,0.000000,0.000000,0.000000,0.000000,0.000000,0.000000,0.000000,0.072476,3,0
1230000,0.010656,31.655569,0.026795,0.032313,25.852816,-0.016539,-0.004508,0.032732,1.571261,-0.069731,-0.004394,-0.002431,0.000706,-0.009593,-0.000071,0.000346,-0.011031,0.011948,0.043279,0.202633,0.202630,0.165866,0.441241,0.000000,0.000000,0.000000,0.000000,0.000000,0.000000,0.000000,0.000000,0.000000,0.000000,0.000000,0.000000,0.015711,3,0
1240000,0.010612,31.915865,0.025570,0.031865,25.859365,-0.018010,-0.004569,0.033042,1.571270,-0.070070,-0.004468,-0.002099,0.000723,-0.009679,-0.000072,0.000679,-0.010981,0.051165,-0.038294,0.202798,0.202795,0.165523,0.437525,0.000000,0.000000,0.000000,0.000000,0.000000,0.000000,0.000000,0.000000,0.000000,0.000000,0.000000,0.000000,0.050559,3,0
1250000,0.010563,32.175491,0.024857,0.031418,25.864771,-0.018912,-0.004644,0.033267,1.571266,-0.070264,-0.004540,-0.001932,0.000742,-0.009729,-0.000072,0.000218,-0.010933,0.029350,-0.019257,0.202963,0.202959,0.165177,0.433899,0.000000,0.000000,0.000000,0.000000,0.000000,0.000000,0.000000,0.000000,0.000000,0.000000,0.000000,0.000000,0.030258,3,0
1260000,0.010510,32.438488,0.025662,0.030972,25.875948,-0.017764,-0.004709,0.033908,1.571264,-0.071099,-0.004610,-0.002263,0.000760,-0.009945,-0.000074,0.002852,-0.010880,0.127491,0.036457,0.203126,0.203122,0.164828,0.430362,0.000000,0.000000,0.000000,0.000000,0.000000,0.000000,0.000000,0.000000,0.000000,0.000000,0.000000,0.000000,0.123624,3,0
1270000,0.010456,32.698078,0.025195,0.030628,25.880911,-0.018422,-0.004783,0.034097,1.571256,-0.071253,-0.004681,-0.002172,0.000779,-0.009986,-0.000074,0.000125,-0.010823,0.023415,-0.010407,0.203289,0.203285,0.164477,0.426911,0.000000,0.000000,0.000000,0.000000,0.000000,0.000000,0.000000,0.000000,0.000000,0.000000,0.000000,0.000000,0.024921,3,0
1280000,0.010403,32.961048,0.024005,0.030328,25.891802,-0.019907,-0.004846,0.034721,1.571255,-0.072049,-0.004753,-0.001854,0.000797,-0.010199,-0.000076,0.002615,-0.010766,0.121593,-0.036456,0.203452,0.203447,0.164124,0.423545,0.000000,0.000000,0.000000,0.000000,0.000000,0.000000,0.000000,0.000000,0.000000,0.000000,0.000000,0.000000,0.117929,3,0
1290000,0.010346,33.221275,0.023613,0.029990,25.897772,-0.020309,-0.004910,0.034978,1.571266,-0.072294,-0.004823,-0.001794,0.000816,-0.010265,-0.000076,0.000252,-0.010709,0.037422,-0.006979,0.203614,0.203608,0.163769,0.420264,0.000000,0.000000,0.000000,0.000000,0.000000,0.000000,0.000000,0.000000,0.000000,0.000000,0.000000,0.000000,0.037603,3,0
1300000,0.010285,33.479469,0.024921,0.029673,25.900017,-0.018472,-0.004984,0.034971,1.571258,-0.072134,-0.004890,-0.002294,0.000836,-0.010221,-0.000076,0.000610,-0.010649,-0.024071,0.055473,0.203777,0.203770,0.163414,0.417066,0.000000,0.000000,0.000000,0.000000,0.000000,0.000000,0.000000,0.000000,0.000000,0.000000,0.000000,0.000000,0.025424,3,0
1310000,0.010222,33.739044,0.026317,0.029299,25.904749,-0.016641,-0.005052,0.035132,1.571265,-0.072234,-0.004957,-0.002825,0.000856,-0.010248,-0.000076,0.000609,-0.010584,0.015896,0.058245,0.203940,0.203933,0.163057,0.413949,0.000000,0.000000,0.000000,0.000000,0.000000,0.000000,0.000000,0.000000,0.000000,0.000000,0.000000,0.000000,0.018449,3,0
1320000,0.010159,33.997276,0.027543,0.028981,25.907080,-0.015155,-0.005122,0.035112,1.571253,-0.072069,-0.005024,-0.003293,0.000875,-0.010201,-0.000076,0.000547,-0.010519,-0.025063,0.051363,0.204103,0.204096,0.162699,0.410912,0.000000,0.000000,0.000000,0.000000,0.000000,0.000000,0.000000,0.000000,0.000000,0.000000,0.000000,0.000000,0.026253,3,0
1330000,0.010092,34.256889,0.028859,0.028548,25.911812,-0.013645,-0.005194,0.035280,1.571253,-0.072162,-0.005089,-0.003794,0.000895,-0.010227,-0.000076,0.000533,-0.010450,0.014866,0.054407,0.204267,0.204259,0.162340,0.407954,0.000000,0.000000,0.000000,0.000000,0.000000,0.000000,0.000000,0.000000,0.000000,0.000000,0.000000,0.000000,0.017554,3,0
1340000,0.010028,34.520576,0.027676,0.028113,25.923731,-0.015120,-0.005275,0.035991,1.571252,-0.073018,-0.005157,-0.003451,0.000914,-0.010476,-0.000078,0.003100,-0.010380,0.132908,-0.038364,0.204433,0.204424,0.161982,0.405072,0.000000,0.000000,0.000000,0.000000,0.000000,0.000000,0.000000,0.000000,0.000000,0.000000,0.000000,0.000000,0.128767,3,0
1350000,0.009958,34.782162,0.028523,0.027721,25.931646,-0.014078,-0.005349,0.036394,1.571248,-0.073451,-0.005222,-0.003804,0.000934,-0.010604,-0.000078,0.000985,-0.010311,0.067890,0.037308,0.204599,0.204589,0.161623,0.402265,0.000000,0.000000,0.000000,0.000000,0.000000,0.000000,0.000000,0.000000,0.000000,0.000000,0.000000,0.000000,0.066330,3,0
1360000,0.009888,35.043045,0.028746,0.027338,25.938280,-0.013935,-0.005432,0.036709,1.571241,-0.073736,-0.005287,-0.003937,0.000954,-0.010689,-0.000079,0.000370,-0.010238,0.044769,0.013788,0.204766,0.204756,0.161264,0.399533,0.000000,0.000000,0.000000,0.000000,0.000000,0.000000,0.000000,0.000000,0.000000,0.000000,0.000000,0.000000,0.044359,3,0
1370000,0.009816,35.305950,0.027791,0.026838,25.948439,-0.015352,-0.005499,0.037301,1.571246,-0.074386,-0.005353,-0.003665,0.000973,-0.010887,-0.000081,0.001833,-0.010162,0.101883,-0.029989,0.204935,0.204924,0.160906,0.396873,0.000000,0.000000,0.000000,0.000000,0.000000,0.000000,0.000000,0.000000,0.000000,0.000000,0.000000,0.000000,0.098889,3,0
1380000,0.009741,35.568123,0.027747,0.026330,25.957136,-0.015475,-0.005573,0.037773,1.571251,-0.074876,-0.005416,-0.003714,0.000993,-0.011038,-0.000082,0.000985,-0.010086,0.077423,0.004451,0.205105,0.205094,0.160549,0.394284,0.000000,0.000000,0.000000,0.000000,0.000000,0.000000,0.000000,0.000000,0.000000,0.000000,0.000000,0.000000,0.075407,3,0
1390000,0.009661,35.828888,0.029062,0.025823,25.963236,-0.013853,-0.005645,0.038034,1.571252,-0.075086,-0.005477,-0.004242,0.001013,-0.011103,-0.000082,0.000695,-0.010005,0.033829,0.055222,0.205277,0.205265,0.160192,0.391766,0.000000,0.000000,0.000000,0.000000,0.000000,0.000000,0.000000,0.000000,0.000000,0.000000,0.000000,0.000000,0.034075,3,0
1400000,0.009581,36.091679,0.029155,0.025463,25.972990,-0.013819,-0.005715,0.038587,1.571252,-0.075657,-0.005539,-0.004338,0.001033,-0.011284,-0.000083,0.001364,-0.009921,0.091064,0.009081,0.205451,0.205438,0.159837,0.389316,0.000000,0.000000,0.000000,0.000000,0.000000,0.000000,0.000000,0.000000,0.000000,0.000000,0.000000,0.000000,0.088468,3,0
1410000,0.009501,36.351013,0.028845,0.025021,25.976408,-0.014353,-0.005790,0.038631,1.571257,-0.075577,-0.005601,-0.004275,0.001053,-0.011258,-0.000083,0.000049,-0.009837,-0.012794,-0.006392,0.205626,0.205612,0.159482,0.386933,0.000000,0.000000,0.000000,0.000000,0.000000,0.000000,0.000000,0.000000,0.000000,0.000000,0.000000,0.000000,0.015586,3,0
1420000,0.009419,36.609669,0.028108,0.024551,25.978567,-0.015170,-0.005875,0.038578,1.571265,-0.075370,-0.005662,-0.004054,0.001072,-0.011191,-0.000083,0.000279,-0.009752,-0.033615,-0.022500,0.205804,0.205789,0.159129,0.384615,0.000000,0.000000,0.000000,0.000000,0.000000,0.000000,0.000000,0.000000,0.000000,0.000000,0.000000,0.000000,0.033802,3,0
1430000,0.009334,36.868336,0.027753,0.024120,25.980541,-0.015698,-0.005952,0.038520,1.571264,-0.075161,-0.005723,-0.003976,0.001092,-0.011122,-0.000082,0.000209,-0.009666,-0.033863,-0.007702,0.205983,0.205967,0.158778,0.382360,0.000000,0.000000,0.000000,0.000000,0.000000,0.000000,0.000000,0.000000,0.000000,0.000000,0.000000,0.000000,0.034009,3,0
1440000,0.009250,37.126331,0.026640,0.023746,25.981325,-0.016978,-0.006018,0.038354,1.571270,-0.074831,-0.005783,-0.003615,0.001112,-0.011011,-0.000082,0.000699,-0.009577,-0.054001,-0.036424,0.206164,0.206147,0.158428,0.380168,0.000000,0.000000,0.000000,0.000000,0.000000,0.000000,0.000000,0.000000,0.000000,0.000000,0.000000,0.000000,0.052965,3,0
1450000,0.009161,37.389122,0.027302,0.023276,25.990644,-0.016248,-0.006104,0.038891,1.571275,-0.075352,-0.005840,-0.003939,0.001132,-0.011189,-0.000083,0.001360,-0.009489,0.085571,0.032057,0.206347,0.206329,0.158081,0.378036,0.000000,0.000000,0.000000,0.000000,0.000000,0.000000,0.000000,0.000000,0.000000,0.000000,0.000000,0.000000,0.083140,3,0
1460000,0.009070,37.649120,0.028337,0.022808,25.994894,-0.014974,-0.006177,0.039002,1.571272,-0.075359,-0.005895,-0.004387,0.001152,-0.011190,-0.000083,0.000352,-0.009395,0.001595,0.045591,0.206532,0.206513,0.157735,0.375965,0.000000,0.000000,0.000000,0.000000,0.000000,0.000000,0.000000,0.000000,0.000000,0.000000,0.000000,0.000000,0.009200,3,0
1470000,0.008976,37.910473,0.029398,0.022307,26.001467,-0.013923,-0.006255,0.039311,1.571279,-0.075596,-0.005949,-0.004850,0.001172,-0.011273,-0.000084,0.000619,-0.009298,0.039738,0.046487,0.206718,0.206699,0.157392,0.373951,0.000000,0.000000,0.000000,0.000000,0.000000,0.000000,0.000000,0.000000,0.000000,0.000000,0.000000,0.000000,0.039412,3,0
1480000,0.008881,38.170418,0.030649,0.021915,26.005468,-0.012503,-0.006325,0.039404,1.571272,-0.075574,-0.006002,-0.005377,0.001192,-0.011264,-0.000084,0.000474,-0.009201,-0.003010,0.053188,0.206907,0.206887,0.157051,0.371995,0.000000,0.000000,0.000000,0.000000,0.000000,0.000000,0.000000,0.000000,0.000000,0.000000,0.000000,0.000000,0.009343,3,0
1490000,0.008787,38.428295,0.031430,0.021545,26.005630,-0.011417,-0.006393,0.039174,1.571277,-0.075188,-0.006055,-0.005711,0.001213,-0.011123,-0.000083,0.000868,-0.009103,-0.064209,0.034353,0.207098,0.207077,0.156713,0.370094,0.000000,0.000000,0.000000,0.000000,0.000000,0.000000,0.000000,0.000000,0.000000,0.000000,0.000000,0.000000,0.062608,3,0
1500000,0.008692,38.691002,0.031134,0.021040,26.014488,-0.011980,-0.006479,0.039681,1.571276,-0.075637,-0.006109,-0.005657,0.001232,-0.011288,-0.000084,0.000937,-0.009003,0.075497,-0.006456,0.207291,0.207268,0.156377,0.368246,0.000000,0.000000,0.000000,0.000000,0.000000,0.000000,0.000000,0.000000,0.000000,0.000000,0.000000,0.000000,0.073404,3,0
1510000,0.008592,38.952953,0.032355,0.020468,26.021954,-0.010612,-0.006562,0.040054,1.571271,-0.075935,-0.006159,-0.006185,0.001252,-0.011398,-0.000085,0.000873,-0.008902,0.051243,0.051907,0.207485,0.207462,0.156044,0.366453,0.000000,0.000000,0.000000,0.000000,0.000000,0.000000,0.000000,0.000000,0.000000,0.000000,0.000000,0.000000,0.050221,3,0
1520000,0.008492,39.212105,0.033278,0.020002,26.024296,-0.009384,-0.006634,0.039996,1.571274,-0.075746,-0.006209,-0.006580,0.001272,-0.011326,-0.000084,0.000429,-0.008798,-0.031872,0.039498,0.207681,0.207657,0.155714,0.364711,0.000000,0.000000,0.000000,0.000000,0.000000,0.000000,0.000000,0.000000,0.000000,0.000000,0.000000,0.000000,0.031912,3,0
1530000,0.008390,39.469875,0.034371,0.019610,26.023932,-0.008287,-0.006705,0.039698,1.571278,-0.075322,-0.006257,-0.007030,0.001292,-0.011162,-0.000083,0.001191,-0.008693,-0.072376,0.045514,0.207880,0.207854,0.155386,0.363019,0.000000,0.000000,0.000000,0.000000,0.000000,0.000000,0.000000,0.000000,0.000000,0.000000,0.000000,0.000000,0.070364,3,0
1540000,0.008286,39.729042,0.035430,0.019033,26.026159,-0.007198,-0.006773,0.039629,1.571285,-0.075134,-0.006305,-0.007475,0.001312,-0.011087,-0.000083,0.000492,-0.008586,-0.031960,0.044102,0.208079,0.208053,0.155062,0.361376,0.000000,0.000000,0.000000,0.000000,0.000000,0.000000,0.000000,0.000000,0.000000,0.000000,0.000000,0.000000,0.031939,3,0
1550000,0.008180,39.991653,0.036505,0.018513,26.034655,-0.006082,-0.006845,0.040098,1.571288,-0.075513,-0.006351,-0.007945,0.001331,-0.011236,-0.000084,0.001055,-0.008477,0.066669,0.044957,0.208281,0.208253,0.154741,0.359780,0.000000,0.000000,0.000000,0.000000,0.000000,0.000000,0.000000,0.000000,0.000000,0.000000,0.000000,0.000000,0.064879,3,0
1560000,0.008076,40.254219,0.035670,0.017953,26.043003,-0.007385,-0.006915,0.040557,1.571292,-0.075870,-0.006400,-0.007651,0.001350,-0.011380,-0.000085,0.000779,-0.008365,0.062397,-0.029567,0.208484,0.208455,0.154424,0.358232,0.000000,0.000000,0.000000,0.000000,0.000000,0.000000,0.000000,0.000000,0.000000,0.000000,0.000000,0.000000,0.060762,3,0
1570000,0.007968,40.517403,0.036209,0.017532,26.052374,-0.007047,-0.006998,0.041083,1.571290,-0.076308,-0.006445,-0.007917,0.001369,-0.011558,-0.000086,0.001089,-0.008256,0.078053,0.024544,0.208688,0.208658,0.154109,0.356728,0.000000,0.000000,0.000000,0.000000,0.000000,0.000000,0.000000,0.000000,0.000000,0.000000,0.000000,0.000000,0.075764,3,0
1580000,0.007859,40.775673,0.036441,0.016951,26.052650,-0.006847,-0.007077,0.040827,1.571278,-0.075938,-0.006490,-0.008024,0.001388,-0.011405,-0.000085,0.000731,-0.008143,-0.065948,0.011397,0.208893,0.208862,0.153798,0.355269,0.000000,0.000000,0.000000,0.000000,0.000000,0.000000,0.000000,0.000000,0.000000,0.000000,0.000000,0.000000,0.064135,3,0
1590000,0.007752,41.038807,0.035202,0.016558,26.061750,-0.008484,-0.007155,0.041342,1.571289,-0.076348,-0.006537,-0.007566,0.001407,-0.011578,-0.000086,0.001207,-0.008029,0.073357,-0.045166,0.209100,0.209068,0.153491,0.353853,0.000000,0.000000,0.000000,0.000000,0.000000,0.000000,0.000000,0.000000,0.000000,0.000000,0.000000,0.000000,0.071216,3,0
1600000,0.007640,41.297699,0.035356,0.015996,26.062859,-0.008423,-0.007235,0.041169,1.571293,-0.076069,-0.006580,-0.007652,0.001425,-0.011459,-0.000086,0.000437,-0.007917,-0.050716,0.009073,0.209308,0.209274,0.153187,0.352477,0.000000,0.000000,0.000000,0.000000,0.000000,0.000000,0.000000,0.000000,0.000000,0.000000,0.000000,0.000000,0.049539,3,0
1610000,0.007529,41.556591,0.034716,0.015513,26.064022,-0.009232,-0.007318,0.040998,1.571296,-0.075792,-0.006624,-0.007411,0.001443,-0.011340,-0.000085,0.000511,-0.007800,-0.051197,-0.022161,0.209516,0.209482,0.152887,0.351142,0.000000,0.000000,0.000000,0.000000,0.000000,0.000000,0.000000,0.000000,0.000000,0.000000,0.000000,0.000000,0.049986,3,0
1620000,0.007416,41.814083,0.034487,0.015001,26.062550,-0.009371,-0.007396,0.040580,1.571288,-0.075299,-0.006666,-0.007330,0.001462,-0.011123,-0.000084,0.001360,-0.007684,-0.091431,-0.006083,0.209726,0.209690,0.152590,0.349845,0.000000,0.000000,0.000000,0.000000,0.000000,0.000000,0.000000,0.000000,0.000000,0.000000,0.000000,0.000000,0.088549,3,0
1630000,0.007300,42.071583,0.034881,0.014525,26.060976,-0.008800,-0.007472,0.040166,1.571279,-0.074815,-0.006705,-0.007509,0.001480,-0.010906,-0.000082,0.001381,-0.007566,-0.090481,0.018496,0.209936,0.209899,0.152297,0.348586,0.000000,0.000000,0.000000,0.000000,0.000000,0.000000,0.000000,0.000000,0.000000,0.000000,0.000000,0.000000,0.087615,3,0
1640000,0.007185,42.331894,0.034066,0.013943,26.064678,-0.009804,-0.007554,0.040211,1.571269,-0.074764,-0.006746,-0.007202,0.001498,-0.010883,-0.000082,0.000159,-0.007444,-0.010025,-0.028734,0.210147,0.210109,0.152008,0.347364,0.000000,0.000000,0.000000,0.000000,0.000000,0.000000,0.000000,0.000000,0.000000,0.000000,0.000000,0.000000,0.012056,3,0
1650000,0.007068,42.590771,0.033915,0.013455,26.065710,-0.009907,-0.007619,0.040008,1.571268,-0.074493,-0.006785,-0.007165,0.001515,-0.010759,-0.000081,0.000440,-0.007324,-0.051704,-0.002508,0.210359,0.210319,0.151723,0.346179,0.000000,0.000000,0.000000,0.000000,0.000000,0.000000,0.000000,0.000000,0.000000,0.000000,0.000000,0.000000,0.050391,3,0
1660000,0.006947,42.849628,0.034987,0.012900,26.066610,-0.008821,-0.007690,0.039792,1.571261,-0.074220,-0.006820,-0.007648,0.001533,-0.010629,-0.000081,0.000790,-0.007201,-0.052166,0.046054,0.210571,0.210530,0.151442,0.345027,0.000000,0.000000,0.000000,0.000000,0.000000,0.000000,0.000000,0.000000,0.000000,0.000000,0.000000,0.000000,0.050801,3,0
1670000,0.006828,43.110592,0.033806,0.012391,26.071453,-0.010458,-0.007765,0.039933,1.571255,-0.074259,-0.006858,-0.007185,0.001550,-0.010649,-0.000081,0.000319,-0.007075,0.007034,-0.043187,0.210783,0.210740,0.151164,0.343909,0.000000,0.000000,0.000000,0.000000,0.000000,0.000000,0.000000,0.000000,0.000000,0.000000,0.000000,0.000000,0.009622,3,0
1680000,0.006708,43.371513,0.033022,0.011865,26.075975,-0.011393,-0.007845,0.040062,1.571253,-0.074283,-0.006895,-0.006896,0.001567,-0.010662,-0.000081,0.000129,-0.006951,0.004444,-0.026910,0.210995,0.210951,0.150891,0.342823,0.000000,0.000000,0.000000,0.000000,0.000000,0.000000,0.000000,0.000000,0.000000,0.000000,0.000000,0.000000,0.007957,3,0
1690000,0.006586,43.631687,0.032716,0.011308,26.079170,-0.011994,-0.007909,0.040047,1.571247,-0.074194,-0.006930,-0.006809,0.001584,-0.010618,-0.000081,0.000069,-0.006826,-0.017975,-0.007705,0.211206,0.211161,0.150621,0.341769,0.000000,0.000000,0.000000,0.000000,0.000000,0.000000,0.000000,0.000000,0.000000,0.000000,0.000000,0.000000,0.018554,3,0
1700000,0.006463,43.894634,0.031707,0.010732,26.087393,-0.013325,-0.007979,0.040502,1.571247,-0.074492,-0.006965,-0.006443,0.001600,-0.010769,-0.000082,0.000778,-0.006697,0.059765,-0.034810,0.211418,0.211371,0.150355,0.340745,0.000000,0.000000,0.000000,0.000000,0.000000,0.000000,0.000000,0.000000,0.000000,0.000000,0.000000,0.000000,0.058013,3,0
1710000,0.006338,44.156101,0.030760,0.010141,26.092842,-0.014656,-0.008044,0.040704,1.571241,-0.074570,-0.006999,-0.006095,0.001616,-0.010809,-0.000082,0.000214,-0.006569,0.015400,-0.032255,0.211628,0.211581,0.150093,0.339751,0.000000,0.000000,0.000000,0.000000,0.000000,0.000000,0.000000,0.000000,0.000000,0.000000,0.000000,0.000000,0.016147,3,0
