time_us,pos_x,pos_y,pos_z,vel_x,vel_y,vel_z,roll,pitch,yaw,bias_ax,bias_ay,bias_az,bias_gx,bias_gy,bias_gz,nis,innov_x,innov_y,innov_z,cov_pos_x,cov_pos_y,cov_pos_z,cov_yaw,des_speed,des_heading,des_climb,pid_speed,pid_yaw,pid_alt,speed_meas,yaw_meas,climb_meas,fwd_accel,yaw_rate,vert_accel,drift_m,nav_mode,mission_state
0,-0.000009,0.149994,0.000000,-0.001520,24.998966,0.000078,-0.000010,0.000007,1.570785,0.000000,0.000000,0.000000,0.000000,0.000000,0.000000,0.006250,0.000015,-0.249992,-0.000001,2.400038,2.400038,3.600017,1.000518,0.000000,0.000000,0.000000,0.000000,0.000000,0.000000,0.000000,0.000000,0.000000,0.000000,0.000000,0.000000,0.229509,1,0
10000,-0.000027,0.240247,0.022209,-0.002893,24.997122,0.000116,-0.000022,0.000021,1.570790,0.000002,0.000000,-0.000000,0.000000,0.000000,0.000000,0.037565,0.000038,-0.559007,0.059220,1.714420,1.714420,2.250079,1.001073,0.000000,0.000000,0.000000,0.000000,0.000000,0.000000,0.000000,0.000000,0.000000,0.000000,0.000000,0.000000,0.061337,3,0
20000,-0.000053,0.381252,0.031795,-0.004105,24.995008,0.000042,-0.000028,0.000024,1.570783,0.000006,0.000000,-0.000000,-0.000000,0.000000,-0.000000,0.031299,0.000068,-0.490211,0.035148,1.333616,1.333616,1.636554,1.001655,0.000000,0.000000,0.000000,0.000000,0.000000,0.000000,0.000000,0.000000,0.000000,0.000000,0.000000,0.000000,0.056084,3,0
30000,-0.000086,0.491069,0.031919,-0.005169,24.991385,-0.000074,-0.000036,0.000027,1.570790,0.000019,0.000000,-0.000000,-0.000000,0.000000,-0.000000,0.080915,0.000105,-0.770346,0.000580,1.091392,1.091392,1.286065,1.002257,0.000000,0.000000,0.000000,0.000000,0.000000,0.000000,0.000000,0.000000,0.000000,0.000000,0.000000,0.000000,0.204693,3,0
40000,-0.000125,0.611582,0.032899,-0.006244,24.986525,-0.000166,-0.000044,0.000015,1.570783,0.000044,0.000000,-0.000001,-0.000000,0.000000,-0.000000,0.099584,0.000148,-0.840366,0.005559,0.923811,0.923811,1.059385,1.002869,0.000000,0.000000,0.000000,0.000000,0.000000,0.000000,0.000000,0.000000,0.000000,0.000000,0.000000,0.000000,0.342606,3,0
50000,-0.000171,0.733162,0.024725,-0.007236,24.980600,-0.000577,-0.000046,0.000008,1.570786,0.000085,0.000000,0.000002,0.000000,0.000000,-0.000000,0.133744,0.000198,-0.960834,-0.054417,0.801036,0.801036,0.900822,1.003484,0.000000,0.000000,0.000000,0.000000,0.000000,0.000000,0.000000,0.000000,0.000000,0.000000,0.000000,0.000000,0.479452,3,0
60000,-0.000225,0.864746,0.025422,-0.008375,24.973480,-0.000787,-0.000062,0.000005,1.570786,0.000145,0.000000,0.000001,-0.000000,0.000001,-0.000000,0.147860,0.000255,-1.002838,0.005396,0.707270,0.707270,0.783741,1.004094,0.000000,0.000000,0.000000,0.000000,0.000000,0.000000,0.000000,0.000000,0.000000,0.000000,0.000000,0.000000,0.606294,3,0
70000,-0.000287,0.992630,0.024739,-0.009558,24.964476,-0.000902,-0.000066,-0.000018,1.570783,0.000237,0.000000,0.000002,-0.000000,0.000002,-0.000000,0.198607,0.000321,-1.154230,-0.005836,0.633370,0.633370,0.693801,1.004689,0.000000,0.000000,0.000000,0.000000,0.000000,0.000000,0.000000,0.000000,0.000000,0.000000,0.000000,0.000000,0.736836,3,0
80000,-0.000357,1.115890,0.020523,-0.010828,24.953390,-0.001528,-0.000071,-0.000049,1.570780,0.000372,0.000000,0.000006,-0.000000,0.000003,-0.000000,0.263590,0.000395,-1.321784,-0.040505,0.573673,0.573673,0.622594,1.005261,0.000000,0.000000,0.000000,0.000000,0.000000,0.000000,0.000000,0.000000,0.000000,0.000000,0.000000,0.000000,0.872002,3,0
90000,-0.000436,1.254747,0.020328,-0.012022,24.941483,-0.001521,-0.000074,-0.000090,1.570780,0.000534,0.000000,0.000006,-0.000000,0.000005,-0.000000,0.243784,0.000478,-1.266021,-0.001917,0.524488,0.524488,0.564865,1.005802,0.000000,0.000000,0.000000,0.000000,0.000000,0.000000,0.000000,0.000000,0.000000,0.000000,0.000000,0.000000,0.991571,3,0
100000,-0.000521,1.423024,0.021172,-0.013078,24.930943,-0.001621,-0.000078,-0.000132,1.570767,0.000690,0.000000,0.000004,-0.000000,0.000007,-0.000000,0.155465,0.000567,-1.007180,0.009991,0.483303,0.483304,0.517162,1.006303,0.000000,0.000000,0.000000,0.000000,0.000000,0.000000,0.000000,0.000000,0.000000,0.000000,0.000000,0.000000,1.081720,3,0
110000,-0.000614,1.599350,0.021776,-0.014264,24.919792,-0.001594,-0.000082,-0.000187,1.570771,0.000872,0.000000,0.000003,-0.000000,0.000010,-0.000000,0.147078,0.000664,-0.976562,0.007808,0.448353,0.448354,0.477121,1.006756,0.000000,0.000000,0.000000,0.000000,0.000000,0.000000,0.000000,0.000000,0.000000,0.000000,0.000000,0.000000,1.163820,3,0
120000,-0.000714,1.791726,0.024005,-0.015376,24.909966,-0.001757,-0.000086,-0.000234,1.570764,0.001051,0.000001,-0.000003,-0.000000,0.000012,-0.000000,0.103088,0.000768,-0.814838,0.030467,0.418358,0.418359,0.443071,1.007152,0.000000,0.000000,0.000000,0.000000,0.000000,0.000000,0.000000,0.000000,0.000000,0.000000,0.000000,0.000000,1.229869,3,0
130000,-0.000824,1.990555,0.022362,-0.016708,24.899590,-0.002201,-0.000095,-0.000288,1.570755,0.001248,0.000001,0.000002,-0.000000,0.000016,-0.000000,0.092097,0.000882,-0.768565,-0.023550,0.392369,0.392369,0.413797,1.007483,0.000000,0.000000,0.000000,0.000000,0.000000,0.000000,0.000000,0.000000,0.000000,0.000000,0.000000,0.000000,1.289466,3,0
140000,-0.000940,2.195868,0.023525,-0.017809,24.889437,-0.002207,-0.000110,-0.000347,1.570760,0.001457,0.000001,-0.000003,-0.000000,0.000020,-0.000000,0.078641,0.001002,-0.708866,0.018353,0.369666,0.369666,0.388393,1.007742,0.000000,0.000000,0.000000,0.000000,0.000000,0.000000,0.000000,0.000000,0.000000,0.000000,0.000000,0.000000,1.342579,3,0
150000,-0.001065,2.405381,0.023302,-0.018996,24.879055,-0.002322,-0.000116,-0.000403,1.570765,0.001684,0.000001,-0.000002,-0.000000,0.000025,-0.000000,0.071626,0.001131,-0.675529,-0.003285,0.349695,0.349695,0.366172,1.007919,0.000000,0.000000,0.000000,0.000000,0.000000,0.000000,0.000000,0.000000,0.000000,0.000000,0.000000,0.000000,1.391492,3,0
160000,-0.001195,2.620594,0.020926,-0.020003,24.869295,-0.003046,-0.000118,-0.000462,1.570772,0.001915,0.000002,0.000013,-0.000000,0.000030,-0.000000,0.058201,0.001265,-0.606635,-0.040706,0.332021,0.332021,0.346600,1.008006,0.000000,0.000000,0.000000,0.000000,0.000000,0.000000,0.000000,0.000000,0.000000,0.000000,0.000000,0.000000,1.434705,3,0
170000,-0.001329,2.833293,0.019147,-0.020807,24.857624,-0.003714,-0.000122,-0.000548,1.570781,0.002207,0.000003,0.000027,-0.000000,0.000036,-0.000000,0.073722,0.001403,-0.682596,-0.031820,0.316297,0.316297,0.329260,1.007995,0.000000,0.000000,0.000000,0.000000,0.000000,0.000000,0.000000,0.000000,0.000000,0.000000,0.000000,0.000000,1.480432,3,0
180000,-0.001473,3.050785,0.020988,-0.022161,24.846512,-0.003292,-0.000131,-0.000639,1.570787,0.002500,0.000003,0.000010,-0.000000,0.000044,-0.000001,0.060432,0.001551,-0.616874,0.035941,0.302246,0.302246,0.313817,1.007880,0.000000,0.000000,0.000000,0.000000,0.000000,0.000000,0.000000,0.000000,0.000000,0.000000,0.000000,0.000000,1.521366,3,0
190000,-0.001623,3.276242,0.020154,-0.023187,24.837292,-0.003866,-0.000131,-0.000720,1.570789,0.002752,0.000004,0.000018,-0.000000,0.000050,-0.000001,0.036046,0.001705,-0.476435,-0.015972,0.289641,0.289641,0.300003,1.007651,0.000000,0.000000,0.000000,0.000000,0.000000,0.000000,0.000000,0.000000,0.000000,0.000000,0.000000,0.000000,1.554336,3,0
200000,-0.001777,3.502199,0.020584,-0.024049,24.827824,-0.003821,-0.000129,-0.000799,1.570787,0.003034,0.000005,0.000013,-0.000000,0.000058,-0.000001,0.037114,0.001864,-0.483134,0.009808,0.278295,0.278295,0.287598,1.007301,0.000000,0.000000,0.000000,0.000000,0.000000,0.000000,0.000000,0.000000,0.000000,0.000000,0.000000,0.000000,1.586805,3,0
210000,-0.001937,3.733001,0.021016,-0.025000,24.819334,-0.004130,-0.000135,-0.000874,1.570790,0.003284,0.000007,0.000006,-0.000000,0.000066,-0.000001,0.024351,0.002028,-0.390929,0.010314,0.268054,0.268054,0.276421,1.006823,0.000000,0.000000,0.000000,0.000000,0.000000,0.000000,0.000000,0.000000,0.000000,0.000000,0.000000,0.000000,1.614428,3,0
220000,-0.002103,3.959517,0.020168,-0.026035,24.808281,-0.004608,-0.000144,-0.000974,1.570799,0.003635,0.000008,0.000018,-0.000000,0.000076,-0.000001,0.040302,0.002198,-0.502374,-0.018128,0.258787,0.258787,0.266321,1.006210,0.000000,0.000000,0.000000,0.000000,0.000000,0.000000,0.000000,0.000000,0.000000,0.000000,0.000000,0.000000,1.646339,3,0
230000,-0.002276,4.188790,0.021734,-0.027167,24.797836,-0.004265,-0.000150,-0.001084,1.570803,0.003978,0.000010,-0.000010,-0.000000,0.000088,-0.000001,0.032637,0.002375,-0.450474,0.037702,0.250385,0.250385,0.257172,1.005455,0.000000,0.000000,0.000000,0.000000,0.000000,0.000000,0.000000,0.000000,0.000000,0.000000,0.000000,0.000000,1.675492,3,0
240000,-0.002455,4.422932,0.020315,-0.028207,24.789328,-0.005175,-0.000148,-0.001166,1.570809,0.004260,0.000012,0.000017,-0.000000,0.000097,-0.000001,0.018849,0.002559,-0.341701,-0.033119,0.242756,0.242756,0.248866,1.004550,0.000000,0.000000,0.000000,0.000000,0.000000,0.000000,0.000000,0.000000,0.000000,0.000000,0.000000,0.000000,1.699776,3,0
250000,-0.002640,4.653655,0.022206,-0.029273,24.778393,-0.004348,-0.000154,-0.001274,1.570811,0.004649,0.000015,-0.000026,-0.000000,0.000111,-0.000001,0.030897,0.002748,-0.436605,0.048354,0.235818,0.235818,0.241314,1.003491,0.000000,0.000000,0.000000,0.000000,0.000000,0.000000,0.000000,0.000000,0.000000,0.000000,0.000000,0.000000,1.727479,3,0
260000,-0.002833,4.889592,0.020245,-0.030478,24.769981,-0.005617,-0.000151,-0.001375,1.570814,0.004946,0.000017,0.000021,-0.000001,0.000122,-0.000001,0.015730,0.002946,-0.309397,-0.049014,0.229504,0.229504,0.234436,1.002270,0.000000,0.000000,0.000000,0.000000,0.000000,0.000000,0.000000,0.000000,0.000000,0.000000,0.000000,0.000000,1.749968,3,0
270000,-0.003033,5.127327,0.021026,-0.031658,24.762524,-0.005084,-0.000155,-0.001462,1.570814,0.005222,0.000021,-0.000002,-0.000001,0.000132,-0.000002,0.011513,0.003151,-0.266948,0.021993,0.223754,0.223754,0.228165,1.000882,0.000000,0.000000,0.000000,0.000000,0.000000,0.000000,0.000000,0.000000,0.000000,0.000000,0.000000,0.000000,1.770659,3,0
280000,-0.003239,5.364530,0.019938,-0.032745,24.754379,-0.006115,-0.000163,-0.001553,1.570814,0.005537,0.000024,0.000029,-0.000001,0.000145,-0.000002,0.013257,0.003361,-0.285941,-0.027866,0.218516,0.218516,0.222443,0.999321,0.000000,0.000000,0.000000,0.000000,0.000000,0.000000,0.000000,0.000000,0.000000,0.000000,0.000000,0.000000,1.791884,3,0
290000,-0.003453,5.600512,0.021496,-0.034121,24.744999,-0.005387,-0.000177,-0.001667,1.570814,0.005920,0.000029,-0.000024,-0.000001,0.000161,-0.000002,0.017226,0.003581,-0.324272,0.044823,0.213744,0.213745,0.217219,0.997582,0.000000,0.000000,0.000000,0.000000,0.000000,0.000000,0.000000,0.000000,0.000000,0.000000,0.000000,0.000000,1.814327,3,0
300000,-0.003672,5.839501,0.020014,-0.035063,24.737314,-0.006534,-0.000179,-0.001757,1.570809,0.006224,0.000033,0.000026,-0.000001,0.000174,-0.000002,0.009690,0.003805,-0.242096,-0.040267,0.209399,0.209399,0.212447,0.995661,0.000000,0.000000,0.000000,0.000000,0.000000,0.000000,0.000000,0.000000,0.000000,0.000000,0.000000,0.000000,1.833764,3,0
310000,-0.003896,6.077881,0.018622,-0.036047,24.729015,-0.007491,-0.000179,-0.001864,1.570824,0.006574,0.000039,0.000077,-0.000001,0.000189,-0.000002,0.011316,0.004034,-0.262341,-0.038253,0.205444,0.205444,0.208087,0.993553,0.000000,0.000000,0.000000,0.000000,0.000000,0.000000,0.000000,0.000000,0.000000,0.000000,0.000000,0.000000,1.853811,3,0
320000,-0.004124,6.316342,0.019926,-0.037036,24.720358,-0.006203,-0.000186,-0.001973,1.570826,0.006945,0.000045,0.000020,-0.000002,0.000206,-0.000002,0.011330,0.004267,-0.262089,0.040480,0.201848,0.201848,0.204105,0.991254,0.000000,0.000000,0.000000,0.000000,0.000000,0.000000,0.000000,0.000000,0.000000,0.000000,0.000000,0.000000,1.873776,3,0
330000,-0.004358,6.554865,0.021326,-0.038179,24.711519,-0.005118,-0.000186,-0.002098,1.570837,0.007337,0.000052,-0.000045,-0.000002,0.000225,-0.000003,0.011367,0.004507,-0.261917,0.043807,0.198582,0.198583,0.200469,0.988762,0.000000,0.000000,0.000000,0.000000,0.000000,0.000000,0.000000,0.000000,0.000000,0.000000,0.000000,0.000000,1.893678,3,0
340000,-0.004596,6.798615,0.022246,-0.039184,24.706894,-0.004490,-0.000188,-0.002151,1.570840,0.007500,0.000059,-0.000092,-0.000002,0.000233,-0.000003,0.001848,0.004751,-0.102771,0.029597,0.195622,0.195622,0.197151,0.986073,0.000000,0.000000,0.000000,0.000000,0.000000,0.000000,0.000000,0.000000,0.000000,0.000000,0.000000,0.000000,1.908356,3,0
350000,-0.004838,7.039647,0.022845,-0.040156,24.700182,-0.004026,-0.000192,-0.002231,1.570843,0.007812,0.000067,-0.000125,-0.000003,0.000248,-0.000003,0.005736,0.004999,-0.187449,0.019940,0.192944,0.192945,0.194126,0.983185,0.000000,0.000000,0.000000,0.000000,0.000000,0.000000,0.000000,0.000000,0.000000,0.000000,0.000000,0.000000,1.925751,3,0
360000,-0.005083,7.283134,0.024204,-0.040961,24.695631,-0.002718,-0.000198,-0.002295,1.570842,0.008006,0.000077,-0.000202,-0.000003,0.000258,-0.000003,0.002280,0.005250,-0.110350,0.043892,0.190528,0.190528,0.191370,0.980095,0.000000,0.000000,0.000000,0.000000,0.000000,0.000000,0.000000,0.000000,0.000000,0.000000,0.000000,0.000000,1.940690,3,0
370000,-0.005331,7.527084,0.023751,-0.041946,24.691164,-0.003046,-0.000201,-0.002350,1.570844,0.008182,0.000087,-0.000177,-0.000004,0.000268,-0.000003,0.001503,0.005504,-0.095363,-0.013539,0.188354,0.188354,0.188863,0.976803,0.000000,0.000000,0.000000,0.000000,0.000000,0.000000,0.000000,0.000000,0.000000,0.000000,0.000000,0.000000,1.955167,3,0
380000,-0.005582,7.773324,0.023389,-0.042766,24.689272,-0.003549,-0.000201,-0.002362,1.570827,0.008223,0.000098,-0.000156,-0.000005,0.000270,-0.000003,0.000096,0.005761,-0.021206,-0.010617,0.186405,0.186406,0.186587,0.973306,0.000000,0.000000,0.000000,0.000000,0.000000,0.000000,0.000000,0.000000,0.000000,0.000000,0.000000,0.000000,1.967353,3,0
390000,-0.005835,8.018707,0.024139,-0.043700,24.686750,-0.002856,-0.000196,-0.002397,1.570837,0.008322,0.000110,-0.000208,-0.000005,0.000275,-0.000003,0.000496,0.006021,-0.048763,0.025579,0.184666,0.184666,0.184523,0.969606,0.000000,0.000000,0.000000,0.000000,0.000000,0.000000,0.000000,0.000000,0.000000,0.000000,0.000000,0.000000,1.980396,3,0
400000,-0.006090,8.263261,0.024308,-0.044420,24.683062,-0.002739,-0.000197,-0.002443,1.570846,0.008481,0.000123,-0.000222,-0.000006,0.000285,-0.000003,0.000933,0.006282,-0.075451,0.006518,0.183121,0.183122,0.182656,0.965702,0.000000,0.000000,0.000000,0.000000,0.000000,0.000000,0.000000,0.000000,0.000000,0.000000,0.000000,0.000000,1.994269,3,0
410000,-0.006349,8.509420,0.024232,-0.045492,24.681206,-0.002892,-0.000195,-0.002455,1.570837,0.008529,0.000138,-0.000219,-0.000007,0.000288,-0.000003,0.000084,0.006547,-0.021783,-0.001552,0.181758,0.181759,0.180972,0.961594,0.000000,0.000000,0.000000,0.000000,0.000000,0.000000,0.000000,0.000000,0.000000,0.000000,0.000000,0.000000,2.006536,3,0
420000,-0.006611,8.754740,0.025483,-0.046483,24.678333,-0.001664,-0.000195,-0.002493,1.570835,0.008643,0.000154,-0.000317,-0.000008,0.000295,-0.000003,0.000696,0.006816,-0.049256,0.042836,0.180564,0.180565,0.179456,0.957284,0.000000,0.000000,0.000000,0.000000,0.000000,0.000000,0.000000,0.000000,0.000000,0.000000,0.000000,0.000000,2.019643,3,0
430000,-0.006874,9.000430,0.026713,-0.047276,24.675728,-0.000259,-0.000202,-0.002510,1.570840,0.008729,0.000171,-0.000418,-0.000009,0.000300,-0.000004,0.000505,0.007086,-0.036119,0.042032,0.179528,0.179528,0.178097,0.952774,0.000000,0.000000,0.000000,0.000000,0.000000,0.000000,0.000000,0.000000,0.000000,0.000000,0.000000,0.000000,2.032380,3,0
440000,-0.007140,9.244704,0.026529,-0.048223,24.671329,-0.000486,-0.000190,-0.002580,1.570838,0.008936,0.000189,-0.000403,-0.000010,0.000313,-0.000004,0.001129,0.007359,-0.082994,-0.006167,0.178637,0.178638,0.176883,0.948065,0.000000,0.000000,0.000000,0.000000,0.000000,0.000000,0.000000,0.000000,0.000000,0.000000,0.000000,0.000000,2.046533,3,0
450000,-0.007407,9.493492,0.027768,-0.049035,24.672916,0.000769,-0.000186,-0.002516,1.570830,0.008754,0.000209,-0.000513,-0.000012,0.000301,-0.000004,0.001103,0.007633,0.070353,0.042531,0.177884,0.177884,0.175803,0.943160,0.000000,0.000000,0.000000,0.000000,0.000000,0.000000,0.000000,0.000000,0.000000,0.000000,0.000000,0.000000,2.056171,3,0
460000,-0.007675,9.741984,0.026431,-0.049852,24.674128,-0.001037,-0.000181,-0.002465,1.570823,0.008593,0.000230,-0.000389,-0.000013,0.000290,-0.000003,0.000938,0.007909,0.060096,-0.046082,0.177257,0.177258,0.174848,0.938062,0.000000,0.000000,0.000000,0.000000,0.000000,0.000000,0.000000,0.000000,0.000000,0.000000,0.000000,0.000000,2.066107,3,0
470000,-0.007941,9.987263,0.026443,-0.050383,24.670952,-0.001101,-0.000178,-0.002517,1.570815,0.008730,0.000253,-0.000391,-0.000015,0.000300,-0.000004,0.000403,0.008182,-0.049255,0.000815,0.176748,0.176749,0.174007,0.932775,0.000000,0.000000,0.000000,0.000000,0.000000,0.000000,0.000000,0.000000,0.000000,0.000000,0.000000,0.000000,2.079255,3,0
480000,-0.008209,10.236404,0.025416,-0.051268,24.673048,-0.002636,-0.000174,-0.002429,1.570800,0.008490,0.000277,-0.000289,-0.000016,0.000283,-0.000003,0.001331,0.008457,0.083199,-0.035136,0.176349,0.176350,0.173272,0.927304,0.000000,0.000000,0.000000,0.000000,0.000000,0.000000,0.000000,0.000000,0.000000,0.000000,0.000000,0.000000,2.088540,3,0
490000,-0.008478,10.483502,0.025180,-0.052154,24.672354,-0.003133,-0.000165,-0.002416,1.570798,0.008452,0.000303,-0.000268,-0.000018,0.000280,-0.000003,0.000048,0.008734,0.012945,-0.007197,0.176052,0.176053,0.172635,0.921652,0.000000,0.000000,0.000000,0.000000,0.000000,0.000000,0.000000,0.000000,0.000000,0.000000,0.000000,0.000000,2.099869,3,0
500000,-0.008748,10.732092,0.023831,-0.052948,24.673946,-0.005101,-0.000160,-0.002341,1.570794,0.008255,0.000331,-0.000126,-0.000020,0.000266,-0.000003,0.001017,0.009011,0.064036,-0.045865,0.175850,0.175851,0.172088,0.915824,0.000000,0.000000,0.000000,0.000000,0.000000,0.000000,0.000000,0.000000,0.000000,0.000000,0.000000,0.000000,2.109706,3,0
510000,-0.009015,10.979819,0.023526,-0.053510,24.674305,-0.005551,-0.000150,-0.002292,1.570790,0.008147,0.000360,-0.000097,-0.000022,0.000257,-0.000003,0.000215,0.009287,0.034099,-0.008848,0.175734,0.175735,0.171623,0.909826,0.000000,0.000000,0.000000,0.000000,0.000000,0.000000,0.000000,0.000000,0.000000,0.000000,0.000000,0.000000,2.120405,3,0
520000,-0.009282,11.229027,0.022783,-0.054254,24.676857,-0.006693,-0.000146,-0.002193,1.570786,0.007870,0.000392,-0.000018,-0.000025,0.000236,-0.000003,0.001265,0.009561,0.084553,-0.024036,0.175700,0.175701,0.171235,0.903663,0.000000,0.000000,0.000000,0.000000,0.000000,0.000000,0.000000,0.000000,0.000000,0.000000,0.000000,0.000000,2.129626,3,0
530000,-0.009546,11.479692,0.022157,-0.054818,24.681324,-0.007425,-0.000131,-0.002029,1.570772,0.007421,0.000425,0.000049,-0.000027,0.000201,-0.000003,0.002962,0.009834,0.133506,-0.019704,0.175740,0.175741,0.170916,0.897343,0.000000,0.000000,0.000000,0.000000,0.000000,0.000000,0.000000,0.000000,0.000000,0.000000,0.000000,0.000000,2.137388,3,0
540000,-0.009807,11.729465,0.021366,-0.055131,24.684559,-0.008607,-0.000120,-0.001899,1.570763,0.007070,0.000460,0.000138,-0.000030,0.000172,-0.000002,0.001784,0.010102,0.101463,-0.025142,0.175848,0.175849,0.170660,0.890870,0.000000,0.000000,0.000000,0.000000,0.000000,0.000000,0.000000,0.000000,0.000000,0.000000,0.000000,0.000000,2.146040,3,0
550000,-0.010068,11.978359,0.020554,-0.056056,24.686302,-0.009656,-0.000114,-0.001804,1.570754,0.006820,0.000496,0.000230,-0.000033,0.000152,-0.000002,0.000923,0.010372,0.070327,-0.025570,0.176019,0.176020,0.170461,0.884253,0.000000,0.000000,0.000000,0.000000,0.000000,0.000000,0.000000,0.000000,0.000000,0.000000,0.000000,0.000000,2.155574,3,0
560000,-0.010329,12.227555,0.019377,-0.056816,24.688734,-0.011370,-0.000105,-0.001693,1.570748,0.006528,0.000535,0.000371,-0.000036,0.000127,-0.000002,0.001283,0.010641,0.079839,-0.038012,0.176247,0.176248,0.170315,0.877498,0.000000,0.000000,0.000000,0.000000,0.000000,0.000000,0.000000,0.000000,0.000000,0.000000,0.000000,0.000000,2.164804,3,0
570000,-0.010588,12.477052,0.018261,-0.057459,24.691778,-0.012837,-0.000094,-0.001569,1.570739,0.006195,0.000576,0.000505,-0.000039,0.000099,-0.000002,0.001504,0.010908,0.089043,-0.035365,0.176528,0.176529,0.170216,0.870611,0.000000,0.000000,0.000000,0.000000,0.000000,0.000000,0.000000,0.000000,0.000000,0.000000,0.000000,0.000000,2.173735,3,0
580000,-0.010846,12.725086,0.017778,-0.058184,24.692348,-0.013571,-0.000085,-0.001512,1.570736,0.006048,0.000619,0.000554,-0.000043,0.000086,-0.000001,0.000283,0.011175,0.038306,-0.012442,0.176855,0.176857,0.170159,0.863602,0.000000,0.000000,0.000000,0.000000,0.000000,0.000000,0.000000,0.000000,0.000000,0.000000,0.000000,0.000000,2.184127,3,0
590000,-0.011101,12.976377,0.018975,-0.058842,24.698603,-0.011895,-0.000071,-0.001294,1.570718,0.005465,0.000664,0.000367,-0.000047,0.000034,-0.000001,0.003926,0.011440,0.148084,0.047014,0.177226,0.177227,0.170140,0.856476,0.000000,0.000000,0.000000,0.000000,0.000000,0.000000,0.000000,0.000000,0.000000,0.000000,0.000000,0.000000,2.191264,3,0
600000,-0.011356,13.228534,0.017671,-0.059524,24.705992,-0.013870,-0.000050,-0.001033,1.570716,0.004761,0.000711,0.000539,-0.000051,-0.000030,-0.000000,0.005260,0.011702,0.175036,-0.041769,0.177635,0.177636,0.170154,0.849242,0.000000,0.000000,0.000000,0.000000,0.000000,0.000000,0.000000,0.000000,0.000000,0.000000,0.000000,0.000000,2.197534,3,0
610000,-0.011607,13.479783,0.018069,-0.060001,24.711885,-0.013422,-0.000040,-0.000803,1.570693,0.004178,0.000761,0.000460,-0.000056,-0.000084,0.000000,0.003318,0.011962,0.141474,0.018973,0.178078,0.178079,0.170197,0.841908,0.000000,0.000000,0.000000,0.000000,0.000000,0.000000,0.000000,0.000000,0.000000,0.000000,0.000000,0.000000,2.204713,3,0
620000,-0.011855,13.733680,0.018316,-0.060593,24.722023,-0.012764,-0.000023,-0.000453,1.570680,0.003219,0.000812,0.000404,-0.000061,-0.000175,0.000001,0.008467,0.012219,0.228108,0.013284,0.178551,0.178552,0.170266,0.834482,0.000000,0.000000,0.000000,0.000000,0.000000,0.000000,0.000000,0.000000,0.000000,0.000000,0.000000,0.000000,2.209243,3,0
630000,-0.012102,13.984270,0.017554,-0.061236,24.726620,-0.013572,-0.000010,-0.000263,1.570663,0.002732,0.000866,0.000503,-0.000066,-0.000222,0.000002,0.002181,0.012474,0.113261,-0.022449,0.179051,0.179052,0.170358,0.826973,0.000000,0.000000,0.000000,0.000000,0.000000,0.000000,0.000000,0.000000,0.000000,0.000000,0.000000,0.000000,2.217080,3,0
640000,-0.012345,14.237531,0.017343,-0.061772,24.735815,-0.013783,0.000004,0.000063,1.570645,0.001853,0.000921,0.000517,-0.000071,-0.000308,0.000003,0.006531,0.012726,0.200564,-0.002753,0.179574,0.179576,0.170467,0.819387,0.000000,0.000000,0.000000,0.000000,0.000000,0.000000,0.000000,0.000000,0.000000,0.000000,0.000000,0.000000,2.222247,3,0
650000,-0.012586,14.487473,0.016569,-0.062328,24.739305,-0.014677,0.000020,0.000217,1.570637,0.001468,0.000979,0.000621,-0.000077,-0.000347,0.000003,0.001315,0.012975,0.086366,-0.022447,0.180117,0.180118,0.170593,0.811734,0.000000,0.000000,0.000000,0.000000,0.000000,0.000000,0.000000,0.000000,0.000000,0.000000,0.000000,0.000000,2.230731,3,0
660000,-0.012821,14.738315,0.017075,-0.062636,24.744608,-0.013896,0.000044,0.000419,1.570628,0.000945,0.001039,0.000514,-0.000083,-0.000400,0.000004,0.002240,0.013219,0.114689,0.022949,0.180676,0.180678,0.170731,0.804021,0.000000,0.000000,0.000000,0.000000,0.000000,0.000000,0.000000,0.000000,0.000000,0.000000,0.000000,0.000000,2.238317,3,0
670000,-0.013050,14.991250,0.018481,-0.063033,24.753498,-0.011841,0.000063,0.000745,1.570624,0.000102,0.001102,0.000256,-0.000090,-0.000488,0.000005,0.005850,0.013458,0.181856,0.054198,0.181250,0.181252,0.170879,0.796257,0.000000,0.000000,0.000000,0.000000,0.000000,0.000000,0.000000,0.000000,0.000000,0.000000,0.000000,0.000000,2.243809,3,0
680000,-0.013277,15.245660,0.018875,-0.063424,24.764633,-0.011360,0.000090,0.001166,1.570607,-0.000969,0.001166,0.000170,-0.000097,-0.000601,0.000006,0.008412,0.013692,0.227018,0.017946,0.181834,0.181836,0.171035,0.788449,0.000000,0.000000,0.000000,0.000000,0.000000,0.000000,0.000000,0.000000,0.000000,0.000000,0.000000,0.000000,2.247826,3,0
690000,-0.013501,15.500924,0.018104,-0.063930,24.776920,-0.012459,0.000103,0.001641,1.570601,-0.002172,0.001233,0.000287,-0.000104,-0.000731,0.000007,0.010283,0.013923,0.250803,-0.023187,0.182427,0.182429,0.171196,0.780606,0.000000,0.000000,0.000000,0.000000,0.000000,0.000000,0.000000,0.000000,0.000000,0.000000,0.000000,0.000000,2.250989,3,0
700000,-0.013716,15.754610,0.019480,-0.064113,24.786263,-0.010391,0.000122,0.002018,1.570583,-0.003120,0.001302,0.000024,-0.000112,-0.000835,0.000009,0.006572,0.014149,0.194206,0.052473,0.183026,0.183028,0.171360,0.772735,0.000000,0.000000,0.000000,0.000000,0.000000,0.000000,0.000000,0.000000,0.000000,0.000000,0.000000,0.000000,2.255729,3,0
710000,-0.013933,16.010983,0.018509,-0.064750,24.800182,-0.011854,0.000151,0.002567,1.570561,-0.004498,0.001373,0.000183,-0.000120,-0.000988,0.000010,0.012704,0.014371,0.278368,-0.030511,0.183629,0.183632,0.171524,0.764844,0.000000,0.000000,0.000000,0.000000,0.000000,0.000000,0.000000,0.000000,0.000000,0.000000,0.000000,0.000000,2.257785,3,0
720000,-0.014145,16.265144,0.017075,-0.065137,24.810492,-0.013893,0.000183,0.002976,1.570545,-0.005508,0.001447,0.000426,-0.000128,-0.001102,0.000011,0.006890,0.014592,0.200762,-0.046089,0.184234,0.184237,0.171688,0.756940,0.000000,0.000000,0.000000,0.000000,0.000000,0.000000,0.000000,0.000000,0.000000,0.000000,0.000000,0.000000,2.262049,3,0
730000,-0.014351,16.517723,0.017164,-0.065452,24.817890,-0.013585,0.000197,0.003284,1.570528,-0.006249,0.001522,0.000385,-0.000137,-0.001188,0.000012,0.003455,0.014807,0.145285,0.007849,0.184839,0.184842,0.171849,0.749031,0.000000,0.000000,0.000000,0.000000,0.000000,0.000000,0.000000,0.000000,0.000000,0.000000,0.000000,0.000000,2.267898,3,0
740000,-0.014554,16.773638,0.015939,-0.065783,24.830847,-0.015073,0.000216,0.003825,1.570513,-0.007545,0.001600,0.000595,-0.000145,-0.001340,0.000014,0.010405,0.015017,0.250454,-0.038257,0.185443,0.185445,0.172006,0.741124,0.000000,0.000000,0.000000,0.000000,0.000000,0.000000,0.000000,0.000000,0.000000,0.000000,0.000000,0.000000,2.270411,3,0
750000,-0.014753,17.029781,0.016075,-0.066251,24.844032,-0.014790,0.000252,0.004382,1.570505,-0.008871,0.001680,0.000543,-0.000155,-0.001498,0.000016,0.010377,0.015225,0.252836,0.009815,0.186043,0.186045,0.172158,0.733226,0.000000,0.000000,0.000000,0.000000,0.000000,0.000000,0.000000,0.000000,0.000000,0.000000,0.000000,0.000000,2.272694,3,0
760000,-0.014948,17.283674,0.015371,-0.066660,24.853188,-0.015827,0.000289,0.004781,1.570500,-0.009803,0.001762,0.000653,-0.000165,-0.001611,0.000017,0.005072,0.015428,0.175472,-0.019438,0.186638,0.186640,0.172302,0.725343,0.000000,0.000000,0.000000,0.000000,0.000000,0.000000,0.000000,0.000000,0.000000,0.000000,0.000000,0.000000,2.277229,3,0
770000,-0.015137,17.540298,0.016254,-0.066804,24.866917,-0.014202,0.000324,0.005374,1.570477,-0.011199,0.001846,0.000451,-0.000176,-0.001783,0.000019,0.011116,0.015625,0.259428,0.035963,0.187227,0.187230,0.172439,0.717482,0.000000,0.000000,0.000000,0.000000,0.000000,0.000000,0.000000,0.000000,0.000000,0.000000,0.000000,0.000000,2.279030,3,0
780000,-0.015322,17.793406,0.015677,-0.067124,24.874571,-0.014988,0.000355,0.005720,1.570477,-0.011971,0.001932,0.000541,-0.000186,-0.001880,0.000020,0.003325,0.015816,0.141815,-0.015230,0.187809,0.187812,0.172566,0.709649,0.000000,0.000000,0.000000,0.000000,0.000000,0.000000,0.000000,0.000000,0.000000,0.000000,0.000000,0.000000,2.284351,3,0
790000,-0.015500,18.047392,0.016660,-0.067244,24.883522,-0.013543,0.000386,0.006122,1.570458,-0.012891,0.002020,0.000313,-0.000198,-0.001998,0.000021,0.004790,0.016003,0.166939,0.039281,0.188383,0.188385,0.172683,0.701850,0.000000,0.000000,0.000000,0.000000,0.000000,0.000000,0.000000,0.000000,0.000000,0.000000,0.000000,0.000000,2.288791,3,0
800000,-0.015673,18.302876,0.018053,-0.067574,24.895355,-0.011369,0.000420,0.006636,1.570433,-0.014066,0.002110,0.000001,-0.000210,-0.002151,0.000023,0.007684,0.016185,0.211042,0.052888,0.188947,0.188950,0.172790,0.694092,0.000000,0.000000,0.000000,0.000000,0.000000,0.000000,0.000000,0.000000,0.000000,0.000000,0.000000,0.000000,2.291735,3,0
810000,-0.015846,18.556700,0.018032,-0.067978,24.903782,-0.011402,0.000469,0.007026,1.570423,-0.014934,0.002202,-0.000016,-0.000222,-0.002265,0.000024,0.003884,0.016362,0.154232,0.003114,0.189501,0.189504,0.172885,0.686379,0.000000,0.000000,0.000000,0.000000,0.000000,0.000000,0.000000,0.000000,0.000000,0.000000,0.000000,0.000000,2.296336,3,0
820000,-0.016014,18.811394,0.017002,-0.068231,24.913553,-0.012957,0.000499,0.007474,1.570412,-0.015949,0.002296,0.000180,-0.000234,-0.002401,0.000026,0.005358,0.016537,0.178629,-0.031886,0.190045,0.190047,0.172968,0.678717,0.000000,0.000000,0.000000,0.000000,0.000000,0.000000,0.000000,0.000000,0.000000,0.000000,0.000000,0.000000,2.300072,3,0
830000,-0.016174,19.068214,0.017800,-0.068159,24.927013,-0.011788,0.000542,0.008101,1.570393,-0.017338,0.002392,-0.000015,-0.000248,-0.002590,0.000028,0.009653,0.016705,0.241898,0.031987,0.190576,0.190579,0.173038,0.671110,0.000000,0.000000,0.000000,0.000000,0.000000,0.000000,0.000000,0.000000,0.000000,0.000000,0.000000,0.000000,2.301677,3,0
840000,-0.016332,19.327768,0.016830,-0.068417,24.945190,-0.013186,0.000594,0.008932,1.570375,-0.019209,0.002490,0.000175,-0.000261,-0.002849,0.000031,0.017012,0.016868,0.322884,-0.029852,0.191096,0.191099,0.173095,0.663565,0.000000,0.000000,0.000000,0.000000,0.000000,0.000000,0.000000,0.000000,0.000000,0.000000,0.000000,0.000000,2.300551,3,0
850000,-0.016486,19.583050,0.017625,-0.068983,24.955759,-0.011998,0.000636,0.009430,1.570356,-0.020276,0.002589,-0.000025,-0.000275,-0.002999,0.000032,0.005581,0.017031,0.182419,0.031974,0.191603,0.191607,0.173139,0.656084,0.000000,0.000000,0.000000,0.000000,0.000000,0.000000,0.000000,0.000000,0.000000,0.000000,0.000000,0.000000,2.303698,3,0
860000,-0.016636,19.838547,0.017393,-0.068978,24.966393,-0.012305,0.000685,0.009937,1.570341,-0.021369,0.002691,0.000002,-0.000290,-0.003156,0.000034,0.005599,0.017186,0.185459,-0.004047,0.192098,0.192101,0.173169,0.648672,0.000000,0.000000,0.000000,0.000000,0.000000,0.000000,0.000000,0.000000,0.000000,0.000000,0.000000,0.000000,2.306626,3,0
870000,-0.016780,20.098724,0.017656,-0.069045,24.985334,-0.011647,0.000736,0.010836,1.570304,-0.023316,0.002794,-0.000078,-0.000305,-0.003439,0.000037,0.017371,0.017336,0.327433,0.012969,0.192579,0.192583,0.173185,0.641333,0.000000,0.000000,0.000000,0.000000,0.000000,0.000000,0.000000,0.000000,0.000000,0.000000,0.000000,0.000000,2.304876,3,0
880000,-0.016918,20.355860,0.019066,-0.069240,24.998657,-0.009526,0.000796,0.011481,1.570288,-0.024671,0.002898,-0.000420,-0.000321,-0.003639,0.000039,0.008743,0.017482,0.226095,0.052629,0.193047,0.193051,0.173187,0.634071,0.000000,0.000000,0.000000,0.000000,0.000000,0.000000,0.000000,0.000000,0.000000,0.000000,0.000000,0.000000,2.306167,3,0
890000,-0.017052,20.615744,0.019675,-0.069304,25.016527,-0.008659,0.000838,0.012368,1.570254,-0.026523,0.003004,-0.000577,-0.000337,-0.003917,0.000042,0.015323,0.017621,0.306768,0.024088,0.193502,0.193506,0.173175,0.626889,0.000000,0.000000,0.000000,0.000000,0.000000,0.000000,0.000000,0.000000,0.000000,0.000000,0.000000,0.000000,2.304711,3,0
900000,-0.017184,20.875135,0.018782,-0.069469,25.033396,-0.009852,0.000886,0.013196,1.570222,-0.028257,0.003113,-0.000385,-0.000353,-0.004180,0.000045,0.013303,0.017757,0.285252,-0.028265,0.193944,0.193947,0.173148,0.619790,0.000000,0.000000,0.000000,0.000000,0.000000,0.000000,0.000000,0.000000,0.000000,0.000000,0.000000,0.000000,2.303745,3,0
910000,-0.017309,21.132750,0.019000,-0.069430,25.046938,-0.009294,0.000947,0.013871,1.570194,-0.029631,0.003222,-0.000455,-0.000370,-0.004393,0.000048,0.008196,0.017889,0.224480,0.010657,0.194371,0.194375,0.173107,0.612777,0.000000,0.000000,0.000000,0.000000,0.000000,0.000000,0.000000,0.000000,0.000000,0.000000,0.000000,0.000000,2.304558,3,0
920000,-0.017431,21.392473,0.018293,-0.069487,25.064220,-0.010366,0.000989,0.014742,1.570166,-0.031385,0.003333,-0.000304,-0.000387,-0.004668,0.000051,0.013207,0.018014,0.284790,-0.021585,0.194786,0.194790,0.173053,0.605853,0.000000,0.000000,0.000000,0.000000,0.000000,0.000000,0.000000,0.000000,0.000000,0.000000,0.000000,0.000000,2.303260,3,0
930000,-0.017543,21.651047,0.018514,-0.069255,25.078917,-0.010116,0.001038,0.015498,1.570136,-0.032894,0.003445,-0.000378,-0.000405,-0.004909,0.000053,0.009638,0.018134,0.243565,0.011007,0.195187,0.195191,0.172984,0.599021,0.000000,0.000000,0.000000,0.000000,0.000000,0.000000,0.000000,0.000000,0.000000,0.000000,0.000000,0.000000,2.303114,3,0
940000,-0.017649,21.909130,0.019793,-0.069115,25.092670,-0.008187,0.001081,0.016212,1.570115,-0.034287,0.003559,-0.000708,-0.000424,-0.005135,0.000056,0.008467,0.018245,0.223389,0.047629,0.195575,0.195579,0.172901,0.592282,0.000000,0.000000,0.000000,0.000000,0.000000,0.000000,0.000000,0.000000,0.000000,0.000000,0.000000,0.000000,2.303458,3,0
950000,-0.017753,22.166071,0.018522,-0.069062,25.104307,-0.010340,0.001135,0.016816,1.570098,-0.035439,0.003674,-0.000415,-0.000443,-0.005324,0.000058,0.005780,0.018350,0.183834,-0.041393,0.195950,0.195955,0.172804,0.585639,0.000000,0.000000,0.000000,0.000000,0.000000,0.000000,0.000000,0.000000,0.000000,0.000000,0.000000,0.000000,2.304945,3,0
960000,-0.017847,22.427090,0.019662,-0.068934,25.123058,-0.008756,0.001201,0.017793,1.570056,-0.037357,0.003790,-0.000717,-0.000463,-0.005645,0.000062,0.015298,0.018453,0.304476,0.042867,0.196312,0.196317,0.172694,0.579093,0.000000,0.000000,0.000000,0.000000,0.000000,0.000000,0.000000,0.000000,0.000000,0.000000,0.000000,0.000000,2.302351,3,0
970000,-0.017938,22.684961,0.019316,-0.068730,25.135881,-0.009384,0.001254,0.018484,1.570028,-0.038638,0.003907,-0.000649,-0.000483,-0.005862,0.000064,0.006666,0.018545,0.202301,-0.009172,0.196662,0.196667,0.172571,0.572645,0.000000,0.000000,0.000000,0.000000,0.000000,0.000000,0.000000,0.000000,0.000000,0.000000,0.000000,0.000000,2.302907,3,0
980000,-0.018024,22.941685,0.019133,-0.068688,25.146666,-0.009977,0.001310,0.019052,1.570024,-0.039674,0.004026,-0.000625,-0.000503,-0.006040,0.000066,0.004339,0.018636,0.162966,-0.003156,0.197000,0.197004,0.172434,0.566299,0.000000,0.000000,0.000000,0.000000,0.000000,0.000000,0.000000,0.000000,0.000000,0.000000,0.000000,0.000000,2.304609,3,0
990000,-0.018102,23.198578,0.020185,-0.068469,25.157560,-0.008759,0.001366,0.019632,1.570002,-0.040725,0.004145,-0.000916,-0.000524,-0.006224,0.000068,0.004681,0.018720,0.164560,0.040026,0.197325,0.197330,0.172285,0.560054,0.000000,0.000000,0.000000,0.000000,0.000000,0.000000,0.000000,0.000000,0.000000,0.000000,0.000000,0.000000,2.306143,3,0
1000000,-0.018182,23.456944,0.018818,-0.068584,25.170986,-0.010848,0.001419,0.020349,1.569975,-0.042045,0.004266,-0.000585,-0.000545,-0.006458,0.000071,0.007204,0.018799,0.205742,-0.044789,0.197639,0.197644,0.172124,0.553912,0.000000,0.000000,0.000000,0.000000,0.000000,0.000000,0.000000,0.000000,0.000000,0.000000,0.000000,0.000000,2.306203,3,0
1010000,-0.018254,23.717421,0.019461,-0.068496,25.187899,-0.009798,0.001485,0.021276,1.569954,-0.043752,0.004387,-0.000775,-0.000567,-0.006766,0.000074,0.011510,0.018878,0.265306,0.025859,0.197942,0.197947,0.171950,0.547873,0.000000,0.000000,0.000000,0.000000,0.000000,0.000000,0.000000,0.000000,0.000000,0.000000,0.000000,0.000000,2.304153,3,0
1020000,-0.018322,23.974726,0.020156,-0.068364,25.199036,-0.008604,0.001554,0.021886,1.569933,-0.044809,0.004509,-0.000979,-0.000590,-0.006959,0.000076,0.004498,0.018949,0.163689,0.027437,0.198235,0.198239,0.171765,0.541938,0.000000,0.000000,0.000000,0.000000,0.000000,0.000000,0.000000,0.000000,0.000000,0.000000,0.000000,0.000000,2.305273,3,0
1030000,-0.018386,24.236130,0.021104,-0.068377,25.217161,-0.007204,0.001620,0.022902,1.569900,-0.046649,0.004632,-0.001248,-0.000613,-0.007301,0.000080,0.013261,0.019017,0.283972,0.035802,0.198517,0.198521,0.171569,0.536108,0.000000,0.000000,0.000000,0.000000,0.000000,0.000000,0.000000,0.000000,0.000000,0.000000,0.000000,0.000000,2.302297,3,0
1040000,-0.018448,24.498941,0.020839,-0.068183,25.237814,-0.007533,0.001676,0.024055,1.569882,-0.048733,0.004756,-0.001193,-0.000637,-0.007694,0.000084,0.016627,0.019079,0.320566,-0.007134,0.198789,0.198794,0.171361,0.530383,0.000000,0.000000,0.000000,0.000000,0.000000,0.000000,0.000000,0.000000,0.000000,0.000000,0.000000,0.000000,2.297910,3,0
1050000,-0.018502,24.761824,0.022095,-0.067962,25.258104,-0.005717,0.001744,0.025212,1.569844,-0.050791,0.004880,-0.001547,-0.000661,-0.008088,0.000089,0.016493,0.019139,0.315975,0.046267,0.199052,0.199057,0.171143,0.524763,0.000000,0.000000,0.000000,0.000000,0.000000,0.000000,0.000000,0.000000,0.000000,0.000000,0.000000,0.000000,2.293457,3,0
1060000,-0.018553,25.023447,0.022788,-0.067871,25.276089,-0.004815,0.001815,0.026236,1.569811,-0.052565,0.005005,-0.001747,-0.000686,-0.008432,0.000093,0.012051,0.019191,0.271557,0.026011,0.199305,0.199311,0.170915,0.519248,0.000000,0.000000,0.000000,0.000000,0.000000,0.000000,0.000000,0.000000,0.000000,0.000000,0.000000,0.000000,2.290257,3,0
1070000,-0.018600,25.283831,0.023567,-0.067680,25.291777,-0.003910,0.001887,0.027113,1.569774,-0.054061,0.005130,-0.001971,-0.000711,-0.008727,0.000096,0.008601,0.019241,0.228418,0.028859,0.199551,0.199556,0.170677,0.513838,0.000000,0.000000,0.000000,0.000000,0.000000,0.000000,0.000000,0.000000,0.000000,0.000000,0.000000,0.000000,2.288303,3,0
1080000,-0.018647,25.546953,0.022561,-0.067576,25.311970,-0.005401,0.001960,0.028284,1.569745,-0.056068,0.005257,-0.001701,-0.000736,-0.009128,0.000101,0.015320,0.019287,0.305819,-0.034392,0.199788,0.199793,0.170430,0.508534,0.000000,0.000000,0.000000,0.000000,0.000000,0.000000,0.000000,0.000000,0.000000,0.000000,0.000000,0.000000,2.283605,3,0
1090000,-0.018690,25.805489,0.021762,-0.067450,25.323790,-0.006615,0.002035,0.028955,1.569729,-0.057132,0.005385,-0.001491,-0.000761,-0.009344,0.000103,0.004389,0.019333,0.161768,-0.026407,0.200018,0.200023,0.170173,0.503334,0.000000,0.000000,0.000000,0.000000,0.000000,0.000000,0.000000,0.000000,0.000000,0.000000,0.000000,0.000000,2.283497,3,0
1100000,-0.018724,26.066801,0.022930,-0.067183,25.340673,-0.005164,0.002100,0.029922,1.569691,-0.058718,0.005511,-0.001837,-0.000788,-0.009671,0.000107,0.009726,0.019373,0.241053,0.043336,0.200240,0.200245,0.169908,0.498238,0.000000,0.000000,0.000000,0.000000,0.000000,0.000000,0.000000,0.000000,0.000000,0.000000,0.000000,0.000000,2.280610,3,0
1110000,-0.018761,26.327518,0.021974,-0.067133,25.356001,-0.006419,0.002166,0.030822,1.569662,-0.060157,0.005640,-0.001578,-0.000814,-0.009971,0.000110,0.007894,0.019407,0.218121,-0.032232,0.200456,0.200461,0.169635,0.493247,0.000000,0.000000,0.000000,0.000000,0.000000,0.000000,0.000000,0.000000,0.000000,0.000000,0.000000,0.000000,2.278319,3,0
1120000,-0.018792,26.589649,0.021726,-0.066966,25.373835,-0.006861,0.002237,0.031874,1.569630,-0.061843,0.005768,-0.001524,-0.000841,-0.010329,0.000114,0.010579,0.019442,0.255430,-0.006761,0.200665,0.200670,0.169354,0.488359,0.000000,0.000000,0.000000,0.000000,0.000000,0.000000,0.000000,0.000000,0.000000,0.000000,0.000000,0.000000,2.274614,3,0
1130000,-0.018817,26.849176,0.021583,-0.066480,25.386789,-0.007073,0.002314,0.032625,1.569605,-0.062980,0.005896,-0.001502,-0.000869,-0.010573,0.000117,0.004830,0.019469,0.172029,-0.002806,0.200868,0.200874,0.169066,0.483573,0.000000,0.000000,0.000000,0.000000,0.000000,0.000000,0.000000,0.000000,0.000000,0.000000,0.000000,0.000000,2.273514,3,0
1140000,-0.018838,27.108133,0.021307,-0.066147,25.398809,-0.007457,0.002397,0.033308,1.569576,-0.063978,0.006025,-0.001442,-0.000897,-0.010791,0.000119,0.003739,0.019490,0.150919,-0.007454,0.201066,0.201072,0.168771,0.478890,0.000000,0.000000,0.000000,0.000000,0.000000,0.000000,0.000000,0.000000,0.000000,0.000000,0.000000,0.000000,2.272983,3,0
1150000,-0.018852,27.368525,0.021234,-0.065664,25.412951,-0.007695,0.002485,0.034146,1.569553,-0.065235,0.006154,-0.001442,-0.000925,-0.011069,0.000122,0.005878,0.019506,0.190027,-0.000077,0.201260,0.201265,0.168470,0.474307,0.000000,0.000000,0.000000,0.000000,0.000000,0.000000,0.000000,0.000000,0.000000,0.000000,0.000000,0.000000,2.271017,3,0
1160000,-0.018863,27.628328,0.020497,-0.065354,25.426199,-0.008913,0.002559,0.034918,1.569531,-0.066347,0.006284,-0.001247,-0.000954,-0.011319,0.000125,0.004700,0.019517,0.168039,-0.023655,0.201448,0.201453,0.168162,0.469825,0.000000,0.000000,0.000000,0.000000,0.000000,0.000000,0.000000,0.000000,0.000000,0.000000,0.000000,0.000000,2.269642,3,0
1170000,-0.018868,27.890224,0.020561,-0.064958,25.442923,-0.009166,0.002638,0.035920,1.569504,-0.067844,0.006413,-0.001294,-0.000983,-0.011660,0.000129,0.008305,0.019524,0.226164,0.005415,0.201633,0.201638,0.167848,0.465442,0.000000,0.000000,0.000000,0.000000,0.000000,0.000000,0.000000,0.000000,0.000000,0.000000,0.000000,0.000000,2.266169,3,0
1180000,-0.018869,28.149500,0.021725,-0.064827,25.454712,-0.007846,0.002724,0.036614,1.569492,-0.068788,0.006541,-0.001673,-0.001014,-0.011879,0.000131,0.003682,0.019528,0.143011,0.044933,0.201813,0.201818,0.167529,0.461158,0.000000,0.000000,0.000000,0.000000,0.000000,0.000000,0.000000,0.000000,0.000000,0.000000,0.000000,0.000000,2.265322,3,0
1190000,-0.018866,28.410200,0.022459,-0.064528,25.468794,-0.007249,0.002815,0.037470,1.569476,-0.069990,0.006669,-0.001922,-0.001045,-0.012162,0.000134,0.005522,0.019525,0.181801,0.029117,0.201990,0.201995,0.167206,0.456970,0.000000,0.000000,0.000000,0.000000,0.000000,0.000000,0.000000,0.000000,0.000000,0.000000,0.000000,0.000000,2.263047,3,0
1200000,-0.018859,28.668961,0.023183,-0.064089,25.479475,-0.006491,0.002906,0.038075,1.569471,-0.070780,0.006797,-0.002168,-0.001076,-0.012350,0.000136,0.002503,0.019519,0.119745,0.028632,0.202164,0.202169,0.166877,0.452879,0.000000,0.000000,0.000000,0.000000,0.000000,0.000000,0.000000,0.000000,0.000000,0.000000,0.000000,0.000000,2.262713,3,0
1210000,-0.018850,28.931837,0.024028,-0.063856,25.497215,-0.005601,0.002995,0.039184,1.569442,-0.072355,0.006925,-0.002452,-0.001108,-0.012731,0.000140,0.009401,0.019510,0.238581,0.032696,0.202336,0.202340,0.166544,0.448883,0.000000,0.000000,0.000000,0.000000,0.000000,0.000000,0.000000,0.000000,0.000000,0.000000,0.000000,0.000000,2.258261,3,0
1220000,-0.018835,29.192732,0.024584,-0.063315,25.511372,-0.005066,0.003092,0.040033,1.569425,-0.073504,0.007053,-0.002645,-0.001140,-0.013013,0.000144,0.005033,0.019495,0.174313,0.022031,0.202505,0.202509,0.166207,0.444981,0.000000,0.000000,0.000000,0.000000,0.000000,0.000000,0.000000,0.000000,0.000000,0.000000,0.000000,0.000000,2.255793,3,0
1230000,-0.018815,29.456371,0.025451,-0.062743,25.530334,-0.004304,0.003188,0.041216,1.569393,-0.075159,0.007180,-0.002938,-0.001172,-0.013424,0.000148,0.010402,0.019475,0.251213,0.033177,0.202672,0.202676,0.165867,0.441171,0.000000,0.000000,0.000000,0.000000,0.000000,0.000000,0.000000,0.000000,0.000000,0.000000,0.000000,0.000000,2.250578,3,0
1240000,-0.018794,29.720695,0.024934,-0.062335,25.550076,-0.005018,0.003275,0.042466,1.569363,-0.076908,0.007308,-0.002792,-0.001204,-0.013866,0.000153,0.011477,0.019450,0.265692,-0.017322,0.202837,0.202841,0.165524,0.437452,0.000000,0.000000,0.000000,0.000000,0.000000,0.000000,0.000000,0.000000,0.000000,0.000000,0.000000,0.000000,2.244681,3,0
1250000,-0.018769,29.982328,0.023868,-0.061845,25.564877,-0.006875,0.003362,0.043370,1.569343,-0.078094,0.007437,-0.002473,-0.001236,-0.014169,0.000157,0.005502,0.019423,0.180079,-0.036810,0.203002,0.203005,0.165177,0.433823,0.000000,0.000000,0.000000,0.000000,0.000000,0.000000,0.000000,0.000000,0.000000,0.000000,0.000000,0.000000,2.241471,3,0
1260000,-0.018738,30.244675,0.024401,-0.061501,25.580816,-0.006333,0.003458,0.044355,1.569310,-0.079383,0.007563,-0.002671,-0.001269,-0.014504,0.000160,0.006362,0.019396,0.196602,0.021906,0.203165,0.203168,0.164828,0.430283,0.000000,0.000000,0.000000,0.000000,0.000000,0.000000,0.000000,0.000000,0.000000,0.000000,0.000000,0.000000,2.237555,3,0
1270000,-0.018707,30.503681,0.023650,-0.061156,25.590567,-0.007421,0.003552,0.044918,1.569294,-0.079994,0.007691,-0.002450,-0.001302,-0.014665,0.000162,0.001559,0.019361,0.093128,-0.025105,0.203328,0.203331,0.164477,0.426830,0.000000,0.000000,0.000000,0.000000,0.000000,0.000000,0.000000,0.000000,0.000000,0.000000,0.000000,0.000000,2.236971,3,0
1280000,-0.018671,30.765463,0.022788,-0.060605,25.605164,-0.008702,0.003641,0.045819,1.569280,-0.081119,0.007818,-0.002198,-0.001335,-0.014965,0.000165,0.004956,0.019324,0.171965,-0.028758,0.203490,0.203492,0.164124,0.423463,0.000000,0.000000,0.000000,0.000000,0.000000,0.000000,0.000000,0.000000,0.000000,0.000000,0.000000,0.000000,2.233616,3,0
1290000,-0.018625,31.029301,0.023593,-0.059870,25.623384,-0.007955,0.003730,0.046997,1.569260,-0.082605,0.007942,-0.002500,-0.001370,-0.015368,0.000170,0.008611,0.019281,0.228098,0.032795,0.203652,0.203654,0.163769,0.420181,0.000000,0.000000,0.000000,0.000000,0.000000,0.000000,0.000000,0.000000,0.000000,0.000000,0.000000,0.000000,2.228204,3,0
1300000,-0.018574,31.292463,0.024794,-0.059448,25.640226,-0.006694,0.003826,0.048065,1.569232,-0.083920,0.008065,-0.002934,-0.001405,-0.015730,0.000174,0.007030,0.019231,0.202621,0.047127,0.203814,0.203816,0.163413,0.416982,0.000000,0.000000,0.000000,0.000000,0.000000,0.000000,0.000000,0.000000,0.000000,0.000000,0.000000,0.000000,2.223468,3,0
1310000,-0.018527,31.552931,0.024032,-0.059136,25.651995,-0.007807,0.003919,0.048764,1.569215,-0.084688,0.008190,-0.002705,-0.001439,-0.015944,0.000176,0.002415,0.019177,0.118202,-0.025549,0.203977,0.203978,0.163055,0.413865,0.000000,0.000000,0.000000,0.000000,0.000000,0.000000,0.000000,0.000000,0.000000,0.000000,0.000000,0.000000,2.221423,3,0
1320000,-0.018480,31.816153,0.022681,-0.058813,25.668600,-0.009654,0.004014,0.049829,1.569199,-0.085955,0.008315,-0.002285,-0.001473,-0.016303,0.000180,0.006571,0.019127,0.195557,-0.046821,0.204140,0.204140,0.162697,0.410829,0.000000,0.000000,0.000000,0.000000,0.000000,0.000000,0.000000,0.000000,0.000000,0.000000,0.000000,0.000000,2.216628,3,0
1330000,-0.018429,32.080730,0.021416,-0.058389,25.687347,-0.011317,0.004101,0.051070,1.569163,-0.087443,0.008439,-0.001898,-0.001508,-0.016730,0.000185,0.008902,0.019075,0.230354,-0.043070,0.204303,0.204303,0.162339,0.407871,0.000000,0.000000,0.000000,0.000000,0.000000,0.000000,0.000000,0.000000,0.000000,0.000000,0.000000,0.000000,2.210480,3,0
1340000,-0.018378,32.341225,0.020197,-0.058256,25.698664,-0.013068,0.004188,0.051730,1.569144,-0.088119,0.008563,-0.001525,-0.001542,-0.016927,0.000187,0.002095,0.019023,0.104736,-0.040827,0.204468,0.204467,0.161980,0.404991,0.000000,0.000000,0.000000,0.000000,0.000000,0.000000,0.000000,0.000000,0.000000,0.000000,0.000000,0.000000,2.208409,3,0
1350000,-0.018325,32.603794,0.018965,-0.057894,25.713558,-0.014813,0.004279,0.052659,1.569129,-0.089160,0.008685,-0.001155,-0.001577,-0.017234,0.000191,0.004561,0.018968,0.162189,-0.040665,0.204634,0.204632,0.161621,0.402187,0.000000,0.000000,0.000000,0.000000,0.000000,0.000000,0.000000,0.000000,0.000000,0.000000,0.000000,0.000000,2.204265,3,0
1360000,-0.018265,32.864334,0.018936,-0.057422,25.724680,-0.015155,0.004383,0.053300,1.569124,-0.089787,0.008806,-0.001203,-0.001614,-0.017422,0.000193,0.001615,0.018910,0.098263,0.004621,0.204801,0.204799,0.161262,0.399458,0.000000,0.000000,0.000000,0.000000,0.000000,0.000000,0.000000,0.000000,0.000000,0.000000,0.000000,0.000000,2.202148,3,0
1370000,-0.018200,33.126953,0.020141,-0.057193,25.739605,-0.013825,0.004483,0.054218,1.569102,-0.090773,0.008923,-0.001688,-0.001651,-0.017722,0.000196,0.004377,0.018848,0.155670,0.050842,0.204969,0.204966,0.160903,0.396803,0.000000,0.000000,0.000000,0.000000,0.000000,0.000000,0.000000,0.000000,0.000000,0.000000,0.000000,0.000000,2.197959,3,0
1380000,-0.018141,33.388901,0.018912,-0.056770,25.753176,-0.015470,0.004584,0.055035,1.569084,-0.091608,0.009043,-0.001312,-0.001687,-0.017980,0.000199,0.003105,0.018779,0.131451,-0.040586,0.205139,0.205135,0.160546,0.394219,0.000000,0.000000,0.000000,0.000000,0.000000,0.000000,0.000000,0.000000,0.000000,0.000000,0.000000,0.000000,2.194434,3,0
1390000,-0.018072,33.653580,0.019184,-0.056122,25.771322,-0.015557,0.004677,0.056233,1.569055,-0.092913,0.009160,-0.001481,-0.001724,-0.018388,0.000203,0.007018,0.018713,0.207306,0.016443,0.205310,0.205305,0.160189,0.391705,0.000000,0.000000,0.000000,0.000000,0.000000,0.000000,0.000000,0.000000,0.000000,0.000000,0.000000,0.000000,2.188181,3,0
1400000,-0.018006,33.916187,0.017866,-0.055766,25.785631,-0.017417,0.004776,0.057116,1.569046,-0.093802,0.009279,-0.001076,-0.001760,-0.018671,0.000207,0.003571,0.018641,0.141235,-0.043319,0.205483,0.205477,0.159833,0.389261,0.000000,0.000000,0.000000,0.000000,0.000000,0.000000,0.000000,0.000000,0.000000,0.000000,0.000000,0.000000,2.184000,3,0
1410000,-0.017931,34.176067,0.018190,-0.055200,25.795078,-0.017105,0.004873,0.057592,1.569033,-0.094160,0.009394,-0.001261,-0.001798,-0.018786,0.000208,0.000644,0.018569,0.057392,0.018886,0.205658,0.205651,0.159478,0.386885,0.000000,0.000000,0.000000,0.000000,0.000000,0.000000,0.000000,0.000000,0.000000,0.000000,0.000000,0.000000,2.182546,3,0
1420000,-0.017852,34.435307,0.019091,-0.054656,25.802794,-0.016018,0.004978,0.057954,1.569024,-0.094380,0.009507,-0.001653,-0.001836,-0.018858,0.000208,0.000529,0.018490,0.035969,0.040508,0.205834,0.205826,0.159125,0.384572,0.000000,0.000000,0.000000,0.000000,0.000000,0.000000,0.000000,0.000000,0.000000,0.000000,0.000000,0.000000,2.181729,3,0
1430000,-0.017771,34.697323,0.020294,-0.054397,25.815342,-0.014776,0.005080,0.058723,1.569009,-0.095085,0.009618,-0.002163,-0.001875,-0.019092,0.000211,0.002604,0.018407,0.114594,0.051835,0.206012,0.206003,0.158774,0.382325,0.000000,0.000000,0.000000,0.000000,0.000000,0.000000,0.000000,0.000000,0.000000,0.000000,0.000000,0.000000,2.178139,3,0
1440000,-0.017695,34.959347,0.019005,-0.053878,25.828062,-0.016494,0.005184,0.059485,1.569000,-0.095770,0.009732,-0.001754,-0.001912,-0.019322,0.000214,0.002331,0.018321,0.110870,-0.042908,0.206193,0.206182,0.158424,0.380141,0.000000,0.000000,0.000000,0.000000,0.000000,0.000000,0.000000,0.000000,0.000000,0.000000,0.000000,0.000000,2.174541,3,0
1450000,-0.017608,35.223415,0.019346,-0.053043,25.843981,-0.016479,0.005293,0.060531,1.568978,-0.096789,0.009843,-0.001961,-0.001950,-0.019670,0.000217,0.004594,0.018237,0.166790,0.019779,0.206375,0.206363,0.158076,0.378017,0.000000,0.000000,0.000000,0.000000,0.000000,0.000000,0.000000,0.000000,0.000000,0.000000,0.000000,0.000000,2.168899,3,0
1460000,-0.017516,35.485401,0.020099,-0.052391,25.856287,-0.015712,0.005393,0.061260,1.568968,-0.097402,0.009951,-0.002315,-0.001989,-0.019883,0.000220,0.001907,0.018143,0.101345,0.035234,0.206559,0.206546,0.157730,0.375956,0.000000,0.000000,0.000000,0.000000,0.000000,0.000000,0.000000,0.000000,0.000000,0.000000,0.000000,0.000000,2.165335,3,0
1470000,-0.017424,35.746708,0.019980,-0.051962,25.867325,-0.016118,0.005501,0.061868,1.568962,-0.097872,0.010060,-0.002339,-0.002027,-0.020048,0.000222,0.001027,0.018046,0.077782,0.001787,0.206745,0.206731,0.157387,0.373955,0.000000,0.000000,0.000000,0.000000,0.000000,0.000000,0.000000,0.000000,0.000000,0.000000,0.000000,0.000000,2.162454,3,0
1480000,-0.017333,36.010769,0.019049,-0.051376,25.883137,-0.017811,0.005603,0.062886,1.568939,-0.098802,0.010169,-0.002069,-0.002065,-0.020380,0.000225,0.004017,0.017949,0.154305,-0.028728,0.206933,0.206917,0.157046,0.372010,0.000000,0.000000,0.000000,0.000000,0.000000,0.000000,0.000000,0.000000,0.000000,0.000000,0.000000,0.000000,2.156819,3,0
1490000,-0.017235,36.272041,0.019516,-0.050992,25.893560,-0.017447,0.005706,0.063457,1.568925,-0.099212,0.010274,-0.002324,-0.002104,-0.020528,0.000227,0.000919,0.017854,0.068996,0.025018,0.207123,0.207105,0.156707,0.370122,0.000000,0.000000,0.000000,0.000000,0.000000,0.000000,0.000000,0.000000,0.000000,0.000000,0.000000,0.000000,2.153973,3,0
1500000,-0.017140,36.533321,0.019191,-0.050600,25.903986,-0.017919,0.005826,0.064029,1.568919,-0.099604,0.010379,-0.002275,-0.002143,-0.020672,0.000229,0.000757,0.017752,0.066044,-0.005508,0.207314,0.207295,0.156371,0.368290,0.000000,0.000000,0.000000,0.000000,0.000000,0.000000,0.000000,0.000000,0.000000,0.000000,0.000000,0.000000,2.151115,3,0
1510000,-0.017038,36.797356,0.019746,-0.050072,25.919439,-0.017512,0.005930,0.065002,1.568899,-0.100442,0.010481,-0.002580,-0.002182,-0.020985,0.000232,0.003457,0.017651,0.142597,0.028876,0.207508,0.207487,0.156038,0.366512,0.000000,0.000000,0.000000,0.000000,0.000000,0.000000,0.000000,0.000000,0.000000,0.000000,0.000000,0.000000,2.145511,3,0
1520000,-0.016942,37.056538,0.018580,-0.049645,25.925825,-0.019123,0.006037,0.065205,1.568898,-0.100432,0.010586,-0.002195,-0.002220,-0.020981,0.000232,0.000286,0.017546,-0.002316,-0.038072,0.207703,0.207681,0.155708,0.364786,0.000000,0.000000,0.000000,0.000000,0.000000,0.000000,0.000000,0.000000,0.000000,0.000000,0.000000,0.000000,2.144751,3,0
1530000,-0.016837,37.318504,0.018653,-0.048947,25.937132,-0.019256,0.006148,0.065830,1.568891,-0.100875,0.010687,-0.002311,-0.002259,-0.021151,0.000234,0.001006,0.017442,0.076382,0.010651,0.207900,0.207876,0.155381,0.363110,0.000000,0.000000,0.000000,0.000000,0.000000,0.000000,0.000000,0.000000,0.000000,0.000000,0.000000,0.000000,2.141210,3,0
1540000,-0.016732,37.579777,0.017773,-0.048272,25.947199,-0.020530,0.006251,0.066339,1.568888,-0.101182,0.010788,-0.002049,-0.002298,-0.021271,0.000235,0.000610,0.017330,0.052849,-0.026285,0.208099,0.208073,0.155056,0.361485,0.000000,0.000000,0.000000,0.000000,0.000000,0.000000,0.000000,0.000000,0.000000,0.000000,0.000000,0.000000,2.138364,3,0
1550000,-0.016615,37.840351,0.018641,-0.047409,25.955708,-0.019478,0.006371,0.066738,1.568886,-0.101350,0.010884,-0.002480,-0.002337,-0.021337,0.000236,0.000477,0.017217,0.030022,0.041815,0.208299,0.208271,0.154735,0.359907,0.000000,0.000000,0.000000,0.000000,0.000000,0.000000,0.000000,0.000000,0.000000,0.000000,0.000000,0.000000,2.136215,3,0
1560000,-0.016500,38.105087,0.018262,-0.046789,25.971605,-0.020160,0.006476,0.067762,1.568873,-0.102185,0.010981,-0.002434,-0.002376,-0.021673,0.000240,0.003533,0.017094,0.147060,-0.006321,0.208501,0.208471,0.154418,0.358376,0.000000,0.000000,0.000000,0.000000,0.000000,0.000000,0.000000,0.000000,0.000000,0.000000,0.000000,0.000000,2.129905,3,0
1570000,-0.016386,38.364235,0.017001,-0.046151,25.977131,-0.021728,0.006591,0.067884,1.568868,-0.102086,0.011079,-0.002004,-0.002414,-0.021633,0.000239,0.000378,0.016973,-0.018440,-0.041308,0.208704,0.208672,0.154104,0.356891,0.000000,0.000000,0.000000,0.000000,0.000000,0.000000,0.000000,0.000000,0.000000,0.000000,0.000000,0.000000,2.129179,3,0
1580000,-0.016262,38.624786,0.017082,-0.045303,25.985174,-0.021851,0.006716,0.068208,1.568862,-0.102199,0.011172,-0.002130,-0.002454,-0.021680,0.000240,0.000137,0.016850,0.020542,0.011887,0.208908,0.208874,0.153793,0.355451,0.000000,0.000000,0.000000,0.000000,0.000000,0.000000,0.000000,0.000000,0.000000,0.000000,0.000000,0.000000,2.127053,3,0
1590000,-0.016138,38.888813,0.016044,-0.044544,25.999508,-0.023384,0.006836,0.069095,1.568843,-0.102854,0.011266,-0.001822,-0.002492,-0.021956,0.000243,0.002432,0.016718,0.117729,-0.031206,0.209114,0.209078,0.153486,0.354054,0.000000,0.000000,0.000000,0.000000,0.000000,0.000000,0.000000,0.000000,0.000000,0.000000,0.000000,0.000000,2.121453,3,0
1600000,-0.016013,39.149323,0.014961,-0.044042,26.007296,-0.024850,0.006943,0.069400,1.568834,-0.102926,0.011359,-0.001478,-0.002530,-0.021987,0.000243,0.000247,0.016589,0.012589,-0.033062,0.209321,0.209282,0.153182,0.352702,0.000000,0.000000,0.000000,0.000000,0.000000,0.000000,0.000000,0.000000,0.000000,0.000000,0.000000,0.000000,2.119369,3,0
1610000,-0.015882,39.411911,0.014772,-0.043285,26.018646,-0.025408,0.007044,0.070021,1.568827,-0.103307,0.011448,-0.001519,-0.002569,-0.022153,0.000245,0.000834,0.016457,0.070061,0.002936,0.209529,0.209488,0.152882,0.351388,0.000000,0.000000,0.000000,0.000000,0.000000,0.000000,0.000000,0.000000,0.000000,0.000000,0.000000,0.000000,2.115202,3,0
1620000,-0.015749,39.671688,0.013979,-0.042508,26.024616,-0.026141,0.007151,0.070182,1.568828,-0.103235,0.011538,-0.001292,-0.002607,-0.022121,0.000245,0.000147,0.016317,-0.013729,-0.021277,0.209737,0.209694,0.152586,0.350114,0.000000,0.000000,0.000000,0.000000,0.000000,0.000000,0.000000,0.000000,0.000000,0.000000,0.000000,0.000000,2.113855,3,0
1630000,-0.015607,39.934250,0.015062,-0.041914,26.035845,-0.024960,0.007263,0.070780,1.568817,-0.103574,0.011620,-0.001867,-0.002647,-0.022272,0.000247,0.001174,0.016179,0.064373,0.053504,0.209947,0.209900,0.152293,0.348881,0.000000,0.000000,0.000000,0.000000,0.000000,0.000000,0.000000,0.000000,0.000000,0.000000,0.000000,0.000000,2.109715,3,0
1640000,-0.015467,40.193302,0.015202,-0.041210,26.040503,-0.024866,0.007380,0.070773,1.568815,-0.103365,0.011704,-0.002021,-0.002686,-0.022176,0.000246,0.000327,0.016030,-0.039268,0.015205,0.210156,0.210108,0.152004,0.347685,0.000000,0.000000,0.000000,0.000000,0.000000,0.000000,0.000000,0.000000,0.000000,0.000000,0.000000,0.000000,2.109088,3,0
1650000,-0.015325,40.456554,0.015369,-0.040661,26.052700,-0.024848,0.007502,0.071469,1.568806,-0.103778,0.011786,-0.002217,-0.002724,-0.022367,0.000248,0.001101,0.015884,0.079334,0.017141,0.210367,0.210316,0.151719,0.346525,0.000000,0.000000,0.000000,0.000000,0.000000,0.000000,0.000000,0.000000,0.000000,0.000000,0.000000,0.000000,2.104262,3,0
1660000,-0.015179,40.719055,0.016544,-0.040048,26.063562,-0.023419,0.007621,0.072010,1.568802,-0.104054,0.011863,-0.002835,-0.002764,-0.022495,0.000249,0.001043,0.015736,0.054501,0.056874,0.210578,0.210524,0.151439,0.345403,0.000000,0.000000,0.000000,0.000000,0.000000,0.000000,0.000000,0.000000,0.000000,0.000000,0.000000,0.000000,2.100187,3,0
1670000,-0.015039,40.983631,0.015706,-0.039553,26.077873,-0.024763,0.007732,0.072894,1.568796,-0.104620,0.011944,-0.002609,-0.002801,-0.022765,0.000253,0.002068,0.015584,0.109955,-0.022888,0.210788,0.210732,0.151162,0.344313,0.000000,0.000000,0.000000,0.000000,0.000000,0.000000,0.000000,0.000000,0.000000,0.000000,0.000000,0.000000,2.094033,3,0
1680000,-0.014898,41.243946,0.014434,-0.038808,26.084421,-0.026275,0.007851,0.073036,1.568794,-0.104545,0.012025,-0.002166,-0.002838,-0.022730,0.000252,0.000348,0.015437,-0.015614,-0.040801,0.210999,0.210940,0.150889,0.343259,0.000000,0.000000,0.000000,0.000000,0.000000,0.000000,0.000000,0.000000,0.000000,0.000000,0.000000,0.000000,2.092144,3,0
1690000,-0.014746,41.506336,0.015215,-0.038078,26.094421,-0.025551,0.007961,0.073522,1.568781,-0.104752,0.012099,-0.002629,-0.002877,-0.022831,0.000253,0.000610,0.015289,0.042072,0.042091,0.211210,0.211148,0.150620,0.342234,0.000000,0.000000,0.000000,0.000000,0.000000,0.000000,0.000000,0.000000,0.000000,0.000000,0.000000,0.000000,2.088179,3,0
1700000,-0.014599,41.766590,0.014952,-0.037587,26.100384,-0.025922,0.008084,0.073629,1.568777,-0.104645,0.012174,-0.002619,-0.002914,-0.022777,0.000253,0.000112,0.015132,-0.021629,-0.000394,0.211421,0.211355,0.150355,0.341241,0.000000,0.000000,0.000000,0.000000,0.000000,0.000000,0.000000,0.000000,0.000000,0.000000,0.000000,0.000000,2.086351,3,0
1710000,-0.014445,42.028931,0.015245,-0.036699,26.109936,-0.025804,0.008193,0.074074,1.568782,-0.104819,0.012245,-0.002872,-0.002952,-0.022865,0.000254,0.000329,0.014976,0.036121,0.022576,0.211630,0.211562,0.150094,0.340275,0.000000,0.000000,0.000000,0.000000,0.000000,0.000000,0.000000,0.000000,0.000000,0.000000,0.000000,0.000000,2.082432,3,0
1720000,-0.014292,42.291939,0.014930,-0.035987,26.120716,-0.026399,0.008305,0.074620,1.568775,-0.105071,0.012317,-0.002865,-0.002989,-0.022996,0.000256,0.000470,0.014815,0.051987,-0.001633,0.211840,0.211768,0.149837,0.339340,0.000000,0.000000,0.000000,0.000000,0.000000,0.000000,0.000000,0.000000,0.000000,0.000000,0.000000,0.000000,2.077850,3,0
