time_us,pos_x,pos_y,pos_z,vel_x,vel_y,vel_z,roll,pitch,yaw,bias_ax,bias_ay,bias_az,bias_gx,bias_gy,bias_gz,nis,innov_x,innov_y,innov_z,cov_pos_x,cov_pos_y,cov_pos_z,cov_yaw,des_speed,des_heading,des_climb,pid_speed,pid_yaw,pid_alt,speed_meas,yaw_meas,climb_meas,fwd_accel,yaw_rate,vert_accel,drift_m,nav_mode,mission_state
0,-0.000003,0.149999,-0.000002,-0.000485,24.999773,-0.000550,0.000002,-0.000001,1.570795,0.000000,0.000000,0.000000,0.000000,0.000000,0.000000,0.006250,0.000005,-0.250000,0.000005,2.400038,2.400038,3.600017,1.000518,0.000000,0.000000,0.000000,0.000000,0.000000,0.000000,0.000000,0.000000,0.000000,0.000000,0.000000,0.000000,0.149999,1,0
10000,-0.000008,0.382265,-0.017277,-0.000888,24.999664,-0.001234,-0.000010,-0.000010,1.570789,0.000000,0.000000,0.000000,0.000000,0.000000,0.000000,0.000679,0.000012,-0.062055,-0.046032,1.714420,1.714420,2.250079,1.001073,0.000000,0.000000,0.000000,0.000000,0.000000,0.000000,0.000000,0.000000,0.000000,0.000000,0.000000,0.000000,0.044323,3,0
20000,-0.000017,0.615446,-0.028688,-0.001363,24.999342,-0.001953,-0.000009,-0.000016,1.570781,0.000001,0.000000,0.000000,0.000000,0.000000,-0.000000,0.000953,0.000022,-0.075651,-0.041769,1.333616,1.333616,1.636554,1.001655,0.000000,0.000000,0.000000,0.000000,0.000000,0.000000,0.000000,0.000000,0.000000,0.000000,0.000000,0.000000,0.058836,3,0
30000,-0.000030,0.852655,-0.022947,-0.001914,24.999107,-0.002508,-0.000017,-0.000030,1.570783,0.000002,0.000000,0.000000,-0.000000,0.000000,-0.000000,0.000768,0.000036,-0.070283,0.026907,1.091392,1.091392,1.286065,1.002257,0.000000,0.000000,0.000000,0.000000,0.000000,0.000000,0.000000,0.000000,0.000000,0.000000,0.000000,0.000000,0.057498,3,0
40000,-0.000046,1.098153,-0.023264,-0.002446,24.999010,-0.003122,-0.000012,-0.000035,1.570779,0.000003,0.000000,0.000000,-0.000000,0.000000,-0.000000,0.000120,0.000054,-0.029185,-0.001622,0.923811,0.923811,1.059385,1.002869,0.000000,0.000000,0.000000,0.000000,0.000000,0.000000,0.000000,0.000000,0.000000,0.000000,0.000000,0.000000,0.024691,3,0
50000,-0.000065,1.345972,-0.018033,-0.002944,24.998802,-0.003338,-0.000010,-0.000043,1.570776,0.000004,0.000000,-0.000001,-0.000000,0.000000,-0.000000,0.000212,0.000075,-0.016254,0.035077,0.801036,0.801036,0.900822,1.003484,0.000000,0.000000,0.000000,0.000000,0.000000,0.000000,0.000000,0.000000,0.000000,0.000000,0.000000,0.000000,0.014084,3,0
60000,-0.000088,1.597638,-0.023487,-0.003434,24.998913,-0.004117,-0.000023,-0.000053,1.570779,0.000003,0.000000,0.000001,-0.000000,0.000000,-0.000000,0.000279,0.000100,0.014232,-0.041455,0.707270,0.707270,0.783741,1.004094,0.000000,0.000000,0.000000,0.000000,0.000000,0.000000,0.000000,0.000000,0.000000,0.000000,0.000000,0.000000,0.012555,3,0
70000,-0.000114,1.843546,-0.025317,-0.003951,24.998528,-0.004868,-0.000029,-0.000053,1.570775,0.000006,0.000000,0.000002,-0.000000,0.000000,-0.000000,0.000258,0.000127,-0.038644,-0.015414,0.633370,0.633370,0.693801,1.004688,0.000000,0.000000,0.000000,0.000000,0.000000,0.000000,0.000000,0.000000,0.000000,0.000000,0.000000,0.000000,0.034565,3,0
80000,-0.000143,2.083431,-0.024204,-0.004403,24.997692,-0.005392,-0.000037,-0.000065,1.570784,0.000017,0.000000,0.000001,-0.000000,0.000000,-0.000000,0.001701,0.000158,-0.105640,0.011247,0.573673,0.573673,0.622594,1.005260,0.000000,0.000000,0.000000,0.000000,0.000000,0.000000,0.000000,0.000000,0.000000,0.000000,0.000000,0.000000,0.095540,3,0
90000,-0.000176,2.337959,-0.022155,-0.004962,24.998169,-0.005552,-0.000045,-0.000068,1.570778,0.000010,0.000000,-0.000002,-0.000000,0.000000,-0.000000,0.000488,0.000192,0.052062,0.022383,0.524488,0.524488,0.564865,1.005801,0.000000,0.000000,0.000000,0.000000,0.000000,0.000000,0.000000,0.000000,0.000000,0.000000,0.000000,0.000000,0.047511,3,0
100000,-0.000211,2.582840,-0.019680,-0.005398,24.997471,-0.005622,-0.000043,-0.000075,1.570777,0.000020,0.000000,-0.000006,-0.000000,0.000000,-0.000000,0.000746,0.000230,-0.063318,0.029396,0.483303,0.483303,0.517162,1.006301,0.000000,0.000000,0.000000,0.000000,0.000000,0.000000,0.000000,0.000000,0.000000,0.000000,0.000000,0.000000,0.058218,3,0
110000,-0.000249,2.827611,-0.018660,-0.005842,24.996782,-0.005889,-0.000048,-0.000082,1.570785,0.000033,0.000000,-0.000009,-0.000000,0.000000,-0.000000,0.000776,0.000270,-0.069646,0.013574,0.448353,0.448353,0.477121,1.006754,0.000000,0.000000,0.000000,0.000000,0.000000,0.000000,0.000000,0.000000,0.000000,0.000000,0.000000,0.000000,0.064442,3,0
120000,-0.000291,3.080605,-0.017261,-0.006349,24.997181,-0.006327,-0.000041,-0.000091,1.570789,0.000023,0.000000,-0.000013,-0.000000,0.000000,-0.000000,0.000353,0.000313,0.043412,0.019839,0.418358,0.418358,0.443071,1.007150,0.000000,0.000000,0.000000,0.000000,0.000000,0.000000,0.000000,0.000000,0.000000,0.000000,0.000000,0.000000,0.040387,3,0
130000,-0.000336,3.335070,-0.020385,-0.006829,24.997969,-0.007501,-0.000052,-0.000098,1.570794,0.000006,0.000000,-0.000002,-0.000000,-0.000000,0.000000,0.001040,0.000359,0.068719,-0.044293,0.392369,0.392369,0.413797,1.007481,0.000000,0.000000,0.000000,0.000000,0.000000,0.000000,0.000000,0.000000,0.000000,0.000000,0.000000,0.000000,0.064226,3,0
140000,-0.000384,3.588301,-0.021773,-0.007317,24.998566,-0.008233,-0.000052,-0.000092,1.570797,-0.000010,0.000000,0.000004,-0.000000,-0.000000,0.000000,0.000500,0.000409,0.052793,-0.020198,0.369666,0.369666,0.388393,1.007739,0.000000,0.000000,0.000000,0.000000,0.000000,0.000000,0.000000,0.000000,0.000000,0.000000,0.000000,0.000000,0.049542,3,0
150000,-0.000434,3.841666,-0.021703,-0.007718,24.999348,-0.008716,-0.000052,-0.000101,1.570800,-0.000029,0.000001,0.000003,-0.000000,-0.000001,0.000000,0.000529,0.000461,0.057981,0.002577,0.349695,0.349695,0.366172,1.007915,0.000000,0.000000,0.000000,0.000000,0.000000,0.000000,0.000000,0.000000,0.000000,0.000000,0.000000,0.000000,0.054603,3,0
160000,-0.000488,4.096248,-0.020849,-0.008184,25.000549,-0.008981,-0.000046,-0.000103,1.570802,-0.000061,0.000001,-0.000003,-0.000000,-0.000001,0.000000,0.001124,0.000516,0.082913,0.016370,0.332020,0.332020,0.346600,1.008002,0.000000,0.000000,0.000000,0.000000,0.000000,0.000000,0.000000,0.000000,0.000000,0.000000,0.000000,0.000000,0.078326,3,0
170000,-0.000544,4.351875,-0.019503,-0.008700,25.002272,-0.009135,-0.000040,-0.000099,1.570800,-0.000106,0.000001,-0.000014,-0.000000,-0.000003,0.000000,0.001904,0.000575,0.106624,0.026281,0.316297,0.316297,0.329260,1.007991,0.000000,0.000000,0.000000,0.000000,0.000000,0.000000,0.000000,0.000000,0.000000,0.000000,0.000000,0.000000,0.101004,3,0
180000,-0.000605,4.603403,-0.018317,-0.009267,25.002678,-0.009255,-0.000043,-0.000097,1.570802,-0.000121,0.000001,-0.000025,-0.000000,-0.000003,0.000000,0.000236,0.000637,0.029891,0.024503,0.302245,0.302245,0.313817,1.007875,0.000000,0.000000,0.000000,0.000000,0.000000,0.000000,0.000000,0.000000,0.000000,0.000000,0.000000,0.000000,0.028391,3,0
190000,-0.000668,4.852326,-0.016222,-0.009701,25.002327,-0.009209,-0.000049,-0.000116,1.570799,-0.000109,0.000002,-0.000048,-0.000000,-0.000003,0.000000,0.000388,0.000702,-0.022853,0.043894,0.289640,0.289640,0.300003,1.007645,0.000000,0.000000,0.000000,0.000000,0.000000,0.000000,0.000000,0.000000,0.000000,0.000000,0.000000,0.000000,0.021760,3,0
200000,-0.000736,5.103575,-0.015299,-0.010279,25.002850,-0.009247,-0.000043,-0.000119,1.570790,-0.000124,0.000002,-0.000060,-0.000000,-0.000003,0.000000,0.000183,0.000771,0.026410,0.021266,0.278294,0.278294,0.287598,1.007295,0.000000,0.000000,0.000000,0.000000,0.000000,0.000000,0.000000,0.000000,0.000000,0.000000,0.000000,0.000000,0.025196,3,0
210000,-0.000806,5.359545,-0.017855,-0.010770,25.005377,-0.010711,-0.000050,-0.000102,1.570789,-0.000209,0.000003,-0.000027,-0.000000,-0.000005,0.000000,0.003268,0.000843,0.132977,-0.053361,0.268052,0.268052,0.276421,1.006816,0.000000,0.000000,0.000000,0.000000,0.000000,0.000000,0.000000,0.000000,0.000000,0.000000,0.000000,0.000000,0.127039,3,0
220000,-0.000879,5.615438,-0.018662,-0.011288,25.007986,-0.011536,-0.000057,-0.000088,1.570788,-0.000304,0.000003,-0.000016,-0.000000,-0.000008,0.000000,0.002963,0.000919,0.135409,-0.015656,0.258785,0.258785,0.266321,1.006202,0.000000,0.000000,0.000000,0.000000,0.000000,0.000000,0.000000,0.000000,0.000000,0.000000,0.000000,0.000000,0.129572,3,0
230000,-0.000955,5.872103,-0.020822,-0.011770,25.011307,-0.013082,-0.000055,-0.000067,1.570786,-0.000424,0.000004,0.000020,-0.000000,-0.000012,0.000000,0.004338,0.000997,0.157794,-0.047561,0.250383,0.250383,0.257172,1.005446,0.000000,0.000000,0.000000,0.000000,0.000000,0.000000,0.000000,0.000000,0.000000,0.000000,0.000000,0.000000,0.151212,3,0
240000,-0.001035,6.127062,-0.022388,-0.012325,25.013948,-0.014468,-0.000066,-0.000050,1.570783,-0.000523,0.000005,0.000048,-0.000000,-0.000016,0.000000,0.002483,0.001079,0.119764,-0.034438,0.242753,0.242753,0.248866,1.004541,0.000000,0.000000,0.000000,0.000000,0.000000,0.000000,0.000000,0.000000,0.000000,0.000000,0.000000,0.000000,0.114923,3,0
250000,-0.001118,6.381262,-0.020452,-0.012768,25.016249,-0.014015,-0.000059,-0.000034,1.570777,-0.000615,0.000006,0.000002,-0.000000,-0.000019,0.000000,0.002140,0.001163,0.103326,0.051893,0.235816,0.235816,0.241314,1.003481,0.000000,0.000000,0.000000,0.000000,0.000000,0.000000,0.000000,0.000000,0.000000,0.000000,0.000000,0.000000,0.099271,3,0
260000,-0.001203,6.636297,-0.020152,-0.013330,25.019182,-0.014267,-0.000071,-0.000009,1.570781,-0.000737,0.000007,-0.000009,-0.000000,-0.000023,0.000000,0.002623,0.001251,0.127408,0.011388,0.229501,0.229501,0.234436,1.002259,0.000000,0.000000,0.000000,0.000000,0.000000,0.000000,0.000000,0.000000,0.000000,0.000000,0.000000,0.000000,0.122540,3,0
270000,-0.001292,6.889141,-0.021901,-0.013850,25.020855,-0.015667,-0.000080,-0.000000,1.570783,-0.000810,0.000009,0.000034,-0.000000,-0.000026,0.000000,0.001096,0.001342,0.071132,-0.042114,0.223751,0.223751,0.228165,1.000870,0.000000,0.000000,0.000000,0.000000,0.000000,0.000000,0.000000,0.000000,0.000000,0.000000,0.000000,0.000000,0.068492,3,0
280000,-0.001383,7.144315,-0.021909,-0.014318,25.024248,-0.016025,-0.000083,0.000048,1.570773,-0.000961,0.000010,0.000030,-0.000000,-0.000032,0.000000,0.002988,0.001436,0.136334,0.004123,0.218512,0.218512,0.222443,0.999307,0.000000,0.000000,0.000000,0.000000,0.000000,0.000000,0.000000,0.000000,0.000000,0.000000,0.000000,0.000000,0.131376,3,0
290000,-0.001477,7.395988,-0.020658,-0.014775,25.025331,-0.015437,-0.000094,0.000052,1.570766,-0.001008,0.000012,-0.000016,-0.000000,-0.000034,0.000000,0.000505,0.001531,0.040157,0.039093,0.213740,0.213740,0.217219,0.997568,0.000000,0.000000,0.000000,0.000000,0.000000,0.000000,0.000000,0.000000,0.000000,0.000000,0.000000,0.000000,0.038755,3,0
300000,-0.001573,7.647184,-0.022183,-0.015254,25.026028,-0.016893,-0.000106,0.000064,1.570757,-0.001042,0.000014,0.000032,-0.000000,-0.000035,0.000000,0.000357,0.001630,0.027020,-0.038581,0.209393,0.209393,0.212446,0.995646,0.000000,0.000000,0.000000,0.000000,0.000000,0.000000,0.000000,0.000000,0.000000,0.000000,0.000000,0.000000,0.026125,3,0
310000,-0.001671,7.903383,-0.023965,-0.015700,25.030901,-0.018555,-0.000112,0.000130,1.570756,-0.001274,0.000016,0.000093,-0.000001,-0.000046,0.000000,0.005186,0.001730,0.173394,-0.046375,0.205438,0.205438,0.208087,0.993537,0.000000,0.000000,0.000000,0.000000,0.000000,0.000000,0.000000,0.000000,0.000000,0.000000,0.000000,0.000000,0.167465,3,0
320000,-0.001771,8.158261,-0.024243,-0.016101,25.034779,-0.019284,-0.000104,0.000184,1.570744,-0.001466,0.000019,0.000097,-0.000001,-0.000054,0.000000,0.002972,0.001833,0.135816,-0.002530,0.201841,0.201841,0.204105,0.991237,0.000000,0.000000,0.000000,0.000000,0.000000,0.000000,0.000000,0.000000,0.000000,0.000000,0.000000,0.000000,0.131259,3,0
330000,-0.001872,8.413220,-0.022968,-0.016464,25.038929,-0.018700,-0.000098,0.000252,1.570751,-0.001675,0.000022,0.000031,-0.000001,-0.000064,0.000000,0.003443,0.001936,0.139324,0.044133,0.198575,0.198575,0.200469,0.988744,0.000000,0.000000,0.000000,0.000000,0.000000,0.000000,0.000000,0.000000,0.000000,0.000000,0.000000,0.000000,0.134726,3,0
340000,-0.001976,8.665671,-0.023935,-0.016969,25.040789,-0.019812,-0.000098,0.000281,1.570750,-0.001775,0.000025,0.000069,-0.000001,-0.000069,0.000000,0.000735,0.002043,0.063235,-0.023605,0.195614,0.195614,0.197151,0.986054,0.000000,0.000000,0.000000,0.000000,0.000000,0.000000,0.000000,0.000000,0.000000,0.000000,0.000000,0.000000,0.061205,3,0
350000,-0.002081,8.917665,-0.025233,-0.017309,25.042257,-0.021336,-0.000096,0.000296,1.570750,-0.001857,0.000029,0.000125,-0.000001,-0.000073,0.000000,0.000577,0.002150,0.049313,-0.033823,0.192935,0.192935,0.194125,0.983164,0.000000,0.000000,0.000000,0.000000,0.000000,0.000000,0.000000,0.000000,0.000000,0.000000,0.000000,0.000000,0.047772,3,0
360000,-0.002187,9.174276,-0.023970,-0.017752,25.048542,-0.020576,-0.000102,0.000406,1.570751,-0.002199,0.000033,0.000044,-0.000001,-0.000091,0.000000,0.006478,0.002259,0.194881,0.046470,0.190517,0.190517,0.191370,0.980073,0.000000,0.000000,0.000000,0.000000,0.000000,0.000000,0.000000,0.000000,0.000000,0.000000,0.000000,0.000000,0.188706,3,0
370000,-0.002296,9.429688,-0.024736,-0.018224,25.053783,-0.021504,-0.000110,0.000500,1.570756,-0.002488,0.000037,0.000076,-0.000002,-0.000106,0.000001,0.004024,0.002370,0.156875,-0.017659,0.188342,0.188342,0.188863,0.976780,0.000000,0.000000,0.000000,0.000000,0.000000,0.000000,0.000000,0.000000,0.000000,0.000000,0.000000,0.000000,0.151967,3,0
380000,-0.002407,9.685808,-0.025828,-0.018739,25.059826,-0.022850,-0.000104,0.000602,1.570749,-0.002836,0.000042,0.000130,-0.000002,-0.000125,0.000001,0.005344,0.002484,0.179717,-0.028071,0.186392,0.186392,0.186586,0.973283,0.000000,0.000000,0.000000,0.000000,0.000000,0.000000,0.000000,0.000000,0.000000,0.000000,0.000000,0.000000,0.174151,3,0
390000,-0.002520,9.942007,-0.026295,-0.019252,25.066086,-0.023622,-0.000102,0.000721,1.570746,-0.003204,0.000047,0.000145,-0.000002,-0.000146,0.000001,0.005359,0.002600,0.181961,-0.007556,0.184652,0.184652,0.184522,0.969581,0.000000,0.000000,0.000000,0.000000,0.000000,0.000000,0.000000,0.000000,0.000000,0.000000,0.000000,0.000000,0.176379,3,0
400000,-0.002635,10.196468,-0.025227,-0.019718,25.070505,-0.022559,-0.000095,0.000796,1.570746,-0.003468,0.000053,0.000055,-0.000003,-0.000161,0.000001,0.002803,0.002718,0.124489,0.042924,0.183106,0.183106,0.182656,0.965676,0.000000,0.000000,0.000000,0.000000,0.000000,0.000000,0.000000,0.000000,0.000000,0.000000,0.000000,0.000000,0.120718,3,0
410000,-0.002751,10.452268,-0.024994,-0.020037,25.076550,-0.022525,-0.000094,0.000923,1.570737,-0.003839,0.000059,0.000021,-0.000003,-0.000184,0.000001,0.004610,0.002837,0.168167,0.015348,0.181742,0.181742,0.180971,0.961567,0.000000,0.000000,0.000000,0.000000,0.000000,0.000000,0.000000,0.000000,0.000000,0.000000,0.000000,0.000000,0.163097,3,0
420000,-0.002868,10.708769,-0.026531,-0.020516,25.083570,-0.024585,-0.000104,0.001070,1.570727,-0.004278,0.000066,0.000121,-0.000003,-0.000210,0.000001,0.006183,0.002957,0.190613,-0.043641,0.180546,0.180546,0.179456,0.957256,0.000000,0.000000,0.000000,0.000000,0.000000,0.000000,0.000000,0.000000,0.000000,0.000000,0.000000,0.000000,0.184900,3,0
430000,-0.002986,10.964768,-0.027354,-0.020853,25.090097,-0.025730,-0.000107,0.001208,1.570729,-0.004692,0.000073,0.000167,-0.000004,-0.000236,0.000001,0.004877,0.003078,0.172587,-0.019266,0.179508,0.179508,0.178097,0.952744,0.000000,0.000000,0.000000,0.000000,0.000000,0.000000,0.000000,0.000000,0.000000,0.000000,0.000000,0.000000,0.167451,3,0
440000,-0.003103,11.218513,-0.027455,-0.021157,25.093931,-0.026004,-0.000112,0.001290,1.570722,-0.004930,0.000081,0.000154,-0.000004,-0.000251,0.000001,0.001479,0.003199,0.095432,0.005437,0.178616,0.178616,0.176883,0.948034,0.000000,0.000000,0.000000,0.000000,0.000000,0.000000,0.000000,0.000000,0.000000,0.000000,0.000000,0.000000,0.092643,3,0
450000,-0.003222,11.474776,-0.028194,-0.021556,25.100973,-0.027140,-0.000106,0.001449,1.570714,-0.005396,0.000090,0.000196,-0.000005,-0.000282,0.000001,0.005260,0.003320,0.179592,-0.016146,0.177860,0.177861,0.175803,0.943127,0.000000,0.000000,0.000000,0.000000,0.000000,0.000000,0.000000,0.000000,0.000000,0.000000,0.000000,0.000000,0.174298,3,0
460000,-0.003340,11.732328,-0.028513,-0.021835,25.109827,-0.027520,-0.000101,0.001654,1.570700,-0.005991,0.000099,0.000200,-0.000005,-0.000322,0.000002,0.007934,0.003441,0.221441,-0.001503,0.177232,0.177232,0.174847,0.938028,0.000000,0.000000,0.000000,0.000000,0.000000,0.000000,0.000000,0.000000,0.000000,0.000000,0.000000,0.000000,0.214926,3,0
470000,-0.003458,11.988804,-0.027983,-0.022168,25.117458,-0.027010,-0.000111,0.001828,1.570689,-0.006498,0.000109,0.000122,-0.000006,-0.000357,0.000002,0.005514,0.003563,0.182467,0.027915,0.176721,0.176721,0.174006,0.932740,0.000000,0.000000,0.000000,0.000000,0.000000,0.000000,0.000000,0.000000,0.000000,0.000000,0.000000,0.000000,0.177126,3,0
480000,-0.003577,12.246565,-0.028496,-0.022596,25.126753,-0.027852,-0.000117,0.002041,1.570688,-0.007144,0.000120,0.000146,-0.000007,-0.000403,0.000002,0.008137,0.003685,0.224100,-0.008216,0.176320,0.176321,0.173271,0.927267,0.000000,0.000000,0.000000,0.000000,0.000000,0.000000,0.000000,0.000000,0.000000,0.000000,0.000000,0.000000,0.217544,3,0
490000,-0.003697,12.500343,-0.028656,-0.023017,25.130533,-0.028320,-0.000115,0.002121,1.570688,-0.007399,0.000131,0.000133,-0.000008,-0.000421,0.000002,0.001189,0.003809,0.085520,0.004345,0.176021,0.176021,0.172634,0.921614,0.000000,0.000000,0.000000,0.000000,0.000000,0.000000,0.000000,0.000000,0.000000,0.000000,0.000000,0.000000,0.083093,3,0
500000,-0.003817,12.754292,-0.029760,-0.023334,25.134584,-0.029739,-0.000117,0.002220,1.570681,-0.007676,0.000143,0.000221,-0.000009,-0.000442,0.000002,0.001448,0.003932,0.090129,-0.028502,0.175816,0.175817,0.172087,0.915785,0.000000,0.000000,0.000000,0.000000,0.000000,0.000000,0.000000,0.000000,0.000000,0.000000,0.000000,0.000000,0.087571,3,0
510000,-0.003936,13.012483,-0.029520,-0.023585,25.144785,-0.029337,-0.000119,0.002466,1.570675,-0.008417,0.000156,0.000160,-0.000010,-0.000497,0.000003,0.008898,0.004055,0.233719,0.018902,0.175699,0.175699,0.171622,0.909785,0.000000,0.000000,0.000000,0.000000,0.000000,0.000000,0.000000,0.000000,0.000000,0.000000,0.000000,0.000000,0.226909,3,0
520000,-0.004055,13.269033,-0.029621,-0.023961,25.152630,-0.029492,-0.000126,0.002670,1.570678,-0.008987,0.000169,0.000138,-0.000011,-0.000541,0.000003,0.004921,0.004177,0.174215,0.006885,0.175662,0.175663,0.171234,0.903622,0.000000,0.000000,0.000000,0.000000,0.000000,0.000000,0.000000,0.000000,0.000000,0.000000,0.000000,0.000000,0.169164,3,0
530000,-0.004173,13.527465,-0.028394,-0.024204,25.163431,-0.028088,-0.000122,0.002941,1.570673,-0.009780,0.000184,-0.000045,-0.000012,-0.000604,0.000003,0.009453,0.004299,0.235645,0.053653,0.175700,0.175700,0.170914,0.897300,0.000000,0.000000,0.000000,0.000000,0.000000,0.000000,0.000000,0.000000,0.000000,0.000000,0.000000,0.000000,0.228783,3,0
540000,-0.004289,13.784256,-0.028621,-0.024422,25.171610,-0.028668,-0.000112,0.003153,1.570670,-0.010389,0.000199,-0.000052,-0.000013,-0.000653,0.000003,0.005009,0.004419,0.175898,0.002143,0.175805,0.175806,0.170658,0.890826,0.000000,0.000000,0.000000,0.000000,0.000000,0.000000,0.000000,0.000000,0.000000,0.000000,0.000000,0.000000,0.170798,3,0
550000,-0.004405,14.039431,-0.028447,-0.024646,25.177259,-0.028398,-0.000100,0.003300,1.570672,-0.010808,0.000215,-0.000111,-0.000014,-0.000687,0.000004,0.002292,0.004538,0.117813,0.016341,0.175974,0.175974,0.170460,0.884207,0.000000,0.000000,0.000000,0.000000,0.000000,0.000000,0.000000,0.000000,0.000000,0.000000,0.000000,0.000000,0.114443,3,0
560000,-0.004520,14.297680,-0.027781,-0.025006,25.187824,-0.027608,-0.000100,0.003577,1.570657,-0.011613,0.000232,-0.000236,-0.000016,-0.000755,0.000004,0.008045,0.004657,0.220402,0.033668,0.176200,0.176200,0.170314,0.877450,0.000000,0.000000,0.000000,0.000000,0.000000,0.000000,0.000000,0.000000,0.000000,0.000000,0.000000,0.000000,0.213977,3,0
570000,-0.004634,14.552539,-0.026529,-0.025221,25.192940,-0.025754,-0.000104,0.003712,1.570648,-0.011992,0.000250,-0.000441,-0.000017,-0.000787,0.000004,0.002132,0.004774,0.101198,0.053949,0.176477,0.176478,0.170214,0.870562,0.000000,0.000000,0.000000,0.000000,0.000000,0.000000,0.000000,0.000000,0.000000,0.000000,0.000000,0.000000,0.098331,3,0
580000,-0.004746,14.809901,-0.027067,-0.025417,25.202063,-0.026663,-0.000101,0.003972,1.570649,-0.012700,0.000269,-0.000403,-0.000019,-0.000849,0.000004,0.005509,0.004890,0.184230,-0.009712,0.176802,0.176803,0.170157,0.863550,0.000000,0.000000,0.000000,0.000000,0.000000,0.000000,0.000000,0.000000,0.000000,0.000000,0.000000,0.000000,0.178865,3,0
590000,-0.004857,15.067395,-0.027402,-0.025625,25.211357,-0.027277,-0.000106,0.004229,1.570648,-0.013429,0.000289,-0.000394,-0.000021,-0.000914,0.000005,0.005553,0.005005,0.185202,-0.002230,0.177170,0.177171,0.170138,0.856423,0.000000,0.000000,0.000000,0.000000,0.000000,0.000000,0.000000,0.000000,0.000000,0.000000,0.000000,0.000000,0.179799,3,0
600000,-0.004966,15.326785,-0.027487,-0.025801,25.223696,-0.027656,-0.000099,0.004595,1.570633,-0.014418,0.000309,-0.000423,-0.000023,-0.001004,0.000005,0.009774,0.005118,0.245678,0.006866,0.177576,0.177577,0.170152,0.849188,0.000000,0.000000,0.000000,0.000000,0.000000,0.000000,0.000000,0.000000,0.000000,0.000000,0.000000,0.000000,0.238459,3,0
610000,-0.005075,15.584517,-0.027970,-0.026147,25.233343,-0.028553,-0.000097,0.004878,1.570625,-0.015179,0.000331,-0.000393,-0.000025,-0.001074,0.000006,0.005545,0.005230,0.184952,-0.007059,0.178017,0.178017,0.170195,0.841853,0.000000,0.000000,0.000000,0.000000,0.000000,0.000000,0.000000,0.000000,0.000000,0.000000,0.000000,0.000000,0.179536,3,0
620000,-0.005182,15.842376,-0.029149,-0.026360,25.243073,-0.030313,-0.000083,0.005170,1.570627,-0.015960,0.000353,-0.000259,-0.000027,-0.001148,0.000006,0.005731,0.005341,0.185550,-0.031324,0.178487,0.178488,0.170264,0.834426,0.000000,0.000000,0.000000,0.000000,0.000000,0.000000,0.000000,0.000000,0.000000,0.000000,0.000000,0.000000,0.180104,3,0
630000,-0.005290,16.100361,-0.030182,-0.026687,25.252890,-0.031752,-0.000075,0.005460,1.570626,-0.016759,0.000377,-0.000147,-0.000029,-0.001224,0.000006,0.005706,0.005452,0.186020,-0.025554,0.178984,0.178985,0.170356,0.826916,0.000000,0.000000,0.000000,0.000000,0.000000,0.000000,0.000000,0.000000,0.000000,0.000000,0.000000,0.000000,0.180549,3,0
640000,-0.005394,16.357283,-0.030505,-0.026812,25.260805,-0.032147,-0.000065,0.005696,1.570631,-0.017402,0.000401,-0.000147,-0.000031,-0.001287,0.000007,0.003480,0.005560,0.146605,-0.000067,0.179504,0.179505,0.170465,0.819329,0.000000,0.000000,0.000000,0.000000,0.000000,0.000000,0.000000,0.000000,0.000000,0.000000,0.000000,0.000000,0.142320,3,0
650000,-0.005496,16.614937,-0.029286,-0.026939,25.269974,-0.030184,-0.000052,0.005972,1.570619,-0.018152,0.000426,-0.000396,-0.000034,-0.001362,0.000007,0.005040,0.005666,0.167908,0.054281,0.180044,0.180045,0.170591,0.811675,0.000000,0.000000,0.000000,0.000000,0.000000,0.000000,0.000000,0.000000,0.000000,0.000000,0.000000,0.000000,0.162961,3,0
660000,-0.005597,16.872719,-0.028918,-0.027198,25.279379,-0.029736,-0.000039,0.006269,1.570616,-0.018920,0.000452,-0.000508,-0.000037,-0.001440,0.000007,0.004691,0.005771,0.168587,0.023749,0.180601,0.180602,0.170729,0.803962,0.000000,0.000000,0.000000,0.000000,0.000000,0.000000,0.000000,0.000000,0.000000,0.000000,0.000000,0.000000,0.163609,3,0
670000,-0.005697,17.133028,-0.029297,-0.027423,25.292940,-0.030504,-0.000039,0.006706,1.570601,-0.020073,0.000480,-0.000496,-0.000040,-0.001559,0.000008,0.010000,0.005874,0.248652,-0.002629,0.181171,0.181172,0.170877,0.796197,0.000000,0.000000,0.000000,0.000000,0.000000,0.000000,0.000000,0.000000,0.000000,0.000000,0.000000,0.000000,0.241211,3,0
680000,-0.005796,17.389826,-0.028996,-0.027692,25.300409,-0.029952,-0.000038,0.006942,1.570590,-0.020674,0.000508,-0.000600,-0.000043,-0.001623,0.000008,0.002701,0.005977,0.127357,0.021395,0.181753,0.181754,0.171033,0.788388,0.000000,0.000000,0.000000,0.000000,0.000000,0.000000,0.000000,0.000000,0.000000,0.000000,0.000000,0.000000,0.123635,3,0
690000,-0.005893,17.650379,-0.027884,-0.027938,25.314129,-0.028291,-0.000031,0.007414,1.570572,-0.021865,0.000537,-0.000848,-0.000046,-0.001750,0.000009,0.010359,0.006078,0.248186,0.049639,0.182343,0.182344,0.171193,0.780545,0.000000,0.000000,0.000000,0.000000,0.000000,0.000000,0.000000,0.000000,0.000000,0.000000,0.000000,0.000000,0.240717,3,0
700000,-0.005989,17.909208,-0.028895,-0.028132,25.324741,-0.029843,-0.000020,0.007772,1.570564,-0.022774,0.000567,-0.000720,-0.000049,-0.001849,0.000009,0.005717,0.006177,0.186285,-0.025314,0.182939,0.182940,0.171357,0.772673,0.000000,0.000000,0.000000,0.000000,0.000000,0.000000,0.000000,0.000000,0.000000,0.000000,0.000000,0.000000,0.180704,3,0
710000,-0.006083,18.167540,-0.029678,-0.028207,25.334381,-0.031208,-0.000002,0.008108,1.570550,-0.023596,0.000598,-0.000635,-0.000052,-0.001941,0.000010,0.004498,0.006275,0.165897,-0.016746,0.183539,0.183540,0.171522,0.764781,0.000000,0.000000,0.000000,0.000000,0.000000,0.000000,0.000000,0.000000,0.000000,0.000000,0.000000,0.000000,0.160937,3,0
720000,-0.006174,18.429037,-0.030724,-0.028298,25.349529,-0.032854,0.000016,0.008646,1.570547,-0.024930,0.000630,-0.000503,-0.000056,-0.002091,0.000011,0.011481,0.006369,0.265287,-0.025411,0.184141,0.184142,0.171685,0.756877,0.000000,0.000000,0.000000,0.000000,0.000000,0.000000,0.000000,0.000000,0.000000,0.000000,0.000000,0.000000,0.257219,3,0
730000,-0.006262,18.690613,-0.031025,-0.028358,25.364594,-0.033191,0.000030,0.009193,1.570535,-0.026268,0.000663,-0.000510,-0.000060,-0.002245,0.000012,0.011101,0.006461,0.262064,0.001104,0.184743,0.184744,0.171846,0.748968,0.000000,0.000000,0.000000,0.000000,0.000000,0.000000,0.000000,0.000000,0.000000,0.000000,0.000000,0.000000,0.254071,3,0
740000,-0.006347,18.951035,-0.030814,-0.028394,25.377443,-0.032827,0.000037,0.009652,1.570526,-0.027401,0.000697,-0.000614,-0.000064,-0.002378,0.000012,0.007813,0.006550,0.219006,0.019098,0.185343,0.185344,0.172003,0.741060,0.000000,0.000000,0.000000,0.000000,0.000000,0.000000,0.000000,0.000000,0.000000,0.000000,0.000000,0.000000,0.212335,3,0
750000,-0.006431,19.209080,-0.030688,-0.028594,25.386141,-0.032661,0.000055,0.009961,1.570526,-0.028122,0.000732,-0.000703,-0.000068,-0.002463,0.000013,0.003096,0.006637,0.137362,0.016042,0.185940,0.185941,0.172155,0.733162,0.000000,0.000000,0.000000,0.000000,0.000000,0.000000,0.000000,0.000000,0.000000,0.000000,0.000000,0.000000,0.133260,3,0
760000,-0.006513,19.470324,-0.031552,-0.028763,25.400257,-0.033807,0.000072,0.010492,1.570523,-0.029382,0.000767,-0.000600,-0.000072,-0.002616,0.000013,0.009138,0.006722,0.237053,-0.018602,0.186532,0.186534,0.172299,0.725279,0.000000,0.000000,0.000000,0.000000,0.000000,0.000000,0.000000,0.000000,0.000000,0.000000,0.000000,0.000000,0.229775,3,0
770000,-0.006594,19.730402,-0.031995,-0.028907,25.412199,-0.034590,0.000078,0.010936,1.570522,-0.030428,0.000804,-0.000582,-0.000077,-0.002744,0.000014,0.006107,0.006806,0.194334,-0.003387,0.187119,0.187120,0.172435,0.717419,0.000000,0.000000,0.000000,0.000000,0.000000,0.000000,0.000000,0.000000,0.000000,0.000000,0.000000,0.000000,0.188388,3,0
780000,-0.006671,19.990561,-0.031533,-0.028925,25.424006,-0.033802,0.000099,0.011377,1.570514,-0.031477,0.000841,-0.000746,-0.000081,-0.002875,0.000015,0.006124,0.006887,0.192562,0.028253,0.187698,0.187699,0.172563,0.709586,0.000000,0.000000,0.000000,0.000000,0.000000,0.000000,0.000000,0.000000,0.000000,0.000000,0.000000,0.000000,0.186658,3,0
790000,-0.006745,20.250175,-0.030664,-0.028932,25.434866,-0.032620,0.000122,0.011785,1.570507,-0.032418,0.000880,-0.000994,-0.000086,-0.002995,0.000015,0.005007,0.006964,0.170832,0.042160,0.188268,0.188269,0.172680,0.701788,0.000000,0.000000,0.000000,0.000000,0.000000,0.000000,0.000000,0.000000,0.000000,0.000000,0.000000,0.000000,0.165609,3,0
800000,-0.006817,20.509874,-0.030418,-0.029014,25.445679,-0.032246,0.000128,0.012200,1.570505,-0.033362,0.000919,-0.001114,-0.000092,-0.003117,0.000016,0.004713,0.007039,0.169533,0.020059,0.188829,0.188831,0.172787,0.694031,0.000000,0.000000,0.000000,0.000000,0.000000,0.000000,0.000000,0.000000,0.000000,0.000000,0.000000,0.000000,0.164339,3,0
810000,-0.006887,20.767771,-0.031631,-0.029024,25.453165,-0.034055,0.000136,0.012490,1.570492,-0.033973,0.000959,-0.000930,-0.000097,-0.003197,0.000016,0.002062,0.007112,0.108517,-0.030714,0.189381,0.189382,0.172882,0.686319,0.000000,0.000000,0.000000,0.000000,0.000000,0.000000,0.000000,0.000000,0.000000,0.000000,0.000000,0.000000,0.105317,3,0
820000,-0.006956,21.028913,-0.032871,-0.029140,25.466240,-0.035689,0.000147,0.013021,1.570482,-0.035159,0.001000,-0.000743,-0.000102,-0.003356,0.000017,0.007171,0.007183,0.208364,-0.031052,0.189921,0.189922,0.172964,0.678657,0.000000,0.000000,0.000000,0.000000,0.000000,0.000000,0.000000,0.000000,0.000000,0.000000,0.000000,0.000000,0.201889,3,0
830000,-0.007022,21.289484,-0.032666,-0.029221,25.478142,-0.035384,0.000159,0.013507,1.570483,-0.036225,0.001041,-0.000866,-0.000108,-0.003500,0.000018,0.005632,0.007252,0.185638,0.019672,0.190450,0.190451,0.173035,0.671052,0.000000,0.000000,0.000000,0.000000,0.000000,0.000000,0.000000,0.000000,0.000000,0.000000,0.000000,0.000000,0.179884,3,0
840000,-0.007087,21.549484,-0.033588,-0.029381,25.488909,-0.036803,0.000169,0.013949,1.570472,-0.037173,0.001083,-0.000747,-0.000114,-0.003631,0.000019,0.004383,0.007320,0.163496,-0.019455,0.190967,0.190968,0.173092,0.663508,0.000000,0.000000,0.000000,0.000000,0.000000,0.000000,0.000000,0.000000,0.000000,0.000000,0.000000,0.000000,0.158451,3,0
850000,-0.007150,21.810190,-0.032391,-0.029525,25.500856,-0.034881,0.000192,0.014437,1.570456,-0.038235,0.001127,-0.001092,-0.000120,-0.003780,0.000019,0.005815,0.007386,0.181690,0.054423,0.191472,0.191473,0.173135,0.656028,0.000000,0.000000,0.000000,0.000000,0.000000,0.000000,0.000000,0.000000,0.000000,0.000000,0.000000,0.000000,0.176037,3,0
860000,-0.007211,22.068409,-0.031308,-0.029589,25.508333,-0.033134,0.000212,0.014726,1.570454,-0.038824,0.001170,-0.001412,-0.000126,-0.003864,0.000020,0.002016,0.007450,0.099773,0.049756,0.191963,0.191965,0.173165,0.648618,0.000000,0.000000,0.000000,0.000000,0.000000,0.000000,0.000000,0.000000,0.000000,0.000000,0.000000,0.000000,0.096851,3,0
870000,-0.007271,22.329266,-0.031010,-0.029725,25.520243,-0.032623,0.000229,0.015226,1.570455,-0.039891,0.001215,-0.001556,-0.000133,-0.004018,0.000021,0.005281,0.007512,0.179422,0.021990,0.192442,0.192443,0.173181,0.641281,0.000000,0.000000,0.000000,0.000000,0.000000,0.000000,0.000000,0.000000,0.000000,0.000000,0.000000,0.000000,0.173820,3,0
880000,-0.007328,22.587616,-0.030523,-0.029676,25.527569,-0.031959,0.000244,0.015523,1.570457,-0.040474,0.001260,-0.001743,-0.000140,-0.004104,0.000021,0.001668,0.007572,0.097357,0.028368,0.192908,0.192909,0.173183,0.634021,0.000000,0.000000,0.000000,0.000000,0.000000,0.000000,0.000000,0.000000,0.000000,0.000000,0.000000,0.000000,0.094511,3,0
890000,-0.007383,22.849892,-0.030344,-0.029676,25.541698,-0.031774,0.000271,0.016135,1.570440,-0.041783,0.001306,-0.001862,-0.000147,-0.004299,0.000022,0.007629,0.007629,0.216631,0.017554,0.193360,0.193361,0.173171,0.626842,0.000000,0.000000,0.000000,0.000000,0.000000,0.000000,0.000000,0.000000,0.000000,0.000000,0.000000,0.000000,0.209780,3,0
900000,-0.007435,23.109629,-0.030201,-0.029602,25.551315,-0.031784,0.000300,0.016545,1.570437,-0.042592,0.001353,-0.001973,-0.000154,-0.004422,0.000023,0.002910,0.007683,0.133123,0.016244,0.193799,0.193800,0.173144,0.619746,0.000000,0.000000,0.000000,0.000000,0.000000,0.000000,0.000000,0.000000,0.000000,0.000000,0.000000,0.000000,0.129039,3,0
910000,-0.007485,23.370714,-0.031574,-0.029571,25.563194,-0.033694,0.000318,0.017053,1.570434,-0.043643,0.001400,-0.001729,-0.000161,-0.004584,0.000023,0.004966,0.007735,0.171473,-0.036402,0.194224,0.194225,0.173103,0.612736,0.000000,0.000000,0.000000,0.000000,0.000000,0.000000,0.000000,0.000000,0.000000,0.000000,0.000000,0.000000,0.166091,3,0
920000,-0.007532,23.629259,-0.031041,-0.029491,25.570284,-0.033093,0.000345,0.017340,1.570438,-0.044192,0.001448,-0.001939,-0.000168,-0.004669,0.000024,0.001442,0.007785,0.089182,0.030420,0.194636,0.194637,0.173049,0.605815,0.000000,0.000000,0.000000,0.000000,0.000000,0.000000,0.000000,0.000000,0.000000,0.000000,0.000000,0.000000,0.086617,3,0
930000,-0.007576,23.892399,-0.029657,-0.029569,25.585403,-0.031110,0.000362,0.018026,1.570424,-0.045606,0.001496,-0.002355,-0.000176,-0.004894,0.000025,0.008981,0.007832,0.228142,0.059764,0.195035,0.195036,0.172980,0.598986,0.000000,0.000000,0.000000,0.000000,0.000000,0.000000,0.000000,0.000000,0.000000,0.000000,0.000000,0.000000,0.220856,3,0
940000,-0.007619,24.155546,-0.029843,-0.029528,25.600309,-0.031373,0.000382,0.018712,1.570410,-0.046999,0.001545,-0.002391,-0.000184,-0.005119,0.000026,0.008052,0.007876,0.223280,0.004602,0.195420,0.195421,0.172897,0.592251,0.000000,0.000000,0.000000,0.000000,0.000000,0.000000,0.000000,0.000000,0.000000,0.000000,0.000000,0.000000,0.216142,3,0
950000,-0.007661,24.414808,-0.030255,-0.029538,25.608324,-0.032172,0.000410,0.019057,1.570407,-0.047621,0.001595,-0.002371,-0.000193,-0.005221,0.000027,0.001596,0.007919,0.099131,-0.003143,0.195793,0.195794,0.172800,0.585611,0.000000,0.000000,0.000000,0.000000,0.000000,0.000000,0.000000,0.000000,0.000000,0.000000,0.000000,0.000000,0.096201,3,0
960000,-0.007701,24.678024,-0.030299,-0.029583,25.623089,-0.032337,0.000433,0.019760,1.570392,-0.048992,0.001645,-0.002446,-0.000201,-0.005449,0.000028,0.007652,0.007961,0.217491,0.009958,0.196153,0.196153,0.172690,0.579070,0.000000,0.000000,0.000000,0.000000,0.000000,0.000000,0.000000,0.000000,0.000000,0.000000,0.000000,0.000000,0.210521,3,0
970000,-0.007738,24.936682,-0.030257,-0.029457,25.629719,-0.032237,0.000461,0.020037,1.570381,-0.049457,0.001695,-0.002540,-0.000210,-0.005527,0.000028,0.000906,0.008000,0.073397,0.012875,0.196500,0.196501,0.172567,0.572627,0.000000,0.000000,0.000000,0.000000,0.000000,0.000000,0.000000,0.000000,0.000000,0.000000,0.000000,0.000000,0.071414,3,0
980000,-0.007773,25.199314,-0.030577,-0.029408,25.643240,-0.032671,0.000481,0.020680,1.570371,-0.050682,0.001747,-0.002547,-0.000218,-0.005737,0.000029,0.005976,0.008036,0.192373,0.000329,0.196836,0.196836,0.172430,0.566285,0.000000,0.000000,0.000000,0.000000,0.000000,0.000000,0.000000,0.000000,0.000000,0.000000,0.000000,0.000000,0.186224,3,0
990000,-0.007805,25.458685,-0.031190,-0.029304,25.650860,-0.033528,0.000513,0.021014,1.570371,-0.051249,0.001798,-0.002478,-0.000227,-0.005836,0.000030,0.001292,0.008070,0.088634,-0.009757,0.197159,0.197159,0.172281,0.560044,0.000000,0.000000,0.000000,0.000000,0.000000,0.000000,0.000000,0.000000,0.000000,0.000000,0.000000,0.000000,0.086077,3,0
1000000,-0.007835,25.718103,-0.031038,-0.029237,25.658480,-0.033226,0.000548,0.021334,1.570376,-0.051811,0.001850,-0.002607,-0.000236,-0.005935,0.000030,0.001296,0.008102,0.087614,0.017179,0.197471,0.197472,0.172120,0.553907,0.000000,0.000000,0.000000,0.000000,0.000000,0.000000,0.000000,0.000000,0.000000,0.000000,0.000000,0.000000,0.085092,3,0
1010000,-0.007864,25.977568,-0.032245,-0.029180,25.666107,-0.035020,0.000574,0.021659,1.570372,-0.052369,0.001902,-0.002384,-0.000246,-0.006035,0.000031,0.001366,0.008132,0.086544,-0.030263,0.197773,0.197773,0.171946,0.547873,0.000000,0.000000,0.000000,0.000000,0.000000,0.000000,0.000000,0.000000,0.000000,0.000000,0.000000,0.000000,0.084059,3,0
1020000,-0.007892,26.239700,-0.033584,-0.029125,25.678328,-0.036816,0.000603,0.022256,1.570372,-0.053436,0.001955,-0.002132,-0.000255,-0.006230,0.000032,0.004586,0.008160,0.164946,-0.034277,0.198063,0.198063,0.171761,0.541943,0.000000,0.000000,0.000000,0.000000,0.000000,0.000000,0.000000,0.000000,0.000000,0.000000,0.000000,0.000000,0.159695,3,0
1030000,-0.007916,26.501179,-0.033075,-0.029088,25.689217,-0.035941,0.000627,0.022781,1.570361,-0.054352,0.002008,-0.002369,-0.000265,-0.006399,0.000033,0.003380,0.008187,0.141237,0.030893,0.198343,0.198343,0.171565,0.536118,0.000000,0.000000,0.000000,0.000000,0.000000,0.000000,0.000000,0.000000,0.000000,0.000000,0.000000,0.000000,0.136799,3,0
1040000,-0.007938,26.763327,-0.032023,-0.028965,25.701075,-0.034683,0.000664,0.023363,1.570363,-0.055379,0.002061,-0.002754,-0.000275,-0.006592,0.000034,0.004433,0.008211,0.157953,0.049810,0.198614,0.198613,0.171358,0.530397,0.000000,0.000000,0.000000,0.000000,0.000000,0.000000,0.000000,0.000000,0.000000,0.000000,0.000000,0.000000,0.152931,3,0
1050000,-0.007958,27.026791,-0.031867,-0.028848,25.715076,-0.034566,0.000691,0.024072,1.570351,-0.056643,0.002115,-0.002898,-0.000286,-0.006832,0.000035,0.006120,0.008231,0.193871,0.017986,0.198875,0.198874,0.171140,0.524783,0.000000,0.000000,0.000000,0.000000,0.000000,0.000000,0.000000,0.000000,0.000000,0.000000,0.000000,0.000000,0.187614,3,0
1060000,-0.007975,27.288914,-0.031212,-0.028727,25.726727,-0.033608,0.000717,0.024648,1.570341,-0.057617,0.002168,-0.003177,-0.000296,-0.007020,0.000036,0.003788,0.008250,0.148932,0.035412,0.199127,0.199126,0.170912,0.519274,0.000000,0.000000,0.000000,0.000000,0.000000,0.000000,0.000000,0.000000,0.000000,0.000000,0.000000,0.000000,0.144210,3,0
1070000,-0.007990,27.551693,-0.030796,-0.028557,25.739294,-0.033007,0.000740,0.025278,1.570336,-0.058698,0.002222,-0.003391,-0.000307,-0.007232,0.000037,0.004514,0.008266,0.164999,0.026757,0.199371,0.199370,0.170674,0.513870,0.000000,0.000000,0.000000,0.000000,0.000000,0.000000,0.000000,0.000000,0.000000,0.000000,0.000000,0.000000,0.159717,3,0
1080000,-0.008003,27.814455,-0.030514,-0.028442,25.751692,-0.032537,0.000774,0.025904,1.570321,-0.059752,0.002276,-0.003569,-0.000318,-0.007442,0.000038,0.004240,0.008279,0.160519,0.021845,0.199606,0.199605,0.170426,0.508571,0.000000,0.000000,0.000000,0.000000,0.000000,0.000000,0.000000,0.000000,0.000000,0.000000,0.000000,0.000000,0.155386,3,0
1090000,-0.008014,28.073889,-0.029887,-0.028315,25.758066,-0.031575,0.000797,0.026173,1.570321,-0.060124,0.002331,-0.003838,-0.000329,-0.007517,0.000039,0.000713,0.008291,0.056665,0.033782,0.199834,0.199833,0.170170,0.503377,0.000000,0.000000,0.000000,0.000000,0.000000,0.000000,0.000000,0.000000,0.000000,0.000000,0.000000,0.000000,0.055362,3,0
1100000,-0.008023,28.332689,-0.028785,-0.028141,25.763327,-0.030016,0.000832,0.026378,1.570325,-0.060358,0.002385,-0.004240,-0.000341,-0.007565,0.000039,0.000625,0.008301,0.035711,0.050225,0.200055,0.200054,0.169906,0.498288,0.000000,0.000000,0.000000,0.000000,0.000000,0.000000,0.000000,0.000000,0.000000,0.000000,0.000000,0.000000,0.035443,3,0
1110000,-0.008032,28.591532,-0.029441,-0.028132,25.768478,-0.030830,0.000870,0.026576,1.570332,-0.060591,0.002440,-0.004142,-0.000352,-0.007613,0.000039,0.000237,0.008309,0.035288,-0.012422,0.200270,0.200268,0.169633,0.493302,0.000000,0.000000,0.000000,0.000000,0.000000,0.000000,0.000000,0.000000,0.000000,0.000000,0.000000,0.000000,0.035042,3,0
1120000,-0.008039,28.849747,-0.028955,-0.028034,25.772554,-0.030204,0.000906,0.026697,1.570323,-0.060689,0.002495,-0.004371,-0.000364,-0.007634,0.000039,0.000177,0.008317,0.014936,0.028309,0.200478,0.200475,0.169352,0.488420,0.000000,0.000000,0.000000,0.000000,0.000000,0.000000,0.000000,0.000000,0.000000,0.000000,0.000000,0.000000,0.016525,3,0
1130000,-0.008044,29.108009,-0.028968,-0.027904,25.776564,-0.030491,0.000933,0.026814,1.570312,-0.060789,0.002549,-0.004457,-0.000376,-0.007655,0.000039,0.000066,0.008322,0.015108,0.010497,0.200680,0.200678,0.169064,0.483641,0.000000,0.000000,0.000000,0.000000,0.000000,0.000000,0.000000,0.000000,0.000000,0.000000,0.000000,0.000000,0.016672,3,0
1140000,-0.008049,29.366983,-0.029498,-0.027847,25.781923,-0.031166,0.000968,0.027024,1.570314,-0.061021,0.002605,-0.004395,-0.000388,-0.007706,0.000040,0.000220,0.008327,0.035109,-0.007813,0.200877,0.200874,0.168769,0.478963,0.000000,0.000000,0.000000,0.000000,0.000000,0.000000,0.000000,0.000000,0.000000,0.000000,0.000000,0.000000,0.034875,3,0
1150000,-0.008051,29.629320,-0.028971,-0.027722,25.793018,-0.030504,0.001004,0.027601,1.570310,-0.061907,0.002659,-0.004651,-0.000400,-0.007901,0.000041,0.003047,0.008331,0.133904,0.030223,0.201069,0.201066,0.168468,0.474387,0.000000,0.000000,0.000000,0.000000,0.000000,0.000000,0.000000,0.000000,0.000000,0.000000,0.000000,0.000000,0.129668,3,0
1160000,-0.008052,29.892305,-0.028496,-0.027624,25.805122,-0.029977,0.001041,0.028258,1.570303,-0.062899,0.002714,-0.004893,-0.000413,-0.008122,0.000042,0.003753,0.008332,0.149759,0.028247,0.201257,0.201253,0.168160,0.469910,0.000000,0.000000,0.000000,0.000000,0.000000,0.000000,0.000000,0.000000,0.000000,0.000000,0.000000,0.000000,0.144961,3,0
1170000,-0.008053,30.150591,-0.029700,-0.027563,25.808880,-0.031492,0.001081,0.028354,1.570301,-0.062939,0.002770,-0.004624,-0.000425,-0.008132,0.000042,0.000185,0.008332,0.005924,-0.032203,0.201440,0.201436,0.167847,0.465533,0.000000,0.000000,0.000000,0.000000,0.000000,0.000000,0.000000,0.000000,0.000000,0.000000,0.000000,0.000000,0.009880,3,0
1180000,-0.008052,30.412256,-0.030222,-0.027381,25.818552,-0.032112,0.001120,0.028839,1.570295,-0.063638,0.002825,-0.004570,-0.000438,-0.008293,0.000043,0.001809,0.008332,0.105423,-0.007120,0.201620,0.201615,0.167529,0.461255,0.000000,0.000000,0.000000,0.000000,0.000000,0.000000,0.000000,0.000000,0.000000,0.000000,0.000000,0.000000,0.102199,3,0
1190000,-0.008050,30.675245,-0.030672,-0.027330,25.830292,-0.032933,0.001157,0.029481,1.570289,-0.064578,0.002880,-0.004543,-0.000450,-0.008513,0.000044,0.003255,0.008330,0.141846,-0.004126,0.201796,0.201791,0.167205,0.457072,0.000000,0.000000,0.000000,0.000000,0.000000,0.000000,0.000000,0.000000,0.000000,0.000000,0.000000,0.000000,0.137312,3,0
1200000,-0.008047,30.938198,-0.030500,-0.027282,25.841850,-0.032792,0.001190,0.030110,1.570274,-0.065485,0.002935,-0.004709,-0.000464,-0.008728,0.000045,0.003097,0.008328,0.137163,0.018484,0.201970,0.201965,0.166877,0.452986,0.000000,0.000000,0.000000,0.000000,0.000000,0.000000,0.000000,0.000000,0.000000,0.000000,0.000000,0.000000,0.132791,3,0
1210000,-0.008042,31.201115,-0.029161,-0.027196,25.853285,-0.031169,0.001225,0.030717,1.570258,-0.066360,0.002989,-0.005236,-0.000477,-0.008938,0.000046,0.003433,0.008324,0.132519,0.060529,0.202141,0.202135,0.166544,0.448995,0.000000,0.000000,0.000000,0.000000,0.000000,0.000000,0.000000,0.000000,0.000000,0.000000,0.000000,0.000000,0.128310,3,0
1220000,-0.008037,31.464666,-0.029509,-0.027082,25.865614,-0.031934,0.001257,0.031411,1.570253,-0.067337,0.003044,-0.005239,-0.000491,-0.009176,0.000047,0.003529,0.008318,0.147795,-0.000728,0.202310,0.202303,0.166208,0.445098,0.000000,0.000000,0.000000,0.000000,0.000000,0.000000,0.000000,0.000000,0.000000,0.000000,0.000000,0.000000,0.143037,3,0
1230000,-0.008031,31.723473,-0.029852,-0.026932,25.869459,-0.032307,0.001287,0.031515,1.570250,-0.067359,0.003099,-0.005233,-0.000504,-0.009182,0.000047,0.000013,0.008311,0.003391,-0.000728,0.202476,0.202470,0.165868,0.441293,0.000000,0.000000,0.000000,0.000000,0.000000,0.000000,0.000000,0.000000,0.000000,0.000000,0.000000,0.000000,0.008674,3,0
1240000,-0.008025,31.986336,-0.031193,-0.026842,25.880520,-0.034232,0.001324,0.032112,1.570246,-0.068167,0.003154,-0.004923,-0.000518,-0.009385,0.000048,0.002632,0.008304,0.122246,-0.036415,0.202642,0.202635,0.165525,0.437579,0.000000,0.000000,0.000000,0.000000,0.000000,0.000000,0.000000,0.000000,0.000000,0.000000,0.000000,0.000000,0.118387,3,0
1250000,-0.008016,32.245796,-0.030978,-0.026743,25.885416,-0.034090,0.001369,0.032271,1.570239,-0.068287,0.003208,-0.005104,-0.000532,-0.009416,0.000049,0.000133,0.008297,0.018303,0.020479,0.202806,0.202798,0.165179,0.433955,0.000000,0.000000,0.000000,0.000000,0.000000,0.000000,0.000000,0.000000,0.000000,0.000000,0.000000,0.000000,0.019417,3,0
1260000,-0.008007,32.504597,-0.031244,-0.026587,25.889071,-0.034391,0.001414,0.032340,1.570244,-0.068269,0.003263,-0.005129,-0.000546,-0.009411,0.000049,0.000014,0.008287,-0.002659,0.002871,0.202969,0.202961,0.164830,0.430419,0.000000,0.000000,0.000000,0.000000,0.000000,0.000000,0.000000,0.000000,0.000000,0.000000,0.000000,0.000000,0.008408,3,0
1270000,-0.007994,32.764767,-0.031345,-0.026323,25.895081,-0.034476,0.001460,0.032589,1.570243,-0.068509,0.003317,-0.005213,-0.000560,-0.009474,0.000049,0.000241,0.008275,0.036686,0.009114,0.203131,0.203123,0.164479,0.426969,0.000000,0.000000,0.000000,0.000000,0.000000,0.000000,0.000000,0.000000,0.000000,0.000000,0.000000,0.000000,0.036337,3,0
1280000,-0.007981,33.024261,-0.031487,-0.026199,25.899773,-0.034895,0.001498,0.032734,1.570232,-0.068607,0.003371,-0.005283,-0.000575,-0.009500,0.000049,0.000057,0.008261,0.015007,0.007693,0.203294,0.203284,0.164126,0.423606,0.000000,0.000000,0.000000,0.000000,0.000000,0.000000,0.000000,0.000000,0.000000,0.000000,0.000000,0.000000,0.016551,3,0
1290000,-0.007967,33.284443,-0.031115,-0.026093,25.905695,-0.034387,0.001531,0.032964,1.570231,-0.068827,0.003424,-0.005525,-0.000589,-0.009559,0.000049,0.000310,0.008247,0.033764,0.026651,0.203456,0.203445,0.163772,0.420326,0.000000,0.000000,0.000000,0.000000,0.000000,0.000000,0.000000,0.000000,0.000000,0.000000,0.000000,0.000000,0.033578,3,0
1300000,-0.007951,33.545975,-0.031205,-0.025931,25.913923,-0.034764,0.001570,0.033368,1.570222,-0.069294,0.003478,-0.005620,-0.000604,-0.009686,0.000050,0.000854,0.008231,0.071705,0.009789,0.203618,0.203607,0.163416,0.417130,0.000000,0.000000,0.000000,0.000000,0.000000,0.000000,0.000000,0.000000,0.000000,0.000000,0.000000,0.000000,0.069726,3,0
1310000,-0.007935,33.808155,-0.031990,-0.025740,25.923244,-0.035996,0.001619,0.033855,1.570225,-0.069869,0.003531,-0.005486,-0.000619,-0.009847,0.000051,0.001308,0.008214,0.088398,-0.015587,0.203780,0.203769,0.163059,0.414015,0.000000,0.000000,0.000000,0.000000,0.000000,0.000000,0.000000,0.000000,0.000000,0.000000,0.000000,0.000000,0.085764,3,0
1320000,-0.007915,34.067596,-0.031089,-0.025520,25.927599,-0.034856,0.001666,0.033957,1.570217,-0.069899,0.003584,-0.005913,-0.000634,-0.009854,0.000051,0.000368,0.008195,0.005035,0.046687,0.203943,0.203931,0.162702,0.410979,0.000000,0.000000,0.000000,0.000000,0.000000,0.000000,0.000000,0.000000,0.000000,0.000000,0.000000,0.000000,0.009292,3,0
1330000,-0.007896,34.329754,-0.032349,-0.025300,25.936642,-0.036388,0.001709,0.034430,1.570215,-0.070441,0.003637,-0.005615,-0.000649,-0.010010,0.000052,0.001313,0.008173,0.083492,-0.033282,0.204107,0.204094,0.162343,0.408022,0.000000,0.000000,0.000000,0.000000,0.000000,0.000000,0.000000,0.000000,0.000000,0.000000,0.000000,0.000000,0.081036,3,0
1340000,-0.007875,34.593227,-0.033358,-0.025033,25.948029,-0.037698,0.001745,0.035073,1.570201,-0.071211,0.003689,-0.005411,-0.000664,-0.010234,0.000053,0.002395,0.008151,0.119427,-0.023274,0.204271,0.204258,0.161985,0.405143,0.000000,0.000000,0.000000,0.000000,0.000000,0.000000,0.000000,0.000000,0.000000,0.000000,0.000000,0.000000,0.115629,3,0
1350000,-0.007851,34.856640,-0.033202,-0.024892,25.959126,-0.037587,0.001794,0.035696,1.570195,-0.071943,0.003741,-0.005611,-0.000680,-0.010449,0.000054,0.002180,0.008128,0.114265,0.020406,0.204437,0.204423,0.161626,0.402338,0.000000,0.000000,0.000000,0.000000,0.000000,0.000000,0.000000,0.000000,0.000000,0.000000,0.000000,0.000000,0.110653,3,0
1360000,-0.007824,35.119312,-0.032897,-0.024600,25.968737,-0.037319,0.001843,0.036204,1.570196,-0.072513,0.003792,-0.005862,-0.000695,-0.010618,0.000055,0.001403,0.008102,0.089291,0.025871,0.204604,0.204589,0.161268,0.399608,0.000000,0.000000,0.000000,0.000000,0.000000,0.000000,0.000000,0.000000,0.000000,0.000000,0.000000,0.000000,0.086604,3,0
1370000,-0.007798,35.380585,-0.033510,-0.024411,25.975689,-0.038182,0.001892,0.036518,1.570185,-0.072801,0.003844,-0.005786,-0.000711,-0.010706,0.000056,0.000351,0.008073,0.045189,-0.008554,0.204773,0.204757,0.160910,0.396950,0.000000,0.000000,0.000000,0.000000,0.000000,0.000000,0.000000,0.000000,0.000000,0.000000,0.000000,0.000000,0.044335,3,0
1380000,-0.007769,35.638432,-0.033111,-0.024190,25.976484,-0.037577,0.001934,0.036346,1.570196,-0.072437,0.003894,-0.006054,-0.000727,-0.010593,0.000055,0.000673,0.008045,-0.057125,0.029064,0.204942,0.204926,0.160552,0.394364,0.000000,0.000000,0.000000,0.000000,0.000000,0.000000,0.000000,0.000000,0.000000,0.000000,0.000000,0.000000,0.055716,3,0
1390000,-0.007741,35.897667,-0.034188,-0.024040,25.979628,-0.038951,0.001977,0.036375,1.570191,-0.072333,0.003946,-0.005804,-0.000742,-0.010561,0.000055,0.000167,0.008015,-0.016796,-0.026158,0.205114,0.205096,0.160196,0.391847,0.000000,0.000000,0.000000,0.000000,0.000000,0.000000,0.000000,0.000000,0.000000,0.000000,0.000000,0.000000,0.017976,3,0
1400000,-0.007709,36.155533,-0.033093,-0.023795,25.980350,-0.037750,0.002017,0.036191,1.570186,-0.071969,0.003995,-0.006329,-0.000759,-0.010445,0.000055,0.001044,0.007984,-0.057392,0.055720,0.205287,0.205269,0.159840,0.389398,0.000000,0.000000,0.000000,0.000000,0.000000,0.000000,0.000000,0.000000,0.000000,0.000000,0.000000,0.000000,0.055954,3,0
1410000,-0.007677,36.413433,-0.033315,-0.023482,25.981047,-0.037883,0.002052,0.036008,1.570178,-0.071613,0.004045,-0.006377,-0.000775,-0.010330,0.000054,0.000535,0.007949,-0.056839,0.005681,0.205462,0.205443,0.159486,0.387015,0.000000,0.000000,0.000000,0.000000,0.000000,0.000000,0.000000,0.000000,0.000000,0.000000,0.000000,0.000000,0.055428,3,0
1420000,-0.007642,36.674759,-0.033002,-0.023287,25.987894,-0.037708,0.002097,0.036312,1.570170,-0.071880,0.004094,-0.006638,-0.000791,-0.010417,0.000055,0.000423,0.007914,0.043072,0.026561,0.205639,0.205618,0.159133,0.384698,0.000000,0.000000,0.000000,0.000000,0.000000,0.000000,0.000000,0.000000,0.000000,0.000000,0.000000,0.000000,0.042295,3,0
1430000,-0.007605,36.937416,-0.032266,-0.022999,25.997072,-0.036721,0.002134,0.036796,1.570161,-0.072372,0.004141,-0.007060,-0.000807,-0.010578,0.000056,0.001331,0.007877,0.079861,0.042579,0.205817,0.205796,0.158782,0.382445,0.000000,0.000000,0.000000,0.000000,0.000000,0.000000,0.000000,0.000000,0.000000,0.000000,0.000000,0.000000,0.077500,3,0
1440000,-0.007569,37.196609,-0.032689,-0.022793,25.999969,-0.037308,0.002180,0.036775,1.570154,-0.072225,0.004190,-0.007037,-0.000824,-0.010529,0.000055,0.000102,0.007838,-0.023857,-0.002044,0.205998,0.205976,0.158433,0.380255,0.000000,0.000000,0.000000,0.000000,0.000000,0.000000,0.000000,0.000000,0.000000,0.000000,0.000000,0.000000,0.024249,3,0
1450000,-0.007531,37.457169,-0.032527,-0.022545,26.005224,-0.037075,0.002225,0.036954,1.570147,-0.072317,0.004237,-0.007239,-0.000840,-0.010559,0.000056,0.000115,0.007799,0.015102,0.020528,0.206181,0.206157,0.158085,0.378125,0.000000,0.000000,0.000000,0.000000,0.000000,0.000000,0.000000,0.000000,0.000000,0.000000,0.000000,0.000000,0.016417,3,0
1460000,-0.007492,37.718388,-0.032674,-0.022338,26.011566,-0.037266,0.002270,0.037224,1.570134,-0.072516,0.004284,-0.007331,-0.000857,-0.010628,0.000056,0.000196,0.007759,0.032799,0.008884,0.206365,0.206341,0.157740,0.376055,0.000000,0.000000,0.000000,0.000000,0.000000,0.000000,0.000000,0.000000,0.000000,0.000000,0.000000,0.000000,0.032547,3,0
1470000,-0.007450,37.976147,-0.031544,-0.022139,26.011665,-0.035816,0.002310,0.036956,1.570135,-0.072092,0.004330,-0.007884,-0.000873,-0.010478,0.000055,0.001314,0.007718,-0.069454,0.057029,0.206552,0.206527,0.157397,0.374044,0.000000,0.000000,0.000000,0.000000,0.000000,0.000000,0.000000,0.000000,0.000000,0.000000,0.000000,0.000000,0.067467,3,0
1480000,-0.007407,38.235981,-0.030698,-0.021848,26.015301,-0.034835,0.002357,0.036992,1.570134,-0.072035,0.004375,-0.008340,-0.000890,-0.010456,0.000055,0.000368,0.007673,-0.009148,0.046107,0.206741,0.206714,0.157056,0.372088,0.000000,0.000000,0.000000,0.000000,0.000000,0.000000,0.000000,0.000000,0.000000,0.000000,0.000000,0.000000,0.011520,3,0
1490000,-0.007365,38.497864,-0.030486,-0.021640,26.022697,-0.034678,0.002407,0.037352,1.570128,-0.072327,0.004421,-0.008565,-0.000907,-0.010560,0.000056,0.000475,0.007629,0.049042,0.021960,0.206931,0.206904,0.156718,0.370188,0.000000,0.000000,0.000000,0.000000,0.000000,0.000000,0.000000,0.000000,0.000000,0.000000,0.000000,0.000000,0.047925,3,0
1500000,-0.007321,38.759701,-0.030533,-0.021418,26.029814,-0.034640,0.002456,0.037692,1.570127,-0.072597,0.004465,-0.008691,-0.000924,-0.010659,0.000057,0.000365,0.007584,0.045509,0.011878,0.207124,0.207095,0.156382,0.368342,0.000000,0.000000,0.000000,0.000000,0.000000,0.000000,0.000000,0.000000,0.000000,0.000000,0.000000,0.000000,0.044547,3,0
1510000,-0.007278,39.019436,-0.030914,-0.021247,26.033133,-0.035244,0.002498,0.037696,1.570126,-0.072493,0.004510,-0.008676,-0.000940,-0.010620,0.000057,0.000059,0.007538,-0.017609,-0.001212,0.207318,0.207288,0.156049,0.366550,0.000000,0.000000,0.000000,0.000000,0.000000,0.000000,0.000000,0.000000,0.000000,0.000000,0.000000,0.000000,0.018494,3,0
1520000,-0.007233,39.281902,-0.030734,-0.020992,26.041216,-0.035049,0.002544,0.038112,1.570126,-0.072848,0.004553,-0.008897,-0.000957,-0.010753,0.000057,0.000671,0.007493,0.060562,0.021048,0.207514,0.207484,0.155719,0.364808,0.000000,0.000000,0.000000,0.000000,0.000000,0.000000,0.000000,0.000000,0.000000,0.000000,0.000000,0.000000,0.058917,3,0
1530000,-0.007186,39.539497,-0.031333,-0.020634,26.040474,-0.035897,0.002590,0.037767,1.570128,-0.072366,0.004597,-0.008784,-0.000973,-0.010569,0.000057,0.001126,0.007444,-0.082710,-0.009942,0.207712,0.207680,0.155392,0.363118,0.000000,0.000000,0.000000,0.000000,0.000000,0.000000,0.000000,0.000000,0.000000,0.000000,0.000000,0.000000,0.080172,3,0
1540000,-0.007138,39.801929,-0.031691,-0.020332,26.048441,-0.036495,0.002645,0.038169,1.570120,-0.072698,0.004640,-0.008799,-0.000990,-0.010698,0.000057,0.000537,0.007394,0.057281,0.000673,0.207912,0.207879,0.155068,0.361475,0.000000,0.000000,0.000000,0.000000,0.000000,0.000000,0.000000,0.000000,0.000000,0.000000,0.000000,0.000000,0.055757,3,0
1550000,-0.007091,40.060173,-0.032836,-0.020149,26.048695,-0.037793,0.002686,0.037921,1.570115,-0.072320,0.004683,-0.008475,-0.001006,-0.010550,0.000057,0.000863,0.007344,-0.066078,-0.030591,0.208113,0.208079,0.154747,0.359880,0.000000,0.000000,0.000000,0.000000,0.000000,0.000000,0.000000,0.000000,0.000000,0.000000,0.000000,0.000000,0.064186,3,0
1560000,-0.007041,40.323250,-0.033501,-0.019815,26.057693,-0.038644,0.002740,0.038428,1.570116,-0.072738,0.004724,-0.008381,-0.001023,-0.010718,0.000058,0.000889,0.007293,0.073254,-0.010424,0.208316,0.208281,0.154430,0.358332,0.000000,0.000000,0.000000,0.000000,0.000000,0.000000,0.000000,0.000000,0.000000,0.000000,0.000000,0.000000,0.071059,3,0
1570000,-0.006987,40.584866,-0.032736,-0.019518,26.064003,-0.037745,0.002786,0.038689,1.570113,-0.072898,0.004764,-0.008852,-0.001040,-0.010781,0.000058,0.000473,0.007240,0.028751,0.045201,0.208521,0.208484,0.154115,0.356829,0.000000,0.000000,0.000000,0.000000,0.000000,0.000000,0.000000,0.000000,0.000000,0.000000,0.000000,0.000000,0.028625,3,0
1580000,-0.006933,40.842972,-0.031982,-0.019289,26.063709,-0.036910,0.002838,0.038368,1.570107,-0.072481,0.004803,-0.009292,-0.001057,-0.010608,0.000057,0.001198,0.007185,-0.073895,0.043782,0.208726,0.208688,0.153805,0.355370,0.000000,0.000000,0.000000,0.000000,0.000000,0.000000,0.000000,0.000000,0.000000,0.000000,0.000000,0.000000,0.071652,3,0
1590000,-0.006880,41.101784,-0.032491,-0.019079,26.064800,-0.037509,0.002890,0.038166,1.570116,-0.072183,0.004843,-0.009223,-0.001074,-0.010483,0.000057,0.000477,0.007128,-0.053692,-0.005728,0.208933,0.208894,0.153497,0.353954,0.000000,0.000000,0.000000,0.000000,0.000000,0.000000,0.000000,0.000000,0.000000,0.000000,0.000000,0.000000,0.052277,3,0
1600000,-0.006827,41.361984,-0.033763,-0.018750,26.068336,-0.039180,0.002934,0.038193,1.570116,-0.072106,0.004883,-0.008854,-0.001090,-0.010452,0.000057,0.000240,0.007072,-0.014332,-0.035036,0.209141,0.209100,0.153194,0.352578,0.000000,0.000000,0.000000,0.000000,0.000000,0.000000,0.000000,0.000000,0.000000,0.000000,0.000000,0.000000,0.015432,3,0
1610000,-0.006774,41.622154,-0.034936,-0.018554,26.071671,-0.040751,0.002971,0.038201,1.570115,-0.072020,0.004922,-0.008531,-0.001106,-0.010416,0.000057,0.000202,0.007017,-0.016140,-0.030556,0.209350,0.209308,0.152893,0.351242,0.000000,0.000000,0.000000,0.000000,0.000000,0.000000,0.000000,0.000000,0.000000,0.000000,0.000000,0.000000,0.016992,3,0
1620000,-0.006716,41.882286,-0.034912,-0.018195,26.074850,-0.040775,0.003028,0.038187,1.570121,-0.071922,0.004960,-0.008706,-0.001123,-0.010372,0.000057,0.000106,0.006960,-0.017918,0.017025,0.209559,0.209516,0.152597,0.349946,0.000000,0.000000,0.000000,0.000000,0.000000,0.000000,0.000000,0.000000,0.000000,0.000000,0.000000,0.000000,0.018547,3,0
1630000,-0.006659,42.142387,-0.035002,-0.017960,26.078020,-0.040682,0.003079,0.038161,1.570120,-0.071816,0.004996,-0.008834,-0.001139,-0.010324,0.000057,0.000095,0.006900,-0.019657,0.012472,0.209769,0.209725,0.152304,0.348687,0.000000,0.000000,0.000000,0.000000,0.000000,0.000000,0.000000,0.000000,0.000000,0.000000,0.000000,0.000000,0.020102,3,0
1640000,-0.006601,42.401077,-0.036243,-0.017644,26.078501,-0.042286,0.003118,0.037919,1.570130,-0.071494,0.005034,-0.008469,-0.001156,-0.010180,0.000056,0.000788,0.006839,-0.061119,-0.033263,0.209980,0.209934,0.152015,0.347466,0.000000,0.000000,0.000000,0.000000,0.000000,0.000000,0.000000,0.000000,0.000000,0.000000,0.000000,0.000000,0.059355,3,0
1650000,-0.006543,42.661156,-0.037178,-0.017431,26.081463,-0.043527,0.003165,0.037889,1.570134,-0.071381,0.005070,-0.008249,-0.001172,-0.010129,0.000056,0.000149,0.006780,-0.021629,-0.020190,0.210191,0.210144,0.151730,0.346279,0.000000,0.000000,0.000000,0.000000,0.000000,0.000000,0.000000,0.000000,0.000000,0.000000,0.000000,0.000000,0.021879,3,0
1660000,-0.006482,42.920494,-0.036953,-0.017037,26.083080,-0.043118,0.003222,0.037735,1.570138,-0.071155,0.005104,-0.008517,-0.001188,-0.010022,0.000055,0.000416,0.006718,-0.043194,0.025894,0.210403,0.210354,0.151449,0.345128,0.000000,0.000000,0.000000,0.000000,0.000000,0.000000,0.000000,0.000000,0.000000,0.000000,0.000000,0.000000,0.042173,3,0
1670000,-0.006419,43.181210,-0.036944,-0.016789,26.087076,-0.043144,0.003265,0.037797,1.570147,-0.071132,0.005138,-0.008705,-0.001205,-0.010010,0.000056,0.000061,0.006654,-0.004360,0.017627,0.210615,0.210565,0.151171,0.344009,0.000000,0.000000,0.000000,0.000000,0.000000,0.000000,0.000000,0.000000,0.000000,0.000000,0.000000,0.000000,0.007673,3,0
1680000,-0.006356,43.441177,-0.036163,-0.016523,26.089613,-0.042307,0.003306,0.037719,1.570153,-0.070995,0.005170,-0.009219,-0.001221,-0.009942,0.000055,0.000497,0.006589,-0.026569,0.048176,0.210826,0.210775,0.150898,0.342923,0.000000,0.000000,0.000000,0.000000,0.000000,0.000000,0.000000,0.000000,0.000000,0.000000,0.000000,0.000000,0.026400,3,0
1690000,-0.006292,43.699028,-0.036276,-0.016141,26.088266,-0.042158,0.003360,0.037287,1.570147,-0.070553,0.005203,-0.009324,-0.001238,-0.009724,0.000054,0.001267,0.006521,-0.087776,0.011555,0.211037,0.210985,0.150628,0.341869,0.000000,0.000000,0.000000,0.000000,0.000000,0.000000,0.000000,0.000000,0.000000,0.000000,0.000000,0.000000,0.084920,3,0
1700000,-0.006228,43.961788,-0.037082,-0.015918,26.096037,-0.043309,0.003399,0.037689,1.570143,-0.070812,0.005235,-0.009178,-0.001254,-0.009854,0.000055,0.000475,0.006455,0.051968,-0.014552,0.211249,0.211194,0.150363,0.340845,0.000000,0.000000,0.000000,0.000000,0.000000,0.000000,0.000000,0.000000,0.000000,0.000000,0.000000,0.000000,0.050518,3,0
1710000,-0.006162,44.224457,-0.036245,-0.015699,26.103523,-0.042173,0.003447,0.038052,1.570133,-0.071043,0.005265,-0.009749,-0.001270,-0.009969,0.000056,0.000800,0.006389,0.047554,0.051432,0.211459,0.211404,0.150101,0.339851,0.000000,0.000000,0.000000,0.000000,0.000000,0.000000,0.000000,0.000000,0.000000,0.000000,0.000000,0.000000,0.046303,3,0
