time_us,pos_x,pos_y,pos_z,vel_x,vel_y,vel_z,roll,pitch,yaw,bias_ax,bias_ay,bias_az,bias_gx,bias_gy,bias_gz,nis,innov_x,innov_y,innov_z,cov_pos_x,cov_pos_y,cov_pos_z,cov_yaw,des_speed,des_heading,des_climb,pid_speed,pid_yaw,pid_alt,speed_meas,yaw_meas,climb_meas,fwd_accel,yaw_rate,vert_accel,drift_m,nav_mode,mission_state
0,0.000002,0.150005,0.000002,0.000353,25.000818,0.000618,0.000010,0.000005,1.570801,0.000000,0.000000,0.000000,0.000000,0.000000,0.000000,0.006250,-0.000004,-0.250011,-0.000006,2.400038,2.400038,3.600017,1.000518,0.000000,0.000000,0.000000,0.000000,0.000000,0.000000,0.000000,0.000000,0.000000,0.000000,0.000000,0.000000,0.150005,1,0
10000,0.000007,0.382284,-0.017436,0.000749,25.001719,0.000932,0.000011,0.000021,1.570812,0.000000,-0.000000,0.000000,0.000000,0.000000,0.000000,0.000684,-0.000010,-0.062082,-0.046529,1.714420,1.714420,2.250079,1.001073,0.000000,0.000000,0.000000,0.000000,0.000000,0.000000,0.000000,0.000000,0.000000,0.000000,0.000000,0.000000,0.044343,3,0
20000,0.000013,0.619903,-0.027902,0.001037,25.002537,0.001217,0.000016,0.000035,1.570823,0.000001,-0.000000,0.000000,-0.000000,0.000000,0.000000,0.000583,-0.000017,-0.055822,-0.038416,1.333616,1.333616,1.636554,1.001655,0.000000,0.000000,0.000000,0.000000,0.000000,0.000000,0.000000,0.000000,0.000000,0.000000,0.000000,0.000000,0.043415,3,0
30000,0.000022,0.838257,-0.016922,0.001310,25.002943,0.001791,0.000028,0.000041,1.570825,0.000004,-0.000000,-0.000000,0.000000,0.000000,0.000000,0.004479,-0.000027,-0.174177,0.051147,1.091392,1.091392,1.286065,1.002257,0.000000,0.000000,0.000000,0.000000,0.000000,0.000000,0.000000,0.000000,0.000000,0.000000,0.000000,0.000000,0.142495,3,0
40000,0.000033,1.079891,-0.012022,0.001722,25.003769,0.002547,0.000039,0.000059,1.570834,0.000005,-0.000000,-0.000001,0.000000,0.000000,0.000000,0.000525,-0.000039,-0.054593,0.027619,0.923811,0.923811,1.059385,1.002869,0.000000,0.000000,0.000000,0.000000,0.000000,0.000000,0.000000,0.000000,0.000000,0.000000,0.000000,0.000000,0.046188,3,0
50000,0.000046,1.316929,-0.006496,0.001991,25.004185,0.003161,0.000037,0.000071,1.570852,0.000009,-0.000000,-0.000003,0.000000,0.000000,0.000000,0.001561,-0.000053,-0.097445,0.036606,0.801036,0.801036,0.900822,1.003484,0.000000,0.000000,0.000000,0.000000,0.000000,0.000000,0.000000,0.000000,0.000000,0.000000,0.000000,0.000000,0.084436,3,0
60000,0.000061,1.560358,-0.011229,0.002335,25.004835,0.003361,0.000030,0.000089,1.570857,0.000013,-0.000000,-0.000001,0.000000,0.000000,0.000000,0.000657,-0.000069,-0.056183,-0.036512,0.707270,0.707270,0.783741,1.004094,0.000000,0.000000,0.000000,0.000000,0.000000,0.000000,0.000000,0.000000,0.000000,0.000000,0.000000,0.000000,0.049560,3,0
70000,0.000079,1.810264,-0.012797,0.002709,25.005785,0.004016,0.000041,0.000102,1.570868,0.000013,-0.000000,0.000001,0.000000,0.000000,0.000000,0.000029,-0.000088,-0.001434,-0.013908,0.633370,0.633370,0.693801,1.004688,0.000000,0.000000,0.000000,0.000000,0.000000,0.000000,0.000000,0.000000,0.000000,0.000000,0.000000,0.000000,0.001285,3,0
80000,0.000098,2.057207,-0.015713,0.002979,25.006512,0.004312,0.000038,0.000111,1.570885,0.000016,-0.000000,0.000003,0.000000,0.000000,0.000000,0.000283,-0.000109,-0.032683,-0.028538,0.573673,0.573673,0.622594,1.005260,0.000000,0.000000,0.000000,0.000000,0.000000,0.000000,0.000000,0.000000,0.000000,0.000000,0.000000,0.000000,0.029558,3,0
90000,0.000120,2.305429,-0.020221,0.003359,25.007315,0.004662,0.000034,0.000129,1.570901,0.000019,-0.000000,0.000009,0.000000,0.000000,0.000000,0.000422,-0.000132,-0.021207,-0.048422,0.524488,0.524488,0.564865,1.005801,0.000000,0.000000,0.000000,0.000000,0.000000,0.000000,0.000000,0.000000,0.000000,0.000000,0.000000,0.000000,0.019354,3,0
100000,0.000145,2.557827,-0.020065,0.003795,25.008520,0.005189,0.000029,0.000142,1.570906,0.000015,-0.000000,0.000009,0.000000,0.000000,0.000000,0.000127,-0.000158,0.028748,0.001211,0.483304,0.483304,0.517162,1.006302,0.000000,0.000000,0.000000,0.000000,0.000000,0.000000,0.000000,0.000000,0.000000,0.000000,0.000000,0.000000,0.026433,3,0
110000,0.000173,2.810520,-0.016350,0.004164,25.009951,0.006291,0.000035,0.000146,1.570924,0.000008,-0.000000,0.000001,0.000000,-0.000000,-0.000000,0.000511,-0.000187,0.034762,0.045976,0.448354,0.448354,0.477121,1.006755,0.000000,0.000000,0.000000,0.000000,0.000000,0.000000,0.000000,0.000000,0.000000,0.000000,0.000000,0.000000,0.032165,3,0
120000,0.000204,3.067610,-0.015892,0.004598,25.012024,0.006838,0.000030,0.000164,1.570927,-0.000014,-0.000000,-0.000000,0.000000,-0.000000,-0.000000,0.001558,-0.000219,0.100119,0.005285,0.418359,0.418359,0.443071,1.007151,0.000000,0.000000,0.000000,0.000000,0.000000,0.000000,0.000000,0.000000,0.000000,0.000000,0.000000,0.000000,0.093138,3,0
130000,0.000236,3.325674,-0.014997,0.004869,25.014519,0.007419,0.000025,0.000182,1.570948,-0.000045,-0.000000,-0.000003,0.000000,-0.000001,-0.000000,0.002314,-0.000253,0.121312,0.011930,0.392369,0.392369,0.413797,1.007482,0.000000,0.000000,0.000000,0.000000,0.000000,0.000000,0.000000,0.000000,0.000000,0.000000,0.000000,0.000000,0.113379,3,0
140000,0.000271,3.578425,-0.015695,0.005243,25.016119,0.007862,0.000030,0.000198,1.570960,-0.000057,-0.000000,0.000000,0.000000,-0.000001,-0.000000,0.000300,-0.000289,0.042134,-0.012024,0.369667,0.369667,0.388393,1.007740,0.000000,0.000000,0.000000,0.000000,0.000000,0.000000,0.000000,0.000000,0.000000,0.000000,0.000000,0.000000,0.039539,3,0
150000,0.000307,3.834857,-0.018211,0.005560,25.018597,0.007822,0.000028,0.000229,1.570970,-0.000094,-0.000000,0.000014,0.000000,-0.000002,-0.000000,0.002096,-0.000326,0.107429,-0.042607,0.349696,0.349696,0.366172,1.007917,0.000000,0.000000,0.000000,0.000000,0.000000,0.000000,0.000000,0.000000,0.000000,0.000000,0.000000,0.000000,0.101168,3,0
160000,0.000347,4.088907,-0.016907,0.005986,25.020573,0.008789,0.000039,0.000256,1.570985,-0.000120,-0.000001,0.000006,0.000000,-0.000002,-0.000000,0.000834,-0.000367,0.069641,0.021105,0.332021,0.332021,0.346600,1.008004,0.000000,0.000000,0.000000,0.000000,0.000000,0.000000,0.000000,0.000000,0.000000,0.000000,0.000000,0.000000,0.065788,3,0
170000,0.000389,4.344072,-0.016472,0.006317,25.023167,0.009286,0.000034,0.000280,1.570999,-0.000160,-0.000001,0.000004,0.000000,-0.000003,-0.000000,0.001397,-0.000410,0.093874,0.006255,0.316298,0.316298,0.329260,1.007993,0.000000,0.000000,0.000000,0.000000,0.000000,0.000000,0.000000,0.000000,0.000000,0.000000,0.000000,0.000000,0.088927,3,0
180000,0.000433,4.593198,-0.018483,0.006741,25.023853,0.009075,0.000039,0.000287,1.571002,-0.000150,-0.000001,0.000022,0.000000,-0.000003,-0.000000,0.000334,-0.000456,-0.022164,-0.040310,0.302248,0.302247,0.313817,1.007877,0.000000,0.000000,0.000000,0.000000,0.000000,0.000000,0.000000,0.000000,0.000000,0.000000,0.000000,0.000000,0.021052,3,0
190000,0.000480,4.848583,-0.019758,0.007077,25.026667,0.009090,0.000034,0.000316,1.571016,-0.000206,-0.000001,0.000037,0.000000,-0.000005,-0.000000,0.001915,-0.000504,0.106403,-0.027394,0.289643,0.289643,0.300003,1.007648,0.000000,0.000000,0.000000,0.000000,0.000000,0.000000,0.000000,0.000000,0.000000,0.000000,0.000000,0.000000,0.101268,3,0
200000,0.000528,5.105778,-0.018602,0.007363,25.030340,0.009971,0.000043,0.000361,1.571033,-0.000293,-0.000002,0.000024,0.000000,-0.000007,-0.000000,0.003614,-0.000553,0.149175,0.022103,0.278297,0.278297,0.287598,1.007298,0.000000,0.000000,0.000000,0.000000,0.000000,0.000000,0.000000,0.000000,0.000000,0.000000,0.000000,0.000000,0.142257,3,0
210000,0.000579,5.356594,-0.017922,0.007778,25.031624,0.010922,0.000047,0.000381,1.571045,-0.000300,-0.000002,0.000016,0.000000,-0.000007,-0.000000,0.000045,-0.000606,0.011215,0.012446,0.268056,0.268056,0.276421,1.006820,0.000000,0.000000,0.000000,0.000000,0.000000,0.000000,0.000000,0.000000,0.000000,0.000000,0.000000,0.000000,0.010730,3,0
220000,0.000632,5.612019,-0.016264,0.008183,25.035067,0.011958,0.000049,0.000410,1.571049,-0.000383,-0.000002,-0.000008,0.000000,-0.000010,-0.000000,0.002421,-0.000661,0.118207,0.034811,0.258790,0.258790,0.266321,1.006206,0.000000,0.000000,0.000000,0.000000,0.000000,0.000000,0.000000,0.000000,0.000000,0.000000,0.000000,0.000000,0.113110,3,0
230000,0.000688,5.866608,-0.013975,0.008621,25.038279,0.013436,0.000042,0.000450,1.571065,-0.000460,-0.000003,-0.000046,0.000000,-0.000012,-0.000000,0.002046,-0.000718,0.101294,0.050503,0.250389,0.250389,0.257172,1.005451,0.000000,0.000000,0.000000,0.000000,0.000000,0.000000,0.000000,0.000000,0.000000,0.000000,0.000000,0.000000,0.097069,3,0
240000,0.000747,6.117233,-0.012850,0.009037,25.039549,0.014658,0.000053,0.000458,1.571075,-0.000464,-0.000004,-0.000065,0.000000,-0.000013,-0.000000,0.000095,-0.000779,0.005703,0.023703,0.242760,0.242760,0.248866,1.004546,0.000000,0.000000,0.000000,0.000000,0.000000,0.000000,0.000000,0.000000,0.000000,0.000000,0.000000,0.000000,0.005523,3,0
250000,0.000808,6.368169,-0.011650,0.009341,25.040836,0.015871,0.000059,0.000463,1.571081,-0.000476,-0.000004,-0.000088,0.000000,-0.000013,-0.000000,0.000138,-0.000841,0.013493,0.026027,0.235823,0.235823,0.241314,1.003486,0.000000,0.000000,0.000000,0.000000,0.000000,0.000000,0.000000,0.000000,0.000000,0.000000,0.000000,0.000000,0.012988,3,0
260000,0.000871,6.622432,-0.012442,0.009731,25.044317,0.015827,0.000068,0.000504,1.571100,-0.000573,-0.000005,-0.000065,0.000000,-0.000017,-0.000000,0.001715,-0.000905,0.100486,-0.024464,0.229510,0.229510,0.234436,1.002264,0.000000,0.000000,0.000000,0.000000,0.000000,0.000000,0.000000,0.000000,0.000000,0.000000,0.000000,0.000000,0.096646,3,0
270000,0.000935,6.876787,-0.013809,0.009994,25.047901,0.015663,0.000069,0.000542,1.571102,-0.000681,-0.000006,-0.000024,0.000000,-0.000021,-0.000000,0.002017,-0.000971,0.104614,-0.040304,0.223761,0.223761,0.228165,1.000875,0.000000,0.000000,0.000000,0.000000,0.000000,0.000000,0.000000,0.000000,0.000000,0.000000,0.000000,0.000000,0.100717,3,0
280000,0.001001,7.128338,-0.012624,0.010411,25.049721,0.016783,0.000075,0.000567,1.571107,-0.000713,-0.000007,-0.000054,0.000000,-0.000022,-0.000000,0.000259,-0.001039,0.029133,0.027623,0.218524,0.218523,0.222443,0.999314,0.000000,0.000000,0.000000,0.000000,0.000000,0.000000,0.000000,0.000000,0.000000,0.000000,0.000000,0.000000,0.028090,3,0
290000,0.001070,7.382253,-0.011420,0.010766,25.053326,0.018082,0.000078,0.000618,1.571120,-0.000826,-0.000009,-0.000087,0.000000,-0.000027,-0.000000,0.001600,-0.001109,0.095627,0.028448,0.213753,0.213753,0.217219,0.997574,0.000000,0.000000,0.000000,0.000000,0.000000,0.000000,0.000000,0.000000,0.000000,0.000000,0.000000,0.000000,0.092227,3,0
300000,0.001140,7.634209,-0.010134,0.011107,25.055475,0.019389,0.000082,0.000644,1.571139,-0.000876,-0.000010,-0.000126,0.000000,-0.000029,-0.000000,0.000419,-0.001181,0.040465,0.031060,0.209409,0.209408,0.212446,0.995653,0.000000,0.000000,0.000000,0.000000,0.000000,0.000000,0.000000,0.000000,0.000000,0.000000,0.000000,0.000000,0.039069,3,0
310000,0.001213,7.887743,-0.010651,0.011525,25.058975,0.019519,0.000092,0.000685,1.571147,-0.000992,-0.000012,-0.000098,0.000000,-0.000034,-0.000000,0.001278,-0.001256,0.086670,-0.020672,0.205455,0.205455,0.208087,0.993544,0.000000,0.000000,0.000000,0.000000,0.000000,0.000000,0.000000,0.000000,0.000000,0.000000,0.000000,0.000000,0.083711,3,0
320000,0.001286,8.140755,-0.010389,0.011793,25.062157,0.020314,0.000102,0.000723,1.571157,-0.001094,-0.000014,-0.000101,0.000001,-0.000039,-0.000000,0.000828,-0.001331,0.071649,0.001730,0.201860,0.201860,0.204105,0.991245,0.000000,0.000000,0.000000,0.000000,0.000000,0.000000,0.000000,0.000000,0.000000,0.000000,0.000000,0.000000,0.069250,3,0
330000,0.001362,8.398542,-0.010517,0.012198,25.069584,0.020555,0.000107,0.000838,1.571170,-0.001417,-0.000016,-0.000086,0.000001,-0.000054,-0.000000,0.007548,-0.001408,0.216184,-0.010057,0.198597,0.198596,0.200469,0.988753,0.000000,0.000000,0.000000,0.000000,0.000000,0.000000,0.000000,0.000000,0.000000,0.000000,0.000000,0.000000,0.209033,3,0
340000,0.001438,8.653075,-0.009915,0.012471,25.074205,0.021302,0.000118,0.000915,1.571177,-0.001603,-0.000018,-0.000105,0.000001,-0.000063,-0.000000,0.002244,-0.001487,0.117352,0.011946,0.195638,0.195638,0.197151,0.986063,0.000000,0.000000,0.000000,0.000000,0.000000,0.000000,0.000000,0.000000,0.000000,0.000000,0.000000,0.000000,0.113535,3,0
350000,0.001517,8.909643,-0.008276,0.012856,25.080885,0.023159,0.000122,0.001032,1.571184,-0.001905,-0.000021,-0.000177,0.000001,-0.000079,-0.000000,0.005587,-0.001568,0.180837,0.043923,0.192962,0.192961,0.194125,0.983174,0.000000,0.000000,0.000000,0.000000,0.000000,0.000000,0.000000,0.000000,0.000000,0.000000,0.000000,0.000000,0.175028,3,0
360000,0.001596,9.163739,-0.006719,0.013085,25.085354,0.024936,0.000113,0.001102,1.571192,-0.002086,-0.000023,-0.000250,0.000001,-0.000088,-0.000000,0.001992,-0.001648,0.103110,0.041378,0.190547,0.190547,0.191370,0.980084,0.000000,0.000000,0.000000,0.000000,0.000000,0.000000,0.000000,0.000000,0.000000,0.000000,0.000000,0.000000,0.099848,3,0
370000,0.001677,9.421097,-0.005973,0.013498,25.093208,0.025943,0.000112,0.001230,1.571207,-0.002467,-0.000027,-0.000278,0.000001,-0.000108,-0.000000,0.006943,-0.001732,0.206791,0.015603,0.188375,0.188375,0.188863,0.976791,0.000000,0.000000,0.000000,0.000000,0.000000,0.000000,0.000000,0.000000,0.000000,0.000000,0.000000,0.000000,0.200305,3,0
380000,0.001760,9.674173,-0.006776,0.013882,25.096672,0.025375,0.000114,0.001284,1.571213,-0.002600,-0.000030,-0.000212,0.000001,-0.000116,-0.000000,0.000951,-0.001817,0.068628,-0.034303,0.186429,0.186428,0.186586,0.973294,0.000000,0.000000,0.000000,0.000000,0.000000,0.000000,0.000000,0.000000,0.000000,0.000000,0.000000,0.000000,0.066519,3,0
390000,0.001844,9.931100,-0.006996,0.014163,25.104509,0.025398,0.000114,0.001417,1.571227,-0.002991,-0.000034,-0.000181,0.000002,-0.000138,-0.000001,0.006070,-0.001903,0.193216,-0.015535,0.184692,0.184691,0.184523,0.969594,0.000000,0.000000,0.000000,0.000000,0.000000,0.000000,0.000000,0.000000,0.000000,0.000000,0.000000,0.000000,0.187277,3,0
400000,0.001929,10.188704,-0.005716,0.014484,25.113194,0.026916,0.000110,0.001573,1.571231,-0.003445,-0.000038,-0.000252,0.000002,-0.000165,-0.000001,0.007618,-0.001990,0.214517,0.033575,0.183150,0.183149,0.182656,0.965689,0.000000,0.000000,0.000000,0.000000,0.000000,0.000000,0.000000,0.000000,0.000000,0.000000,0.000000,0.000000,0.207978,3,0
410000,0.002015,10.445768,-0.006844,0.014847,25.121426,0.025797,0.000107,0.001728,1.571252,-0.003876,-0.000042,-0.000150,0.000002,-0.000191,-0.000001,0.006518,-0.002078,0.195371,-0.046436,0.181790,0.181789,0.180971,0.961581,0.000000,0.000000,0.000000,0.000000,0.000000,0.000000,0.000000,0.000000,0.000000,0.000000,0.000000,0.000000,0.189462,3,0
420000,0.002101,10.701119,-0.006622,0.015077,25.127716,0.026345,0.000102,0.001838,1.571264,-0.004192,-0.000047,-0.000147,0.000002,-0.000210,-0.000001,0.003036,-0.002167,0.137013,-0.001386,0.180598,0.180597,0.179456,0.957270,0.000000,0.000000,0.000000,0.000000,0.000000,0.000000,0.000000,0.000000,0.000000,0.000000,0.000000,0.000000,0.132906,3,0
430000,0.002188,10.956003,-0.005870,0.015375,25.133347,0.027491,0.000099,0.001947,1.571278,-0.004480,-0.000053,-0.000186,0.000003,-0.000228,-0.000001,0.002378,-0.002256,0.120149,0.016267,0.179564,0.179563,0.178097,0.952759,0.000000,0.000000,0.000000,0.000000,0.000000,0.000000,0.000000,0.000000,0.000000,0.000000,0.000000,0.000000,0.116574,3,0
440000,0.002277,11.213399,-0.005674,0.015741,25.142349,0.028112,0.000107,0.002121,1.571296,-0.004987,-0.000059,-0.000179,0.000003,-0.000261,-0.000001,0.006676,-0.002347,0.203149,-0.002897,0.178677,0.178676,0.176883,0.948050,0.000000,0.000000,0.000000,0.000000,0.000000,0.000000,0.000000,0.000000,0.000000,0.000000,0.000000,0.000000,0.197112,3,0
450000,0.002366,11.468528,-0.004588,0.016055,25.148409,0.029653,0.000102,0.002237,1.571311,-0.005310,-0.000065,-0.000250,0.000004,-0.000283,-0.000001,0.002631,-0.002438,0.124574,0.027296,0.177927,0.177926,0.175803,0.943144,0.000000,0.000000,0.000000,0.000000,0.000000,0.000000,0.000000,0.000000,0.000000,0.000000,0.000000,0.000000,0.120903,3,0
460000,0.002455,11.722627,-0.003982,0.016239,25.153198,0.030442,0.000112,0.002336,1.571323,-0.005546,-0.000072,-0.000278,0.000004,-0.000299,-0.000001,0.001273,-0.002529,0.088052,0.010497,0.177303,0.177302,0.174847,0.938046,0.000000,0.000000,0.000000,0.000000,0.000000,0.000000,0.000000,0.000000,0.000000,0.000000,0.000000,0.000000,0.085485,3,0
470000,0.002543,11.980407,-0.004731,0.016450,25.163054,0.029748,0.000107,0.002544,1.571333,-0.006135,-0.000079,-0.000177,0.000005,-0.000340,-0.000001,0.007460,-0.002620,0.211605,-0.036506,0.176798,0.176797,0.174007,0.932759,0.000000,0.000000,0.000000,0.000000,0.000000,0.000000,0.000000,0.000000,0.000000,0.000000,0.000000,0.000000,0.205386,3,0
480000,0.002631,12.237704,-0.006025,0.016699,25.172314,0.028310,0.000102,0.002756,1.571342,-0.006689,-0.000086,-0.000017,0.000005,-0.000379,-0.000001,0.006476,-0.002711,0.192272,-0.055267,0.176403,0.176401,0.173272,0.927286,0.000000,0.000000,0.000000,0.000000,0.000000,0.000000,0.000000,0.000000,0.000000,0.000000,0.000000,0.000000,0.186637,3,0
490000,0.002720,12.496866,-0.005281,0.016971,25.184301,0.029552,0.000098,0.003036,1.571357,-0.007442,-0.000095,-0.000065,0.000006,-0.000434,-0.000002,0.010392,-0.002802,0.252944,0.015860,0.176110,0.176108,0.172635,0.921634,0.000000,0.000000,0.000000,0.000000,0.000000,0.000000,0.000000,0.000000,0.000000,0.000000,0.000000,0.000000,0.245535,3,0
500000,0.002809,12.752035,-0.005717,0.017255,25.190514,0.028992,0.000098,0.003177,1.571378,-0.007789,-0.000103,0.000014,0.000006,-0.000460,-0.000002,0.002171,-0.002894,0.112935,-0.025627,0.175911,0.175909,0.172087,0.915806,0.000000,0.000000,0.000000,0.000000,0.000000,0.000000,0.000000,0.000000,0.000000,0.000000,0.000000,0.000000,0.109660,3,0
510000,0.002897,13.008522,-0.005692,0.017416,25.198689,0.029219,0.000096,0.003360,1.571398,-0.008284,-0.000113,0.000044,0.000007,-0.000498,-0.000002,0.003947,-0.002984,0.155888,-0.009422,0.175800,0.175798,0.171623,0.909807,0.000000,0.000000,0.000000,0.000000,0.000000,0.000000,0.000000,0.000000,0.000000,0.000000,0.000000,0.000000,0.151348,3,0
520000,0.002985,13.267474,-0.004345,0.017643,25.210487,0.031135,0.000105,0.003653,1.571414,-0.009059,-0.000123,-0.000078,0.000008,-0.000558,-0.000002,0.009329,-0.003075,0.237260,0.036853,0.175769,0.175767,0.171234,0.903645,0.000000,0.000000,0.000000,0.000000,0.000000,0.000000,0.000000,0.000000,0.000000,0.000000,0.000000,0.000000,0.230329,3,0
530000,0.003072,13.523032,-0.003368,0.017890,25.217188,0.032705,0.000114,0.003805,1.571418,-0.009454,-0.000133,-0.000157,0.000009,-0.000590,-0.000002,0.002316,-0.003165,0.117343,0.023177,0.175813,0.175812,0.170915,0.897324,0.000000,0.000000,0.000000,0.000000,0.000000,0.000000,0.000000,0.000000,0.000000,0.000000,0.000000,0.000000,0.113946,3,0
540000,0.003159,13.781656,-0.004623,0.018044,25.228563,0.031231,0.000105,0.004083,1.571441,-0.010214,-0.000144,0.000038,0.000010,-0.000652,-0.000003,0.008303,-0.003254,0.219539,-0.055795,0.175926,0.175924,0.170659,0.890851,0.000000,0.000000,0.000000,0.000000,0.000000,0.000000,0.000000,0.000000,0.000000,0.000000,0.000000,0.000000,0.213125,3,0
550000,0.003246,14.041557,-0.004472,0.018359,25.241852,0.031531,0.000110,0.004431,1.571455,-0.011135,-0.000156,0.000058,0.000010,-0.000728,-0.000003,0.010858,-0.003344,0.258984,-0.005791,0.176102,0.176100,0.170461,0.884233,0.000000,0.000000,0.000000,0.000000,0.000000,0.000000,0.000000,0.000000,0.000000,0.000000,0.000000,0.000000,0.251404,3,0
560000,0.003332,14.300387,-0.003265,0.018586,25.253485,0.033140,0.000118,0.004728,1.571468,-0.011930,-0.000168,-0.000059,0.000012,-0.000796,-0.000003,0.007822,-0.003433,0.217617,0.031389,0.176335,0.176332,0.170314,0.877478,0.000000,0.000000,0.000000,0.000000,0.000000,0.000000,0.000000,0.000000,0.000000,0.000000,0.000000,0.000000,0.211248,3,0
570000,0.003418,14.556989,-0.004204,0.018775,25.261488,0.031824,0.000118,0.004924,1.571485,-0.012445,-0.000181,0.000111,0.000013,-0.000840,-0.000003,0.003390,-0.003521,0.137581,-0.044905,0.176620,0.176618,0.170215,0.870591,0.000000,0.000000,0.000000,0.000000,0.000000,0.000000,0.000000,0.000000,0.000000,0.000000,0.000000,0.000000,0.133574,3,0
580000,0.003503,14.814315,-0.003590,0.018976,25.270620,0.032953,0.000107,0.005159,1.571506,-0.013057,-0.000195,0.000071,0.000014,-0.000894,-0.000004,0.004119,-0.003609,0.159204,0.010247,0.176953,0.176950,0.170158,0.863581,0.000000,0.000000,0.000000,0.000000,0.000000,0.000000,0.000000,0.000000,0.000000,0.000000,0.000000,0.000000,0.154548,3,0
590000,0.003588,15.071184,-0.003494,0.019260,25.278885,0.033342,0.000111,0.005378,1.571524,-0.013609,-0.000209,0.000104,0.000015,-0.000944,-0.000004,0.003199,-0.003697,0.140335,-0.008434,0.177328,0.177325,0.170139,0.856455,0.000000,0.000000,0.000000,0.000000,0.000000,0.000000,0.000000,0.000000,0.000000,0.000000,0.000000,0.000000,0.136235,3,0
600000,0.003673,15.328779,-0.002500,0.019506,25.288380,0.034982,0.000112,0.005627,1.571548,-0.014259,-0.000225,0.000009,0.000017,-0.001004,-0.000004,0.004317,-0.003785,0.161686,0.023126,0.177742,0.177739,0.170153,0.849221,0.000000,0.000000,0.000000,0.000000,0.000000,0.000000,0.000000,0.000000,0.000000,0.000000,0.000000,0.000000,0.156940,3,0
610000,0.003757,15.585322,-0.003136,0.019710,25.296034,0.034194,0.000105,0.005826,1.571568,-0.014764,-0.000240,0.000155,0.000018,-0.001051,-0.000004,0.002633,-0.003872,0.122664,-0.034930,0.178191,0.178188,0.170196,0.841888,0.000000,0.000000,0.000000,0.000000,0.000000,0.000000,0.000000,0.000000,0.000000,0.000000,0.000000,0.000000,0.119081,3,0
620000,0.003840,15.845557,-0.002318,0.019901,25.309729,0.035299,0.000110,0.006225,1.571580,-0.015789,-0.000257,0.000082,0.000020,-0.001149,-0.000005,0.009655,-0.003958,0.243743,0.016772,0.178669,0.178666,0.170265,0.834462,0.000000,0.000000,0.000000,0.000000,0.000000,0.000000,0.000000,0.000000,0.000000,0.000000,0.000000,0.000000,0.236517,3,0
630000,0.003923,16.104706,-0.002597,0.020158,25.321594,0.034787,0.000110,0.006579,1.571603,-0.016657,-0.000274,0.000179,0.000021,-0.001233,-0.000005,0.006683,-0.004043,0.202040,-0.022304,0.179175,0.179171,0.170357,0.826953,0.000000,0.000000,0.000000,0.000000,0.000000,0.000000,0.000000,0.000000,0.000000,0.000000,0.000000,0.000000,0.196046,3,0
640000,0.004005,16.361586,-0.002885,0.020333,25.329531,0.034284,0.000112,0.006810,1.571618,-0.017190,-0.000292,0.000279,0.000023,-0.001286,-0.000005,0.002478,-0.004128,0.121681,-0.022463,0.179703,0.179700,0.170466,0.819368,0.000000,0.000000,0.000000,0.000000,0.000000,0.000000,0.000000,0.000000,0.000000,0.000000,0.000000,0.000000,0.118104,3,0
650000,0.004086,16.618002,-0.004160,0.020580,25.336552,0.032372,0.000102,0.007000,1.571630,-0.017651,-0.000310,0.000540,0.000025,-0.001333,-0.000005,0.002253,-0.004212,0.103270,-0.057013,0.180252,0.180248,0.170592,0.811716,0.000000,0.000000,0.000000,0.000000,0.000000,0.000000,0.000000,0.000000,0.000000,0.000000,0.000000,0.000000,0.100250,3,0
660000,0.004166,16.875755,-0.004000,0.020660,25.345913,0.032656,0.000104,0.007274,1.571645,-0.018311,-0.000330,0.000566,0.000027,-0.001400,-0.000006,0.003405,-0.004295,0.144964,-0.005849,0.180817,0.180813,0.170730,0.804004,0.000000,0.000000,0.000000,0.000000,0.000000,0.000000,0.000000,0.000000,0.000000,0.000000,0.000000,0.000000,0.140658,3,0
670000,0.004244,17.134836,-0.004402,0.020856,25.357376,0.031951,0.000092,0.007624,1.571666,-0.019170,-0.000350,0.000687,0.000029,-0.001490,-0.000006,0.005659,-0.004376,0.185301,-0.025591,0.181396,0.181392,0.170878,0.796241,0.000000,0.000000,0.000000,0.000000,0.000000,0.000000,0.000000,0.000000,0.000000,0.000000,0.000000,0.000000,0.179749,3,0
680000,0.004322,17.394630,-0.004308,0.021066,25.369968,0.032244,0.000088,0.008030,1.571673,-0.020134,-0.000370,0.000725,0.000031,-0.001593,-0.000006,0.006766,-0.004457,0.204411,-0.007995,0.181986,0.181982,0.171034,0.788434,0.000000,0.000000,0.000000,0.000000,0.000000,0.000000,0.000000,0.000000,0.000000,0.000000,0.000000,0.000000,0.198257,3,0
690000,0.004399,17.654526,-0.005292,0.021219,25.382526,0.030942,0.000089,0.008425,1.571681,-0.021107,-0.000392,0.000951,0.000033,-0.001699,-0.000007,0.006998,-0.004537,0.202917,-0.045881,0.182585,0.182581,0.171195,0.780592,0.000000,0.000000,0.000000,0.000000,0.000000,0.000000,0.000000,0.000000,0.000000,0.000000,0.000000,0.000000,0.196790,3,0
700000,0.004473,17.915731,-0.005380,0.021294,25.397223,0.031015,0.000076,0.008903,1.571693,-0.022282,-0.000414,0.001020,0.000036,-0.001828,-0.000007,0.009426,-0.004614,0.241079,-0.013943,0.183190,0.183185,0.171359,0.772723,0.000000,0.000000,0.000000,0.000000,0.000000,0.000000,0.000000,0.000000,0.000000,0.000000,0.000000,0.000000,0.233762,3,0
710000,0.004546,18.174582,-0.004032,0.021450,25.407650,0.033191,0.000075,0.009231,1.571710,-0.023067,-0.000437,0.000832,0.000038,-0.001916,-0.000008,0.004282,-0.004690,0.158638,0.036198,0.183799,0.183794,0.171523,0.764833,0.000000,0.000000,0.000000,0.000000,0.000000,0.000000,0.000000,0.000000,0.000000,0.000000,0.000000,0.000000,0.153847,3,0
720000,0.004619,18.434153,-0.005335,0.021583,25.419333,0.031121,0.000064,0.009611,1.571733,-0.023962,-0.000461,0.001130,0.000041,-0.002019,-0.000008,0.005649,-0.004765,0.177986,-0.057117,0.184410,0.184405,0.171687,0.756931,0.000000,0.000000,0.000000,0.000000,0.000000,0.000000,0.000000,0.000000,0.000000,0.000000,0.000000,0.000000,0.172576,3,0
730000,0.004689,18.691978,-0.004234,0.021736,25.427717,0.032827,0.000066,0.009882,1.571747,-0.024559,-0.000485,0.000982,0.000044,-0.002088,-0.000008,0.002341,-0.004839,0.117088,0.027508,0.185021,0.185016,0.171848,0.749025,0.000000,0.000000,0.000000,0.000000,0.000000,0.000000,0.000000,0.000000,0.000000,0.000000,0.000000,0.000000,0.113575,3,0
740000,0.004757,18.949917,-0.003587,0.021750,25.436357,0.033623,0.000066,0.010165,1.571759,-0.025167,-0.000510,0.000920,0.000047,-0.002160,-0.000009,0.002258,-0.004909,0.117601,0.011104,0.185630,0.185625,0.172005,0.741120,0.000000,0.000000,0.000000,0.000000,0.000000,0.000000,0.000000,0.000000,0.000000,0.000000,0.000000,0.000000,0.114063,3,0
750000,0.004824,19.211666,-0.003217,0.021857,25.451380,0.034137,0.000050,0.010709,1.571770,-0.026411,-0.000536,0.000911,0.000050,-0.002309,-0.000009,0.009097,-0.004978,0.237280,0.001243,0.186236,0.186231,0.172157,0.733224,0.000000,0.000000,0.000000,0.000000,0.000000,0.000000,0.000000,0.000000,0.000000,0.000000,0.000000,0.000000,0.229966,3,0
760000,0.004889,19.471006,-0.003737,0.021959,25.462017,0.033475,0.000038,0.011075,1.571795,-0.027230,-0.000562,0.001077,0.000053,-0.002410,-0.000010,0.003994,-0.005046,0.154289,-0.030077,0.186837,0.186831,0.172301,0.725343,0.000000,0.000000,0.000000,0.000000,0.000000,0.000000,0.000000,0.000000,0.000000,0.000000,0.000000,0.000000,0.149565,3,0
770000,0.004953,19.732302,-0.004692,0.022038,25.475962,0.031999,0.000026,0.011570,1.571802,-0.028375,-0.000590,0.001329,0.000056,-0.002553,-0.000010,0.007648,-0.005112,0.212904,-0.044820,0.187432,0.187426,0.172438,0.717485,0.000000,0.000000,0.000000,0.000000,0.000000,0.000000,0.000000,0.000000,0.000000,0.000000,0.000000,0.000000,0.206311,3,0
780000,0.005014,19.994907,-0.003897,0.022105,25.492022,0.033109,0.000015,0.012175,1.571817,-0.029733,-0.000617,0.001230,0.000060,-0.002724,-0.000011,0.010111,-0.005177,0.249651,0.016665,0.188020,0.188014,0.172565,0.709655,0.000000,0.000000,0.000000,0.000000,0.000000,0.000000,0.000000,0.000000,0.000000,0.000000,0.000000,0.000000,0.241881,3,0
790000,0.005073,20.253189,-0.003372,0.022079,25.500372,0.033891,-0.000001,0.012447,1.571823,-0.030317,-0.000646,0.001189,0.000064,-0.002799,-0.000011,0.001831,-0.005238,0.106157,0.006654,0.188600,0.188593,0.172682,0.701860,0.000000,0.000000,0.000000,0.000000,0.000000,0.000000,0.000000,0.000000,0.000000,0.000000,0.000000,0.000000,0.102946,3,0
800000,0.005132,20.513447,-0.004322,0.022231,25.512022,0.032487,-0.000009,0.012883,1.571836,-0.031241,-0.000675,0.001452,0.000067,-0.002920,-0.000012,0.004769,-0.005299,0.165855,-0.044742,0.189170,0.189163,0.172789,0.694105,0.000000,0.000000,0.000000,0.000000,0.000000,0.000000,0.000000,0.000000,0.000000,0.000000,0.000000,0.000000,0.160707,3,0
810000,0.005189,20.773777,-0.005599,0.022302,25.523720,0.030456,-0.000021,0.013320,1.571853,-0.032163,-0.000705,0.001783,0.000071,-0.003043,-0.000012,0.004840,-0.005358,0.163906,-0.055530,0.189730,0.189722,0.172884,0.686396,0.000000,0.000000,0.000000,0.000000,0.000000,0.000000,0.000000,0.000000,0.000000,0.000000,0.000000,0.000000,0.158807,3,0
820000,0.005244,21.032282,-0.004325,0.022376,25.532087,0.032445,-0.000023,0.013616,1.571874,-0.032743,-0.000735,0.001577,0.000075,-0.003121,-0.000013,0.001874,-0.005416,0.102247,0.033583,0.190279,0.190271,0.172967,0.678738,0.000000,0.000000,0.000000,0.000000,0.000000,0.000000,0.000000,0.000000,0.000000,0.000000,0.000000,0.000000,0.099145,3,0
830000,0.005296,21.292139,-0.003264,0.022333,25.542723,0.033972,-0.000040,0.014006,1.571898,-0.033556,-0.000766,0.001417,0.000080,-0.003233,-0.000013,0.003357,-0.005470,0.141842,0.025560,0.190816,0.190808,0.173037,0.671136,0.000000,0.000000,0.000000,0.000000,0.000000,0.000000,0.000000,0.000000,0.000000,0.000000,0.000000,0.000000,0.137435,3,0
840000,0.005347,21.554602,-0.002383,0.022435,25.557732,0.035399,-0.000044,0.014599,1.571916,-0.034829,-0.000798,0.001295,0.000084,-0.003410,-0.000014,0.007859,-0.005523,0.219822,0.018839,0.191342,0.191334,0.173095,0.663595,0.000000,0.000000,0.000000,0.000000,0.000000,0.000000,0.000000,0.000000,0.000000,0.000000,0.000000,0.000000,0.212880,3,0
850000,0.005397,21.813923,-0.003065,0.022462,25.567015,0.034461,-0.000062,0.014939,1.571937,-0.035508,-0.000830,0.001520,0.000089,-0.003507,-0.000014,0.002394,-0.005575,0.116240,-0.035943,0.191855,0.191846,0.173138,0.656119,0.000000,0.000000,0.000000,0.000000,0.000000,0.000000,0.000000,0.000000,0.000000,0.000000,0.000000,0.000000,0.112651,3,0
860000,0.005443,22.077139,-0.001704,0.022423,25.583153,0.036359,-0.000077,0.015589,1.571959,-0.036889,-0.000862,0.001289,0.000093,-0.003705,-0.000015,0.009081,-0.005624,0.234522,0.035408,0.192355,0.192346,0.173169,0.648712,0.000000,0.000000,0.000000,0.000000,0.000000,0.000000,0.000000,0.000000,0.000000,0.000000,0.000000,0.000000,0.227070,3,0
870000,0.005489,22.337820,-0.001010,0.022503,25.594522,0.037380,-0.000082,0.016032,1.571980,-0.037780,-0.000896,0.001211,0.000098,-0.003835,-0.000016,0.003659,-0.005672,0.150055,0.011492,0.192842,0.192833,0.173185,0.641379,0.000000,0.000000,0.000000,0.000000,0.000000,0.000000,0.000000,0.000000,0.000000,0.000000,0.000000,0.000000,0.145337,3,0
880000,0.005533,22.596634,-0.001311,0.022465,25.602512,0.036925,-0.000095,0.016321,1.571988,-0.038308,-0.000930,0.001362,0.000103,-0.003914,-0.000016,0.001345,-0.005717,0.088047,-0.023430,0.193316,0.193306,0.173187,0.634122,0.000000,0.000000,0.000000,0.000000,0.000000,0.000000,0.000000,0.000000,0.000000,0.000000,0.000000,0.000000,0.085388,3,0
890000,0.005576,22.858089,-0.002659,0.022472,25.615128,0.034945,-0.000105,0.016832,1.572012,-0.039316,-0.000964,0.001751,0.000108,-0.004067,-0.000017,0.005080,-0.005761,0.167095,-0.059416,0.193776,0.193766,0.173174,0.626947,0.000000,0.000000,0.000000,0.000000,0.000000,0.000000,0.000000,0.000000,0.000000,0.000000,0.000000,0.000000,0.161792,3,0
900000,0.005616,23.118290,-0.002071,0.022566,25.625257,0.035713,-0.000109,0.017224,1.572023,-0.040070,-0.000999,0.001693,0.000114,-0.004182,-0.000017,0.002504,-0.005805,0.124182,0.008316,0.194223,0.194213,0.173148,0.619855,0.000000,0.000000,0.000000,0.000000,0.000000,0.000000,0.000000,0.000000,0.000000,0.000000,0.000000,0.000000,0.120294,3,0
910000,0.005657,23.376610,-0.003338,0.022568,25.631985,0.033976,-0.000117,0.017449,1.572035,-0.040453,-0.001035,0.002072,0.000119,-0.004243,-0.000018,0.001154,-0.005845,0.062668,-0.056398,0.194656,0.194646,0.173107,0.612849,0.000000,0.000000,0.000000,0.000000,0.000000,0.000000,0.000000,0.000000,0.000000,0.000000,0.000000,0.000000,0.060896,3,0
920000,0.005694,23.638229,-0.002238,0.022571,25.644470,0.035424,-0.000131,0.017970,1.572060,-0.041450,-0.001070,0.001887,0.000125,-0.004400,-0.000018,0.004357,-0.005886,0.162102,0.026511,0.195076,0.195065,0.173053,0.605933,0.000000,0.000000,0.000000,0.000000,0.000000,0.000000,0.000000,0.000000,0.000000,0.000000,0.000000,0.000000,0.156937,3,0
930000,0.005731,23.897291,-0.003140,0.022585,25.652285,0.033944,-0.000152,0.018261,1.572077,-0.041941,-0.001107,0.002185,0.000131,-0.004480,-0.000019,0.001326,-0.005923,0.079268,-0.043561,0.195482,0.195471,0.172984,0.599108,0.000000,0.000000,0.000000,0.000000,0.000000,0.000000,0.000000,0.000000,0.000000,0.000000,0.000000,0.000000,0.076897,3,0
940000,0.005765,24.157709,-0.003213,0.022559,25.662416,0.033940,-0.000162,0.018660,1.572100,-0.042678,-0.001143,0.002281,0.000136,-0.004600,-0.000019,0.002295,-0.005960,0.118309,-0.014283,0.195875,0.195864,0.172901,0.592377,0.000000,0.000000,0.000000,0.000000,0.000000,0.000000,0.000000,0.000000,0.000000,0.000000,0.000000,0.000000,0.114592,3,0
950000,0.005799,24.420771,-0.004166,0.022541,25.676941,0.032583,-0.000182,0.019301,1.572114,-0.043903,-0.001180,0.002589,0.000142,-0.004804,-0.000020,0.006505,-0.005994,0.195732,-0.044654,0.196256,0.196244,0.172805,0.585742,0.000000,0.000000,0.000000,0.000000,0.000000,0.000000,0.000000,0.000000,0.000000,0.000000,0.000000,0.000000,0.189416,3,0
960000,0.005829,24.679924,-0.004211,0.022430,25.684486,0.032606,-0.000193,0.019576,1.572119,-0.044354,-0.001218,0.002679,0.000149,-0.004880,-0.000020,0.000861,-0.006026,0.071676,-0.012966,0.196623,0.196611,0.172695,0.579205,0.000000,0.000000,0.000000,0.000000,0.000000,0.000000,0.000000,0.000000,0.000000,0.000000,0.000000,0.000000,0.069571,3,0
970000,0.005857,24.940432,-0.002764,0.022342,25.694193,0.034612,-0.000215,0.019969,1.572129,-0.045053,-0.001256,0.002395,0.000155,-0.004999,-0.000021,0.002226,-0.006056,0.110632,0.039084,0.196978,0.196965,0.172572,0.572766,0.000000,0.000000,0.000000,0.000000,0.000000,0.000000,0.000000,0.000000,0.000000,0.000000,0.000000,0.000000,0.107162,3,0
980000,0.005884,25.201628,-0.002447,0.022378,25.705019,0.034923,-0.000231,0.020436,1.572146,-0.045868,-0.001294,0.002396,0.000162,-0.005140,-0.000022,0.002661,-0.006084,0.128332,-0.000859,0.197321,0.197307,0.172435,0.566429,0.000000,0.000000,0.000000,0.000000,0.000000,0.000000,0.000000,0.000000,0.000000,0.000000,0.000000,0.000000,0.124251,3,0
990000,0.005910,25.465462,-0.001080,0.022426,25.720348,0.036625,-0.000250,0.021136,1.572173,-0.047174,-0.001332,0.002127,0.000169,-0.005369,-0.000023,0.006985,-0.006112,0.204969,0.035807,0.197651,0.197638,0.172287,0.560193,0.000000,0.000000,0.000000,0.000000,0.000000,0.000000,0.000000,0.000000,0.000000,0.000000,0.000000,0.000000,0.198307,3,0
1000000,0.005934,25.724691,-0.002164,0.022297,25.727411,0.035179,-0.000278,0.021388,1.572185,-0.047561,-0.001371,0.002497,0.000176,-0.005440,-0.000023,0.001006,-0.006136,0.060255,-0.050652,0.197970,0.197956,0.172126,0.554060,0.000000,0.000000,0.000000,0.000000,0.000000,0.000000,0.000000,0.000000,0.000000,0.000000,0.000000,0.000000,0.058565,3,0
1010000,0.005957,25.983961,-0.001326,0.022248,25.734419,0.036252,-0.000287,0.021654,1.572192,-0.047942,-0.001411,0.002369,0.000183,-0.005508,-0.000023,0.000621,-0.006160,0.059381,0.016987,0.198279,0.198264,0.171952,0.548031,0.000000,0.000000,0.000000,0.000000,0.000000,0.000000,0.000000,0.000000,0.000000,0.000000,0.000000,0.000000,0.057729,3,0
1020000,0.005978,26.246571,-0.002325,0.022158,25.747295,0.034957,-0.000311,0.022239,1.572204,-0.048960,-0.001450,0.002717,0.000190,-0.005697,-0.000024,0.004385,-0.006182,0.157858,-0.047402,0.198576,0.198561,0.171767,0.542106,0.000000,0.000000,0.000000,0.000000,0.000000,0.000000,0.000000,0.000000,0.000000,0.000000,0.000000,0.000000,0.152747,3,0
1030000,0.005996,26.510489,-0.002143,0.022021,25.762344,0.035229,-0.000330,0.022952,1.572228,-0.050211,-0.001490,0.002750,0.000197,-0.005931,-0.000025,0.006032,-0.006202,0.193302,-0.005533,0.198863,0.198847,0.171571,0.536286,0.000000,0.000000,0.000000,0.000000,0.000000,0.000000,0.000000,0.000000,0.000000,0.000000,0.000000,0.000000,0.186992,3,0
1040000,0.006013,26.773060,-0.002223,0.021945,25.774782,0.034993,-0.000340,0.023529,1.572238,-0.051170,-0.001529,0.002856,0.000205,-0.006113,-0.000026,0.003567,-0.006219,0.147902,-0.014891,0.199140,0.199124,0.171364,0.530571,0.000000,0.000000,0.000000,0.000000,0.000000,0.000000,0.000000,0.000000,0.000000,0.000000,0.000000,0.000000,0.143118,3,0
1050000,0.006028,27.034298,-0.002221,0.021867,25.784744,0.034865,-0.000356,0.023949,1.572261,-0.051846,-0.001570,0.002944,0.000213,-0.006244,-0.000026,0.001768,-0.006235,0.103874,-0.012044,0.199407,0.199391,0.171147,0.524962,0.000000,0.000000,0.000000,0.000000,0.000000,0.000000,0.000000,0.000000,0.000000,0.000000,0.000000,0.000000,0.100603,3,0
1060000,0.006041,27.295544,-0.001837,0.021734,25.794655,0.035328,-0.000373,0.024376,1.572278,-0.052504,-0.001610,0.002928,0.000221,-0.006373,-0.000027,0.001649,-0.006249,0.100964,0.001378,0.199666,0.199648,0.170919,0.519459,0.000000,0.000000,0.000000,0.000000,0.000000,0.000000,0.000000,0.000000,0.000000,0.000000,0.000000,0.000000,0.097792,3,0
1070000,0.006052,27.556797,-0.001595,0.021582,25.804358,0.035694,-0.000386,0.024801,1.572285,-0.053145,-0.001650,0.002952,0.000229,-0.006500,-0.000028,0.001557,-0.006261,0.098043,-0.003831,0.199915,0.199898,0.170681,0.514061,0.000000,0.000000,0.000000,0.000000,0.000000,0.000000,0.000000,0.000000,0.000000,0.000000,0.000000,0.000000,0.094969,3,0
1080000,0.006060,27.818714,-0.000475,0.021418,25.815083,0.037050,-0.000404,0.025286,1.572306,-0.053897,-0.001691,0.002733,0.000237,-0.006651,-0.000028,0.002256,-0.006270,0.114996,0.027093,0.200157,0.200139,0.170434,0.508768,0.000000,0.000000,0.000000,0.000000,0.000000,0.000000,0.000000,0.000000,0.000000,0.000000,0.000000,0.000000,0.111327,3,0
1090000,0.006067,28.077307,-0.000554,0.021284,25.819773,0.036780,-0.000433,0.025406,1.572317,-0.053976,-0.001732,0.002859,0.000245,-0.006667,-0.000028,0.000071,-0.006277,0.012005,-0.015941,0.200391,0.200372,0.170178,0.503579,0.000000,0.000000,0.000000,0.000000,0.000000,0.000000,0.000000,0.000000,0.000000,0.000000,0.000000,0.000000,0.013093,3,0
1100000,0.006074,28.340595,-0.001030,0.021255,25.832823,0.036036,-0.000454,0.026028,1.572333,-0.054968,-0.001773,0.003085,0.000254,-0.006874,-0.000029,0.003817,-0.006284,0.150940,-0.029462,0.200618,0.200598,0.169914,0.498496,0.000000,0.000000,0.000000,0.000000,0.000000,0.000000,0.000000,0.000000,0.000000,0.000000,0.000000,0.000000,0.146018,3,0
1110000,0.006079,28.601187,-0.000185,0.021197,25.840900,0.037195,-0.000475,0.026353,1.572353,-0.055405,-0.001814,0.002943,0.000262,-0.006965,-0.000030,0.000765,-0.006290,0.066431,0.017179,0.200837,0.200817,0.169641,0.493517,0.000000,0.000000,0.000000,0.000000,0.000000,0.000000,0.000000,0.000000,0.000000,0.000000,0.000000,0.000000,0.064496,3,0
1120000,0.006083,28.861788,0.000388,0.021210,25.848848,0.037871,-0.000498,0.026669,1.572364,-0.055828,-0.001855,0.002880,0.000271,-0.007056,-0.000030,0.000678,-0.006294,0.064186,0.007181,0.201051,0.201030,0.169361,0.488641,0.000000,0.000000,0.000000,0.000000,0.000000,0.000000,0.000000,0.000000,0.000000,0.000000,0.000000,0.000000,0.062334,3,0
1130000,0.006087,29.120396,0.000359,0.021124,25.853165,0.037789,-0.000515,0.026764,1.572383,-0.055843,-0.001896,0.003000,0.000280,-0.007059,-0.000030,0.000042,-0.006298,0.002295,-0.014647,0.201258,0.201236,0.169074,0.483867,0.000000,0.000000,0.000000,0.000000,0.000000,0.000000,0.000000,0.000000,0.000000,0.000000,0.000000,0.000000,0.006478,3,0
1140000,0.006091,29.379713,-0.001083,0.021059,25.858641,0.035849,-0.000543,0.026942,1.572387,-0.055989,-0.001938,0.003529,0.000289,-0.007093,-0.000031,0.000763,-0.006302,0.021948,-0.064768,0.201460,0.201438,0.168779,0.479196,0.000000,0.000000,0.000000,0.000000,0.000000,0.000000,0.000000,0.000000,0.000000,0.000000,0.000000,0.000000,0.022062,3,0
1150000,0.006092,29.643723,-0.000414,0.020908,25.872364,0.036505,-0.000569,0.027634,1.572411,-0.057045,-0.001979,0.003422,0.000298,-0.007329,-0.000032,0.004159,-0.006304,0.160154,0.011551,0.201657,0.201634,0.168478,0.474625,0.000000,0.000000,0.000000,0.000000,0.000000,0.000000,0.000000,0.000000,0.000000,0.000000,0.000000,0.000000,0.154894,3,0
1160000,0.006090,29.906343,0.000786,0.020721,25.883499,0.037952,-0.000590,0.028164,1.572426,-0.057801,-0.002020,0.003164,0.000308,-0.007499,-0.000032,0.002271,-0.006303,0.114674,0.030094,0.201850,0.201825,0.168171,0.470156,0.000000,0.000000,0.000000,0.000000,0.000000,0.000000,0.000000,0.000000,0.000000,0.000000,0.000000,0.000000,0.110986,3,0
1170000,0.006090,30.166269,-0.000658,0.020688,25.889801,0.036152,-0.000617,0.028384,1.572437,-0.058006,-0.002062,0.003707,0.000317,-0.007548,-0.000033,0.000850,-0.006301,0.030853,-0.065277,0.202038,0.202013,0.167858,0.465785,0.000000,0.000000,0.000000,0.000000,0.000000,0.000000,0.000000,0.000000,0.000000,0.000000,0.000000,0.000000,0.030422,3,0
1180000,0.006088,30.424866,-0.001941,0.020535,25.893566,0.034405,-0.000638,0.028430,1.572439,-0.057938,-0.002104,0.004206,0.000326,-0.007534,-0.000033,0.000590,-0.006299,-0.010468,-0.059106,0.202222,0.202196,0.167540,0.461513,0.000000,0.000000,0.000000,0.000000,0.000000,0.000000,0.000000,0.000000,0.000000,0.000000,0.000000,0.000000,0.011812,3,0
1190000,0.006085,30.684160,-0.002406,0.020508,25.898529,0.033917,-0.000666,0.028561,1.572453,-0.058000,-0.002145,0.004453,0.000336,-0.007550,-0.000033,0.000158,-0.006297,0.009201,-0.029221,0.202403,0.202376,0.167216,0.457337,0.000000,0.000000,0.000000,0.000000,0.000000,0.000000,0.000000,0.000000,0.000000,0.000000,0.000000,0.000000,0.010770,3,0
1200000,0.006080,30.946154,-0.001893,0.020437,25.908150,0.034389,-0.000684,0.029004,1.572460,-0.058578,-0.002186,0.004389,0.000346,-0.007688,-0.000034,0.001255,-0.006293,0.087799,0.006564,0.202581,0.202553,0.166888,0.453258,0.000000,0.000000,0.000000,0.000000,0.000000,0.000000,0.000000,0.000000,0.000000,0.000000,0.000000,0.000000,0.085053,3,0
1210000,0.006075,31.205435,-0.001226,0.020339,25.912899,0.035285,-0.000709,0.029115,1.572475,-0.058608,-0.002227,0.004291,0.000356,-0.007695,-0.000034,0.000031,-0.006288,0.004618,0.011473,0.202756,0.202727,0.166556,0.449273,0.000000,0.000000,0.000000,0.000000,0.000000,0.000000,0.000000,0.000000,0.000000,0.000000,0.000000,0.000000,0.007538,3,0
1220000,0.006069,31.466080,-0.001372,0.020284,25.919941,0.034920,-0.000727,0.029389,1.572484,-0.058895,-0.002269,0.004441,0.000366,-0.007767,-0.000034,0.000363,-0.006281,0.043474,-0.017913,0.202929,0.202899,0.166220,0.445382,0.000000,0.000000,0.000000,0.000000,0.000000,0.000000,0.000000,0.000000,0.000000,0.000000,0.000000,0.000000,0.042438,3,0
1230000,0.006062,31.729406,-0.000537,0.020151,25.931744,0.036000,-0.000759,0.029970,1.572490,-0.059687,-0.002309,0.004274,0.000376,-0.007965,-0.000035,0.002405,-0.006275,0.120699,0.017956,0.203100,0.203069,0.165881,0.441583,0.000000,0.000000,0.000000,0.000000,0.000000,0.000000,0.000000,0.000000,0.000000,0.000000,0.000000,0.000000,0.116775,3,0
1240000,0.006055,31.987980,-0.001122,0.020123,25.934893,0.035287,-0.000779,0.029972,1.572499,-0.059534,-0.002351,0.004578,0.000387,-0.007927,-0.000035,0.000289,-0.006267,-0.023472,-0.034551,0.203269,0.203237,0.165538,0.437875,0.000000,0.000000,0.000000,0.000000,0.000000,0.000000,0.000000,0.000000,0.000000,0.000000,0.000000,0.000000,0.023477,3,0
1250000,0.006046,32.247921,-0.000463,0.019964,25.940462,0.035978,-0.000807,0.030132,1.572510,-0.059639,-0.002391,0.004479,0.000397,-0.007954,-0.000035,0.000068,-0.006259,0.016106,0.011082,0.203437,0.203404,0.165192,0.434257,0.000000,0.000000,0.000000,0.000000,0.000000,0.000000,0.000000,0.000000,0.000000,0.000000,0.000000,0.000000,0.016694,3,0
1260000,0.006036,32.509884,0.000473,0.019874,25.949497,0.037277,-0.000829,0.030534,1.572520,-0.060124,-0.002432,0.004285,0.000408,-0.008080,-0.000036,0.000965,-0.006249,0.074173,0.021129,0.203603,0.203570,0.164844,0.430727,0.000000,0.000000,0.000000,0.000000,0.000000,0.000000,0.000000,0.000000,0.000000,0.000000,0.000000,0.000000,0.071913,3,0
1270000,0.006026,32.771828,-0.000582,0.019663,25.958321,0.035827,-0.000846,0.030939,1.572536,-0.060585,-0.002472,0.004739,0.000418,-0.008204,-0.000037,0.001243,-0.006236,0.070545,-0.051840,0.203769,0.203735,0.164494,0.427284,0.000000,0.000000,0.000000,0.000000,0.000000,0.000000,0.000000,0.000000,0.000000,0.000000,0.000000,0.000000,0.068408,3,0
1280000,0.006013,33.032383,-0.000085,0.019506,25.964718,0.036327,-0.000878,0.031143,1.572553,-0.060762,-0.002513,0.004690,0.000429,-0.008252,-0.000037,0.000129,-0.006225,0.027176,0.005083,0.203935,0.203899,0.164141,0.423927,0.000000,0.000000,0.000000,0.000000,0.000000,0.000000,0.000000,0.000000,0.000000,0.000000,0.000000,0.000000,0.026933,3,0
1290000,0.006000,33.292259,-0.001218,0.019299,25.969685,0.034856,-0.000903,0.031264,1.572570,-0.060797,-0.002553,0.005184,0.000440,-0.008264,-0.000037,0.000500,-0.006210,0.005108,-0.054929,0.204100,0.204064,0.163787,0.420653,0.000000,0.000000,0.000000,0.000000,0.000000,0.000000,0.000000,0.000000,0.000000,0.000000,0.000000,0.000000,0.007762,3,0
1300000,0.005985,33.551453,-0.001639,0.019185,25.973465,0.034289,-0.000935,0.031280,1.572583,-0.060692,-0.002594,0.005444,0.000451,-0.008236,-0.000037,0.000181,-0.006195,-0.016270,-0.028530,0.204266,0.204228,0.163432,0.417463,0.000000,0.000000,0.000000,0.000000,0.000000,0.000000,0.000000,0.000000,0.000000,0.000000,0.000000,0.000000,0.016821,3,0
1310000,0.005969,33.809978,-0.002145,0.018951,25.975954,0.033499,-0.000955,0.031218,1.572589,-0.060454,-0.002634,0.005735,0.000462,-0.008170,-0.000037,0.000387,-0.006178,-0.036957,-0.031535,0.204431,0.204392,0.163076,0.414353,0.000000,0.000000,0.000000,0.000000,0.000000,0.000000,0.000000,0.000000,0.000000,0.000000,0.000000,0.000000,0.036197,3,0
1320000,0.005951,34.070564,-0.003037,0.018771,25.981997,0.032379,-0.000988,0.031417,1.572609,-0.060600,-0.002674,0.006147,0.000473,-0.008214,-0.000037,0.000420,-0.006160,0.022552,-0.045268,0.204597,0.204557,0.162718,0.411323,0.000000,0.000000,0.000000,0.000000,0.000000,0.000000,0.000000,0.000000,0.000000,0.000000,0.000000,0.000000,0.022573,3,0
1330000,0.005933,34.333168,-0.004015,0.018656,25.991657,0.030884,-0.001017,0.031876,1.572623,-0.061115,-0.002714,0.006575,0.000484,-0.008365,-0.000038,0.001404,-0.006141,0.079971,-0.047693,0.204764,0.204722,0.162361,0.408372,0.000000,0.000000,0.000000,0.000000,0.000000,0.000000,0.000000,0.000000,0.000000,0.000000,0.000000,0.000000,0.077464,3,0
1340000,0.005913,34.593006,-0.004176,0.018473,25.996298,0.030650,-0.001051,0.031960,1.572631,-0.061091,-0.002753,0.006738,0.000495,-0.008359,-0.000038,0.000058,-0.006121,-0.003819,-0.017557,0.204931,0.204888,0.162002,0.405498,0.000000,0.000000,0.000000,0.000000,0.000000,0.000000,0.000000,0.000000,0.000000,0.000000,0.000000,0.000000,0.006971,3,0
1350000,0.005890,34.854874,-0.003733,0.018241,26.004412,0.031317,-0.001080,0.032308,1.572655,-0.061437,-0.002792,0.006682,0.000507,-0.008462,-0.000039,0.000486,-0.006099,0.054363,0.005233,0.205099,0.205055,0.161644,0.402699,0.000000,0.000000,0.000000,0.000000,0.000000,0.000000,0.000000,0.000000,0.000000,0.000000,0.000000,0.000000,0.052835,3,0
1360000,0.005868,35.113998,-0.004873,0.018108,26.007502,0.029843,-0.001109,0.032264,1.572669,-0.061256,-0.002831,0.007195,0.000518,-0.008410,-0.000039,0.000619,-0.006075,-0.028679,-0.054410,0.205269,0.205224,0.161286,0.399973,0.000000,0.000000,0.000000,0.000000,0.000000,0.000000,0.000000,0.000000,0.000000,0.000000,0.000000,0.000000,0.028325,3,0
1370000,0.005845,35.373116,-0.004586,0.017959,26.010452,0.030150,-0.001132,0.032210,1.572681,-0.061070,-0.002869,0.007206,0.000530,-0.008353,-0.000039,0.000145,-0.006052,-0.029411,-0.000730,0.205439,0.205393,0.160929,0.397320,0.000000,0.000000,0.000000,0.000000,0.000000,0.000000,0.000000,0.000000,0.000000,0.000000,0.000000,0.000000,0.028999,3,0
1380000,0.005819,35.636318,-0.003744,0.017796,26.020714,0.031116,-0.001158,0.032736,1.572687,-0.061632,-0.002907,0.006997,0.000542,-0.008527,-0.000040,0.001355,-0.006026,0.089146,0.020713,0.205611,0.205564,0.160572,0.394738,0.000000,0.000000,0.000000,0.000000,0.000000,0.000000,0.000000,0.000000,0.000000,0.000000,0.000000,0.000000,0.086290,3,0
1390000,0.005794,35.899471,-0.004219,0.017677,26.030842,0.030301,-0.001182,0.033253,1.572706,-0.062161,-0.002944,0.007260,0.000554,-0.008696,-0.000040,0.001284,-0.006000,0.084263,-0.028908,0.205785,0.205736,0.160216,0.392226,0.000000,0.000000,0.000000,0.000000,0.000000,0.000000,0.000000,0.000000,0.000000,0.000000,0.000000,0.000000,0.081574,3,0
1400000,0.005767,36.163235,-0.003711,0.017431,26.041914,0.030879,-0.001208,0.033835,1.572723,-0.062781,-0.002981,0.007165,0.000565,-0.008894,-0.000041,0.001605,-0.005972,0.099316,0.008322,0.205960,0.205909,0.159861,0.389783,0.000000,0.000000,0.000000,0.000000,0.000000,0.000000,0.000000,0.000000,0.000000,0.000000,0.000000,0.000000,0.096082,3,0
1410000,0.005739,36.423519,-0.003831,0.017209,26.046629,0.030718,-0.001241,0.033918,1.572739,-0.062747,-0.003018,0.007323,0.000577,-0.008884,-0.000041,0.000054,-0.005943,-0.005531,-0.016339,0.206136,0.206084,0.159507,0.387407,0.000000,0.000000,0.000000,0.000000,0.000000,0.000000,0.000000,0.000000,0.000000,0.000000,0.000000,0.000000,0.007842,3,0
1420000,0.005711,36.682426,-0.004828,0.017069,26.048714,0.029345,-0.001272,0.033781,1.572743,-0.062456,-0.003055,0.007809,0.000589,-0.008791,-0.000041,0.000764,-0.005913,-0.047195,-0.049637,0.206315,0.206261,0.159155,0.385095,0.000000,0.000000,0.000000,0.000000,0.000000,0.000000,0.000000,0.000000,0.000000,0.000000,0.000000,0.000000,0.045942,3,0
1430000,0.005681,36.945427,-0.004507,0.016872,26.058033,0.029542,-0.001313,0.034229,1.572755,-0.062896,-0.003091,0.007782,0.000601,-0.008938,-0.000042,0.000831,-0.005884,0.071579,0.001556,0.206494,0.206440,0.158804,0.382846,0.000000,0.000000,0.000000,0.000000,0.000000,0.000000,0.000000,0.000000,0.000000,0.000000,0.000000,0.000000,0.069348,3,0
1440000,0.005651,37.208366,-0.004926,0.016749,26.067133,0.028975,-0.001349,0.034679,1.572779,-0.063306,-0.003127,0.008030,0.000613,-0.009079,-0.000043,0.000841,-0.005852,0.066914,-0.026631,0.206676,0.206620,0.158455,0.380660,0.000000,0.000000,0.000000,0.000000,0.000000,0.000000,0.000000,0.000000,0.000000,0.000000,0.000000,0.000000,0.064849,3,0
1450000,0.005621,37.468506,-0.005556,0.016609,26.071156,0.028249,-0.001375,0.034703,1.572792,-0.063202,-0.003163,0.008377,0.000625,-0.009045,-0.000043,0.000254,-0.005821,-0.017212,-0.035191,0.206860,0.206802,0.158109,0.378535,0.000000,0.000000,0.000000,0.000000,0.000000,0.000000,0.000000,0.000000,0.000000,0.000000,0.000000,0.000000,0.017553,3,0
1460000,0.005589,37.731361,-0.005996,0.016333,26.080029,0.027705,-0.001404,0.035112,1.572814,-0.063569,-0.003198,0.008633,0.000637,-0.009175,-0.000043,0.000715,-0.005788,0.060555,-0.027109,0.207045,0.206986,0.157764,0.376470,0.000000,0.000000,0.000000,0.000000,0.000000,0.000000,0.000000,0.000000,0.000000,0.000000,0.000000,0.000000,0.058727,3,0
1470000,0.005556,37.989357,-0.007200,0.016072,26.080057,0.026465,-0.001427,0.034796,1.572823,-0.063070,-0.003234,0.009214,0.000649,-0.009002,-0.000043,0.001652,-0.005753,-0.083122,-0.057389,0.207232,0.207171,0.157421,0.374465,0.000000,0.000000,0.000000,0.000000,0.000000,0.000000,0.000000,0.000000,0.000000,0.000000,0.000000,0.000000,0.080457,3,0
1480000,0.005520,38.250778,-0.005974,0.015883,26.086231,0.027787,-0.001462,0.034974,1.572826,-0.063169,-0.003267,0.008846,0.000662,-0.009035,-0.000043,0.000270,-0.005719,0.016705,0.036788,0.207421,0.207359,0.157081,0.372515,0.000000,0.000000,0.000000,0.000000,0.000000,0.000000,0.000000,0.000000,0.000000,0.000000,0.000000,0.000000,0.017054,3,0
1490000,0.005484,38.512844,-0.005027,0.015728,26.093407,0.028906,-0.001491,0.035239,1.572830,-0.063368,-0.003300,0.008583,0.000674,-0.009106,-0.000044,0.000294,-0.005681,0.033527,0.025796,0.207612,0.207548,0.156743,0.370621,0.000000,0.000000,0.000000,0.000000,0.000000,0.000000,0.000000,0.000000,0.000000,0.000000,0.000000,0.000000,0.032836,3,0
1500000,0.005448,38.774174,-0.004660,0.015585,26.099150,0.029276,-0.001524,0.035398,1.572851,-0.063427,-0.003333,0.008552,0.000686,-0.009127,-0.000044,0.000022,-0.005643,0.009933,0.002980,0.207805,0.207739,0.156408,0.368780,0.000000,0.000000,0.000000,0.000000,0.000000,0.000000,0.000000,0.000000,0.000000,0.000000,0.000000,0.000000,0.011029,3,0
1510000,0.005412,39.036842,-0.005082,0.015485,26.107214,0.028638,-0.001559,0.035744,1.572862,-0.063701,-0.003366,0.008815,0.000699,-0.009233,-0.000045,0.000476,-0.005606,0.046734,-0.027097,0.207999,0.207932,0.156075,0.366993,0.000000,0.000000,0.000000,0.000000,0.000000,0.000000,0.000000,0.000000,0.000000,0.000000,0.000000,0.000000,0.045432,3,0
1520000,0.005376,39.298752,-0.005094,0.015329,26.113750,0.028624,-0.001596,0.035962,1.572880,-0.063832,-0.003399,0.008926,0.000711,-0.009284,-0.000045,0.000108,-0.005569,0.022530,-0.011414,0.208195,0.208126,0.155746,0.365256,0.000000,0.000000,0.000000,0.000000,0.000000,0.000000,0.000000,0.000000,0.000000,0.000000,0.000000,0.000000,0.022399,3,0
1530000,0.005340,39.561989,-0.005654,0.015201,26.122772,0.027966,-0.001627,0.036378,1.572899,-0.064171,-0.003431,0.009241,0.000723,-0.009418,-0.000046,0.000728,-0.005532,0.058739,-0.032227,0.208393,0.208322,0.155419,0.363571,0.000000,0.000000,0.000000,0.000000,0.000000,0.000000,0.000000,0.000000,0.000000,0.000000,0.000000,0.000000,0.056941,3,0
1540000,0.005304,39.820312,-0.006085,0.014990,26.122709,0.027488,-0.001671,0.036034,1.572906,-0.063683,-0.003463,0.009549,0.000735,-0.009227,-0.000045,0.001308,-0.005494,-0.085316,-0.028548,0.208592,0.208520,0.155096,0.361935,0.000000,0.000000,0.000000,0.000000,0.000000,0.000000,0.000000,0.000000,0.000000,0.000000,0.000000,0.000000,0.082530,3,0
1550000,0.005266,40.079327,-0.006432,0.014781,26.123890,0.027194,-0.001698,0.035789,1.572916,-0.063312,-0.003495,0.009819,0.000748,-0.009081,-0.000045,0.000793,-0.005455,-0.065334,-0.024986,0.208792,0.208719,0.154776,0.360346,0.000000,0.000000,0.000000,0.000000,0.000000,0.000000,0.000000,0.000000,0.000000,0.000000,0.000000,0.000000,0.063288,3,0
1560000,0.005228,40.337635,-0.006461,0.014659,26.123703,0.027198,-0.001732,0.035413,1.572916,-0.062828,-0.003527,0.009968,0.000760,-0.008886,-0.000045,0.001216,-0.005416,-0.085815,-0.012762,0.208995,0.208919,0.154459,0.358804,0.000000,0.000000,0.000000,0.000000,0.000000,0.000000,0.000000,0.000000,0.000000,0.000000,0.000000,0.000000,0.082997,3,0
1570000,0.005190,40.598030,-0.007471,0.014520,26.127193,0.026020,-0.001763,0.035373,1.572926,-0.062682,-0.003558,0.010493,0.000772,-0.008830,-0.000045,0.000525,-0.005376,-0.026054,-0.050314,0.209198,0.209121,0.154145,0.357304,0.000000,0.000000,0.000000,0.000000,0.000000,0.000000,0.000000,0.000000,0.000000,0.000000,0.000000,0.000000,0.025691,3,0
1580000,0.005152,40.859764,-0.007352,0.014415,26.133148,0.026154,-0.001797,0.035535,1.572934,-0.062747,-0.003587,0.010548,0.000784,-0.008858,-0.000045,0.000032,-0.005338,0.011696,-0.005521,0.209403,0.209324,0.153835,0.355850,0.000000,0.000000,0.000000,0.000000,0.000000,0.000000,0.000000,0.000000,0.000000,0.000000,0.000000,0.000000,0.012408,3,0
1590000,0.005111,41.117260,-0.006068,0.014219,26.131161,0.027951,-0.001836,0.035009,1.572937,-0.062137,-0.003617,0.010174,0.000797,-0.008595,-0.000044,0.002224,-0.005297,-0.110943,0.038433,0.209608,0.209528,0.153528,0.354437,0.000000,0.000000,0.000000,0.000000,0.000000,0.000000,0.000000,0.000000,0.000000,0.000000,0.000000,0.000000,0.107178,3,0
1600000,0.005071,41.377563,-0.006048,0.013943,26.134388,0.028095,-0.001870,0.034930,1.572948,-0.061971,-0.003646,0.010292,0.000810,-0.008525,-0.000044,0.000172,-0.005254,-0.030479,-0.010683,0.209815,0.209733,0.153225,0.353066,0.000000,0.000000,0.000000,0.000000,0.000000,0.000000,0.000000,0.000000,0.000000,0.000000,0.000000,0.000000,0.029853,3,0
1610000,0.005030,41.635044,-0.005980,0.013766,26.132221,0.028303,-0.001911,0.034400,1.572964,-0.061367,-0.003675,0.010423,0.000822,-0.008261,-0.000043,0.002034,-0.005212,-0.111904,-0.009874,0.210023,0.209939,0.152925,0.351733,0.000000,0.000000,0.000000,0.000000,0.000000,0.000000,0.000000,0.000000,0.000000,0.000000,0.000000,0.000000,0.108107,3,0
1620000,0.004989,41.896015,-0.005970,0.013655,26.136585,0.028154,-0.001944,0.034423,1.572974,-0.061305,-0.003703,0.010541,0.000834,-0.008234,-0.000044,0.000045,-0.005170,-0.011539,-0.010979,0.210231,0.210145,0.152629,0.350441,0.000000,0.000000,0.000000,0.000000,0.000000,0.000000,0.000000,0.000000,0.000000,0.000000,0.000000,0.000000,0.012205,3,0
1630000,0.004948,42.154156,-0.006174,0.013481,26.135557,0.027857,-0.001981,0.033976,1.572981,-0.060809,-0.003731,0.010780,0.000847,-0.008012,-0.000043,0.001482,-0.005127,-0.093647,-0.020403,0.210440,0.210352,0.152337,0.349185,0.000000,0.000000,0.000000,0.000000,0.000000,0.000000,0.000000,0.000000,0.000000,0.000000,0.000000,0.000000,0.090506,3,0
1640000,0.004904,42.415764,-0.005230,0.013174,26.140928,0.029121,-0.002011,0.034092,1.572993,-0.060841,-0.003757,0.010501,0.000859,-0.008024,-0.000043,0.000121,-0.005083,0.006046,0.026151,0.210649,0.210560,0.152048,0.347965,0.000000,0.000000,0.000000,0.000000,0.000000,0.000000,0.000000,0.000000,0.000000,0.000000,0.000000,0.000000,0.007629,3,0
1650000,0.004858,42.675919,-0.004490,0.012906,26.143406,0.030131,-0.002045,0.033963,1.573007,-0.060649,-0.003783,0.010329,0.000871,-0.007933,-0.000043,0.000271,-0.005036,-0.036945,0.017078,0.210858,0.210767,0.151764,0.346780,0.000000,0.000000,0.000000,0.000000,0.000000,0.000000,0.000000,0.000000,0.000000,0.000000,0.000000,0.000000,0.035970,3,0
1660000,0.004813,42.937447,-0.004790,0.012623,26.148491,0.029872,-0.002087,0.034055,1.573011,-0.060654,-0.003809,0.010585,0.000883,-0.007938,-0.000043,0.000098,-0.004988,0.001060,-0.024011,0.211068,0.210976,0.151483,0.345631,0.000000,0.000000,0.000000,0.000000,0.000000,0.000000,0.000000,0.000000,0.000000,0.000000,0.000000,0.000000,0.004919,3,0
1670000,0.004765,43.197506,-0.004231,0.012307,26.150703,0.030521,-0.002127,0.033887,1.573024,-0.060442,-0.003835,0.010493,0.000896,-0.007835,-0.000043,0.000301,-0.004939,-0.041855,0.009648,0.211278,0.211184,0.151206,0.344514,0.000000,0.000000,0.000000,0.000000,0.000000,0.000000,0.000000,0.000000,0.000000,0.000000,0.000000,0.000000,0.040659,3,0
1680000,0.004719,43.458248,-0.004995,0.012181,26.154264,0.029793,-0.002165,0.033855,1.573029,-0.060322,-0.003860,0.010963,0.000908,-0.007781,-0.000043,0.000395,-0.004890,-0.023632,-0.043053,0.211488,0.211392,0.150933,0.343431,0.000000,0.000000,0.000000,0.000000,0.000000,0.000000,0.000000,0.000000,0.000000,0.000000,0.000000,0.000000,0.023299,3,0
1690000,0.004671,43.716114,-0.004314,0.011974,26.152206,0.030597,-0.002207,0.033309,1.573048,-0.059798,-0.003885,0.010845,0.000920,-0.007518,-0.000043,0.001823,-0.004842,-0.105499,0.013621,0.211698,0.211600,0.150664,0.342377,0.000000,0.000000,0.000000,0.000000,0.000000,0.000000,0.000000,0.000000,0.000000,0.000000,0.000000,0.000000,0.101879,3,0
1700000,0.004622,43.976082,-0.003659,0.011707,26.154196,0.031277,-0.002248,0.033115,1.573058,-0.059576,-0.003908,0.010715,0.000932,-0.007405,-0.000042,0.000362,-0.004791,-0.045280,0.013202,0.211907,0.211807,0.150399,0.341355,0.000000,0.000000,0.000000,0.000000,0.000000,0.000000,0.000000,0.000000,0.000000,0.000000,0.000000,0.000000,0.043922,3,0
1710000,0.004573,44.235321,-0.003771,0.011477,26.154644,0.031290,-0.002281,0.032799,1.573069,-0.059251,-0.003932,0.010932,0.000944,-0.007240,-0.000042,0.000773,-0.004740,-0.066719,-0.018173,0.212115,0.212014,0.150138,0.340360,0.000000,0.000000,0.000000,0.000000,0.000000,0.000000,0.000000,0.000000,0.000000,0.000000,0.000000,0.000000,0.064531,3,0
1720000,0.004523,44.498039,-0.003105,0.011337,26.161552,0.032122,-0.002308,0.033071,1.573088,-0.059404,-0.003954,0.010765,0.000956,-0.007318,-0.000043,0.000201,-0.004689,0.031853,0.014447,0.212323,0.212220,0.149881,0.339394,0.000000,0.000000,0.000000,0.000000,0.000000,0.000000,0.000000,0.000000,0.000000,0.000000,0.000000,0.000000,0.031062,3,0
