time_us,pos_x,pos_y,pos_z,vel_x,vel_y,vel_z,roll,pitch,yaw,bias_ax,bias_ay,bias_az,bias_gx,bias_gy,bias_gz,nis,innov_x,innov_y,innov_z,cov_pos_x,cov_pos_y,cov_pos_z,cov_yaw,des_speed,des_heading,des_climb,pid_speed,pid_yaw,pid_alt,speed_meas,yaw_meas,climb_meas,fwd_accel,yaw_rate,vert_accel,drift_m,nav_mode,mission_state
0,-0.000004,0.150003,0.000003,-0.000666,25.000521,0.000782,-0.000005,-0.000016,1.570794,0.000000,0.000000,0.000000,0.000000,0.000000,0.000000,0.006250,0.000007,-0.250008,-0.000008,2.400038,2.400038,3.600017,1.000518,0.000000,0.000000,0.000000,0.000000,0.000000,0.000000,0.000000,0.000000,0.000000,0.000000,0.000000,0.000000,0.110245,1,0
10000,-0.000011,0.302756,-0.015824,-0.001127,25.000477,0.001517,-0.000004,-0.000007,1.570791,0.000001,0.000000,0.000000,0.000000,0.000000,0.000000,0.013978,0.000015,-0.340378,-0.042246,1.714420,1.714420,2.250079,1.001073,0.000000,0.000000,0.000000,0.000000,0.000000,0.000000,0.000000,0.000000,0.000000,0.000000,0.000000,0.000000,0.004572,3,0
20000,-0.000024,0.451998,-0.024524,-0.001987,25.000072,0.001978,-0.000002,-0.000011,1.570793,0.000005,0.000000,0.000000,0.000000,0.000000,-0.000000,0.026767,0.000031,-0.453375,-0.031972,1.333616,1.333616,1.636554,1.001655,0.000000,0.000000,0.000000,0.000000,0.000000,0.000000,0.000000,0.000000,0.000000,0.000000,0.000000,0.000000,0.104612,3,0
30000,-0.000044,0.574312,-0.019339,-0.002932,24.998270,0.002971,-0.000005,-0.000018,1.570794,0.000017,0.000000,-0.000000,-0.000000,0.000000,-0.000000,0.067271,0.000053,-0.702006,0.024052,1.091392,1.091392,1.286065,1.002257,0.000000,0.000000,0.000000,0.000000,0.000000,0.000000,0.000000,0.000000,0.000000,0.000000,0.000000,0.000000,0.240723,3,0
40000,-0.000066,0.709630,-0.028955,-0.003419,24.995766,0.003579,-0.000008,-0.000019,1.570789,0.000039,0.000000,0.000001,0.000000,0.000000,-0.000000,0.078627,0.000078,-0.744788,-0.054677,0.923811,0.923811,1.059385,1.002869,0.000000,0.000000,0.000000,0.000000,0.000000,0.000000,0.000000,0.000000,0.000000,0.000000,0.000000,0.000000,0.363832,3,0
50000,-0.000094,0.828831,-0.028216,-0.004222,24.991491,0.004581,-0.000017,-0.000038,1.570794,0.000081,0.000000,0.000001,-0.000000,0.000000,-0.000000,0.138552,0.000108,-0.979476,0.004625,0.801036,0.801036,0.900822,1.003484,0.000000,0.000000,0.000000,0.000000,0.000000,0.000000,0.000000,0.000000,0.000000,0.000000,0.000000,0.000000,0.503056,3,0
60000,-0.000128,0.949250,-0.033163,-0.005135,24.985590,0.005350,-0.000012,-0.000073,1.570802,0.000147,0.000000,0.000003,0.000000,0.000001,-0.000000,0.177666,0.000145,-1.098634,-0.038301,0.707270,0.707270,0.783741,1.004094,0.000000,0.000000,0.000000,0.000000,0.000000,0.000000,0.000000,0.000000,0.000000,0.000000,0.000000,0.000000,0.641063,3,0
70000,-0.000168,1.085124,-0.038476,-0.006043,24.978811,0.005858,-0.000016,-0.000110,1.570796,0.000233,0.000000,0.000007,0.000000,0.000002,-0.000000,0.174146,0.000188,-1.079841,-0.046484,0.633370,0.633370,0.693801,1.004688,0.000000,0.000000,0.000000,0.000000,0.000000,0.000000,0.000000,0.000000,0.000000,0.000000,0.000000,0.000000,0.763615,3,0
80000,-0.000213,1.209188,-0.039523,-0.006698,24.969345,0.006690,-0.000025,-0.000154,1.570804,0.000367,0.000000,0.000008,-0.000000,0.000003,-0.000000,0.260683,0.000235,-1.315043,-0.010735,0.573673,0.573673,0.622594,1.005260,0.000000,0.000000,0.000000,0.000000,0.000000,0.000000,0.000000,0.000000,0.000000,0.000000,0.000000,0.000000,0.897977,3,0
90000,-0.000263,1.362640,-0.037402,-0.007491,24.960499,0.007848,-0.000026,-0.000205,1.570812,0.000508,0.000000,0.000005,-0.000000,0.000005,-0.000000,0.184467,0.000288,-1.101069,0.021709,0.524488,0.524488,0.564865,1.005801,0.000000,0.000000,0.000000,0.000000,0.000000,0.000000,0.000000,0.000000,0.000000,0.000000,0.000000,0.000000,1.002951,3,0
100000,-0.000318,1.520814,-0.040142,-0.008353,24.950336,0.008265,-0.000031,-0.000261,1.570807,0.000684,0.000000,0.000010,-0.000000,0.000007,-0.000000,0.197628,0.000346,-1.135158,-0.032784,0.483304,0.483304,0.517162,1.006301,0.000000,0.000000,0.000000,0.000000,0.000000,0.000000,0.000000,0.000000,0.000000,0.000000,0.000000,0.000000,1.103203,3,0
110000,-0.000380,1.695969,-0.042486,-0.009198,24.940556,0.008789,-0.000038,-0.000327,1.570807,0.000870,0.000000,0.000016,-0.000000,0.000010,-0.000000,0.152832,0.000410,-0.995046,-0.030617,0.448354,0.448354,0.477121,1.006754,0.000000,0.000000,0.000000,0.000000,0.000000,0.000000,0.000000,0.000000,0.000000,0.000000,0.000000,0.000000,1.186474,3,0
120000,-0.000447,1.884586,-0.044383,-0.010065,24.931513,0.009307,-0.000050,-0.000386,1.570802,0.001061,0.000000,0.000022,-0.000000,0.000013,-0.000000,0.117985,0.000480,-0.871921,-0.026992,0.418359,0.418359,0.443071,1.007151,0.000000,0.000000,0.000000,0.000000,0.000000,0.000000,0.000000,0.000000,0.000000,0.000000,0.000000,0.000000,1.256282,3,0
130000,-0.000519,2.081462,-0.043938,-0.010819,24.922617,0.010200,-0.000044,-0.000461,1.570800,0.001267,0.000000,0.000020,-0.000000,0.000016,-0.000000,0.100200,0.000555,-0.802023,0.004991,0.392370,0.392370,0.413797,1.007482,0.000000,0.000000,0.000000,0.000000,0.000000,0.000000,0.000000,0.000000,0.000000,0.000000,0.000000,0.000000,1.317833,3,0
140000,-0.000594,2.287528,-0.043272,-0.011350,24.914062,0.011180,-0.000046,-0.000529,1.570793,0.001473,0.000001,0.000018,-0.000000,0.000020,-0.000000,0.076783,0.000632,-0.700623,0.008568,0.369667,0.369667,0.388393,1.007740,0.000000,0.000000,0.000000,0.000000,0.000000,0.000000,0.000000,0.000000,0.000000,0.000000,0.000000,0.000000,1.370193,3,0
150000,-0.000673,2.497739,-0.041506,-0.012134,24.905441,0.012437,-0.000046,-0.000603,1.570782,0.001698,0.000001,0.000009,-0.000000,0.000025,-0.000000,0.070162,0.000715,-0.668057,0.026964,0.349696,0.349696,0.366172,1.007917,0.000000,0.000000,0.000000,0.000000,0.000000,0.000000,0.000000,0.000000,0.000000,0.000000,0.000000,0.000000,1.418408,3,0
160000,-0.000761,2.714707,-0.041372,-0.013193,24.897766,0.013143,-0.000055,-0.000678,1.570775,0.001918,0.000001,0.000009,-0.000000,0.000030,-0.000000,0.052964,0.000805,-0.580000,0.000048,0.332022,0.332022,0.346600,1.008004,0.000000,0.000000,0.000000,0.000000,0.000000,0.000000,0.000000,0.000000,0.000000,0.000000,0.000000,0.000000,1.459866,3,0
170000,-0.000854,2.933208,-0.040413,-0.014056,24.889309,0.013992,-0.000051,-0.000763,1.570785,0.002165,0.000002,0.000003,-0.000000,0.000036,-0.000000,0.052821,0.000901,-0.578220,0.014952,0.316299,0.316299,0.329260,1.007993,0.000000,0.000000,0.000000,0.000000,0.000000,0.000000,0.000000,0.000000,0.000000,0.000000,0.000000,0.000000,1.499790,3,0
180000,-0.000953,3.149991,-0.041452,-0.014959,24.879641,0.014516,-0.000051,-0.000864,1.570791,0.002469,0.000002,0.000013,-0.000000,0.000044,-0.000000,0.064426,0.001004,-0.637609,-0.022700,0.302248,0.302248,0.313817,1.007878,0.000000,0.000000,0.000000,0.000000,0.000000,0.000000,0.000000,0.000000,0.000000,0.000000,0.000000,0.000000,1.541434,3,0
190000,-0.001057,3.374829,-0.042957,-0.015694,24.871878,0.014798,-0.000047,-0.000949,1.570806,0.002731,0.000003,0.000030,-0.000000,0.000050,-0.000000,0.039272,0.001110,-0.496474,-0.033172,0.289643,0.289643,0.300003,1.007648,0.000000,0.000000,0.000000,0.000000,0.000000,0.000000,0.000000,0.000000,0.000000,0.000000,0.000000,0.000000,1.575022,3,0
200000,-0.001164,3.597478,-0.043153,-0.016335,24.862358,0.015222,-0.000054,-0.001061,1.570802,0.003059,0.000003,0.000034,-0.000000,0.000060,-0.000000,0.050244,0.001220,-0.562202,-0.007286,0.278298,0.278298,0.287598,1.007299,0.000000,0.000000,0.000000,0.000000,0.000000,0.000000,0.000000,0.000000,0.000000,0.000000,0.000000,0.000000,1.610798,3,0
210000,-0.001275,3.828808,-0.042445,-0.017104,24.855316,0.016271,-0.000054,-0.001145,1.570800,0.003307,0.000004,0.000027,-0.000000,0.000067,-0.000001,0.023890,0.001335,-0.387174,0.011879,0.268057,0.268057,0.276421,1.006820,0.000000,0.000000,0.000000,0.000000,0.000000,0.000000,0.000000,0.000000,0.000000,0.000000,0.000000,0.000000,1.637895,3,0
220000,-0.001390,4.060126,-0.040707,-0.017658,24.848146,0.017716,-0.000060,-0.001243,1.570800,0.003586,0.000005,0.000003,-0.000000,0.000076,-0.000001,0.025686,0.001452,-0.399770,0.035303,0.258791,0.258791,0.266321,1.006207,0.000000,0.000000,0.000000,0.000000,0.000000,0.000000,0.000000,0.000000,0.000000,0.000000,0.000000,0.000000,1.665002,3,0
230000,-0.001509,4.290576,-0.040460,-0.018520,24.839668,0.018404,-0.000055,-0.001347,1.570800,0.003915,0.000006,0.000001,-0.000000,0.000087,-0.000001,0.029838,0.001575,-0.432224,0.001480,0.250390,0.250390,0.257172,1.005451,0.000000,0.000000,0.000000,0.000000,0.000000,0.000000,0.000000,0.000000,0.000000,0.000000,0.000000,0.000000,1.692979,3,0
240000,-0.001632,4.521015,-0.041950,-0.019086,24.830387,0.018281,-0.000058,-0.001461,1.570797,0.004282,0.000008,0.000034,-0.000000,0.000099,-0.000001,0.031778,0.001701,-0.443919,-0.040524,0.242761,0.242761,0.248866,1.004546,0.000000,0.000000,0.000000,0.000000,0.000000,0.000000,0.000000,0.000000,0.000000,0.000000,0.000000,0.000000,1.720966,3,0
250000,-0.001758,4.752982,-0.041766,-0.019823,24.821840,0.019001,-0.000067,-0.001585,1.570792,0.004652,0.000009,0.000034,-0.000000,0.000112,-0.000001,0.027689,0.001830,-0.415844,-0.000164,0.235825,0.235825,0.241314,1.003486,0.000000,0.000000,0.000000,0.000000,0.000000,0.000000,0.000000,0.000000,0.000000,0.000000,0.000000,0.000000,1.747425,3,0
260000,-0.001888,4.987074,-0.042002,-0.020465,24.813700,0.019544,-0.000071,-0.001697,1.570797,0.005007,0.000011,0.000045,-0.000000,0.000125,-0.000001,0.021895,0.001964,-0.369418,-0.011116,0.229512,0.229512,0.234436,1.002264,0.000000,0.000000,0.000000,0.000000,0.000000,0.000000,0.000000,0.000000,0.000000,0.000000,0.000000,0.000000,1.771758,3,0
270000,-0.002023,5.226799,-0.040659,-0.021234,24.808876,0.020935,-0.000073,-0.001775,1.570801,0.005240,0.000014,0.000014,-0.000000,0.000134,-0.000001,0.008321,0.002101,-0.225731,0.029996,0.223763,0.223763,0.228165,1.000876,0.000000,0.000000,0.000000,0.000000,0.000000,0.000000,0.000000,0.000000,0.000000,0.000000,0.000000,0.000000,1.790459,3,0
280000,-0.002164,5.466630,-0.042040,-0.022246,24.803650,0.020949,-0.000075,-0.001858,1.570806,0.005490,0.000016,0.000061,-0.000001,0.000144,-0.000001,0.008565,0.002246,-0.226859,-0.043170,0.218527,0.218527,0.222443,0.999314,0.000000,0.000000,0.000000,0.000000,0.000000,0.000000,0.000000,0.000000,0.000000,0.000000,0.000000,0.000000,1.809054,3,0
290000,-0.002311,5.705131,-0.041354,-0.023137,24.797298,0.022129,-0.000078,-0.001965,1.570799,0.005806,0.000019,0.000046,-0.000001,0.000158,-0.000001,0.011559,0.002396,-0.267850,0.012918,0.213756,0.213756,0.217219,0.997575,0.000000,0.000000,0.000000,0.000000,0.000000,0.000000,0.000000,0.000000,0.000000,0.000000,0.000000,0.000000,1.828980,3,0
300000,-0.002461,5.945847,-0.040642,-0.023859,24.792379,0.023359,-0.000073,-0.002059,1.570800,0.006067,0.000022,0.000029,-0.000001,0.000169,-0.000001,0.006997,0.002550,-0.208103,0.013602,0.209412,0.209412,0.212446,0.995653,0.000000,0.000000,0.000000,0.000000,0.000000,0.000000,0.000000,0.000000,0.000000,0.000000,0.000000,0.000000,1.846689,3,0
310000,-0.002618,6.188619,-0.042334,-0.024898,24.788708,0.022895,-0.000082,-0.002135,1.570799,0.006268,0.000026,0.000103,-0.000001,0.000178,-0.000001,0.004153,0.002711,-0.150586,-0.055828,0.205459,0.205459,0.208087,0.993545,0.000000,0.000000,0.000000,0.000000,0.000000,0.000000,0.000000,0.000000,0.000000,0.000000,0.000000,0.000000,1.862344,3,0
320000,-0.002775,6.429967,-0.041154,-0.025274,24.783745,0.024644,-0.000082,-0.002228,1.570809,0.006544,0.000030,0.000064,-0.000001,0.000191,-0.000002,0.006219,0.002872,-0.194532,0.027669,0.201865,0.201865,0.204105,0.991246,0.000000,0.000000,0.000000,0.000000,0.000000,0.000000,0.000000,0.000000,0.000000,0.000000,0.000000,0.000000,1.879422,3,0
330000,-0.002936,6.671281,-0.040451,-0.026023,24.778671,0.025966,-0.000084,-0.002330,1.570802,0.006839,0.000034,0.000044,-0.000001,0.000205,-0.000002,0.006302,0.003036,-0.197285,0.013366,0.198602,0.198602,0.200469,0.988753,0.000000,0.000000,0.000000,0.000000,0.000000,0.000000,0.000000,0.000000,0.000000,0.000000,0.000000,0.000000,1.896534,3,0
340000,-0.003100,6.911903,-0.041493,-0.026755,24.772526,0.025572,-0.000079,-0.002457,1.570811,0.007187,0.000039,0.000106,-0.000002,0.000222,-0.000002,0.008053,0.003204,-0.219879,-0.039851,0.195644,0.195644,0.197151,0.986063,0.000000,0.000000,0.000000,0.000000,0.000000,0.000000,0.000000,0.000000,0.000000,0.000000,0.000000,0.000000,1.914338,3,0
350000,-0.003266,7.153136,-0.041962,-0.027354,24.766716,0.025581,-0.000069,-0.002573,1.570803,0.007524,0.000045,0.000143,-0.000002,0.000239,-0.000002,0.006667,0.003374,-0.202013,-0.022597,0.192968,0.192968,0.194125,0.983174,0.000000,0.000000,0.000000,0.000000,0.000000,0.000000,0.000000,0.000000,0.000000,0.000000,0.000000,0.000000,1.931531,3,0
360000,-0.003436,7.397469,-0.043315,-0.028162,24.764132,0.024767,-0.000074,-0.002644,1.570804,0.007709,0.000051,0.000232,-0.000002,0.000249,-0.000002,0.002204,0.003549,-0.105249,-0.050652,0.190555,0.190555,0.191370,0.980084,0.000000,0.000000,0.000000,0.000000,0.000000,0.000000,0.000000,0.000000,0.000000,0.000000,0.000000,0.000000,1.945626,3,0
370000,-0.003609,7.644127,-0.042760,-0.028885,24.763769,0.025832,-0.000073,-0.002676,1.570807,0.007767,0.000058,0.000214,-0.000003,0.000252,-0.000002,0.000177,0.003726,-0.031492,0.009509,0.188383,0.188383,0.188863,0.976791,0.000000,0.000000,0.000000,0.000000,0.000000,0.000000,0.000000,0.000000,0.000000,0.000000,0.000000,0.000000,1.957393,3,0
380000,-0.003784,7.889302,-0.043677,-0.029512,24.761337,0.025396,-0.000074,-0.002728,1.570806,0.007920,0.000066,0.000287,-0.000003,0.000260,-0.000002,0.001253,0.003905,-0.079353,-0.038043,0.186438,0.186438,0.186586,0.973294,0.000000,0.000000,0.000000,0.000000,0.000000,0.000000,0.000000,0.000000,0.000000,0.000000,0.000000,0.000000,1.970644,3,0
390000,-0.003962,8.133051,-0.042543,-0.030248,24.757561,0.027018,-0.000075,-0.002829,1.570801,0.008175,0.000074,0.000230,-0.000003,0.000275,-0.000002,0.002686,0.004088,-0.125718,0.028367,0.184702,0.184702,0.184523,0.969593,0.000000,0.000000,0.000000,0.000000,0.000000,0.000000,0.000000,0.000000,0.000000,0.000000,0.000000,0.000000,1.985321,3,0
400000,-0.004142,8.377849,-0.043663,-0.030863,24.754742,0.026348,-0.000086,-0.002906,1.570793,0.008368,0.000083,0.000327,-0.000004,0.000286,-0.000002,0.001686,0.004272,-0.091123,-0.045943,0.183161,0.183161,0.182656,0.965687,0.000000,0.000000,0.000000,0.000000,0.000000,0.000000,0.000000,0.000000,0.000000,0.000000,0.000000,0.000000,1.998950,3,0
410000,-0.004323,8.623656,-0.043143,-0.031462,24.753260,0.027480,-0.000082,-0.002950,1.570787,0.008495,0.000093,0.000309,-0.000004,0.000294,-0.000002,0.000550,0.004458,-0.057589,0.008214,0.181801,0.181801,0.180971,0.961579,0.000000,0.000000,0.000000,0.000000,0.000000,0.000000,0.000000,0.000000,0.000000,0.000000,0.000000,0.000000,2.011568,3,0
420000,-0.004503,8.867446,-0.041634,-0.031800,24.749128,0.029617,-0.000078,-0.003059,1.570784,0.008782,0.000103,0.000214,-0.000005,0.000312,-0.000002,0.002780,0.004643,-0.124470,0.041008,0.180611,0.180611,0.179456,0.957268,0.000000,0.000000,0.000000,0.000000,0.000000,0.000000,0.000000,0.000000,0.000000,0.000000,0.000000,0.000000,2.026205,3,0
430000,-0.004683,9.113440,-0.040418,-0.032322,24.747618,0.031460,-0.000068,-0.003103,1.570788,0.008902,0.000115,0.000140,-0.000006,0.000319,-0.000003,0.000563,0.004828,-0.050155,0.030708,0.179578,0.179578,0.178097,0.952756,0.000000,0.000000,0.000000,0.000000,0.000000,0.000000,0.000000,0.000000,0.000000,0.000000,0.000000,0.000000,2.038638,3,0
440000,-0.004864,9.358021,-0.039755,-0.032816,24.744305,0.032434,-0.000066,-0.003188,1.570792,0.009145,0.000128,0.000111,-0.000007,0.000335,-0.000003,0.001558,0.005013,-0.097345,0.011627,0.178692,0.178692,0.176883,0.948046,0.000000,0.000000,0.000000,0.000000,0.000000,0.000000,0.000000,0.000000,0.000000,0.000000,0.000000,0.000000,2.052483,3,0
450000,-0.005046,9.604760,-0.040140,-0.033371,24.743710,0.032333,-0.000062,-0.003237,1.570791,0.009207,0.000141,0.000175,-0.000008,0.000339,-0.000003,0.000193,0.005200,-0.023829,-0.024499,0.177942,0.177942,0.175803,0.943140,0.000000,0.000000,0.000000,0.000000,0.000000,0.000000,0.000000,0.000000,0.000000,0.000000,0.000000,0.000000,2.064170,3,0
460000,-0.005227,9.851254,-0.038705,-0.033850,24.742672,0.034455,-0.000063,-0.003280,1.570792,0.009292,0.000155,0.000073,-0.000009,0.000345,-0.000003,0.000403,0.005386,-0.032015,0.037889,0.177320,0.177320,0.174848,0.938041,0.000000,0.000000,0.000000,0.000000,0.000000,0.000000,0.000000,0.000000,0.000000,0.000000,0.000000,0.000000,2.076103,3,0
470000,-0.005410,10.098677,-0.038290,-0.034522,24.742922,0.035355,-0.000060,-0.003286,1.570791,0.009293,0.000171,0.000067,-0.000010,0.000345,-0.000003,0.000006,0.005574,-0.000193,0.002140,0.176816,0.176816,0.174007,0.932753,0.000000,0.000000,0.000000,0.000000,0.000000,0.000000,0.000000,0.000000,0.000000,0.000000,0.000000,0.000000,2.087107,3,0
480000,-0.005592,10.345845,-0.038612,-0.034881,24.743196,0.035201,-0.000059,-0.003311,1.570787,0.009319,0.000188,0.000135,-0.000011,0.000347,-0.000003,0.000109,0.005761,-0.009076,-0.023644,0.176422,0.176422,0.173272,0.927280,0.000000,0.000000,0.000000,0.000000,0.000000,0.000000,0.000000,0.000000,0.000000,0.000000,0.000000,0.000000,2.098365,3,0
490000,-0.005776,10.593926,-0.038770,-0.035599,24.744324,0.035262,-0.000063,-0.003303,1.570779,0.009254,0.000205,0.000189,-0.000012,0.000342,-0.000003,0.000137,0.005951,0.022062,-0.017974,0.176130,0.176130,0.172634,0.921627,0.000000,0.000000,0.000000,0.000000,0.000000,0.000000,0.000000,0.000000,0.000000,0.000000,0.000000,0.000000,2.108710,3,0
500000,-0.005960,10.841742,-0.039772,-0.036159,24.745346,0.034347,-0.000066,-0.003294,1.570763,0.009215,0.000224,0.000336,-0.000014,0.000339,-0.000003,0.000397,0.006140,0.012514,-0.047508,0.175933,0.175933,0.172087,0.915798,0.000000,0.000000,0.000000,0.000000,0.000000,0.000000,0.000000,0.000000,0.000000,0.000000,0.000000,0.000000,2.119321,3,0
510000,-0.006146,11.092206,-0.039730,-0.036836,24.750046,0.034955,-0.000055,-0.003198,1.570768,0.008890,0.000244,0.000371,-0.000015,0.000314,-0.000002,0.001730,0.006331,0.102632,-0.010888,0.175823,0.175823,0.171623,0.909799,0.000000,0.000000,0.000000,0.000000,0.000000,0.000000,0.000000,0.000000,0.000000,0.000000,0.000000,0.000000,2.127282,3,0
520000,-0.006329,11.341204,-0.039380,-0.037176,24.752880,0.035862,-0.000047,-0.003143,1.570761,0.008723,0.000266,0.000372,-0.000017,0.000301,-0.000002,0.000426,0.006521,0.050907,-0.000305,0.175794,0.175794,0.171234,0.903636,0.000000,0.000000,0.000000,0.000000,0.000000,0.000000,0.000000,0.000000,0.000000,0.000000,0.000000,0.000000,2.136711,3,0
530000,-0.006513,11.591668,-0.040182,-0.037696,24.757605,0.035044,-0.000039,-0.003034,1.570766,0.008387,0.000288,0.000511,-0.000018,0.000274,-0.000002,0.001899,0.006709,0.100067,-0.040981,0.175840,0.175840,0.170915,0.897314,0.000000,0.000000,0.000000,0.000000,0.000000,0.000000,0.000000,0.000000,0.000000,0.000000,0.000000,0.000000,2.144673,3,0
540000,-0.006696,11.840083,-0.040331,-0.038163,24.759325,0.035241,-0.000030,-0.003005,1.570762,0.008288,0.000312,0.000574,-0.000020,0.000266,-0.000002,0.000191,0.006898,0.028464,-0.017887,0.175954,0.175954,0.170659,0.890841,0.000000,0.000000,0.000000,0.000000,0.000000,0.000000,0.000000,0.000000,0.000000,0.000000,0.000000,0.000000,2.154685,3,0
550000,-0.006876,12.089394,-0.039581,-0.038492,24.762457,0.036523,-0.000038,-0.002936,1.570755,0.008081,0.000337,0.000525,-0.000022,0.000249,-0.000002,0.000589,0.007084,0.058336,0.013732,0.176131,0.176131,0.170460,0.884222,0.000000,0.000000,0.000000,0.000000,0.000000,0.000000,0.000000,0.000000,0.000000,0.000000,0.000000,0.000000,2.163801,3,0
560000,-0.007055,12.340173,-0.038111,-0.038970,24.767872,0.038648,-0.000029,-0.002803,1.570757,0.007689,0.000364,0.000382,-0.000025,0.000216,-0.000002,0.002110,0.007269,0.107180,0.038745,0.176365,0.176366,0.170314,0.877465,0.000000,0.000000,0.000000,0.000000,0.000000,0.000000,0.000000,0.000000,0.000000,0.000000,0.000000,0.000000,2.171448,3,0
570000,-0.007235,12.590066,-0.037532,-0.039632,24.771992,0.039655,-0.000017,-0.002712,1.570753,0.007408,0.000392,0.000357,-0.000027,0.000191,-0.000001,0.000926,0.007455,0.075012,0.006548,0.176652,0.176652,0.170215,0.870578,0.000000,0.000000,0.000000,0.000000,0.000000,0.000000,0.000000,0.000000,0.000000,0.000000,0.000000,0.000000,2.179981,3,0
580000,-0.007413,12.839080,-0.037598,-0.039933,24.774433,0.039735,-0.000004,-0.002662,1.570747,0.007240,0.000421,0.000422,-0.000030,0.000177,-0.000001,0.000363,0.007638,0.043748,-0.016555,0.176987,0.176987,0.170158,0.863567,0.000000,0.000000,0.000000,0.000000,0.000000,0.000000,0.000000,0.000000,0.000000,0.000000,0.000000,0.000000,2.189393,3,0
590000,-0.007588,13.091339,-0.037152,-0.040290,24.782270,0.040412,0.000004,-0.002458,1.570744,0.006641,0.000452,0.000417,-0.000033,0.000122,-0.000001,0.003773,0.007819,0.152528,0.001525,0.177364,0.177364,0.170139,0.856440,0.000000,0.000000,0.000000,0.000000,0.000000,0.000000,0.000000,0.000000,0.000000,0.000000,0.000000,0.000000,2.195560,3,0
600000,-0.007761,13.344457,-0.036471,-0.040584,24.791479,0.041535,0.000008,-0.002203,1.570730,0.005922,0.000484,0.000379,-0.000036,0.000056,-0.000000,0.005178,0.007998,0.178495,0.009536,0.177779,0.177780,0.170153,0.849205,0.000000,0.000000,0.000000,0.000000,0.000000,0.000000,0.000000,0.000000,0.000000,0.000000,0.000000,0.000000,2.200869,3,0
610000,-0.007933,13.594292,-0.036070,-0.041132,24.795197,0.042088,0.000011,-0.002102,1.570728,0.005657,0.000518,0.000382,-0.000039,0.000032,0.000000,0.000682,0.008176,0.064437,-0.000680,0.178229,0.178230,0.170196,0.841871,0.000000,0.000000,0.000000,0.000000,0.000000,0.000000,0.000000,0.000000,0.000000,0.000000,0.000000,0.000000,2.209461,3,0
620000,-0.008105,13.848569,-0.035539,-0.041629,24.806278,0.042817,0.000020,-0.001765,1.570715,0.004765,0.000553,0.000367,-0.000042,-0.000054,0.000001,0.007291,0.008354,0.212144,0.003748,0.178710,0.178710,0.170265,0.834444,0.000000,0.000000,0.000000,0.000000,0.000000,0.000000,0.000000,0.000000,0.000000,0.000000,0.000000,0.000000,2.213610,3,0
630000,-0.008277,14.101313,-0.035430,-0.042322,24.814531,0.043156,0.000026,-0.001515,1.570702,0.004093,0.000589,0.000418,-0.000046,-0.000119,0.000001,0.003996,0.008532,0.156547,-0.011478,0.179217,0.179217,0.170356,0.826934,0.000000,0.000000,0.000000,0.000000,0.000000,0.000000,0.000000,0.000000,0.000000,0.000000,0.000000,0.000000,2.219292,3,0
640000,-0.008448,14.352535,-0.035191,-0.042753,24.820356,0.043544,0.000041,-0.001352,1.570688,0.003644,0.000627,0.000450,-0.000049,-0.000164,0.000002,0.001719,0.008709,0.102508,-0.007011,0.179747,0.179747,0.170466,0.819348,0.000000,0.000000,0.000000,0.000000,0.000000,0.000000,0.000000,0.000000,0.000000,0.000000,0.000000,0.000000,2.226496,3,0
650000,-0.008618,14.604639,-0.036077,-0.043177,24.827621,0.042487,0.000046,-0.001140,1.570681,0.003066,0.000667,0.000665,-0.000053,-0.000222,0.000002,0.003079,0.008885,0.129531,-0.046735,0.180297,0.180297,0.170592,0.811694,0.000000,0.000000,0.000000,0.000000,0.000000,0.000000,0.000000,0.000000,0.000000,0.000000,0.000000,0.000000,2.232820,3,0
660000,-0.008786,14.858212,-0.036218,-0.043561,24.837120,0.042406,0.000054,-0.000838,1.570674,0.002267,0.000708,0.000760,-0.000057,-0.000304,0.000003,0.005060,0.009058,0.175540,-0.020094,0.180864,0.180864,0.170730,0.803981,0.000000,0.000000,0.000000,0.000000,0.000000,0.000000,0.000000,0.000000,0.000000,0.000000,0.000000,0.000000,2.237672,3,0
670000,-0.008950,15.113847,-0.037145,-0.043842,24.850138,0.041090,0.000069,-0.000419,1.570663,0.001156,0.000751,0.000989,-0.000062,-0.000421,0.000004,0.009685,0.009229,0.239933,-0.047608,0.181444,0.181445,0.170878,0.796216,0.000000,0.000000,0.000000,0.000000,0.000000,0.000000,0.000000,0.000000,0.000000,0.000000,0.000000,0.000000,2.240465,3,0
680000,-0.009111,15.367303,-0.036946,-0.044079,24.859339,0.041530,0.000086,-0.000125,1.570649,0.000387,0.000795,0.001028,-0.000066,-0.000503,0.000004,0.004322,0.009396,0.163079,-0.007652,0.182036,0.182037,0.171034,0.788408,0.000000,0.000000,0.000000,0.000000,0.000000,0.000000,0.000000,0.000000,0.000000,0.000000,0.000000,0.000000,2.245436,3,0
690000,-0.009268,15.622829,-0.035747,-0.044369,24.871767,0.043346,0.000102,0.000306,1.570631,-0.000704,0.000841,0.000893,-0.000071,-0.000622,0.000005,0.008506,0.009560,0.227593,0.027332,0.182637,0.182637,0.171194,0.780564,0.000000,0.000000,0.000000,0.000000,0.000000,0.000000,0.000000,0.000000,0.000000,0.000000,0.000000,0.000000,2.248337,3,0
700000,-0.009421,15.877378,-0.035913,-0.044418,24.882668,0.043304,0.000123,0.000667,1.570618,-0.001633,0.000889,0.001002,-0.000077,-0.000724,0.000006,0.005958,0.009717,0.190608,-0.021223,0.183243,0.183244,0.171358,0.772693,0.000000,0.000000,0.000000,0.000000,0.000000,0.000000,0.000000,0.000000,0.000000,0.000000,0.000000,0.000000,2.252214,3,0
710000,-0.009571,16.129730,-0.036874,-0.044670,24.889318,0.042111,0.000140,0.000897,1.570604,-0.002201,0.000938,0.001255,-0.000082,-0.000788,0.000007,0.002537,0.009873,0.114866,-0.049036,0.183854,0.183854,0.171523,0.764801,0.000000,0.000000,0.000000,0.000000,0.000000,0.000000,0.000000,0.000000,0.000000,0.000000,0.000000,0.000000,2.258289,3,0
720000,-0.009718,16.382961,-0.036955,-0.044995,24.897917,0.042176,0.000152,0.001179,1.570582,-0.002908,0.000988,0.001349,-0.000088,-0.000869,0.000008,0.003268,0.010026,0.140747,-0.017800,0.184466,0.184467,0.171686,0.756898,0.000000,0.000000,0.000000,0.000000,0.000000,0.000000,0.000000,0.000000,0.000000,0.000000,0.000000,0.000000,2.263483,3,0
730000,-0.009862,16.637060,-0.036828,-0.045254,24.907595,0.042357,0.000174,0.001525,1.570567,-0.003753,0.001040,0.001406,-0.000094,-0.000968,0.000008,0.004471,0.010176,0.165735,-0.010454,0.185079,0.185079,0.171847,0.748989,0.000000,0.000000,0.000000,0.000000,0.000000,0.000000,0.000000,0.000000,0.000000,0.000000,0.000000,0.000000,2.267811,3,0
740000,-0.010003,16.890175,-0.037226,-0.045399,24.915510,0.041960,0.000194,0.001795,1.570547,-0.004426,0.001093,0.001563,-0.000100,-0.001048,0.000009,0.002890,0.010322,0.130207,-0.028875,0.185690,0.185690,0.172004,0.741082,0.000000,0.000000,0.000000,0.000000,0.000000,0.000000,0.000000,0.000000,0.000000,0.000000,0.000000,0.000000,2.273122,3,0
750000,-0.010142,17.144161,-0.036275,-0.045873,24.924932,0.043588,0.000209,0.002136,1.570531,-0.005240,0.001148,0.001464,-0.000106,-0.001146,0.000010,0.003968,0.010467,0.155317,0.018288,0.186297,0.186298,0.172156,0.733184,0.000000,0.000000,0.000000,0.000000,0.000000,0.000000,0.000000,0.000000,0.000000,0.000000,0.000000,0.000000,2.277563,3,0
760000,-0.010276,17.399014,-0.035716,-0.045903,24.935778,0.044514,0.000230,0.002525,1.570502,-0.006193,0.001204,0.001442,-0.000113,-0.001263,0.000011,0.005226,0.010607,0.179541,0.004125,0.186900,0.186901,0.172300,0.725301,0.000000,0.000000,0.000000,0.000000,0.000000,0.000000,0.000000,0.000000,0.000000,0.000000,0.000000,0.000000,2.281138,3,0
770000,-0.010408,17.653479,-0.034367,-0.046266,24.945883,0.046771,0.000257,0.002888,1.570485,-0.007070,0.001262,0.001266,-0.000121,-0.001372,0.000012,0.004473,0.010745,0.163128,0.031179,0.187497,0.187497,0.172437,0.717441,0.000000,0.000000,0.000000,0.000000,0.000000,0.000000,0.000000,0.000000,0.000000,0.000000,0.000000,0.000000,2.285098,3,0
780000,-0.010540,17.910053,-0.035408,-0.046562,24.959406,0.045357,0.000275,0.003412,1.570462,-0.008302,0.001321,0.001571,-0.000128,-0.001528,0.000013,0.008759,0.010880,0.226624,-0.052617,0.188086,0.188087,0.172564,0.709609,0.000000,0.000000,0.000000,0.000000,0.000000,0.000000,0.000000,0.000000,0.000000,0.000000,0.000000,0.000000,2.286951,3,0
790000,-0.010667,18.166212,-0.034827,-0.046773,24.971893,0.046161,0.000302,0.003902,1.570450,-0.009449,0.001382,0.001547,-0.000136,-0.001676,0.000014,0.007038,0.011014,0.208462,0.004308,0.188667,0.188668,0.172681,0.701811,0.000000,0.000000,0.000000,0.000000,0.000000,0.000000,0.000000,0.000000,0.000000,0.000000,0.000000,0.000000,2.289217,3,0
800000,-0.010792,18.420706,-0.035478,-0.046990,24.981487,0.045244,0.000328,0.004273,1.570438,-0.010288,0.001444,0.001778,-0.000144,-0.001786,0.000015,0.003942,0.011143,0.150965,-0.038817,0.189239,0.189240,0.172788,0.694054,0.000000,0.000000,0.000000,0.000000,0.000000,0.000000,0.000000,0.000000,0.000000,0.000000,0.000000,0.000000,2.293150,3,0
810000,-0.010913,18.676060,-0.036796,-0.046911,24.992382,0.043238,0.000354,0.004703,1.570427,-0.011269,0.001507,0.002149,-0.000152,-0.001917,0.000016,0.005559,0.011268,0.174681,-0.061595,0.189801,0.189801,0.172883,0.686342,0.000000,0.000000,0.000000,0.000000,0.000000,0.000000,0.000000,0.000000,0.000000,0.000000,0.000000,0.000000,2.296222,3,0
820000,-0.011028,18.932262,-0.036608,-0.047006,25.004766,0.043459,0.000385,0.005202,1.570412,-0.012391,0.001572,0.002202,-0.000160,-0.002069,0.000018,0.006329,0.011389,0.197521,-0.008546,0.190351,0.190352,0.172966,0.678681,0.000000,0.000000,0.000000,0.000000,0.000000,0.000000,0.000000,0.000000,0.000000,0.000000,0.000000,0.000000,2.298446,3,0
830000,-0.011141,19.190575,-0.037842,-0.047155,25.020866,0.041694,0.000410,0.005858,1.570393,-0.013877,0.001638,0.002561,-0.000169,-0.002273,0.000020,0.011411,0.011506,0.259256,-0.057979,0.190890,0.190891,0.173036,0.671076,0.000000,0.000000,0.000000,0.000000,0.000000,0.000000,0.000000,0.000000,0.000000,0.000000,0.000000,0.000000,2.298561,3,0
840000,-0.011249,19.450333,-0.036815,-0.047325,25.038971,0.043302,0.000433,0.006627,1.570365,-0.015607,0.001705,0.002431,-0.000179,-0.002515,0.000022,0.014515,0.011621,0.298967,0.021089,0.191417,0.191418,0.173093,0.663531,0.000000,0.000000,0.000000,0.000000,0.000000,0.000000,0.000000,0.000000,0.000000,0.000000,0.000000,0.000000,2.297229,3,0
850000,-0.011354,19.708982,-0.035879,-0.047372,25.055134,0.044614,0.000468,0.007301,1.570345,-0.017112,0.001773,0.002323,-0.000188,-0.002729,0.000023,0.010785,0.011730,0.257694,0.017382,0.191932,0.191933,0.173137,0.656052,0.000000,0.000000,0.000000,0.000000,0.000000,0.000000,0.000000,0.000000,0.000000,0.000000,0.000000,0.000000,2.297006,3,0
860000,-0.011456,19.967167,-0.035064,-0.047494,25.070412,0.046056,0.000495,0.007934,1.570322,-0.018510,0.001843,0.002243,-0.000199,-0.002930,0.000025,0.009142,0.011836,0.237427,0.012638,0.192433,0.192434,0.173167,0.648642,0.000000,0.000000,0.000000,0.000000,0.000000,0.000000,0.000000,0.000000,0.000000,0.000000,0.000000,0.000000,2.297247,3,0
870000,-0.011556,20.225525,-0.035551,-0.047697,25.085663,0.045353,0.000517,0.008579,1.570303,-0.019919,0.001914,0.002458,-0.000209,-0.003137,0.000027,0.009298,0.011939,0.237516,-0.032926,0.192922,0.192923,0.173183,0.641306,0.000000,0.000000,0.000000,0.000000,0.000000,0.000000,0.000000,0.000000,0.000000,0.000000,0.000000,0.000000,2.297316,3,0
880000,-0.011653,20.485977,-0.035123,-0.047851,25.104580,0.046179,0.000540,0.009395,1.570278,-0.021696,0.001986,0.002465,-0.000219,-0.003402,0.000029,0.014257,0.012041,0.297066,-0.000978,0.193397,0.193398,0.173185,0.634047,0.000000,0.000000,0.000000,0.000000,0.000000,0.000000,0.000000,0.000000,0.000000,0.000000,0.000000,0.000000,2.295291,3,0
890000,-0.011747,20.747211,-0.034596,-0.047930,25.124498,0.047039,0.000581,0.010290,1.570248,-0.023593,0.002059,0.002452,-0.000231,-0.003689,0.000031,0.016000,0.012139,0.314730,0.002198,0.193859,0.193859,0.173172,0.626867,0.000000,0.000000,0.000000,0.000000,0.000000,0.000000,0.000000,0.000000,0.000000,0.000000,0.000000,0.000000,2.292484,3,0
900000,-0.011837,21.003422,-0.034712,-0.047830,25.135229,0.046960,0.000617,0.010752,1.570222,-0.024520,0.002133,0.002590,-0.000242,-0.003832,0.000033,0.003852,0.012232,0.152691,-0.020482,0.194307,0.194308,0.173146,0.619771,0.000000,0.000000,0.000000,0.000000,0.000000,0.000000,0.000000,0.000000,0.000000,0.000000,0.000000,0.000000,2.294699,3,0
910000,-0.011919,21.262402,-0.033588,-0.047640,25.150862,0.048734,0.000652,0.011436,1.570201,-0.025951,0.002208,0.002438,-0.000254,-0.004055,0.000035,0.008960,0.012320,0.234312,0.022572,0.194742,0.194742,0.173105,0.612762,0.000000,0.000000,0.000000,0.000000,0.000000,0.000000,0.000000,0.000000,0.000000,0.000000,0.000000,0.000000,2.294146,3,0
920000,-0.012001,21.522823,-0.034906,-0.047660,25.168463,0.046821,0.000685,0.012257,1.570192,-0.027631,0.002285,0.002867,-0.000265,-0.004322,0.000037,0.012709,0.012403,0.273363,-0.062621,0.195163,0.195163,0.173050,0.605841,0.000000,0.000000,0.000000,0.000000,0.000000,0.000000,0.000000,0.000000,0.000000,0.000000,0.000000,0.000000,2.292150,3,0
930000,-0.012078,21.782722,-0.035049,-0.047619,25.185135,0.046642,0.000720,0.013019,1.570166,-0.029186,0.002362,0.003014,-0.000278,-0.004573,0.000039,0.010281,0.012485,0.251308,-0.021261,0.195571,0.195571,0.172981,0.599012,0.000000,0.000000,0.000000,0.000000,0.000000,0.000000,0.000000,0.000000,0.000000,0.000000,0.000000,0.000000,2.290675,3,0
940000,-0.012153,22.040157,-0.035141,-0.047717,25.197479,0.046650,0.000751,0.013563,1.570159,-0.030244,0.002440,0.003150,-0.000290,-0.004746,0.000041,0.004755,0.012563,0.170151,-0.019506,0.195965,0.195966,0.172898,0.592278,0.000000,0.000000,0.000000,0.000000,0.000000,0.000000,0.000000,0.000000,0.000000,0.000000,0.000000,0.000000,2.291668,3,0
950000,-0.012225,22.301657,-0.035969,-0.047762,25.216665,0.045617,0.000786,0.014478,1.570137,-0.032059,0.002519,0.003467,-0.000303,-0.005048,0.000043,0.013938,0.012638,0.290293,-0.044977,0.196347,0.196347,0.172802,0.585639,0.000000,0.000000,0.000000,0.000000,0.000000,0.000000,0.000000,0.000000,0.000000,0.000000,0.000000,0.000000,2.288594,3,0
960000,-0.012294,22.563259,-0.036469,-0.047698,25.235682,0.045228,0.000829,0.015395,1.570119,-0.033863,0.002599,0.003704,-0.000316,-0.005352,0.000046,0.013486,0.012710,0.287025,-0.033307,0.196716,0.196716,0.172692,0.579097,0.000000,0.000000,0.000000,0.000000,0.000000,0.000000,0.000000,0.000000,0.000000,0.000000,0.000000,0.000000,2.285420,3,0
970000,-0.012356,22.821043,-0.035991,-0.047439,25.247889,0.045995,0.000868,0.015950,1.570104,-0.034901,0.002680,0.003698,-0.000330,-0.005530,0.000047,0.004382,0.012775,0.164385,0.000777,0.197072,0.197072,0.172568,0.572655,0.000000,0.000000,0.000000,0.000000,0.000000,0.000000,0.000000,0.000000,0.000000,0.000000,0.000000,0.000000,2.286059,3,0
980000,-0.012416,23.082245,-0.036443,-0.047466,25.265873,0.045598,0.000914,0.016813,1.570085,-0.036578,0.002761,0.003928,-0.000344,-0.005822,0.000050,0.011450,0.012838,0.264301,-0.031793,0.197416,0.197416,0.172432,0.566313,0.000000,0.000000,0.000000,0.000000,0.000000,0.000000,0.000000,0.000000,0.000000,0.000000,0.000000,0.000000,2.283287,3,0
990000,-0.012473,23.340265,-0.036081,-0.047462,25.277834,0.046030,0.000956,0.017384,1.570062,-0.037610,0.002843,0.003952,-0.000358,-0.006004,0.000051,0.004256,0.012898,0.161951,-0.003324,0.197748,0.197749,0.172283,0.560073,0.000000,0.000000,0.000000,0.000000,0.000000,0.000000,0.000000,0.000000,0.000000,0.000000,0.000000,0.000000,2.283693,3,0
1000000,-0.012524,23.599083,-0.035016,-0.047155,25.291149,0.047395,0.000996,0.018019,1.570050,-0.038775,0.002926,0.003796,-0.000373,-0.006213,0.000053,0.005444,0.012952,0.182112,0.021070,0.198069,0.198069,0.172122,0.553935,0.000000,0.000000,0.000000,0.000000,0.000000,0.000000,0.000000,0.000000,0.000000,0.000000,0.000000,0.000000,2.283300,3,0
1010000,-0.012574,23.859346,-0.035684,-0.047144,25.307177,0.046453,0.001035,0.018793,1.570034,-0.040196,0.003010,0.004091,-0.000388,-0.006472,0.000055,0.008179,0.013003,0.221340,-0.039827,0.198379,0.198378,0.171948,0.547902,0.000000,0.000000,0.000000,0.000000,0.000000,0.000000,0.000000,0.000000,0.000000,0.000000,0.000000,0.000000,2.281464,3,0
1020000,-0.012617,24.121685,-0.034413,-0.046855,25.326389,0.048155,0.001080,0.019764,1.570001,-0.041993,0.003093,0.003878,-0.000404,-0.006803,0.000058,0.012699,0.013050,0.278982,0.028277,0.198677,0.198677,0.171763,0.541973,0.000000,0.000000,0.000000,0.000000,0.000000,0.000000,0.000000,0.000000,0.000000,0.000000,0.000000,0.000000,2.277550,3,0
1030000,-0.012660,24.384098,-0.035659,-0.046741,25.345640,0.046097,0.001122,0.020735,1.569984,-0.043769,0.003178,0.004331,-0.000419,-0.007137,0.000061,0.012789,0.013092,0.274876,-0.060194,0.198965,0.198965,0.171567,0.536149,0.000000,0.000000,0.000000,0.000000,0.000000,0.000000,0.000000,0.000000,0.000000,0.000000,0.000000,0.000000,2.273564,3,0
1040000,-0.012697,24.643278,-0.035816,-0.046463,25.359058,0.045870,0.001162,0.021381,1.569969,-0.044879,0.003263,0.004494,-0.000435,-0.007349,0.000063,0.004832,0.013132,0.171299,-0.021669,0.199243,0.199243,0.171360,0.530430,0.000000,0.000000,0.000000,0.000000,0.000000,0.000000,0.000000,0.000000,0.000000,0.000000,0.000000,0.000000,2.272809,3,0
1050000,-0.012731,24.901907,-0.034650,-0.046575,25.371283,0.047514,0.001210,0.021964,1.569952,-0.045858,0.003349,0.004303,-0.000452,-0.007538,0.000065,0.003778,0.013170,0.150532,0.024738,0.199512,0.199511,0.171142,0.524817,0.000000,0.000000,0.000000,0.000000,0.000000,0.000000,0.000000,0.000000,0.000000,0.000000,0.000000,0.000000,2.272607,3,0
1060000,-0.012763,25.161980,-0.033984,-0.046413,25.385935,0.048599,0.001249,0.022695,1.569927,-0.047096,0.003434,0.004250,-0.000469,-0.007780,0.000067,0.005849,0.013203,0.189962,0.006651,0.199771,0.199770,0.170914,0.519310,0.000000,0.000000,0.000000,0.000000,0.000000,0.000000,0.000000,0.000000,0.000000,0.000000,0.000000,0.000000,2.270960,3,0
1070000,-0.012795,25.420160,-0.035140,-0.046302,25.396898,0.047138,0.001292,0.023218,1.569915,-0.047934,0.003521,0.004699,-0.000485,-0.007948,0.000068,0.003231,0.013234,0.128534,-0.057821,0.200022,0.200021,0.170676,0.513907,0.000000,0.000000,0.000000,0.000000,0.000000,0.000000,0.000000,0.000000,0.000000,0.000000,0.000000,0.000000,2.271208,3,0
1080000,-0.012822,25.681112,-0.034913,-0.046227,25.412603,0.047541,0.001346,0.024029,1.569899,-0.049296,0.003608,0.004764,-0.000503,-0.008223,0.000071,0.007023,0.013265,0.208185,-0.008575,0.200265,0.200264,0.170429,0.508610,0.000000,0.000000,0.000000,0.000000,0.000000,0.000000,0.000000,0.000000,0.000000,0.000000,0.000000,0.000000,2.268679,3,0
1090000,-0.012845,25.943468,-0.033626,-0.046040,25.430626,0.049162,0.001397,0.024993,1.569872,-0.050903,0.003694,0.004532,-0.000521,-0.008552,0.000073,0.009853,0.013291,0.245258,0.028801,0.200500,0.200498,0.170173,0.503417,0.000000,0.000000,0.000000,0.000000,0.000000,0.000000,0.000000,0.000000,0.000000,0.000000,0.000000,0.000000,2.264752,3,0
1100000,-0.012869,26.203218,-0.033229,-0.046103,25.443926,0.049606,0.001451,0.025654,1.569861,-0.051964,0.003781,0.004556,-0.000539,-0.008773,0.000075,0.004239,0.013314,0.161631,-0.003308,0.200728,0.200726,0.169908,0.498330,0.000000,0.000000,0.000000,0.000000,0.000000,0.000000,0.000000,0.000000,0.000000,0.000000,0.000000,0.000000,2.263426,3,0
1110000,-0.012888,26.462395,-0.031818,-0.045997,25.456106,0.051210,0.001505,0.026252,1.569853,-0.052886,0.003869,0.004293,-0.000558,-0.008967,0.000077,0.003370,0.013336,0.140293,0.032461,0.200949,0.200946,0.169635,0.493347,0.000000,0.000000,0.000000,0.000000,0.000000,0.000000,0.000000,0.000000,0.000000,0.000000,0.000000,0.000000,2.262677,3,0
1120000,-0.012907,26.726337,-0.032063,-0.045822,25.476643,0.050699,0.001546,0.027366,1.569828,-0.054718,0.003956,0.004502,-0.000576,-0.009360,0.000080,0.012643,0.013354,0.278570,-0.026530,0.201163,0.201160,0.169355,0.488468,0.000000,0.000000,0.000000,0.000000,0.000000,0.000000,0.000000,0.000000,0.000000,0.000000,0.000000,0.000000,2.257159,3,0
1130000,-0.012925,26.988968,-0.032238,-0.045806,25.494539,0.050455,0.001592,0.028343,1.569808,-0.056253,0.004044,0.004693,-0.000595,-0.009694,0.000083,0.008874,0.013373,0.233091,-0.024054,0.201372,0.201368,0.169067,0.483692,0.000000,0.000000,0.000000,0.000000,0.000000,0.000000,0.000000,0.000000,0.000000,0.000000,0.000000,0.000000,2.252955,3,0
1140000,-0.012938,27.250971,-0.032485,-0.045358,25.511040,0.049956,0.001643,0.029234,1.569785,-0.057628,0.004133,0.004905,-0.000614,-0.009998,0.000086,0.007167,0.013387,0.208830,-0.026513,0.201575,0.201571,0.168772,0.479017,0.000000,0.000000,0.000000,0.000000,0.000000,0.000000,0.000000,0.000000,0.000000,0.000000,0.000000,0.000000,2.249377,3,0
1150000,-0.012948,27.513693,-0.032391,-0.045206,25.528864,0.050108,0.001697,0.030186,1.569765,-0.059110,0.004221,0.005017,-0.000634,-0.010330,0.000089,0.008213,0.013398,0.224960,-0.014245,0.201773,0.201768,0.168471,0.474445,0.000000,0.000000,0.000000,0.000000,0.000000,0.000000,0.000000,0.000000,0.000000,0.000000,0.000000,0.000000,2.245082,3,0
1160000,-0.012952,27.775108,-0.031002,-0.044936,25.544140,0.051813,0.001758,0.030998,1.569748,-0.060302,0.004308,0.004748,-0.000654,-0.010600,0.000091,0.005454,0.013405,0.180727,0.031842,0.201966,0.201961,0.168163,0.469973,0.000000,0.000000,0.000000,0.000000,0.000000,0.000000,0.000000,0.000000,0.000000,0.000000,0.000000,0.000000,2.242091,3,0
1170000,-0.012958,28.037922,-0.032277,-0.044658,25.561768,0.050024,0.001809,0.031954,1.569734,-0.061734,0.004397,0.005276,-0.000674,-0.010931,0.000094,0.008297,0.013407,0.217342,-0.063852,0.202155,0.202149,0.167850,0.465601,0.000000,0.000000,0.000000,0.000000,0.000000,0.000000,0.000000,0.000000,0.000000,0.000000,0.000000,0.000000,2.237705,3,0
1180000,-0.012959,28.297409,-0.032111,-0.044507,25.573111,0.050280,0.001872,0.032508,1.569720,-0.062481,0.004486,0.005373,-0.000694,-0.011106,0.000096,0.002123,0.013411,0.113386,-0.012007,0.202340,0.202334,0.167531,0.461327,0.000000,0.000000,0.000000,0.000000,0.000000,0.000000,0.000000,0.000000,0.000000,0.000000,0.000000,0.000000,2.236646,3,0
1190000,-0.012956,28.558985,-0.030724,-0.044300,25.587997,0.051920,0.001931,0.033308,1.569695,-0.063613,0.004573,0.005097,-0.000715,-0.011374,0.000098,0.004951,0.013410,0.171848,0.031975,0.202522,0.202515,0.167208,0.457150,0.000000,0.000000,0.000000,0.000000,0.000000,0.000000,0.000000,0.000000,0.000000,0.000000,0.000000,0.000000,2.233493,3,0
1200000,-0.012952,28.818600,-0.031656,-0.043841,25.599615,0.050630,0.001998,0.033863,1.569674,-0.064329,0.004662,0.005538,-0.000736,-0.011548,0.000100,0.002380,0.013402,0.108908,-0.052165,0.202700,0.202693,0.166880,0.453071,0.000000,0.000000,0.000000,0.000000,0.000000,0.000000,0.000000,0.000000,0.000000,0.000000,0.000000,0.000000,2.232307,3,0
1210000,-0.012947,29.078287,-0.032411,-0.043874,25.611046,0.049463,0.002053,0.034425,1.569657,-0.065037,0.004751,0.005923,-0.000757,-0.011722,0.000101,0.002227,0.013398,0.107601,-0.045366,0.202876,0.202868,0.166547,0.449087,0.000000,0.000000,0.000000,0.000000,0.000000,0.000000,0.000000,0.000000,0.000000,0.000000,0.000000,0.000000,2.231044,3,0
1220000,-0.012940,29.341406,-0.033336,-0.043534,25.628021,0.048161,0.002106,0.035395,1.569642,-0.066388,0.004839,0.006354,-0.000778,-0.012058,0.000104,0.007257,0.013391,0.205626,-0.050892,0.203050,0.203041,0.166211,0.445194,0.000000,0.000000,0.000000,0.000000,0.000000,0.000000,0.000000,0.000000,0.000000,0.000000,0.000000,0.000000,2.226352,3,0
1230000,-0.012928,29.604536,-0.033027,-0.043369,25.644997,0.048496,0.002167,0.036349,1.569615,-0.067705,0.004927,0.006396,-0.000800,-0.012389,0.000107,0.006524,0.013381,0.200760,-0.005927,0.203221,0.203212,0.165871,0.441396,0.000000,0.000000,0.000000,0.000000,0.000000,0.000000,0.000000,0.000000,0.000000,0.000000,0.000000,0.000000,2.221647,3,0
1240000,-0.012913,29.867002,-0.032748,-0.042979,25.660690,0.048506,0.002224,0.037213,1.569600,-0.068858,0.005014,0.006450,-0.000822,-0.012683,0.000110,0.005025,0.013366,0.176006,-0.007076,0.203391,0.203381,0.165528,0.437688,0.000000,0.000000,0.000000,0.000000,0.000000,0.000000,0.000000,0.000000,0.000000,0.000000,0.000000,0.000000,2.217607,3,0
1250000,-0.012896,30.126795,-0.033382,-0.042571,25.671446,0.047783,0.002283,0.037724,1.569590,-0.069462,0.005102,0.006803,-0.000844,-0.012841,0.000111,0.001668,0.013347,0.092293,-0.040655,0.203560,0.203548,0.165182,0.434072,0.000000,0.000000,0.000000,0.000000,0.000000,0.000000,0.000000,0.000000,0.000000,0.000000,0.000000,0.000000,2.216238,3,0
1260000,-0.012873,30.390020,-0.032213,-0.042295,25.688305,0.049297,0.002340,0.038654,1.569564,-0.070704,0.005188,0.006568,-0.000867,-0.013166,0.000114,0.005959,0.013327,0.190208,0.025506,0.203727,0.203715,0.164834,0.430544,0.000000,0.000000,0.000000,0.000000,0.000000,0.000000,0.000000,0.000000,0.000000,0.000000,0.000000,0.000000,2.211442,3,0
1270000,-0.012850,30.653252,-0.031827,-0.042101,25.704920,0.049696,0.002406,0.039593,1.569539,-0.071911,0.005274,0.006589,-0.000890,-0.013487,0.000117,0.005555,0.013302,0.185244,-0.003505,0.203894,0.203881,0.164483,0.427104,0.000000,0.000000,0.000000,0.000000,0.000000,0.000000,0.000000,0.000000,0.000000,0.000000,0.000000,0.000000,2.206634,3,0
1280000,-0.012823,30.917160,-0.030992,-0.041745,25.722363,0.050816,0.002468,0.040606,1.569518,-0.073212,0.005360,0.006463,-0.000914,-0.013838,0.000120,0.006505,0.013275,0.200150,0.012802,0.204060,0.204046,0.164130,0.423749,0.000000,0.000000,0.000000,0.000000,0.000000,0.000000,0.000000,0.000000,0.000000,0.000000,0.000000,0.000000,2.201152,3,0
1290000,-0.012793,31.179705,-0.030055,-0.041437,25.737446,0.052011,0.002521,0.041425,1.569510,-0.074215,0.005445,0.006309,-0.000937,-0.014113,0.000122,0.003924,0.013245,0.154732,0.015972,0.204226,0.204211,0.163776,0.420481,0.000000,0.000000,0.000000,0.000000,0.000000,0.000000,0.000000,0.000000,0.000000,0.000000,0.000000,0.000000,2.197034,3,0
1300000,-0.012764,31.442938,-0.030472,-0.041162,25.753099,0.051339,0.002593,0.042330,1.569499,-0.075317,0.005531,0.006606,-0.000960,-0.014421,0.000125,0.004886,0.013213,0.170345,-0.033968,0.204393,0.204376,0.163421,0.417293,0.000000,0.000000,0.000000,0.000000,0.000000,0.000000,0.000000,0.000000,0.000000,0.000000,0.000000,0.000000,2.192227,3,0
1310000,-0.012735,31.706850,-0.031621,-0.040873,25.770111,0.049708,0.002653,0.043309,1.569486,-0.076513,0.005617,0.007145,-0.000984,-0.014760,0.000128,0.006149,0.013181,0.185255,-0.060653,0.204559,0.204541,0.163064,0.414188,0.000000,0.000000,0.000000,0.000000,0.000000,0.000000,0.000000,0.000000,0.000000,0.000000,0.000000,0.000000,2.186738,3,0
1320000,-0.012697,31.968021,-0.030482,-0.040443,25.781981,0.051091,0.002730,0.043907,1.569468,-0.077156,0.005701,0.006920,-0.001008,-0.014943,0.000130,0.001733,0.013147,0.100084,0.023849,0.204726,0.204707,0.162706,0.411164,0.000000,0.000000,0.000000,0.000000,0.000000,0.000000,0.000000,0.000000,0.000000,0.000000,0.000000,0.000000,2.183993,3,0
1330000,-0.012662,32.231941,-0.031543,-0.040174,25.798660,0.049696,0.002793,0.044867,1.569451,-0.078289,0.005786,0.007436,-0.001032,-0.015275,0.000133,0.005593,0.013107,0.176735,-0.057577,0.204893,0.204873,0.162348,0.408219,0.000000,0.000000,0.000000,0.000000,0.000000,0.000000,0.000000,0.000000,0.000000,0.000000,0.000000,0.000000,2.178500,3,0
1340000,-0.012620,32.495155,-0.031226,-0.039699,25.813932,0.049997,0.002857,0.045719,1.569436,-0.079255,0.005869,0.007482,-0.001056,-0.015559,0.000135,0.003713,0.013067,0.151192,-0.006227,0.205062,0.205040,0.161990,0.405352,0.000000,0.000000,0.000000,0.000000,0.000000,0.000000,0.000000,0.000000,0.000000,0.000000,0.000000,0.000000,2.173712,3,0
1350000,-0.012578,32.759041,-0.030653,-0.039574,25.830521,0.050601,0.002933,0.046640,1.569420,-0.080313,0.005951,0.007438,-0.001081,-0.015875,0.000138,0.004471,0.013024,0.166126,0.003258,0.205231,0.205208,0.161632,0.402564,0.000000,0.000000,0.000000,0.000000,0.000000,0.000000,0.000000,0.000000,0.000000,0.000000,0.000000,0.000000,2.168249,3,0
1360000,-0.012535,33.018818,-0.029973,-0.039333,25.839237,0.051212,0.003005,0.046996,1.569407,-0.080574,0.006033,0.007374,-0.001106,-0.015954,0.000139,0.000308,0.012980,0.041229,0.006488,0.205402,0.205377,0.161274,0.399848,0.000000,0.000000,0.000000,0.000000,0.000000,0.000000,0.000000,0.000000,0.000000,0.000000,0.000000,0.000000,2.166899,3,0
1370000,-0.012490,33.282722,-0.029377,-0.039088,25.855347,0.051730,0.003067,0.047913,1.569392,-0.081579,0.006114,0.007325,-0.001131,-0.016263,0.000142,0.004102,0.012934,0.159061,0.003725,0.205573,0.205547,0.160916,0.397207,0.000000,0.000000,0.000000,0.000000,0.000000,0.000000,0.000000,0.000000,0.000000,0.000000,0.000000,0.000000,2.161421,3,0
1380000,-0.012444,33.544559,-0.029399,-0.038660,25.867397,0.051462,0.003134,0.048525,1.569371,-0.082169,0.006196,0.007504,-0.001156,-0.016448,0.000143,0.001506,0.012885,0.093788,-0.019830,0.205746,0.205718,0.160559,0.394635,0.000000,0.000000,0.000000,0.000000,0.000000,0.000000,0.000000,0.000000,0.000000,0.000000,0.000000,0.000000,2.158010,3,0
1390000,-0.012392,33.807079,-0.029033,-0.038042,25.880795,0.051604,0.003199,0.049222,1.569362,-0.082859,0.006276,0.007542,-0.001181,-0.016667,0.000145,0.001983,0.012832,0.110130,-0.005124,0.205921,0.205891,0.160203,0.392136,0.000000,0.000000,0.000000,0.000000,0.000000,0.000000,0.000000,0.000000,0.000000,0.000000,0.000000,0.000000,2.153917,3,0
1400000,-0.012340,34.068916,-0.030096,-0.037628,25.892551,0.050083,0.003270,0.049814,1.569358,-0.083395,0.006357,0.008096,-0.001206,-0.016842,0.000147,0.001781,0.012776,0.086025,-0.058984,0.206097,0.206065,0.159848,0.389704,0.000000,0.000000,0.000000,0.000000,0.000000,0.000000,0.000000,0.000000,0.000000,0.000000,0.000000,0.000000,2.150506,3,0
1410000,-0.012281,34.333477,-0.029430,-0.037105,25.909164,0.050807,0.003334,0.050774,1.569344,-0.084400,0.006435,0.008013,-0.001231,-0.017170,0.000150,0.004258,0.012719,0.162014,0.006914,0.206274,0.206240,0.159494,0.387340,0.000000,0.000000,0.000000,0.000000,0.000000,0.000000,0.000000,0.000000,0.000000,0.000000,0.000000,0.000000,2.144372,3,0
1420000,-0.012224,34.595264,-0.030404,-0.036796,25.920219,0.049302,0.003400,0.051335,1.569327,-0.084871,0.006515,0.008540,-0.001256,-0.017328,0.000152,0.001461,0.012657,0.076199,-0.055562,0.206453,0.206418,0.159142,0.385039,0.000000,0.000000,0.000000,0.000000,0.000000,0.000000,0.000000,0.000000,0.000000,0.000000,0.000000,0.000000,2.141007,3,0
1430000,-0.012160,34.855667,-0.029543,-0.036264,25.929102,0.050238,0.003470,0.051672,1.569317,-0.085073,0.006591,0.008402,-0.001283,-0.017395,0.000152,0.000232,0.012595,0.032963,0.013888,0.206634,0.206597,0.158791,0.382807,0.000000,0.000000,0.000000,0.000000,0.000000,0.000000,0.000000,0.000000,0.000000,0.000000,0.000000,0.000000,2.139031,3,0
1440000,-0.012095,35.116772,-0.028354,-0.036074,25.938995,0.051387,0.003542,0.052083,1.569309,-0.085383,0.006667,0.008141,-0.001309,-0.017499,0.000154,0.000552,0.012529,0.050777,0.026192,0.206817,0.206777,0.158442,0.380637,0.000000,0.000000,0.000000,0.000000,0.000000,0.000000,0.000000,0.000000,0.000000,0.000000,0.000000,0.000000,2.136353,3,0
1450000,-0.012033,35.376522,-0.028961,-0.035725,25.946367,0.050491,0.003614,0.052297,1.569303,-0.085434,0.006744,0.008558,-0.001335,-0.017519,0.000154,0.000332,0.012460,0.008244,-0.042700,0.207002,0.206960,0.158095,0.378529,0.000000,0.000000,0.000000,0.000000,0.000000,0.000000,0.000000,0.000000,0.000000,0.000000,0.000000,0.000000,2.135028,3,0
1460000,-0.011969,35.636982,-0.028330,-0.035625,25.955173,0.051033,0.003686,0.052604,1.569291,-0.085595,0.006819,0.008508,-0.001361,-0.017576,0.000155,0.000143,0.012397,0.026714,0.004779,0.207188,0.207144,0.157750,0.376484,0.000000,0.000000,0.000000,0.000000,0.000000,0.000000,0.000000,0.000000,0.000000,0.000000,0.000000,0.000000,2.132991,3,0
1470000,-0.011902,35.900883,-0.027982,-0.035187,25.969578,0.051268,0.003753,0.053427,1.569286,-0.086339,0.006892,0.008545,-0.001387,-0.017841,0.000157,0.002503,0.012328,0.123997,-0.005483,0.207376,0.207329,0.157408,0.374492,0.000000,0.000000,0.000000,0.000000,0.000000,0.000000,0.000000,0.000000,0.000000,0.000000,0.000000,0.000000,2.127517,3,0
1480000,-0.011833,36.161301,-0.027036,-0.034849,25.977713,0.052211,0.003832,0.053702,1.569276,-0.086452,0.006965,0.008379,-0.001414,-0.017881,0.000158,0.000126,0.012258,0.018978,0.016519,0.207566,0.207517,0.157067,0.372560,0.000000,0.000000,0.000000,0.000000,0.000000,0.000000,0.000000,0.000000,0.000000,0.000000,0.000000,0.000000,2.125525,3,0
1490000,-0.011766,36.425171,-0.026456,-0.034710,25.991726,0.052552,0.003909,0.054485,1.569261,-0.087141,0.007036,0.008333,-0.001440,-0.018133,0.000160,0.002202,0.012188,0.116302,0.002970,0.207758,0.207706,0.156730,0.370682,0.000000,0.000000,0.000000,0.000000,0.000000,0.000000,0.000000,0.000000,0.000000,0.000000,0.000000,0.000000,2.120081,3,0
1500000,-0.011695,36.685543,-0.025263,-0.034328,25.999514,0.053630,0.003991,0.054722,1.569243,-0.087208,0.007107,0.008076,-0.001467,-0.018156,0.000161,0.000150,0.012117,0.011322,0.025559,0.207951,0.207897,0.156395,0.368861,0.000000,0.000000,0.000000,0.000000,0.000000,0.000000,0.000000,0.000000,0.000000,0.000000,0.000000,0.000000,2.118132,3,0
1510000,-0.011626,36.949387,-0.026186,-0.033806,26.013329,0.052076,0.004053,0.055496,1.569228,-0.087843,0.007179,0.008616,-0.001493,-0.018400,0.000163,0.002421,0.012041,0.108692,-0.055339,0.208146,0.208090,0.156063,0.367092,0.000000,0.000000,0.000000,0.000000,0.000000,0.000000,0.000000,0.000000,0.000000,0.000000,0.000000,0.000000,2.112718,3,0
1520000,-0.011554,37.210423,-0.026786,-0.033366,26.021961,0.051116,0.004125,0.055807,1.569227,-0.087981,0.007250,0.009048,-0.001519,-0.018455,0.000164,0.000415,0.011967,0.023617,-0.043174,0.208343,0.208284,0.155733,0.365376,0.000000,0.000000,0.000000,0.000000,0.000000,0.000000,0.000000,0.000000,0.000000,0.000000,0.000000,0.000000,2.110105,3,0
1530000,-0.011479,37.471447,-0.026934,-0.032865,26.030685,0.051088,0.004193,0.056106,1.569207,-0.088101,0.007319,0.009304,-0.001545,-0.018504,0.000165,0.000199,0.011890,0.020924,-0.025561,0.208541,0.208479,0.155407,0.363713,0.000000,0.000000,0.000000,0.000000,0.000000,0.000000,0.000000,0.000000,0.000000,0.000000,0.000000,0.000000,2.107507,3,0
1540000,-0.011404,37.733852,-0.027879,-0.032540,26.041510,0.049598,0.004271,0.056609,1.569194,-0.088433,0.007388,0.009864,-0.001571,-0.018640,0.000166,0.001072,0.011811,0.057999,-0.055968,0.208741,0.208676,0.155084,0.362097,0.000000,0.000000,0.000000,0.000000,0.000000,0.000000,0.000000,0.000000,0.000000,0.000000,0.000000,0.000000,2.103528,3,0
1550000,-0.011322,37.995518,-0.026829,-0.032050,26.050909,0.050997,0.004354,0.056973,1.569182,-0.088626,0.007454,0.009639,-0.001598,-0.018715,0.000167,0.000284,0.011732,0.034027,0.021514,0.208942,0.208875,0.154764,0.360529,0.000000,0.000000,0.000000,0.000000,0.000000,0.000000,0.000000,0.000000,0.000000,0.000000,0.000000,0.000000,2.100288,3,0
1560000,-0.011237,38.259941,-0.025926,-0.031519,26.065401,0.051787,0.004438,0.057763,1.569176,-0.089246,0.007518,0.009453,-0.001624,-0.018966,0.000169,0.002018,0.011645,0.110203,0.016138,0.209145,0.209075,0.154448,0.359011,0.000000,0.000000,0.000000,0.000000,0.000000,0.000000,0.000000,0.000000,0.000000,0.000000,0.000000,0.000000,2.094288,3,0
1570000,-0.011152,38.520832,-0.025491,-0.031019,26.073069,0.052140,0.004504,0.057970,1.569172,-0.089272,0.007583,0.009487,-0.001651,-0.018977,0.000170,0.000027,0.011555,0.004673,-0.003379,0.209349,0.209276,0.154134,0.357537,0.000000,0.000000,0.000000,0.000000,0.000000,0.000000,0.000000,0.000000,0.000000,0.000000,0.000000,0.000000,2.091823,3,0
1580000,-0.011067,38.781715,-0.025582,-0.030659,26.080603,0.051871,0.004586,0.058157,1.569166,-0.089284,0.007647,0.009737,-0.001677,-0.018984,0.000170,0.000116,0.011466,0.002129,-0.024080,0.209554,0.209478,0.153825,0.356107,0.000000,0.000000,0.000000,0.000000,0.000000,0.000000,0.000000,0.000000,0.000000,0.000000,0.000000,0.000000,2.089366,3,0
1590000,-0.010977,39.045353,-0.024522,-0.030185,26.092873,0.052710,0.004674,0.058791,1.569158,-0.089718,0.007708,0.009493,-0.001704,-0.019167,0.000172,0.001106,0.011376,0.079113,0.021915,0.209761,0.209682,0.153518,0.354717,0.000000,0.000000,0.000000,0.000000,0.000000,0.000000,0.000000,0.000000,0.000000,0.000000,0.000000,0.000000,2.084155,3,0
1600000,-0.010886,39.305466,-0.024329,-0.029592,26.098967,0.052739,0.004755,0.058839,1.569155,-0.089579,0.007770,0.009641,-0.001731,-0.019108,0.000172,0.000156,0.011280,-0.025620,-0.013579,0.209968,0.209886,0.153216,0.353375,0.000000,0.000000,0.000000,0.000000,0.000000,0.000000,0.000000,0.000000,0.000000,0.000000,0.000000,0.000000,2.082468,3,0
1610000,-0.010791,39.568348,-0.023206,-0.029088,26.109716,0.053578,0.004839,0.059315,1.569144,-0.089860,0.007829,0.009380,-0.001757,-0.019230,0.000173,0.000550,0.011184,0.052151,0.023857,0.210176,0.210091,0.152917,0.352070,0.000000,0.000000,0.000000,0.000000,0.000000,0.000000,0.000000,0.000000,0.000000,0.000000,0.000000,0.000000,2.078008,3,0
1620000,-0.010696,39.829098,-0.022503,-0.028739,26.116720,0.054187,0.004920,0.059437,1.569137,-0.089796,0.007888,0.009317,-0.001784,-0.019200,0.000174,0.000049,0.011086,-0.012051,0.006255,0.210385,0.210296,0.152621,0.350809,0.000000,0.000000,0.000000,0.000000,0.000000,0.000000,0.000000,0.000000,0.000000,0.000000,0.000000,0.000000,2.075688,3,0
1630000,-0.010604,40.092640,-0.023201,-0.028323,26.128674,0.053252,0.005006,0.060008,1.569126,-0.090139,0.007948,0.009813,-0.001809,-0.019361,0.000175,0.001079,0.010987,0.065067,-0.048318,0.210594,0.210502,0.152330,0.349584,0.000000,0.000000,0.000000,0.000000,0.000000,0.000000,0.000000,0.000000,0.000000,0.000000,0.000000,0.000000,2.070569,3,0
1640000,-0.010505,40.356098,-0.022210,-0.027802,26.140369,0.053981,0.005081,0.060532,1.569111,-0.090452,0.008004,0.009601,-0.001836,-0.019503,0.000177,0.000652,0.010889,0.059834,0.018736,0.210804,0.210708,0.152042,0.348398,0.000000,0.000000,0.000000,0.000000,0.000000,0.000000,0.000000,0.000000,0.000000,0.000000,0.000000,0.000000,2.065536,3,0
1650000,-0.010408,40.620205,-0.022247,-0.027418,26.152809,0.053520,0.005157,0.061159,1.569100,-0.090838,0.008060,0.009818,-0.001862,-0.019686,0.000179,0.000991,0.010786,0.074566,-0.021983,0.211014,0.210915,0.151759,0.347245,0.000000,0.000000,0.000000,0.000000,0.000000,0.000000,0.000000,0.000000,0.000000,0.000000,0.000000,0.000000,2.059856,3,0
1660000,-0.010310,40.884243,-0.022681,-0.026890,26.164972,0.052671,0.005240,0.061768,1.569092,-0.091191,0.008117,0.010205,-0.001887,-0.019857,0.000180,0.001009,0.010684,0.068760,-0.037687,0.211224,0.211121,0.151479,0.346127,0.000000,0.000000,0.000000,0.000000,0.000000,0.000000,0.000000,0.000000,0.000000,0.000000,0.000000,0.000000,2.054244,3,0
1670000,-0.010213,41.144714,-0.023911,-0.026489,26.170305,0.050785,0.005314,0.061773,1.569088,-0.091006,0.008174,0.010969,-0.001912,-0.019775,0.000180,0.001034,0.010582,-0.036369,-0.070284,0.211434,0.211328,0.151203,0.345042,0.000000,0.000000,0.000000,0.000000,0.000000,0.000000,0.000000,0.000000,0.000000,0.000000,0.000000,0.000000,2.052195,3,0
1680000,-0.010111,41.404449,-0.024316,-0.025828,26.174183,0.050196,0.005383,0.061637,1.569086,-0.090713,0.008228,0.011385,-0.001937,-0.019636,0.000180,0.000791,0.010479,-0.058350,-0.037282,0.211644,0.211534,0.150931,0.343989,0.000000,0.000000,0.000000,0.000000,0.000000,0.000000,0.000000,0.000000,0.000000,0.000000,0.000000,0.000000,2.050886,3,0
1690000,-0.010006,41.667683,-0.024760,-0.025217,26.184597,0.049368,0.005465,0.062064,1.569084,-0.090909,0.008281,0.011778,-0.001962,-0.019738,0.000181,0.000496,0.010370,0.039696,-0.037264,0.211853,0.211740,0.150663,0.342970,0.000000,0.000000,0.000000,0.000000,0.000000,0.000000,0.000000,0.000000,0.000000,0.000000,0.000000,0.000000,2.046079,3,0
1700000,-0.009898,41.928028,-0.024273,-0.024743,26.189505,0.049874,0.005545,0.061987,1.569082,-0.090690,0.008332,0.011803,-0.001988,-0.019627,0.000180,0.000339,0.010261,-0.044731,-0.001143,0.212062,0.211945,0.150399,0.341982,0.000000,0.000000,0.000000,0.000000,0.000000,0.000000,0.000000,0.000000,0.000000,0.000000,0.000000,0.000000,2.044160,3,0
1710000,-0.009788,42.189754,-0.023716,-0.024273,26.196850,0.050329,0.005623,0.062148,1.569087,-0.090657,0.008381,0.011783,-0.002013,-0.019609,0.000181,0.000025,0.010148,-0.006943,0.002054,0.212271,0.212150,0.150139,0.341023,0.000000,0.000000,0.000000,0.000000,0.000000,0.000000,0.000000,0.000000,0.000000,0.000000,0.000000,0.000000,2.040856,3,0
1720000,-0.009681,42.449341,-0.024316,-0.023812,26.199894,0.049489,0.005703,0.061924,1.569087,-0.090321,0.008432,0.012300,-0.002038,-0.019439,0.000180,0.001139,0.010033,-0.069946,-0.045446,0.212478,0.212354,0.149883,0.340089,0.000000,0.000000,0.000000,0.000000,0.000000,0.000000,0.000000,0.000000,0.000000,0.000000,0.000000,0.000000,2.039696,3,0
