time_us,pos_x,pos_y,pos_z,vel_x,vel_y,vel_z,roll,pitch,yaw,bias_ax,bias_ay,bias_az,bias_gx,bias_gy,bias_gz,nis,innov_x,innov_y,innov_z,cov_pos_x,cov_pos_y,cov_pos_z,cov_yaw,des_speed,des_heading,des_climb,pid_speed,pid_yaw,pid_alt,speed_meas,yaw_meas,climb_meas,fwd_accel,yaw_rate,vert_accel,drift_m,nav_mode,mission_state
0,0.000003,0.150001,0.000002,0.000428,25.000179,0.000377,-0.000004,0.000005,1.570796,0.000000,0.000000,0.000000,0.000000,0.000000,0.000000,0.006250,-0.000004,-0.250004,-0.000004,2.400038,2.400038,3.600017,1.000518,0.000000,0.000000,0.000000,0.000000,0.000000,0.000000,0.000000,0.000000,0.000000,0.000000,0.000000,0.000000,0.150001,1,0
10000,0.000008,0.393632,-0.001355,0.000870,25.000378,0.000790,-0.000027,0.000006,1.570812,0.000000,-0.000000,0.000000,0.000000,0.000000,0.000000,0.000061,-0.000011,-0.022306,-0.003637,1.714420,1.714420,2.250079,1.001073,0.000000,0.000000,0.000000,0.000000,0.000000,0.000000,0.000000,0.000000,0.000000,0.000000,0.000000,0.000000,0.015932,3,0
20000,0.000017,0.637550,-0.020090,0.001375,25.000610,0.001237,-0.000039,0.000003,1.570819,0.000000,-0.000000,0.000001,-0.000000,0.000000,0.000000,0.000670,-0.000022,-0.027392,-0.068741,1.333616,1.333616,1.636554,1.001655,0.000000,0.000000,0.000000,0.000000,0.000000,0.000000,0.000000,0.000000,0.000000,0.000000,0.000000,0.000000,0.021304,3,0
30000,0.000029,0.870751,-0.017033,0.001904,25.000553,0.001658,-0.000048,0.000005,1.570821,0.000002,-0.000000,0.000000,0.000000,0.000000,0.000000,0.001191,-0.000036,-0.092402,0.014187,1.091392,1.091392,1.286065,1.002257,0.000000,0.000000,0.000000,0.000000,0.000000,0.000000,0.000000,0.000000,0.000000,0.000000,0.000000,0.000000,0.075594,3,0
40000,0.000046,1.131842,-0.024996,0.002476,25.001238,0.001960,-0.000055,0.000002,1.570824,-0.000000,-0.000000,0.000002,-0.000000,-0.000000,-0.000000,0.001011,-0.000054,0.071975,-0.045220,0.923811,0.923811,1.059385,1.002869,0.000000,0.000000,0.000000,0.000000,0.000000,0.000000,0.000000,0.000000,0.000000,0.000000,0.000000,0.000000,0.060893,3,0
50000,0.000066,1.369879,-0.030982,0.003042,25.001190,0.002363,-0.000073,0.000002,1.570831,0.000004,-0.000000,0.000003,-0.000000,0.000000,0.000000,0.001390,-0.000076,-0.089729,-0.040041,0.801036,0.801036,0.900822,1.003484,0.000000,0.000000,0.000000,0.000000,0.000000,0.000000,0.000000,0.000000,0.000000,0.000000,0.000000,0.000000,0.077750,3,0
60000,0.000089,1.614065,-0.030275,0.003500,25.001244,0.002743,-0.000083,0.000004,1.570840,0.000007,-0.000000,0.000003,0.000000,0.000000,0.000000,0.000364,-0.000101,-0.049461,0.005207,0.707270,0.707270,0.783741,1.004094,0.000000,0.000000,0.000000,0.000000,0.000000,0.000000,0.000000,0.000000,0.000000,0.000000,0.000000,0.000000,0.043630,3,0
70000,0.000116,1.864559,-0.033091,0.004020,25.001516,0.003175,-0.000105,0.000011,1.570846,0.000006,-0.000000,0.000005,0.000000,0.000000,0.000000,0.000093,-0.000129,0.004539,-0.024643,0.633370,0.633370,0.693801,1.004688,0.000000,0.000000,0.000000,0.000000,0.000000,0.000000,0.000000,0.000000,0.000000,0.000000,0.000000,0.000000,0.004061,3,0
80000,0.000145,2.113868,-0.033595,0.004416,25.001728,0.003535,-0.000125,0.000009,1.570851,0.000007,-0.000000,0.000005,0.000000,0.000000,0.000000,0.000012,-0.000160,-0.007411,-0.005195,0.573673,0.573673,0.622594,1.005260,0.000000,0.000000,0.000000,0.000000,0.000000,0.000000,0.000000,0.000000,0.000000,0.000000,0.000000,0.000000,0.006704,3,0
90000,0.000177,2.360562,-0.028985,0.004978,25.001720,0.004390,-0.000137,0.000016,1.570850,0.000012,-0.000000,-0.000001,0.000000,0.000000,0.000000,0.000576,-0.000194,-0.038055,0.048537,0.524488,0.524488,0.564865,1.005801,0.000000,0.000000,0.000000,0.000000,0.000000,0.000000,0.000000,0.000000,0.000000,0.000000,0.000000,0.000000,0.034729,3,0
100000,0.000213,2.621272,-0.025653,0.005382,25.003368,0.005089,-0.000152,0.000034,1.570858,-0.000009,-0.000000,-0.000006,0.000000,-0.000000,-0.000000,0.002920,-0.000231,0.132708,0.038114,0.483304,0.483304,0.517162,1.006301,0.000000,0.000000,0.000000,0.000000,0.000000,0.000000,0.000000,0.000000,0.000000,0.000000,0.000000,0.000000,0.122018,3,0
110000,0.000251,2.869170,-0.022306,0.005903,25.003359,0.006216,-0.000158,0.000027,1.570869,-0.000003,-0.000000,-0.000014,0.000000,-0.000000,-0.000000,0.000389,-0.000272,-0.028624,0.041352,0.448354,0.448354,0.477121,1.006754,0.000000,0.000000,0.000000,0.000000,0.000000,0.000000,0.000000,0.000000,0.000000,0.000000,0.000000,0.000000,0.026486,3,0
120000,0.000294,3.123490,-0.020680,0.006446,25.004435,0.007086,-0.000163,0.000029,1.570868,-0.000017,-0.000000,-0.000018,0.000000,-0.000000,-0.000000,0.000654,-0.000316,0.061419,0.021086,0.418359,0.418359,0.443071,1.007150,0.000000,0.000000,0.000000,0.000000,0.000000,0.000000,0.000000,0.000000,0.000000,0.000000,0.000000,0.000000,0.057138,3,0
130000,0.000340,3.375223,-0.020365,0.006950,25.005165,0.007736,-0.000172,0.000026,1.570874,-0.000023,-0.000000,-0.000019,0.000000,-0.000000,-0.000000,0.000105,-0.000363,0.025756,0.003456,0.392369,0.392369,0.413797,1.007481,0.000000,0.000000,0.000000,0.000000,0.000000,0.000000,0.000000,0.000000,0.000000,0.000000,0.000000,0.000000,0.024074,3,0
140000,0.000388,3.630952,-0.018850,0.007328,25.006762,0.008607,-0.000189,0.000039,1.570885,-0.000051,-0.000000,-0.000026,0.000000,-0.000001,-0.000000,0.001402,-0.000413,0.092079,0.022117,0.369667,0.369667,0.388393,1.007739,0.000000,0.000000,0.000000,0.000000,0.000000,0.000000,0.000000,0.000000,0.000000,0.000000,0.000000,0.000000,0.086407,3,0
150000,0.000438,3.888862,-0.019123,0.007745,25.008898,0.009006,-0.000196,0.000049,1.570900,-0.000096,-0.000001,-0.000024,0.000000,-0.000002,-0.000000,0.002846,-0.000465,0.134519,-0.005970,0.349696,0.349696,0.366172,1.007915,0.000000,0.000000,0.000000,0.000000,0.000000,0.000000,0.000000,0.000000,0.000000,0.000000,0.000000,0.000000,0.126680,3,0
160000,0.000492,4.145325,-0.019202,0.008249,25.010918,0.009670,-0.000209,0.000064,1.570909,-0.000140,-0.000001,-0.000023,0.000000,-0.000003,-0.000000,0.002089,-0.000521,0.115134,-0.003039,0.332021,0.332021,0.346600,1.008002,0.000000,0.000000,0.000000,0.000000,0.000000,0.000000,0.000000,0.000000,0.000000,0.000000,0.000000,0.000000,0.108764,3,0
170000,0.000548,4.398467,-0.018653,0.008633,25.012232,0.010464,-0.000217,0.000080,1.570921,-0.000164,-0.000001,-0.000026,0.000000,-0.000003,-0.000000,0.000531,-0.000578,0.057439,0.008112,0.316298,0.316298,0.329260,1.007991,0.000000,0.000000,0.000000,0.000000,0.000000,0.000000,0.000000,0.000000,0.000000,0.000000,0.000000,0.000000,0.054414,3,0
180000,0.000606,4.655757,-0.021173,0.009024,25.014946,0.010310,-0.000236,0.000100,1.570930,-0.000232,-0.000001,-0.000002,0.000000,-0.000005,-0.000000,0.003601,-0.000638,0.142226,-0.050300,0.302247,0.302247,0.313817,1.007875,0.000000,0.000000,0.000000,0.000000,0.000000,0.000000,0.000000,0.000000,0.000000,0.000000,0.000000,0.000000,0.135063,3,0
190000,0.000666,4.908031,-0.022928,0.009413,25.016035,0.010369,-0.000242,0.000115,1.570933,-0.000255,-0.000002,0.000017,0.000000,-0.000006,-0.000000,0.000526,-0.000700,0.043941,-0.037284,0.289643,0.289643,0.300003,1.007645,0.000000,0.000000,0.000000,0.000000,0.000000,0.000000,0.000000,0.000000,0.000000,0.000000,0.000000,0.000000,0.041825,3,0
200000,0.000730,5.161440,-0.023664,0.009953,25.017706,0.010552,-0.000252,0.000129,1.570944,-0.000296,-0.000002,0.000027,0.000000,-0.000007,-0.000000,0.000827,-0.000766,0.069960,-0.017622,0.278297,0.278297,0.287598,1.007295,0.000000,0.000000,0.000000,0.000000,0.000000,0.000000,0.000000,0.000000,0.000000,0.000000,0.000000,0.000000,0.066719,3,0
210000,0.000797,5.415857,-0.023449,0.010355,25.019814,0.011331,-0.000265,0.000142,1.570955,-0.000357,-0.000003,0.000026,0.000000,-0.000009,-0.000000,0.001433,-0.000834,0.094840,0.002220,0.268056,0.268056,0.276421,1.006816,0.000000,0.000000,0.000000,0.000000,0.000000,0.000000,0.000000,0.000000,0.000000,0.000000,0.000000,0.000000,0.090606,3,0
220000,0.000867,5.671180,-0.024023,0.010887,25.022625,0.011458,-0.000273,0.000176,1.570956,-0.000440,-0.000003,0.000036,0.000000,-0.000011,-0.000000,0.002286,-0.000906,0.118705,-0.015587,0.258790,0.258790,0.266321,1.006202,0.000000,0.000000,0.000000,0.000000,0.000000,0.000000,0.000000,0.000000,0.000000,0.000000,0.000000,0.000000,0.113588,3,0
230000,0.000939,5.924004,-0.025377,0.011252,25.024326,0.011349,-0.000289,0.000188,1.570959,-0.000487,-0.000004,0.000062,0.000000,-0.000013,-0.000000,0.000806,-0.000980,0.062143,-0.034408,0.250389,0.250389,0.257172,1.005446,0.000000,0.000000,0.000000,0.000000,0.000000,0.000000,0.000000,0.000000,0.000000,0.000000,0.000000,0.000000,0.059557,3,0
240000,0.001014,6.179404,-0.025190,0.011767,25.027443,0.012054,-0.000293,0.000221,1.570972,-0.000592,-0.000005,0.000061,0.000000,-0.000016,-0.000000,0.002595,-0.001057,0.127366,0.001617,0.242760,0.242760,0.248866,1.004541,0.000000,0.000000,0.000000,0.000000,0.000000,0.000000,0.000000,0.000000,0.000000,0.000000,0.000000,0.000000,0.122217,3,0
250000,0.001092,6.431679,-0.023539,0.012215,25.028854,0.013264,-0.000316,0.000248,1.570986,-0.000637,-0.000006,0.000027,0.000000,-0.000018,-0.000000,0.000645,-0.001136,0.050846,0.037955,0.235823,0.235823,0.241314,1.003481,0.000000,0.000000,0.000000,0.000000,0.000000,0.000000,0.000000,0.000000,0.000000,0.000000,0.000000,0.000000,0.048860,3,0
260000,0.001171,6.684152,-0.021697,0.012611,25.030603,0.014816,-0.000329,0.000275,1.570988,-0.000692,-0.000007,-0.000014,0.000000,-0.000020,-0.000000,0.000825,-0.001218,0.056981,0.043609,0.229510,0.229510,0.234436,1.002258,0.000000,0.000000,0.000000,0.000000,0.000000,0.000000,0.000000,0.000000,0.000000,0.000000,0.000000,0.000000,0.054814,3,0
270000,0.001254,6.941255,-0.022606,0.013057,25.035316,0.014548,-0.000344,0.000336,1.570999,-0.000880,-0.000008,0.000014,0.000000,-0.000027,-0.000000,0.005451,-0.001302,0.182191,-0.027901,0.223761,0.223761,0.228165,1.000869,0.000000,0.000000,0.000000,0.000000,0.000000,0.000000,0.000000,0.000000,0.000000,0.000000,0.000000,0.000000,0.175401,3,0
280000,0.001339,7.194673,-0.023647,0.013535,25.037745,0.014233,-0.000362,0.000365,1.571017,-0.000973,-0.000010,0.000050,0.000000,-0.000031,-0.000000,0.001301,-0.001389,0.084072,-0.032138,0.218523,0.218523,0.222443,0.999307,0.000000,0.000000,0.000000,0.000000,0.000000,0.000000,0.000000,0.000000,0.000000,0.000000,0.000000,0.000000,0.081021,3,0
290000,0.001427,7.449645,-0.023842,0.014015,25.041569,0.014493,-0.000372,0.000413,1.571028,-0.001125,-0.000012,0.000061,0.000000,-0.000037,-0.000000,0.002682,-0.001479,0.128812,-0.009443,0.213753,0.213753,0.217219,0.997567,0.000000,0.000000,0.000000,0.000000,0.000000,0.000000,0.000000,0.000000,0.000000,0.000000,0.000000,0.000000,0.124231,3,0
300000,0.001516,7.703986,-0.024910,0.014369,25.045048,0.014277,-0.000381,0.000464,1.571033,-0.001266,-0.000014,0.000103,0.000000,-0.000043,-0.000000,0.002221,-0.001571,0.112349,-0.034437,0.209408,0.209408,0.212446,0.995645,0.000000,0.000000,0.000000,0.000000,0.000000,0.000000,0.000000,0.000000,0.000000,0.000000,0.000000,0.000000,0.108439,3,0
310000,0.001607,7.956384,-0.022997,0.014765,25.047024,0.016130,-0.000403,0.000498,1.571032,-0.001341,-0.000016,0.000036,0.000001,-0.000047,-0.000000,0.000936,-0.001664,0.056762,0.050884,0.205455,0.205455,0.208087,0.993537,0.000000,0.000000,0.000000,0.000000,0.000000,0.000000,0.000000,0.000000,0.000000,0.000000,0.000000,0.000000,0.054842,3,0
320000,0.001700,8.210976,-0.021587,0.015215,25.050837,0.017798,-0.000416,0.000560,1.571034,-0.001515,-0.000018,-0.000015,0.000001,-0.000055,-0.000000,0.002628,-0.001760,0.122408,0.036513,0.201860,0.201860,0.204105,0.991237,0.000000,0.000000,0.000000,0.000000,0.000000,0.000000,0.000000,0.000000,0.000000,0.000000,0.000000,0.000000,0.118302,3,0
330000,0.001796,8.465008,-0.022226,0.015660,25.054405,0.017497,-0.000429,0.000613,1.571051,-0.001674,-0.000021,0.000021,0.000001,-0.000062,-0.000000,0.001919,-0.001858,0.106324,-0.024553,0.198596,0.198596,0.200469,0.988744,0.000000,0.000000,0.000000,0.000000,0.000000,0.000000,0.000000,0.000000,0.000000,0.000000,0.000000,0.000000,0.102821,3,0
340000,0.001894,8.718517,-0.021371,0.016111,25.057621,0.018739,-0.000439,0.000656,1.571050,-0.001818,-0.000024,-0.000011,0.000001,-0.000069,-0.000000,0.001398,-0.001958,0.090804,0.020472,0.195637,0.195638,0.197151,0.986054,0.000000,0.000000,0.000000,0.000000,0.000000,0.000000,0.000000,0.000000,0.000000,0.000000,0.000000,0.000000,0.087863,3,0
350000,0.001992,8.974731,-0.022633,0.016386,25.063414,0.018073,-0.000450,0.000757,1.571065,-0.002110,-0.000028,0.000064,0.000001,-0.000084,-0.000000,0.005279,-0.002059,0.175204,-0.044992,0.192961,0.192961,0.194125,0.983164,0.000000,0.000000,0.000000,0.000000,0.000000,0.000000,0.000000,0.000000,0.000000,0.000000,0.000000,0.000000,0.169582,3,0
360000,0.002093,9.230371,-0.023112,0.016853,25.068789,0.017834,-0.000455,0.000845,1.571066,-0.002386,-0.000031,0.000100,0.000001,-0.000099,-0.000000,0.004072,-0.002162,0.157478,-0.020777,0.190547,0.190547,0.191370,0.980074,0.000000,0.000000,0.000000,0.000000,0.000000,0.000000,0.000000,0.000000,0.000000,0.000000,0.000000,0.000000,0.152492,3,0
370000,0.002194,9.484221,-0.022071,0.017137,25.072538,0.019311,-0.000479,0.000904,1.571080,-0.002572,-0.000036,0.000050,0.000002,-0.000109,-0.000001,0.001753,-0.002265,0.100574,0.027185,0.188375,0.188375,0.188863,0.976780,0.000000,0.000000,0.000000,0.000000,0.000000,0.000000,0.000000,0.000000,0.000000,0.000000,0.000000,0.000000,0.097442,3,0
380000,0.002296,9.740686,-0.020958,0.017477,25.079103,0.020721,-0.000488,0.001029,1.571095,-0.002929,-0.000040,-0.000007,0.000002,-0.000128,-0.000001,0.005646,-0.002369,0.184629,0.029448,0.186428,0.186428,0.186586,0.973283,0.000000,0.000000,0.000000,0.000000,0.000000,0.000000,0.000000,0.000000,0.000000,0.000000,0.000000,0.000000,0.178908,3,0
390000,0.002399,9.996000,-0.020953,0.017856,25.084656,0.020975,-0.000508,0.001141,1.571099,-0.003226,-0.000045,0.000007,0.000002,-0.000145,-0.000001,0.003488,-0.002475,0.146765,-0.006728,0.184691,0.184691,0.184522,0.969582,0.000000,0.000000,0.000000,0.000000,0.000000,0.000000,0.000000,0.000000,0.000000,0.000000,0.000000,0.000000,0.142267,3,0
400000,0.002504,10.250212,-0.020413,0.018272,25.089033,0.021971,-0.000527,0.001221,1.571115,-0.003459,-0.000050,-0.000016,0.000002,-0.000159,-0.000001,0.001977,-0.002583,0.110064,0.010637,0.183149,0.183149,0.182656,0.965677,0.000000,0.000000,0.000000,0.000000,0.000000,0.000000,0.000000,0.000000,0.000000,0.000000,0.000000,0.000000,0.106733,3,0
410000,0.002608,10.508182,-0.018927,0.018506,25.097870,0.023792,-0.000549,0.001395,1.571128,-0.003975,-0.000056,-0.000108,0.000003,-0.000190,-0.000001,0.009097,-0.002690,0.233508,0.041843,0.181788,0.181789,0.180971,0.961568,0.000000,0.000000,0.000000,0.000000,0.000000,0.000000,0.000000,0.000000,0.000000,0.000000,0.000000,0.000000,0.226449,3,0
420000,0.002713,10.763212,-0.019512,0.018826,25.103216,0.023290,-0.000560,0.001502,1.571139,-0.004285,-0.000063,-0.000044,0.000003,-0.000209,-0.000001,0.003049,-0.002798,0.134481,-0.027673,0.180597,0.180597,0.179456,0.957257,0.000000,0.000000,0.000000,0.000000,0.000000,0.000000,0.000000,0.000000,0.000000,0.000000,0.000000,0.000000,0.130462,3,0
430000,0.002820,11.018970,-0.018258,0.019232,25.109678,0.025069,-0.000578,0.001634,1.571159,-0.004663,-0.000070,-0.000126,0.000004,-0.000233,-0.000001,0.004212,-0.002907,0.157701,0.034218,0.179563,0.179563,0.178097,0.952745,0.000000,0.000000,0.000000,0.000000,0.000000,0.000000,0.000000,0.000000,0.000000,0.000000,0.000000,0.000000,0.153008,3,0
440000,0.002926,11.275437,-0.018261,0.019447,25.117083,0.025195,-0.000589,0.001788,1.571169,-0.005112,-0.000077,-0.000105,0.000004,-0.000262,-0.000001,0.005264,-0.003015,0.180183,-0.008750,0.178676,0.178676,0.176883,0.948035,0.000000,0.000000,0.000000,0.000000,0.000000,0.000000,0.000000,0.000000,0.000000,0.000000,0.000000,0.000000,0.174843,3,0
450000,0.003031,11.533782,-0.018507,0.019707,25.127073,0.025236,-0.000606,0.002011,1.571183,-0.005738,-0.000085,-0.000060,0.000005,-0.000304,-0.000002,0.009497,-0.003124,0.241704,-0.017193,0.177925,0.177925,0.175803,0.943128,0.000000,0.000000,0.000000,0.000000,0.000000,0.000000,0.000000,0.000000,0.000000,0.000000,0.000000,0.000000,0.234556,3,0
460000,0.003138,11.789851,-0.019283,0.020075,25.134161,0.024614,-0.000629,0.002164,1.571193,-0.006174,-0.000094,0.000035,0.000005,-0.000334,-0.000002,0.004459,-0.003233,0.162169,-0.035520,0.177302,0.177302,0.174847,0.938030,0.000000,0.000000,0.000000,0.000000,0.000000,0.000000,0.000000,0.000000,0.000000,0.000000,0.000000,0.000000,0.157409,3,0
470000,0.003244,12.045460,-0.017707,0.020354,25.140633,0.026975,-0.000641,0.002315,1.571203,-0.006576,-0.000103,-0.000092,0.000006,-0.000362,-0.000002,0.003720,-0.003343,0.144577,0.045626,0.176796,0.176796,0.174006,0.932742,0.000000,0.000000,0.000000,0.000000,0.000000,0.000000,0.000000,0.000000,0.000000,0.000000,0.000000,0.000000,0.140354,3,0
480000,0.003350,12.300034,-0.017317,0.020561,25.145590,0.027688,-0.000668,0.002423,1.571206,-0.006886,-0.000113,-0.000104,0.000007,-0.000384,-0.000002,0.001876,-0.003451,0.107573,0.003998,0.176401,0.176401,0.173271,0.927269,0.000000,0.000000,0.000000,0.000000,0.000000,0.000000,0.000000,0.000000,0.000000,0.000000,0.000000,0.000000,0.104464,3,0
490000,0.003454,12.557683,-0.017296,0.020735,25.155098,0.027825,-0.000675,0.002655,1.571211,-0.007514,-0.000123,-0.000077,0.000007,-0.000429,-0.000002,0.007202,-0.003558,0.210767,-0.009058,0.176107,0.176108,0.172634,0.921615,0.000000,0.000000,0.000000,0.000000,0.000000,0.000000,0.000000,0.000000,0.000000,0.000000,0.000000,0.000000,0.204609,3,0
500000,0.003557,12.816606,-0.017184,0.020905,25.166397,0.027992,-0.000693,0.002937,1.571219,-0.008286,-0.000135,-0.000059,0.000008,-0.000487,-0.000002,0.010217,-0.003665,0.251208,-0.005898,0.175909,0.175909,0.172087,0.915786,0.000000,0.000000,0.000000,0.000000,0.000000,0.000000,0.000000,0.000000,0.000000,0.000000,0.000000,0.000000,0.243869,3,0
510000,0.003660,13.071542,-0.018310,0.021185,25.171896,0.026676,-0.000713,0.003068,1.571230,-0.008639,-0.000147,0.000098,0.000009,-0.000514,-0.000003,0.002406,-0.003771,0.111444,-0.049347,0.175797,0.175797,0.171622,0.909787,0.000000,0.000000,0.000000,0.000000,0.000000,0.000000,0.000000,0.000000,0.000000,0.000000,0.000000,0.000000,0.108241,3,0
520000,0.003764,13.327798,-0.016814,0.021520,25.179365,0.028706,-0.000738,0.003245,1.571236,-0.009145,-0.000159,-0.000043,0.000010,-0.000553,-0.000003,0.004170,-0.003877,0.154637,0.042952,0.175767,0.175767,0.171234,0.903624,0.000000,0.000000,0.000000,0.000000,0.000000,0.000000,0.000000,0.000000,0.000000,0.000000,0.000000,0.000000,0.150155,3,0
530000,0.003865,13.583610,-0.017914,0.021665,25.186163,0.027514,-0.000762,0.003419,1.571254,-0.009605,-0.000173,0.000123,0.000011,-0.000590,-0.000003,0.003420,-0.003982,0.136852,-0.048935,0.175811,0.175811,0.170914,0.897302,0.000000,0.000000,0.000000,0.000000,0.000000,0.000000,0.000000,0.000000,0.000000,0.000000,0.000000,0.000000,0.132898,3,0
540000,0.003967,13.841898,-0.017464,0.021952,25.196808,0.028383,-0.000783,0.003687,1.571259,-0.010363,-0.000187,0.000102,0.000012,-0.000652,-0.000003,0.007761,-0.004087,0.218914,0.005948,0.175923,0.175923,0.170658,0.890828,0.000000,0.000000,0.000000,0.000000,0.000000,0.000000,0.000000,0.000000,0.000000,0.000000,0.000000,0.000000,0.212533,3,0
550000,0.004068,14.099133,-0.018228,0.022245,25.205767,0.027588,-0.000802,0.003917,1.571280,-0.011000,-0.000201,0.000235,0.000013,-0.000705,-0.000003,0.005420,-0.004191,0.179189,-0.037100,0.176099,0.176099,0.170460,0.884210,0.000000,0.000000,0.000000,0.000000,0.000000,0.000000,0.000000,0.000000,0.000000,0.000000,0.000000,0.000000,0.173977,3,0
560000,0.004168,14.357667,-0.018166,0.022418,25.216835,0.027898,-0.000828,0.004216,1.571302,-0.011804,-0.000217,0.000263,0.000015,-0.000773,-0.000004,0.007845,-0.004295,0.220046,-0.007700,0.176331,0.176332,0.170314,0.877453,0.000000,0.000000,0.000000,0.000000,0.000000,0.000000,0.000000,0.000000,0.000000,0.000000,0.000000,0.000000,0.213620,3,0
570000,0.004267,14.615145,-0.017810,0.022574,25.226082,0.028474,-0.000855,0.004478,1.571323,-0.012479,-0.000233,0.000253,0.000016,-0.000831,-0.000004,0.005249,-0.004396,0.180070,0.002577,0.176616,0.176617,0.170214,0.870565,0.000000,0.000000,0.000000,0.000000,0.000000,0.000000,0.000000,0.000000,0.000000,0.000000,0.000000,0.000000,0.174821,3,0
580000,0.004364,14.872164,-0.017529,0.022797,25.234619,0.028957,-0.000865,0.004718,1.571334,-0.013097,-0.000250,0.000254,0.000018,-0.000886,-0.000004,0.004198,-0.004497,0.161046,-0.000287,0.176949,0.176949,0.170157,0.863554,0.000000,0.000000,0.000000,0.000000,0.000000,0.000000,0.000000,0.000000,0.000000,0.000000,0.000000,0.000000,0.156358,3,0
590000,0.004460,15.131080,-0.018153,0.022966,25.246056,0.028048,-0.000889,0.005045,1.571338,-0.013970,-0.000268,0.000382,0.000019,-0.000964,-0.000005,0.008144,-0.004596,0.222005,-0.032338,0.177324,0.177325,0.170138,0.856427,0.000000,0.000000,0.000000,0.000000,0.000000,0.000000,0.000000,0.000000,0.000000,0.000000,0.000000,0.000000,0.215490,3,0
600000,0.004555,15.391287,-0.017205,0.023172,25.259718,0.029630,-0.000917,0.005443,1.571358,-0.015021,-0.000287,0.000286,0.000021,-0.001061,-0.000005,0.011122,-0.004694,0.261156,0.023371,0.177738,0.177738,0.170152,0.849193,0.000000,0.000000,0.000000,0.000000,0.000000,0.000000,0.000000,0.000000,0.000000,0.000000,0.000000,0.000000,0.253461,3,0
610000,0.004649,15.649233,-0.017231,0.023337,25.269583,0.029600,-0.000935,0.005726,1.571364,-0.015761,-0.000307,0.000334,0.000023,-0.001130,-0.000006,0.005249,-0.004791,0.179723,-0.011493,0.178186,0.178186,0.170195,0.841858,0.000000,0.000000,0.000000,0.000000,0.000000,0.000000,0.000000,0.000000,0.000000,0.000000,0.000000,0.000000,0.174447,3,0
620000,0.004741,15.909670,-0.017438,0.023560,25.283421,0.029259,-0.000957,0.006142,1.571373,-0.016853,-0.000327,0.000409,0.000025,-0.001234,-0.000006,0.010954,-0.004887,0.259619,-0.017823,0.178665,0.178665,0.170265,0.834432,0.000000,0.000000,0.000000,0.000000,0.000000,0.000000,0.000000,0.000000,0.000000,0.000000,0.000000,0.000000,0.251933,3,0
630000,0.004831,16.168423,-0.017083,0.023630,25.294405,0.030065,-0.000982,0.006465,1.571379,-0.017702,-0.000348,0.000400,0.000027,-0.001317,-0.000006,0.006333,-0.004980,0.197834,0.001983,0.179170,0.179170,0.170356,0.826921,0.000000,0.000000,0.000000,0.000000,0.000000,0.000000,0.000000,0.000000,0.000000,0.000000,0.000000,0.000000,0.191988,3,0
640000,0.004920,16.425505,-0.017710,0.023802,25.302483,0.029331,-0.001004,0.006711,1.571387,-0.018306,-0.000370,0.000547,0.000029,-0.001376,-0.000007,0.003247,-0.005072,0.137758,-0.032844,0.179698,0.179698,0.170465,0.819335,0.000000,0.000000,0.000000,0.000000,0.000000,0.000000,0.000000,0.000000,0.000000,0.000000,0.000000,0.000000,0.133723,3,0
650000,0.005006,16.686300,-0.017633,0.023822,25.316793,0.029436,-0.001018,0.007158,1.571409,-0.019459,-0.000393,0.000581,0.000031,-0.001493,-0.000007,0.010799,-0.005161,0.258297,-0.007697,0.180246,0.180246,0.170591,0.811681,0.000000,0.000000,0.000000,0.000000,0.000000,0.000000,0.000000,0.000000,0.000000,0.000000,0.000000,0.000000,0.250588,3,0
660000,0.005089,16.947189,-0.018225,0.023865,25.331152,0.028444,-0.001037,0.007613,1.571418,-0.020624,-0.000417,0.000726,0.000034,-0.001612,-0.000008,0.010738,-0.005247,0.255781,-0.031208,0.180811,0.180811,0.170729,0.803968,0.000000,0.000000,0.000000,0.000000,0.000000,0.000000,0.000000,0.000000,0.000000,0.000000,0.000000,0.000000,0.248126,3,0
670000,0.005171,17.208769,-0.017635,0.024053,25.346565,0.029538,-0.001059,0.008123,1.571439,-0.021889,-0.000441,0.000675,0.000036,-0.001744,-0.000008,0.012073,-0.005333,0.273054,0.010571,0.181390,0.181390,0.170877,0.796204,0.000000,0.000000,0.000000,0.000000,0.000000,0.000000,0.000000,0.000000,0.000000,0.000000,0.000000,0.000000,0.264850,3,0
680000,0.005251,17.466812,-0.018613,0.024101,25.355703,0.028024,-0.001077,0.008423,1.571455,-0.022599,-0.000467,0.000892,0.000039,-0.001820,-0.000009,0.003988,-0.005415,0.150473,-0.044745,0.181980,0.181980,0.171033,0.788396,0.000000,0.000000,0.000000,0.000000,0.000000,0.000000,0.000000,0.000000,0.000000,0.000000,0.000000,0.000000,0.146003,3,0
690000,0.005329,17.726786,-0.019286,0.024222,25.368065,0.026974,-0.001105,0.008826,1.571474,-0.023608,-0.000493,0.001057,0.000042,-0.001930,-0.000009,0.007340,-0.005496,0.210400,-0.033475,0.182578,0.182579,0.171194,0.780553,0.000000,0.000000,0.000000,0.000000,0.000000,0.000000,0.000000,0.000000,0.000000,0.000000,0.000000,0.000000,0.204066,3,0
700000,0.005406,17.984425,-0.019017,0.024370,25.376316,0.027514,-0.001125,0.009086,1.571491,-0.024238,-0.000520,0.001057,0.000045,-0.001999,-0.000010,0.002703,-0.005576,0.129213,-0.000180,0.183183,0.183183,0.171357,0.772682,0.000000,0.000000,0.000000,0.000000,0.000000,0.000000,0.000000,0.000000,0.000000,0.000000,0.000000,0.000000,0.125386,3,0
710000,0.005480,18.241573,-0.018089,0.024507,25.383657,0.028991,-0.001152,0.009317,1.571497,-0.024782,-0.000548,0.000940,0.000048,-0.002060,-0.000010,0.002045,-0.005654,0.110037,0.022682,0.183792,0.183792,0.171522,0.764791,0.000000,0.000000,0.000000,0.000000,0.000000,0.000000,0.000000,0.000000,0.000000,0.000000,0.000000,0.000000,0.106807,3,0
720000,0.005552,18.500065,-0.017309,0.024471,25.393129,0.030214,-0.001179,0.009646,1.571504,-0.025541,-0.000577,0.000849,0.000051,-0.002147,-0.000010,0.003736,-0.005728,0.150999,0.017015,0.184402,0.184402,0.171686,0.756887,0.000000,0.000000,0.000000,0.000000,0.000000,0.000000,0.000000,0.000000,0.000000,0.000000,0.000000,0.000000,0.146464,3,0
730000,0.005623,18.758663,-0.018146,0.024618,25.402773,0.028834,-0.001199,0.009983,1.571518,-0.026311,-0.000606,0.001061,0.000054,-0.002236,-0.000011,0.003938,-0.005801,0.150839,-0.039858,0.185013,0.185013,0.171847,0.748979,0.000000,0.000000,0.000000,0.000000,0.000000,0.000000,0.000000,0.000000,0.000000,0.000000,0.000000,0.000000,0.146295,3,0
740000,0.005690,19.019209,-0.016999,0.024573,25.415741,0.030507,-0.001228,0.010442,1.571528,-0.027398,-0.000636,0.000897,0.000058,-0.002365,-0.000011,0.007287,-0.005872,0.210205,0.029913,0.185622,0.185622,0.172004,0.741072,0.000000,0.000000,0.000000,0.000000,0.000000,0.000000,0.000000,0.000000,0.000000,0.000000,0.000000,0.000000,0.203782,3,0
750000,0.005755,19.281071,-0.015589,0.024681,25.430792,0.032558,-0.001251,0.010985,1.571554,-0.028696,-0.000667,0.000683,0.000062,-0.002520,-0.000012,0.010155,-0.005940,0.247713,0.038452,0.186227,0.186227,0.172155,0.733175,0.000000,0.000000,0.000000,0.000000,0.000000,0.000000,0.000000,0.000000,0.000000,0.000000,0.000000,0.000000,0.240094,3,0
760000,0.005819,19.539902,-0.016610,0.024709,25.440277,0.030865,-0.001282,0.011324,1.571575,-0.029465,-0.000699,0.000944,0.000066,-0.002615,-0.000013,0.003745,-0.006005,0.144733,-0.046933,0.186828,0.186828,0.172299,0.725293,0.000000,0.000000,0.000000,0.000000,0.000000,0.000000,0.000000,0.000000,0.000000,0.000000,0.000000,0.000000,0.140347,3,0
770000,0.005879,19.800068,-0.016522,0.024700,25.452021,0.031217,-0.001307,0.011756,1.571593,-0.030454,-0.000731,0.000987,0.000070,-0.002738,-0.000013,0.005482,-0.006069,0.183989,-0.007840,0.187422,0.187422,0.172436,0.717433,0.000000,0.000000,0.000000,0.000000,0.000000,0.000000,0.000000,0.000000,0.000000,0.000000,0.000000,0.000000,0.178339,3,0
780000,0.005938,20.060938,-0.016269,0.024710,25.464977,0.031527,-0.001327,0.012237,1.571603,-0.031553,-0.000764,0.000997,0.000074,-0.002877,-0.000014,0.006595,-0.006130,0.202009,-0.002092,0.188010,0.188009,0.172563,0.709602,0.000000,0.000000,0.000000,0.000000,0.000000,0.000000,0.000000,0.000000,0.000000,0.000000,0.000000,0.000000,0.195769,3,0
790000,0.005994,20.320002,-0.015504,0.024787,25.474592,0.032791,-0.001354,0.012596,1.571612,-0.032322,-0.000798,0.000905,0.000078,-0.002975,-0.000014,0.003200,-0.006189,0.139797,0.015464,0.188588,0.188588,0.172680,0.701805,0.000000,0.000000,0.000000,0.000000,0.000000,0.000000,0.000000,0.000000,0.000000,0.000000,0.000000,0.000000,0.135535,3,0
800000,0.006048,20.577896,-0.015381,0.024735,25.481998,0.033100,-0.001378,0.012867,1.571630,-0.032875,-0.000832,0.000947,0.000083,-0.003048,-0.000015,0.001607,-0.006245,0.099306,-0.007262,0.189158,0.189158,0.172787,0.694048,0.000000,0.000000,0.000000,0.000000,0.000000,0.000000,0.000000,0.000000,0.000000,0.000000,0.000000,0.000000,0.096366,3,0
810000,0.006101,20.837776,-0.016153,0.024772,25.492725,0.032071,-0.001413,0.013285,1.571636,-0.033771,-0.000868,0.001176,0.000087,-0.003167,-0.000015,0.004346,-0.006300,0.159401,-0.038417,0.189718,0.189717,0.172882,0.686337,0.000000,0.000000,0.000000,0.000000,0.000000,0.000000,0.000000,0.000000,0.000000,0.000000,0.000000,0.000000,0.154480,3,0
820000,0.006151,21.099621,-0.016222,0.024811,25.506882,0.032112,-0.001447,0.013851,1.571656,-0.035007,-0.000904,0.001256,0.000092,-0.003334,-0.000016,0.007669,-0.006352,0.217474,-0.013610,0.190266,0.190266,0.172965,0.678677,0.000000,0.000000,0.000000,0.000000,0.000000,0.000000,0.000000,0.000000,0.000000,0.000000,0.000000,0.000000,0.210667,3,0
830000,0.006198,21.362776,-0.015509,0.024684,25.523092,0.033313,-0.001471,0.014520,1.571666,-0.036462,-0.000940,0.001169,0.000097,-0.003533,-0.000017,0.010420,-0.006402,0.253672,0.013513,0.190803,0.190803,0.173035,0.671072,0.000000,0.000000,0.000000,0.000000,0.000000,0.000000,0.000000,0.000000,0.000000,0.000000,0.000000,0.000000,0.245684,3,0
840000,0.006244,21.624062,-0.016740,0.024707,25.535955,0.031351,-0.001501,0.015043,1.571679,-0.037557,-0.000977,0.001505,0.000102,-0.003686,-0.000018,0.006255,-0.006448,0.189142,-0.054227,0.191329,0.191328,0.173092,0.663529,0.000000,0.000000,0.000000,0.000000,0.000000,0.000000,0.000000,0.000000,0.000000,0.000000,0.000000,0.000000,0.183216,3,0
850000,0.006286,21.883488,-0.017350,0.024593,25.545231,0.030335,-0.001523,0.015416,1.571694,-0.038296,-0.001015,0.001705,0.000107,-0.003791,-0.000018,0.002755,-0.006493,0.126518,-0.032023,0.191841,0.191841,0.173136,0.656051,0.000000,0.000000,0.000000,0.000000,0.000000,0.000000,0.000000,0.000000,0.000000,0.000000,0.000000,0.000000,0.122634,3,0
860000,0.006326,22.145533,-0.017048,0.024625,25.559141,0.030808,-0.001550,0.015982,1.571715,-0.039504,-0.001053,0.001703,0.000113,-0.003965,-0.000019,0.006782,-0.006536,0.204939,-0.000071,0.192341,0.192340,0.173166,0.648642,0.000000,0.000000,0.000000,0.000000,0.000000,0.000000,0.000000,0.000000,0.000000,0.000000,0.000000,0.000000,0.198471,3,0
870000,0.006365,22.404417,-0.017479,0.024596,25.567137,0.030198,-0.001575,0.016293,1.571725,-0.040108,-0.001092,0.001867,0.000118,-0.004054,-0.000020,0.001785,-0.006576,0.101788,-0.025728,0.192828,0.192827,0.173182,0.641306,0.000000,0.000000,0.000000,0.000000,0.000000,0.000000,0.000000,0.000000,0.000000,0.000000,0.000000,0.000000,0.098722,3,0
880000,0.006401,22.667213,-0.016480,0.024575,25.581934,0.031814,-0.001615,0.016926,1.571733,-0.041428,-0.001131,0.001705,0.000124,-0.004249,-0.000020,0.007945,-0.006614,0.220522,0.024136,0.193301,0.193300,0.173184,0.634048,0.000000,0.000000,0.000000,0.000000,0.000000,0.000000,0.000000,0.000000,0.000000,0.000000,0.000000,0.000000,0.213515,3,0
890000,0.006436,22.925539,-0.017314,0.024545,25.588671,0.030664,-0.001640,0.017177,1.571753,-0.041892,-0.001171,0.001969,0.000130,-0.004320,-0.000021,0.001220,-0.006650,0.076851,-0.040075,0.193761,0.193760,0.173172,0.626869,0.000000,0.000000,0.000000,0.000000,0.000000,0.000000,0.000000,0.000000,0.000000,0.000000,0.000000,0.000000,0.074646,3,0
900000,0.006469,23.186512,-0.017735,0.024560,25.600021,0.030124,-0.001663,0.017659,1.571763,-0.042842,-0.001212,0.002135,0.000136,-0.004466,-0.000022,0.004055,-0.006685,0.156399,-0.025259,0.194207,0.194206,0.173145,0.619775,0.000000,0.000000,0.000000,0.000000,0.000000,0.000000,0.000000,0.000000,0.000000,0.000000,0.000000,0.000000,0.151475,3,0
910000,0.006501,23.447525,-0.017041,0.024567,25.611422,0.031134,-0.001697,0.018143,1.571767,-0.043781,-0.001252,0.002040,0.000143,-0.004612,-0.000022,0.003849,-0.006719,0.153734,0.013605,0.194640,0.194639,0.173104,0.612767,0.000000,0.000000,0.000000,0.000000,0.000000,0.000000,0.000000,0.000000,0.000000,0.000000,0.000000,0.000000,0.148890,3,0
920000,0.006530,23.706636,-0.016555,0.024469,25.619175,0.031923,-0.001729,0.018447,1.571784,-0.044344,-0.001294,0.001997,0.000149,-0.004701,-0.000023,0.001360,-0.006749,0.091398,0.005952,0.195060,0.195058,0.173049,0.605848,0.000000,0.000000,0.000000,0.000000,0.000000,0.000000,0.000000,0.000000,0.000000,0.000000,0.000000,0.000000,0.088667,3,0
930000,0.006555,23.969692,-0.015061,0.024295,25.633812,0.034232,-0.001761,0.019100,1.571791,-0.045642,-0.001335,0.001711,0.000156,-0.004909,-0.000024,0.007380,-0.006777,0.209906,0.040720,0.195466,0.195464,0.172981,0.599020,0.000000,0.000000,0.000000,0.000000,0.000000,0.000000,0.000000,0.000000,0.000000,0.000000,0.000000,0.000000,0.203174,3,0
940000,0.006578,24.229507,-0.014130,0.024143,25.642548,0.035363,-0.001791,0.019459,1.571808,-0.046300,-0.001377,0.001566,0.000163,-0.005016,-0.000024,0.001877,-0.006800,0.105736,0.020412,0.195859,0.195857,0.172898,0.592286,0.000000,0.000000,0.000000,0.000000,0.000000,0.000000,0.000000,0.000000,0.000000,0.000000,0.000000,0.000000,0.102497,3,0
950000,0.006599,24.489370,-0.013750,0.024038,25.651310,0.035959,-0.001827,0.019820,1.571815,-0.046952,-0.001419,0.001557,0.000170,-0.005124,-0.000025,0.001760,-0.006822,0.104258,0.000821,0.196239,0.196237,0.172801,0.585649,0.000000,0.000000,0.000000,0.000000,0.000000,0.000000,0.000000,0.000000,0.000000,0.000000,0.000000,0.000000,0.101063,3,0
960000,0.006618,24.748627,-0.014442,0.023857,25.658884,0.035019,-0.001853,0.020124,1.571824,-0.047474,-0.001462,0.001815,0.000177,-0.005212,-0.000025,0.001331,-0.006842,0.082855,-0.036623,0.196606,0.196604,0.172691,0.579109,0.000000,0.000000,0.000000,0.000000,0.000000,0.000000,0.000000,0.000000,0.000000,0.000000,0.000000,0.000000,0.080412,3,0
970000,0.006634,25.011196,-0.013478,0.023766,25.672239,0.036232,-0.001896,0.020732,1.571842,-0.048620,-0.001505,0.001656,0.000185,-0.005408,-0.000026,0.005383,-0.006860,0.181345,0.021434,0.196960,0.196958,0.172568,0.572668,0.000000,0.000000,0.000000,0.000000,0.000000,0.000000,0.000000,0.000000,0.000000,0.000000,0.000000,0.000000,0.175518,3,0
980000,0.006648,25.274426,-0.014697,0.023547,25.686628,0.034341,-0.001933,0.021407,1.571859,-0.049871,-0.001549,0.002048,0.000192,-0.005625,-0.000027,0.006747,-0.006874,0.196943,-0.054912,0.197303,0.197300,0.172431,0.566328,0.000000,0.000000,0.000000,0.000000,0.000000,0.000000,0.000000,0.000000,0.000000,0.000000,0.000000,0.000000,0.190582,3,0
990000,0.006659,25.533716,-0.014294,0.023336,25.693769,0.035069,-0.001978,0.021697,1.571870,-0.050335,-0.001592,0.002032,0.000200,-0.005707,-0.000028,0.000861,-0.006886,0.072725,0.001910,0.197633,0.197630,0.172282,0.560089,0.000000,0.000000,0.000000,0.000000,0.000000,0.000000,0.000000,0.000000,0.000000,0.000000,0.000000,0.000000,0.070644,3,0
1000000,0.006669,25.796989,-0.015565,0.023274,25.707882,0.033285,-0.002009,0.022371,1.571883,-0.051559,-0.001636,0.002441,0.000207,-0.005926,-0.000029,0.006407,-0.006896,0.191059,-0.056460,0.197952,0.197949,0.172121,0.553953,0.000000,0.000000,0.000000,0.000000,0.000000,0.000000,0.000000,0.000000,0.000000,0.000000,0.000000,0.000000,0.184874,3,0
1010000,0.006677,26.057621,-0.015987,0.023193,25.717129,0.032762,-0.002052,0.022782,1.571887,-0.052244,-0.001681,0.002634,0.000215,-0.006051,-0.000029,0.001950,-0.006905,0.106554,-0.026384,0.198260,0.198257,0.171948,0.547921,0.000000,0.000000,0.000000,0.000000,0.000000,0.000000,0.000000,0.000000,0.000000,0.000000,0.000000,0.000000,0.103247,3,0
1020000,0.006684,26.316299,-0.015940,0.023084,25.722849,0.032835,-0.002081,0.022991,1.571896,-0.052532,-0.001725,0.002706,0.000223,-0.006104,-0.000029,0.000344,-0.006912,0.044619,-0.009903,0.198557,0.198553,0.171763,0.541994,0.000000,0.000000,0.000000,0.000000,0.000000,0.000000,0.000000,0.000000,0.000000,0.000000,0.000000,0.000000,0.043657,3,0
1030000,0.006689,26.575027,-0.016261,0.022980,25.728565,0.032466,-0.002115,0.023205,1.571897,-0.052820,-0.001770,0.002877,0.000231,-0.006158,-0.000030,0.000408,-0.006918,0.044310,-0.022829,0.198844,0.198840,0.171566,0.536171,0.000000,0.000000,0.000000,0.000000,0.000000,0.000000,0.000000,0.000000,0.000000,0.000000,0.000000,0.000000,0.043360,3,0
1040000,0.006691,26.837763,-0.016718,0.022744,25.741220,0.031937,-0.002143,0.023829,1.571906,-0.053879,-0.001815,0.003079,0.000240,-0.006359,-0.000031,0.004422,-0.006920,0.163223,-0.027332,0.199121,0.199116,0.171359,0.530452,0.000000,0.000000,0.000000,0.000000,0.000000,0.000000,0.000000,0.000000,0.000000,0.000000,0.000000,0.000000,0.157946,3,0
1050000,0.006691,27.101805,-0.016661,0.022554,25.756115,0.031802,-0.002189,0.024577,1.571925,-0.055171,-0.001859,0.003139,0.000248,-0.006608,-0.000032,0.006372,-0.006921,0.198545,-0.008952,0.199388,0.199383,0.171141,0.524840,0.000000,0.000000,0.000000,0.000000,0.000000,0.000000,0.000000,0.000000,0.000000,0.000000,0.000000,0.000000,0.192065,3,0
1060000,0.006688,27.361843,-0.015191,0.022426,25.763783,0.033654,-0.002220,0.024900,1.571926,-0.055649,-0.001904,0.002823,0.000257,-0.006701,-0.000032,0.001143,-0.006919,0.073503,0.040450,0.199647,0.199641,0.170913,0.519333,0.000000,0.000000,0.000000,0.000000,0.000000,0.000000,0.000000,0.000000,0.000000,0.000000,0.000000,0.000000,0.071374,3,0
1070000,0.006684,27.624556,-0.014864,0.022254,25.776070,0.034140,-0.002251,0.025508,1.571939,-0.056638,-0.001948,0.002818,0.000266,-0.006898,-0.000033,0.003697,-0.006915,0.151331,-0.000231,0.199896,0.199891,0.170676,0.513931,0.000000,0.000000,0.000000,0.000000,0.000000,0.000000,0.000000,0.000000,0.000000,0.000000,0.000000,0.000000,0.146442,3,0
1080000,0.006678,27.883274,-0.014611,0.022032,25.781111,0.034659,-0.002299,0.025671,1.571940,-0.056819,-0.001994,0.002843,0.000275,-0.006934,-0.000033,0.000133,-0.006909,0.027649,-0.003314,0.200138,0.200132,0.170429,0.508635,0.000000,0.000000,0.000000,0.000000,0.000000,0.000000,0.000000,0.000000,0.000000,0.000000,0.000000,0.000000,0.027547,3,0
1090000,0.006671,28.146017,-0.015844,0.021796,25.793093,0.032771,-0.002345,0.026270,1.571953,-0.057782,-0.002039,0.003275,0.000284,-0.007132,-0.000034,0.003968,-0.006900,0.146580,-0.055505,0.200371,0.200365,0.170172,0.503443,0.000000,0.000000,0.000000,0.000000,0.000000,0.000000,0.000000,0.000000,0.000000,0.000000,0.000000,0.000000,0.141839,3,0
1100000,0.006660,28.404747,-0.015016,0.021642,25.798019,0.033697,-0.002378,0.026419,1.571953,-0.057931,-0.002084,0.003133,0.000294,-0.007163,-0.000035,0.000142,-0.006891,0.022867,0.017645,0.200598,0.200591,0.169908,0.498356,0.000000,0.000000,0.000000,0.000000,0.000000,0.000000,0.000000,0.000000,0.000000,0.000000,0.000000,0.000000,0.023086,3,0
1110000,0.006649,28.665516,-0.015754,0.021417,25.806429,0.032788,-0.002422,0.026790,1.571973,-0.058473,-0.002129,0.003435,0.000303,-0.007277,-0.000035,0.001329,-0.006879,0.082150,-0.038072,0.200817,0.200810,0.169635,0.493373,0.000000,0.000000,0.000000,0.000000,0.000000,0.000000,0.000000,0.000000,0.000000,0.000000,0.000000,0.000000,0.079675,3,0
1120000,0.006634,28.928284,-0.014848,0.021131,25.818180,0.034146,-0.002463,0.027382,1.571995,-0.059390,-0.002174,0.003261,0.000313,-0.007473,-0.000036,0.003205,-0.006865,0.139360,0.020581,0.201031,0.201023,0.169355,0.488493,0.000000,0.000000,0.000000,0.000000,0.000000,0.000000,0.000000,0.000000,0.000000,0.000000,0.000000,0.000000,0.134856,3,0
1130000,0.006617,29.192358,-0.013720,0.020921,25.832188,0.035430,-0.002496,0.028117,1.572006,-0.060540,-0.002218,0.003021,0.000322,-0.007722,-0.000037,0.005050,-0.006847,0.174658,0.028213,0.201238,0.201230,0.169067,0.483716,0.000000,0.000000,0.000000,0.000000,0.000000,0.000000,0.000000,0.000000,0.000000,0.000000,0.000000,0.000000,0.168932,3,0
1140000,0.006599,29.451714,-0.012406,0.020772,25.837734,0.037282,-0.002529,0.028317,1.572023,-0.060735,-0.002263,0.002741,0.000332,-0.007764,-0.000038,0.000337,-0.006829,0.029716,0.033980,0.201440,0.201431,0.168772,0.479042,0.000000,0.000000,0.000000,0.000000,0.000000,0.000000,0.000000,0.000000,0.000000,0.000000,0.000000,0.000000,0.029469,3,0
1150000,0.006581,29.710430,-0.013220,0.020657,25.842066,0.036229,-0.002565,0.028442,1.572041,-0.060795,-0.002308,0.003091,0.000342,-0.007778,-0.000038,0.000312,-0.006809,0.008850,-0.042438,0.201637,0.201628,0.168471,0.474468,0.000000,0.000000,0.000000,0.000000,0.000000,0.000000,0.000000,0.000000,0.000000,0.000000,0.000000,0.000000,0.010789,3,0
1160000,0.006562,29.973186,-0.013156,0.020445,25.853354,0.036212,-0.002604,0.029013,1.572063,-0.061638,-0.002353,0.003170,0.000352,-0.007969,-0.000039,0.002655,-0.006790,0.127792,-0.010492,0.201829,0.201819,0.168163,0.469994,0.000000,0.000000,0.000000,0.000000,0.000000,0.000000,0.000000,0.000000,0.000000,0.000000,0.000000,0.000000,0.123667,3,0
1170000,0.006541,30.232571,-0.014214,0.020239,25.858702,0.034628,-0.002655,0.029194,1.572070,-0.061798,-0.002398,0.003593,0.000362,-0.008007,-0.000039,0.000518,-0.006768,0.023951,-0.050812,0.202017,0.202007,0.167850,0.465620,0.000000,0.000000,0.000000,0.000000,0.000000,0.000000,0.000000,0.000000,0.000000,0.000000,0.000000,0.000000,0.024047,3,0
1180000,0.006518,30.493307,-0.013304,0.020035,25.866230,0.035665,-0.002690,0.029522,1.572085,-0.062211,-0.002442,0.003419,0.000373,-0.008103,-0.000039,0.000707,-0.006746,0.062698,0.020251,0.202201,0.202190,0.167532,0.461344,0.000000,0.000000,0.000000,0.000000,0.000000,0.000000,0.000000,0.000000,0.000000,0.000000,0.000000,0.000000,0.060937,3,0
1190000,0.006494,30.752031,-0.013208,0.019856,25.870144,0.035838,-0.002739,0.029618,1.572097,-0.062216,-0.002486,0.003499,0.000383,-0.008104,-0.000039,0.000022,-0.006720,0.000673,-0.009532,0.202382,0.202370,0.167208,0.457165,0.000000,0.000000,0.000000,0.000000,0.000000,0.000000,0.000000,0.000000,0.000000,0.000000,0.000000,0.000000,0.006526,3,0
1200000,0.006469,31.012125,-0.013072,0.019699,25.876431,0.035789,-0.002779,0.029861,1.572108,-0.062480,-0.002530,0.003564,0.000394,-0.008168,-0.000040,0.000276,-0.006695,0.040098,-0.007963,0.202560,0.202548,0.166880,0.453081,0.000000,0.000000,0.000000,0.000000,0.000000,0.000000,0.000000,0.000000,0.000000,0.000000,0.000000,0.000000,0.039280,3,0
1210000,0.006442,31.276251,-0.011850,0.019539,25.889673,0.037439,-0.002821,0.030600,1.572119,-0.063517,-0.002573,0.003283,0.000404,-0.008420,-0.000041,0.004169,-0.006669,0.157639,0.031387,0.202735,0.202722,0.166548,0.449093,0.000000,0.000000,0.000000,0.000000,0.000000,0.000000,0.000000,0.000000,0.000000,0.000000,0.000000,0.000000,0.152451,3,0
1220000,0.006414,31.535616,-0.011949,0.019223,25.894348,0.037325,-0.002855,0.030738,1.572136,-0.063601,-0.002617,0.003431,0.000415,-0.008441,-0.000041,0.000081,-0.006639,0.012653,-0.017208,0.202907,0.202894,0.166212,0.445197,0.000000,0.000000,0.000000,0.000000,0.000000,0.000000,0.000000,0.000000,0.000000,0.000000,0.000000,0.000000,0.013805,3,0
1230000,0.006386,31.795671,-0.012935,0.018998,25.900211,0.035867,-0.002897,0.030953,1.572143,-0.063810,-0.002661,0.003856,0.000426,-0.008494,-0.000041,0.000560,-0.006608,0.031546,-0.049214,0.203078,0.203064,0.165872,0.441394,0.000000,0.000000,0.000000,0.000000,0.000000,0.000000,0.000000,0.000000,0.000000,0.000000,0.000000,0.000000,0.031136,3,0
1240000,0.006354,32.057068,-0.011897,0.018756,25.908371,0.037065,-0.002950,0.031331,1.572159,-0.064266,-0.002704,0.003634,0.000437,-0.008610,-0.000042,0.000887,-0.006577,0.069614,0.024758,0.203247,0.203232,0.165529,0.437683,0.000000,0.000000,0.000000,0.000000,0.000000,0.000000,0.000000,0.000000,0.000000,0.000000,0.000000,0.000000,0.067560,3,0
1250000,0.006323,32.317104,-0.012290,0.018593,25.914127,0.036403,-0.003001,0.031530,1.572175,-0.064442,-0.002747,0.003876,0.000448,-0.008656,-0.000042,0.000248,-0.006544,0.026802,-0.027782,0.203415,0.203399,0.165183,0.434061,0.000000,0.000000,0.000000,0.000000,0.000000,0.000000,0.000000,0.000000,0.000000,0.000000,0.000000,0.000000,0.026651,3,0
1260000,0.006290,32.580513,-0.012197,0.018427,25.925629,0.036471,-0.003055,0.032150,1.572190,-0.065257,-0.002789,0.003949,0.000459,-0.008869,-0.000043,0.002519,-0.006511,0.124531,-0.009574,0.203581,0.203565,0.164834,0.430527,0.000000,0.000000,0.000000,0.000000,0.000000,0.000000,0.000000,0.000000,0.000000,0.000000,0.000000,0.000000,0.120468,3,0
1270000,0.006255,32.839809,-0.010835,0.018191,25.929819,0.038144,-0.003107,0.032249,1.572202,-0.065256,-0.002831,0.003627,0.000470,-0.008868,-0.000043,0.000220,-0.006476,0.000160,0.036250,0.203747,0.203730,0.164484,0.427080,0.000000,0.000000,0.000000,0.000000,0.000000,0.000000,0.000000,0.000000,0.000000,0.000000,0.000000,0.000000,0.006257,3,0
1280000,0.006219,33.103172,-0.009846,0.017933,25.941109,0.039479,-0.003152,0.032854,1.572218,-0.066027,-0.002872,0.003415,0.000481,-0.009075,-0.000044,0.002350,-0.006438,0.118523,0.022460,0.203912,0.203894,0.164131,0.423719,0.000000,0.000000,0.000000,0.000000,0.000000,0.000000,0.000000,0.000000,0.000000,0.000000,0.000000,0.000000,0.114667,3,0
1290000,0.006181,33.362427,-0.008819,0.017687,25.944935,0.040860,-0.003190,0.032921,1.572236,-0.065989,-0.002913,0.003210,0.000493,-0.009064,-0.000044,0.000097,-0.006400,-0.005806,0.022901,0.204078,0.204059,0.163777,0.420442,0.000000,0.000000,0.000000,0.000000,0.000000,0.000000,0.000000,0.000000,0.000000,0.000000,0.000000,0.000000,0.008346,3,0
1300000,0.006144,33.625755,-0.009543,0.017394,25.956097,0.039655,-0.003239,0.033526,1.572249,-0.066720,-0.002954,0.003571,0.000504,-0.009268,-0.000045,0.002323,-0.006359,0.112602,-0.041211,0.204243,0.204223,0.163421,0.417248,0.000000,0.000000,0.000000,0.000000,0.000000,0.000000,0.000000,0.000000,0.000000,0.000000,0.000000,0.000000,0.108938,3,0
1310000,0.006104,33.887001,-0.010732,0.017062,25.963388,0.038164,-0.003289,0.033848,1.572264,-0.067032,-0.002996,0.004097,0.000515,-0.009358,-0.000046,0.000928,-0.006318,0.047951,-0.058339,0.204408,0.204388,0.163064,0.414136,0.000000,0.000000,0.000000,0.000000,0.000000,0.000000,0.000000,0.000000,0.000000,0.000000,0.000000,0.000000,0.046711,3,0
1320000,0.006063,34.150249,-0.010866,0.016902,25.974014,0.037874,-0.003326,0.034421,1.572278,-0.067707,-0.003036,0.004257,0.000526,-0.009551,-0.000047,0.001827,-0.006277,0.104694,-0.018698,0.204574,0.204553,0.162707,0.411102,0.000000,0.000000,0.000000,0.000000,0.000000,0.000000,0.000000,0.000000,0.000000,0.000000,0.000000,0.000000,0.101305,3,0
1330000,0.006019,34.411400,-0.009489,0.016561,25.980925,0.039323,-0.003364,0.034696,1.572279,-0.067963,-0.003075,0.003913,0.000538,-0.009624,-0.000047,0.000488,-0.006233,0.040127,0.037003,0.204741,0.204719,0.162349,0.408149,0.000000,0.000000,0.000000,0.000000,0.000000,0.000000,0.000000,0.000000,0.000000,0.000000,0.000000,0.000000,0.039226,3,0
1340000,0.005975,34.671848,-0.009018,0.016336,25.986454,0.040001,-0.003409,0.034869,1.572285,-0.068075,-0.003115,0.003885,0.000550,-0.009657,-0.000047,0.000056,-0.006186,0.017456,0.002744,0.204908,0.204885,0.161990,0.405272,0.000000,0.000000,0.000000,0.000000,0.000000,0.000000,0.000000,0.000000,0.000000,0.000000,0.000000,0.000000,0.017888,3,0
1350000,0.005931,34.935684,-0.009356,0.016115,25.997967,0.039551,-0.003458,0.035516,1.572292,-0.068808,-0.003154,0.004123,0.000561,-0.009876,-0.000048,0.002245,-0.006140,0.114769,-0.027011,0.205077,0.205053,0.161632,0.402470,0.000000,0.000000,0.000000,0.000000,0.000000,0.000000,0.000000,0.000000,0.000000,0.000000,0.000000,0.000000,0.111002,3,0
1360000,0.005884,35.196732,-0.009683,0.015747,26.004316,0.039037,-0.003507,0.035766,1.572311,-0.068998,-0.003193,0.004371,0.000573,-0.009934,-0.000049,0.000265,-0.006092,0.029732,-0.026887,0.205246,0.205221,0.161274,0.399742,0.000000,0.000000,0.000000,0.000000,0.000000,0.000000,0.000000,0.000000,0.000000,0.000000,0.000000,0.000000,0.029306,3,0
1370000,0.005838,35.457073,-0.010772,0.015522,26.009268,0.037601,-0.003557,0.035910,1.572322,-0.069046,-0.003232,0.004890,0.000584,-0.009951,-0.000049,0.000510,-0.006043,0.007164,-0.055291,0.205417,0.205391,0.160916,0.397087,0.000000,0.000000,0.000000,0.000000,0.000000,0.000000,0.000000,0.000000,0.000000,0.000000,0.000000,0.000000,0.009047,3,0
1380000,0.005788,35.720116,-0.010410,0.015185,26.019056,0.038112,-0.003607,0.036418,1.572338,-0.069579,-0.003270,0.004882,0.000596,-0.010117,-0.000050,0.001161,-0.005993,0.084717,-0.000252,0.205590,0.205562,0.160559,0.394503,0.000000,0.000000,0.000000,0.000000,0.000000,0.000000,0.000000,0.000000,0.000000,0.000000,0.000000,0.000000,0.082018,3,0
1390000,0.005737,35.982410,-0.009763,0.014967,26.027325,0.038892,-0.003647,0.036815,1.572350,-0.069956,-0.003306,0.004778,0.000608,-0.010235,-0.000050,0.000604,-0.005941,0.060127,0.010108,0.205763,0.205735,0.160203,0.391988,0.000000,0.000000,0.000000,0.000000,0.000000,0.000000,0.000000,0.000000,0.000000,0.000000,0.000000,0.000000,0.058350,3,0
1400000,0.005685,36.241924,-0.008655,0.014674,26.030535,0.040047,-0.003692,0.036797,1.572361,-0.069809,-0.003343,0.004526,0.000620,-0.010187,-0.000050,0.000209,-0.005887,-0.023342,0.026747,0.205939,0.205909,0.159847,0.389543,0.000000,0.000000,0.000000,0.000000,0.000000,0.000000,0.000000,0.000000,0.000000,0.000000,0.000000,0.000000,0.023243,3,0
1410000,0.005632,36.500751,-0.008051,0.014478,26.032461,0.040692,-0.003736,0.036677,1.572378,-0.069533,-0.003379,0.004462,0.000631,-0.010097,-0.000050,0.000330,-0.005833,-0.044346,0.007238,0.206116,0.206085,0.159493,0.387163,0.000000,0.000000,0.000000,0.000000,0.000000,0.000000,0.000000,0.000000,0.000000,0.000000,0.000000,0.000000,0.043189,3,0
1420000,0.005579,36.762321,-0.008083,0.014161,26.039295,0.040410,-0.003792,0.036964,1.572380,-0.069749,-0.003415,0.004616,0.000643,-0.010169,-0.000050,0.000244,-0.005778,0.034752,-0.016459,0.206295,0.206263,0.159141,0.384849,0.000000,0.000000,0.000000,0.000000,0.000000,0.000000,0.000000,0.000000,0.000000,0.000000,0.000000,0.000000,0.034015,3,0
1430000,0.005526,37.025906,-0.008787,0.013940,26.049747,0.039286,-0.003835,0.037525,1.572393,-0.070312,-0.003451,0.005004,0.000654,-0.010359,-0.000051,0.001620,-0.005722,0.091171,-0.041369,0.206475,0.206442,0.158790,0.382600,0.000000,0.000000,0.000000,0.000000,0.000000,0.000000,0.000000,0.000000,0.000000,0.000000,0.000000,0.000000,0.088201,3,0
1440000,0.005473,37.288734,-0.009924,0.013674,26.058548,0.037598,-0.003882,0.037973,1.572394,-0.070718,-0.003486,0.005555,0.000666,-0.010500,-0.000052,0.001245,-0.005667,0.066032,-0.057602,0.206658,0.206623,0.158441,0.380412,0.000000,0.000000,0.000000,0.000000,0.000000,0.000000,0.000000,0.000000,0.000000,0.000000,0.000000,0.000000,0.063982,3,0
1450000,0.005418,37.551495,-0.009908,0.013457,26.067244,0.037601,-0.003935,0.038399,1.572405,-0.071093,-0.003521,0.005677,0.000677,-0.010629,-0.000053,0.000644,-0.005611,0.061543,-0.013436,0.206842,0.206806,0.158093,0.378286,0.000000,0.000000,0.000000,0.000000,0.000000,0.000000,0.000000,0.000000,0.000000,0.000000,0.000000,0.000000,0.059664,3,0
1460000,0.005362,37.810081,-0.010918,0.013082,26.068165,0.036297,-0.003986,0.038196,1.572413,-0.070720,-0.003556,0.006210,0.000689,-0.010501,-0.000052,0.001088,-0.005552,-0.062153,-0.053294,0.207027,0.206991,0.157748,0.376219,0.000000,0.000000,0.000000,0.000000,0.000000,0.000000,0.000000,0.000000,0.000000,0.000000,0.000000,0.000000,0.060259,3,0
1470000,0.005304,38.072788,-0.011767,0.012718,26.076542,0.034978,-0.004027,0.038611,1.572431,-0.071064,-0.003590,0.006654,0.000700,-0.010625,-0.000053,0.000868,-0.005493,0.056950,-0.045851,0.207215,0.207177,0.157405,0.374210,0.000000,0.000000,0.000000,0.000000,0.000000,0.000000,0.000000,0.000000,0.000000,0.000000,0.000000,0.000000,0.055229,3,0
1480000,0.005243,38.334728,-0.010723,0.012454,26.083477,0.036162,-0.004079,0.038891,1.572442,-0.071258,-0.003621,0.006385,0.000712,-0.010694,-0.000053,0.000292,-0.005432,0.032703,0.026587,0.207405,0.207365,0.157065,0.372259,0.000000,0.000000,0.000000,0.000000,0.000000,0.000000,0.000000,0.000000,0.000000,0.000000,0.000000,0.000000,0.032010,3,0
1490000,0.005184,38.598000,-0.010985,0.012208,26.092756,0.035648,-0.004126,0.039358,1.572447,-0.071668,-0.003654,0.006607,0.000724,-0.010845,-0.000054,0.000857,-0.005369,0.068882,-0.023461,0.207596,0.207555,0.156726,0.370364,0.000000,0.000000,0.000000,0.000000,0.000000,0.000000,0.000000,0.000000,0.000000,0.000000,0.000000,0.000000,0.066696,3,0
1500000,0.005122,38.857750,-0.010518,0.011918,26.095499,0.036161,-0.004165,0.039282,1.572447,-0.071459,-0.003685,0.006575,0.000735,-0.010767,-0.000054,0.000209,-0.005306,-0.035454,0.003827,0.207789,0.207747,0.156391,0.368523,0.000000,0.000000,0.000000,0.000000,0.000000,0.000000,0.000000,0.000000,0.000000,0.000000,0.000000,0.000000,0.034607,3,0
1510000,0.005060,39.118855,-0.009545,0.011656,26.100607,0.037229,-0.004205,0.039404,1.572460,-0.071475,-0.003715,0.006339,0.000747,-0.010772,-0.000054,0.000095,-0.005242,0.002953,0.023411,0.207984,0.207940,0.156058,0.366734,0.000000,0.000000,0.000000,0.000000,0.000000,0.000000,0.000000,0.000000,0.000000,0.000000,0.000000,0.000000,0.005809,3,0
1520000,0.004996,39.381290,-0.008492,0.011358,26.108112,0.038487,-0.004258,0.039737,1.572462,-0.071707,-0.003744,0.006066,0.000759,-0.010859,-0.000054,0.000374,-0.005177,0.039982,0.026340,0.208180,0.208135,0.155729,0.364997,0.000000,0.000000,0.000000,0.000000,0.000000,0.000000,0.000000,0.000000,0.000000,0.000000,0.000000,0.000000,0.038923,3,0
1530000,0.004933,39.639523,-0.007554,0.011098,26.107887,0.039576,-0.004305,0.039387,1.572469,-0.071225,-0.003773,0.005873,0.000770,-0.010671,-0.000054,0.001191,-0.005111,-0.083378,0.020532,0.208378,0.208332,0.155402,0.363311,0.000000,0.000000,0.000000,0.000000,0.000000,0.000000,0.000000,0.000000,0.000000,0.000000,0.000000,0.000000,0.080630,3,0
1540000,0.004869,39.900536,-0.008480,0.010738,26.112692,0.038310,-0.004360,0.039494,1.572468,-0.071206,-0.003804,0.006396,0.000781,-0.010666,-0.000054,0.000434,-0.005043,-0.003666,-0.051300,0.208578,0.208530,0.155078,0.361674,0.000000,0.000000,0.000000,0.000000,0.000000,0.000000,0.000000,0.000000,0.000000,0.000000,0.000000,0.000000,0.006027,3,0
1550000,0.004803,40.160797,-0.007665,0.010382,26.115959,0.039285,-0.004417,0.039463,1.572472,-0.071056,-0.003832,0.006234,0.000793,-0.010606,-0.000054,0.000157,-0.004976,-0.026180,0.016327,0.208779,0.208730,0.154757,0.360083,0.000000,0.000000,0.000000,0.000000,0.000000,0.000000,0.000000,0.000000,0.000000,0.000000,0.000000,0.000000,0.025717,3,0
1560000,0.004737,40.421730,-0.008259,0.010123,26.120340,0.038483,-0.004471,0.039540,1.572481,-0.071012,-0.003861,0.006632,0.000804,-0.010590,-0.000054,0.000256,-0.004907,-0.008167,-0.038584,0.208982,0.208931,0.154440,0.358537,0.000000,0.000000,0.000000,0.000000,0.000000,0.000000,0.000000,0.000000,0.000000,0.000000,0.000000,0.000000,0.009205,3,0
1570000,0.004671,40.684006,-0.009131,0.009871,26.127199,0.037200,-0.004514,0.039819,1.572482,-0.071176,-0.003889,0.007129,0.000815,-0.010660,-0.000054,0.000525,-0.004839,0.029037,-0.048742,0.209186,0.209133,0.154126,0.357038,0.000000,0.000000,0.000000,0.000000,0.000000,0.000000,0.000000,0.000000,0.000000,0.000000,0.000000,0.000000,0.028402,3,0
1580000,0.004603,40.946892,-0.008297,0.009554,26.135120,0.037954,-0.004567,0.040169,1.572483,-0.071425,-0.003915,0.006930,0.000826,-0.010763,-0.000055,0.000384,-0.004770,0.044998,0.018359,0.209391,0.209337,0.153816,0.355583,0.000000,0.000000,0.000000,0.000000,0.000000,0.000000,0.000000,0.000000,0.000000,0.000000,0.000000,0.000000,0.043677,3,0
1590000,0.004534,41.205551,-0.008695,0.009147,26.135050,0.037540,-0.004617,0.039841,1.572484,-0.070993,-0.003942,0.007272,0.000837,-0.010582,-0.000054,0.001162,-0.004698,-0.078815,-0.031343,0.209597,0.209541,0.153509,0.354170,0.000000,0.000000,0.000000,0.000000,0.000000,0.000000,0.000000,0.000000,0.000000,0.000000,0.000000,0.000000,0.076208,3,0
1600000,0.004463,41.466961,-0.007440,0.008812,26.140055,0.038904,-0.004664,0.039955,1.572483,-0.070994,-0.003966,0.006914,0.000848,-0.010580,-0.000054,0.000195,-0.004625,0.000465,0.034308,0.209804,0.209747,0.153205,0.352799,0.000000,0.000000,0.000000,0.000000,0.000000,0.000000,0.000000,0.000000,0.000000,0.000000,0.000000,0.000000,0.004486,3,0
1610000,0.004391,41.728333,-0.007977,0.008404,26.144880,0.038323,-0.004709,0.040066,1.572484,-0.070982,-0.003992,0.007298,0.000858,-0.010577,-0.000054,0.000222,-0.004550,-0.002567,-0.036571,0.210012,0.209953,0.152905,0.351467,0.000000,0.000000,0.000000,0.000000,0.000000,0.000000,0.000000,0.000000,0.000000,0.000000,0.000000,0.000000,0.005047,3,0
1620000,0.004318,41.988941,-0.007471,0.008053,26.148296,0.038664,-0.004749,0.040033,1.572493,-0.070845,-0.004016,0.007256,0.000869,-0.010516,-0.000054,0.000111,-0.004475,-0.025440,0.004478,0.210221,0.210160,0.152609,0.350175,0.000000,0.000000,0.000000,0.000000,0.000000,0.000000,0.000000,0.000000,0.000000,0.000000,0.000000,0.000000,0.024924,3,0
1630000,0.004245,42.246029,-0.008147,0.007738,26.145147,0.038037,-0.004792,0.039422,1.572492,-0.070174,-0.004041,0.007744,0.000880,-0.010215,-0.000053,0.002906,-0.004398,-0.127052,-0.043419,0.210430,0.210368,0.152317,0.348921,0.000000,0.000000,0.000000,0.000000,0.000000,0.000000,0.000000,0.000000,0.000000,0.000000,0.000000,0.000000,0.122682,3,0
1640000,0.004171,42.505924,-0.009157,0.007345,26.147100,0.036824,-0.004836,0.039262,1.572508,-0.069933,-0.004066,0.008344,0.000890,-0.010109,-0.000053,0.000847,-0.004321,-0.046165,-0.055547,0.210640,0.210576,0.152028,0.347703,0.000000,0.000000,0.000000,0.000000,0.000000,0.000000,0.000000,0.000000,0.000000,0.000000,0.000000,0.000000,0.044754,3,0
1650000,0.004094,42.765762,-0.007990,0.007038,26.148886,0.038277,-0.004886,0.039092,1.572506,-0.069685,-0.004087,0.008026,0.000900,-0.009991,-0.000052,0.000523,-0.004244,-0.047653,0.030860,0.210850,0.210784,0.151743,0.346520,0.000000,0.000000,0.000000,0.000000,0.000000,0.000000,0.000000,0.000000,0.000000,0.000000,0.000000,0.000000,0.046153,3,0
1660000,0.004019,43.022789,-0.008376,0.006771,26.145550,0.037830,-0.004930,0.038445,1.572518,-0.069025,-0.004111,0.008399,0.000910,-0.009680,-0.000051,0.002830,-0.004165,-0.128601,-0.032066,0.211060,0.210993,0.151462,0.345372,0.000000,0.000000,0.000000,0.000000,0.000000,0.000000,0.000000,0.000000,0.000000,0.000000,0.000000,0.000000,0.124153,3,0
1670000,0.003944,43.281216,-0.008299,0.006533,26.144634,0.037910,-0.004977,0.038026,1.572534,-0.068581,-0.004133,0.008560,0.000921,-0.009467,-0.000051,0.001259,-0.004087,-0.087406,-0.013119,0.211271,0.211202,0.151185,0.344256,0.000000,0.000000,0.000000,0.000000,0.000000,0.000000,0.000000,0.000000,0.000000,0.000000,0.000000,0.000000,0.084424,3,0
1680000,0.003868,43.542442,-0.008840,0.006212,26.148859,0.037307,-0.005020,0.038077,1.572537,-0.068543,-0.004154,0.008960,0.000930,-0.009451,-0.000051,0.000234,-0.004008,-0.007881,-0.036899,0.211481,0.211411,0.150912,0.343172,0.000000,0.000000,0.000000,0.000000,0.000000,0.000000,0.000000,0.000000,0.000000,0.000000,0.000000,0.000000,0.008540,3,0
1690000,0.003790,43.800793,-0.008288,0.005855,26.147739,0.038088,-0.005066,0.037647,1.572543,-0.068094,-0.004174,0.008919,0.000940,-0.009227,-0.000050,0.001317,-0.003929,-0.090240,0.005848,0.211691,0.211619,0.150643,0.342120,0.000000,0.000000,0.000000,0.000000,0.000000,0.000000,0.000000,0.000000,0.000000,0.000000,0.000000,0.000000,0.087138,3,0
1700000,0.003714,44.057743,-0.009016,0.005590,26.144028,0.037112,-0.005114,0.036968,1.572552,-0.067457,-0.004195,0.009451,0.000950,-0.008909,-0.000049,0.003060,-0.003849,-0.129913,-0.045948,0.211901,0.211827,0.150377,0.341098,0.000000,0.000000,0.000000,0.000000,0.000000,0.000000,0.000000,0.000000,0.000000,0.000000,0.000000,0.000000,0.125395,3,0
1710000,0.003637,44.317516,-0.009624,0.005230,26.145611,0.036469,-0.005159,0.036781,1.572567,-0.067220,-0.004216,0.009899,0.000959,-0.008790,-0.000049,0.000646,-0.003769,-0.048882,-0.039975,0.212110,0.212034,0.150116,0.340105,0.000000,0.000000,0.000000,0.000000,0.000000,0.000000,0.000000,0.000000,0.000000,0.000000,0.000000,0.000000,0.047309,3,0
1720000,0.003557,44.577229,-0.008399,0.004948,26.146915,0.037928,-0.005208,0.036562,1.572574,-0.066978,-0.004232,0.009544,0.000969,-0.008661,-0.000048,0.000592,-0.003689,-0.050247,0.033670,0.212318,0.212241,0.149859,0.339139,0.000000,0.000000,0.000000,0.000000,0.000000,0.000000,0.000000,0.000000,0.000000,0.000000,0.000000,0.000000,0.048588,3,0
