time_us,pos_x,pos_y,pos_z,vel_x,vel_y,vel_z,roll,pitch,yaw,bias_ax,bias_ay,bias_az,bias_gx,bias_gy,bias_gz,nis,innov_x,innov_y,innov_z,cov_pos_x,cov_pos_y,cov_pos_z,cov_yaw,des_speed,des_heading,des_climb,pid_speed,pid_yaw,pid_alt,speed_meas,yaw_meas,climb_meas,fwd_accel,yaw_rate,vert_accel,drift_m,nav_mode,mission_state
0,0.000004,0.149997,-0.000000,0.000748,24.999523,-0.000050,-0.000000,-0.000017,1.570792,0.000000,0.000000,0.000000,0.000000,0.000000,0.000000,0.006250,-0.000007,-0.249998,0.000001,2.400038,2.400038,3.600017,1.000518,0.000000,0.000000,0.000000,0.000000,0.000000,0.000000,0.000000,0.000000,0.000000,0.000000,0.000000,0.000000,0.149997,1,0
10000,0.000014,0.359540,-0.015206,0.001470,24.999071,0.000106,0.000003,-0.000035,1.570770,0.000000,-0.000000,0.000000,0.000000,0.000000,0.000000,0.002557,-0.000019,-0.141565,-0.040552,1.714420,1.714420,2.250079,1.001073,0.000000,0.000000,0.000000,0.000000,0.000000,0.000000,0.000000,0.000000,0.000000,0.000000,0.000000,0.000000,0.101114,3,0
20000,0.000027,0.593347,-0.005213,0.002071,24.998581,0.000238,-0.000010,-0.000047,1.570756,0.000001,-0.000000,-0.000000,0.000000,0.000000,0.000000,0.000850,-0.000034,-0.072797,0.036631,1.333616,1.333616,1.636554,1.001655,0.000000,0.000000,0.000000,0.000000,0.000000,0.000000,0.000000,0.000000,0.000000,0.000000,0.000000,0.000000,0.056617,3,0
30000,0.000045,0.820105,-0.009334,0.002799,24.997917,0.000199,-0.000016,-0.000062,1.570752,0.000003,-0.000000,0.000000,0.000000,0.000000,0.000000,0.002272,-0.000055,-0.127690,-0.019237,1.091392,1.091392,1.286065,1.002257,0.000000,0.000000,0.000000,0.000000,0.000000,0.000000,0.000000,0.000000,0.000000,0.000000,0.000000,0.000000,0.104464,3,0
40000,0.000067,1.064481,-0.001808,0.003497,24.997543,0.000577,-0.000028,-0.000070,1.570747,0.000004,-0.000000,-0.000001,0.000000,0.000000,0.000000,0.000436,-0.000080,-0.036378,0.042600,0.923811,0.923811,1.059385,1.002869,0.000000,0.000000,0.000000,0.000000,0.000000,0.000000,0.000000,0.000000,0.000000,0.000000,0.000000,0.000000,0.030777,3,0
50000,0.000094,1.311474,-0.007132,0.004119,24.997320,0.000380,-0.000037,-0.000085,1.570739,0.000005,-0.000000,0.000000,0.000000,0.000000,0.000000,0.000250,-0.000109,-0.022326,-0.035494,0.801036,0.801036,0.900822,1.003484,0.000000,0.000000,0.000000,0.000000,0.000000,0.000000,0.000000,0.000000,0.000000,0.000000,0.000000,0.000000,0.019345,3,0
60000,0.000125,1.555475,0.000321,0.004767,24.996790,0.000674,-0.000041,-0.000102,1.570722,0.000008,-0.000000,-0.000003,0.000000,0.000000,0.000000,0.000848,-0.000142,-0.050648,0.057023,0.707270,0.707270,0.783741,1.004094,0.000000,0.000000,0.000000,0.000000,0.000000,0.000000,0.000000,0.000000,0.000000,0.000000,0.000000,0.000000,0.044678,3,0
70000,0.000161,1.803716,0.004449,0.005435,24.996490,0.000887,-0.000037,-0.000118,1.570700,0.000010,-0.000000,-0.000006,0.000000,0.000000,0.000000,0.000227,-0.000179,-0.016339,0.035645,0.633370,0.633370,0.693801,1.004688,0.000000,0.000000,0.000000,0.000000,0.000000,0.000000,0.000000,0.000000,0.000000,0.000000,0.000000,0.000000,0.014615,3,0
80000,0.000201,2.045488,0.007045,0.006138,24.995535,0.001240,-0.000036,-0.000137,1.570687,0.000018,-0.000000,-0.000008,0.000000,0.000000,0.000000,0.001199,-0.000222,-0.085666,0.024919,0.573673,0.573673,0.622594,1.005260,0.000000,0.000000,0.000000,0.000000,0.000000,0.000000,0.000000,0.000000,0.000000,0.000000,0.000000,0.000000,0.077475,3,0
90000,0.000245,2.289410,0.006545,0.006724,24.994776,0.001416,-0.000039,-0.000152,1.570672,0.000027,-0.000000,-0.000007,0.000000,0.000000,0.000000,0.000729,-0.000268,-0.069003,-0.005462,0.524488,0.524488,0.564865,1.005801,0.000000,0.000000,0.000000,0.000000,0.000000,0.000000,0.000000,0.000000,0.000000,0.000000,0.000000,0.000000,0.062972,3,0
100000,0.000293,2.546174,0.007679,0.007412,24.995308,0.001475,-0.000049,-0.000168,1.570652,0.000014,-0.000000,-0.000009,0.000000,0.000000,0.000000,0.001124,-0.000319,0.084662,0.012994,0.483304,0.483304,0.517162,1.006301,0.000000,0.000000,0.000000,0.000000,0.000000,0.000000,0.000000,0.000000,0.000000,0.000000,0.000000,0.000000,0.077843,3,0
110000,0.000345,2.790693,0.005407,0.008008,24.994429,0.001416,-0.000045,-0.000178,1.570633,0.000028,-0.000000,-0.000004,0.000000,0.000000,0.000000,0.000943,-0.000373,-0.072715,-0.028788,0.448354,0.448354,0.477121,1.006754,0.000000,0.000000,0.000000,0.000000,0.000000,0.000000,0.000000,0.000000,0.000000,0.000000,0.000000,0.000000,0.067282,3,0
120000,0.000402,3.039306,0.006029,0.008700,24.993927,0.001780,-0.000046,-0.000187,1.570622,0.000032,-0.000000,-0.000006,0.000000,0.000000,0.000000,0.000067,-0.000432,-0.019039,0.008202,0.418359,0.418359,0.443071,1.007150,0.000000,0.000000,0.000000,0.000000,0.000000,0.000000,0.000000,0.000000,0.000000,0.000000,0.000000,0.000000,0.017716,3,0
130000,0.000463,3.286041,0.003591,0.009340,24.993155,0.001535,-0.000042,-0.000193,1.570600,0.000044,-0.000000,0.000003,0.000000,0.000001,0.000000,0.000571,-0.000496,-0.048980,-0.035634,0.392369,0.392369,0.413797,1.007481,0.000000,0.000000,0.000000,0.000000,0.000000,0.000000,0.000000,0.000000,0.000000,0.000000,0.000000,0.000000,0.045780,3,0
140000,0.000529,3.538571,0.000725,0.010073,24.993401,0.001060,-0.000036,-0.000192,1.570596,0.000032,-0.000001,0.000016,0.000000,0.000000,0.000000,0.000588,-0.000564,0.042236,-0.044523,0.369666,0.369666,0.388393,1.007739,0.000000,0.000000,0.000000,0.000000,0.000000,0.000000,0.000000,0.000000,0.000000,0.000000,0.000000,0.000000,0.039637,3,0
150000,0.000599,3.791307,0.000120,0.010661,24.993767,0.000936,-0.000036,-0.000196,1.570586,0.000016,-0.000001,0.000019,0.000000,-0.000000,-0.000000,0.000380,-0.000636,0.048128,-0.010101,0.349695,0.349695,0.366172,1.007915,0.000000,0.000000,0.000000,0.000000,0.000000,0.000000,0.000000,0.000000,0.000000,0.000000,0.000000,0.000000,0.045327,3,0
160000,0.000673,4.040920,0.001932,0.011382,24.993429,0.001655,-0.000030,-0.000211,1.570565,0.000018,-0.000001,0.000008,0.000000,0.000000,0.000000,0.000158,-0.000713,-0.005823,0.031173,0.332021,0.332021,0.346600,1.008002,0.000000,0.000000,0.000000,0.000000,0.000000,0.000000,0.000000,0.000000,0.000000,0.000000,0.000000,0.000000,0.005541,3,0
170000,0.000751,4.294154,0.001678,0.011930,24.994150,0.001524,-0.000038,-0.000219,1.570560,-0.000009,-0.000001,0.000010,0.000000,-0.000001,-0.000000,0.000623,-0.000793,0.062631,-0.004935,0.316298,0.316298,0.329260,1.007991,0.000000,0.000000,0.000000,0.000000,0.000000,0.000000,0.000000,0.000000,0.000000,0.000000,0.000000,0.000000,0.059334,3,0
180000,0.000834,4.545507,0.000756,0.012661,24.994448,0.001476,-0.000039,-0.000220,1.570547,-0.000022,-0.000002,0.000018,0.000000,-0.000001,-0.000000,0.000176,-0.000878,0.028057,-0.017957,0.302247,0.302247,0.313817,1.007875,0.000000,0.000000,0.000000,0.000000,0.000000,0.000000,0.000000,0.000000,0.000000,0.000000,0.000000,0.000000,0.026657,3,0
190000,0.000921,4.800025,0.001715,0.013390,24.995897,0.001892,-0.000045,-0.000210,1.570530,-0.000072,-0.000002,0.000008,0.000000,-0.000002,-0.000000,0.001481,-0.000968,0.094764,0.018854,0.289642,0.289642,0.300003,1.007646,0.000000,0.000000,0.000000,0.000000,0.000000,0.000000,0.000000,0.000000,0.000000,0.000000,0.000000,0.000000,0.090194,3,0
200000,0.001012,5.056402,0.002340,0.014030,24.998236,0.002199,-0.000050,-0.000190,1.570512,-0.000153,-0.000003,0.000001,0.000000,-0.000005,-0.000000,0.003071,-0.001061,0.138415,0.012626,0.278296,0.278296,0.287598,1.007296,0.000000,0.000000,0.000000,0.000000,0.000000,0.000000,0.000000,0.000000,0.000000,0.000000,0.000000,0.000000,0.131999,3,0
210000,0.001108,5.312655,0.000250,0.014693,25.000608,0.001478,-0.000047,-0.000179,1.570506,-0.000243,-0.000004,0.000030,0.000000,-0.000007,-0.000000,0.003475,-0.001159,0.140442,-0.045853,0.268055,0.268055,0.276421,1.006818,0.000000,0.000000,0.000000,0.000000,0.000000,0.000000,0.000000,0.000000,0.000000,0.000000,0.000000,0.000000,0.134172,3,0
220000,0.001207,5.563665,0.001358,0.015319,25.000841,0.002238,-0.000045,-0.000181,1.570486,-0.000259,-0.000005,0.000013,0.000000,-0.000008,-0.000000,0.000183,-0.001261,0.023316,0.024553,0.258788,0.258788,0.266321,1.006204,0.000000,0.000000,0.000000,0.000000,0.000000,0.000000,0.000000,0.000000,0.000000,0.000000,0.000000,0.000000,0.022343,3,0
230000,0.001308,5.820760,0.002238,0.015857,25.004072,0.002712,-0.000057,-0.000147,1.570479,-0.000388,-0.000006,-0.000002,0.000000,-0.000012,-0.000000,0.004673,-0.001365,0.169883,0.020003,0.250387,0.250387,0.257172,1.005448,0.000000,0.000000,0.000000,0.000000,0.000000,0.000000,0.000000,0.000000,0.000000,0.000000,0.000000,0.000000,0.162799,3,0
240000,0.001413,6.071290,0.003674,0.016430,25.004164,0.003347,-0.000064,-0.000147,1.570463,-0.000398,-0.000007,-0.000030,0.000000,-0.000012,-0.000000,0.000208,-0.001473,0.012149,0.033980,0.242757,0.242757,0.248866,1.004543,0.000000,0.000000,0.000000,0.000000,0.000000,0.000000,0.000000,0.000000,0.000000,0.000000,0.000000,0.000000,0.011743,3,0
250000,0.001523,6.326806,0.002817,0.017127,25.007114,0.002887,-0.000068,-0.000115,1.570451,-0.000523,-0.000008,-0.000010,0.000000,-0.000017,-0.000000,0.003187,-0.001585,0.139318,-0.022158,0.235820,0.235820,0.241314,1.003483,0.000000,0.000000,0.000000,0.000000,0.000000,0.000000,0.000000,0.000000,0.000000,0.000000,0.000000,0.000000,0.133851,3,0
260000,0.001635,6.578513,0.004690,0.017691,25.007963,0.004232,-0.000071,-0.000116,1.570443,-0.000564,-0.000010,-0.000055,0.000000,-0.000018,-0.000000,0.000650,-0.001700,0.042804,0.047123,0.229506,0.229506,0.234436,1.002261,0.000000,0.000000,0.000000,0.000000,0.000000,0.000000,0.000000,0.000000,0.000000,0.000000,0.000000,0.000000,0.041199,3,0
270000,0.001750,6.831920,0.003313,0.018248,25.009924,0.003430,-0.000084,-0.000093,1.570434,-0.000656,-0.000012,-0.000017,0.000000,-0.000022,-0.000000,0.001503,-0.001818,0.089272,-0.037339,0.223757,0.223757,0.228165,1.000872,0.000000,0.000000,0.000000,0.000000,0.000000,0.000000,0.000000,0.000000,0.000000,0.000000,0.000000,0.000000,0.085961,3,0
280000,0.001868,7.085451,0.002628,0.018747,25.012171,0.003239,-0.000089,-0.000079,1.570416,-0.000760,-0.000014,0.000005,0.000000,-0.000026,-0.000000,0.001489,-0.001938,0.094271,-0.019459,0.218519,0.218519,0.222443,0.999310,0.000000,0.000000,0.000000,0.000000,0.000000,0.000000,0.000000,0.000000,0.000000,0.000000,0.000000,0.000000,0.090857,3,0
290000,0.001988,7.338396,0.003100,0.019311,25.014133,0.003594,-0.000095,-0.000053,1.570406,-0.000853,-0.000016,-0.000010,0.000001,-0.000030,-0.000000,0.001034,-0.002061,0.079264,0.012126,0.213747,0.213748,0.217219,0.997570,0.000000,0.000000,0.000000,0.000000,0.000000,0.000000,0.000000,0.000000,0.000000,0.000000,0.000000,0.000000,0.076466,3,0
300000,0.002110,7.595654,0.003879,0.019821,25.019396,0.004243,-0.000091,0.000010,1.570395,-0.001110,-0.000019,-0.000036,0.000001,-0.000041,-0.000000,0.006765,-0.002187,0.204000,0.020950,0.209402,0.209402,0.212446,0.995648,0.000000,0.000000,0.000000,0.000000,0.000000,0.000000,0.000000,0.000000,0.000000,0.000000,0.000000,0.000000,0.196892,3,0
310000,0.002235,7.852870,0.004159,0.020310,25.024900,0.004622,-0.000088,0.000087,1.570389,-0.001383,-0.000022,-0.000045,0.000001,-0.000053,-0.000000,0.006780,-0.002314,0.205115,0.006763,0.205448,0.205448,0.208087,0.993539,0.000000,0.000000,0.000000,0.000000,0.000000,0.000000,0.000000,0.000000,0.000000,0.000000,0.000000,0.000000,0.198104,3,0
320000,0.002361,8.108719,0.005891,0.020792,25.029442,0.006027,-0.000088,0.000149,1.570373,-0.001619,-0.000026,-0.000114,0.000001,-0.000064,-0.000000,0.004862,-0.002443,0.166512,0.049539,0.201852,0.201853,0.204105,0.991240,0.000000,0.000000,0.000000,0.000000,0.000000,0.000000,0.000000,0.000000,0.000000,0.000000,0.000000,0.000000,0.160928,3,0
330000,0.002490,8.362633,0.004761,0.021317,25.032459,0.005028,-0.000099,0.000195,1.570359,-0.001783,-0.000030,-0.000061,0.000001,-0.000071,-0.000000,0.002134,-0.002575,0.109407,-0.035604,0.198588,0.198588,0.200469,0.988747,0.000000,0.000000,0.000000,0.000000,0.000000,0.000000,0.000000,0.000000,0.000000,0.000000,0.000000,0.000000,0.105816,3,0
340000,0.002622,8.617316,0.003403,0.021912,25.036270,0.004017,-0.000096,0.000251,1.570346,-0.001995,-0.000034,0.000006,0.000001,-0.000082,-0.000001,0.003183,-0.002710,0.133768,-0.042932,0.195628,0.195628,0.197151,0.986057,0.000000,0.000000,0.000000,0.000000,0.000000,0.000000,0.000000,0.000000,0.000000,0.000000,0.000000,0.000000,0.129433,3,0
350000,0.002756,8.872099,0.002340,0.022483,25.040424,0.003014,-0.000096,0.000319,1.570334,-0.002224,-0.000039,0.000063,0.000002,-0.000093,-0.000001,0.003237,-0.002847,0.137471,-0.034094,0.192951,0.192951,0.194125,0.983167,0.000000,0.000000,0.000000,0.000000,0.000000,0.000000,0.000000,0.000000,0.000000,0.000000,0.000000,0.000000,0.133079,3,0
360000,0.002892,9.124456,0.002611,0.023010,25.042236,0.003540,-0.000110,0.000348,1.570319,-0.002332,-0.000044,0.000050,0.000002,-0.000099,-0.000001,0.000622,-0.002987,0.061558,0.007468,0.190535,0.190535,0.191370,0.980077,0.000000,0.000000,0.000000,0.000000,0.000000,0.000000,0.000000,0.000000,0.000000,0.000000,0.000000,0.000000,0.059673,3,0
370000,0.003031,9.380120,0.003108,0.023598,25.047531,0.004093,-0.000121,0.000430,1.570311,-0.002640,-0.000050,0.000023,0.000002,-0.000115,-0.000001,0.004538,-0.003129,0.167003,0.014620,0.188362,0.188362,0.188863,0.976783,0.000000,0.000000,0.000000,0.000000,0.000000,0.000000,0.000000,0.000000,0.000000,0.000000,0.000000,0.000000,0.161788,3,0
380000,0.003171,9.637719,0.004005,0.024058,25.055017,0.005201,-0.000121,0.000563,1.570295,-0.003083,-0.000056,-0.000030,0.000003,-0.000140,-0.000001,0.008618,-0.003272,0.229349,0.027454,0.186414,0.186414,0.186586,0.973286,0.000000,0.000000,0.000000,0.000000,0.000000,0.000000,0.000000,0.000000,0.000000,0.000000,0.000000,0.000000,0.222246,3,0
390000,0.003312,9.892291,0.005273,0.024533,25.059427,0.006421,-0.000133,0.000649,1.570280,-0.003348,-0.000063,-0.000109,0.000003,-0.000155,-0.000001,0.003014,-0.003417,0.130705,0.039529,0.184675,0.184676,0.184522,0.969585,0.000000,0.000000,0.000000,0.000000,0.000000,0.000000,0.000000,0.000000,0.000000,0.000000,0.000000,0.000000,0.126726,3,0
400000,0.003455,10.147596,0.006153,0.025067,25.064735,0.007448,-0.000148,0.000742,1.570260,-0.003675,-0.000071,-0.000166,0.000003,-0.000174,-0.000001,0.003969,-0.003564,0.154394,0.026740,0.183132,0.183132,0.182656,0.965679,0.000000,0.000000,0.000000,0.000000,0.000000,0.000000,0.000000,0.000000,0.000000,0.000000,0.000000,0.000000,0.149722,3,0
410000,0.003599,10.403013,0.006464,0.025493,25.070278,0.007789,-0.000154,0.000850,1.570250,-0.004023,-0.000079,-0.000183,0.000004,-0.000195,-0.000001,0.004019,-0.003711,0.157462,0.007806,0.181770,0.181770,0.180971,0.961571,0.000000,0.000000,0.000000,0.000000,0.000000,0.000000,0.000000,0.000000,0.000000,0.000000,0.000000,0.000000,0.152734,3,0
420000,0.003744,10.656748,0.005521,0.025976,25.073912,0.006733,-0.000160,0.000923,1.570241,-0.004255,-0.000088,-0.000104,0.000004,-0.000209,-0.000001,0.001833,-0.003860,0.100779,-0.034147,0.180576,0.180577,0.179456,0.957259,0.000000,0.000000,0.000000,0.000000,0.000000,0.000000,0.000000,0.000000,0.000000,0.000000,0.000000,0.000000,0.097818,3,0
430000,0.003890,10.914805,0.006418,0.026439,25.083008,0.007693,-0.000170,0.001107,1.570228,-0.004841,-0.000098,-0.000171,0.000005,-0.000246,-0.000002,0.009801,-0.004010,0.244585,0.027925,0.179541,0.179541,0.178097,0.952748,0.000000,0.000000,0.000000,0.000000,0.000000,0.000000,0.000000,0.000000,0.000000,0.000000,0.000000,0.000000,0.237298,3,0
440000,0.004037,11.168783,0.006360,0.026969,25.087084,0.007564,-0.000170,0.001180,1.570216,-0.005105,-0.000108,-0.000160,0.000006,-0.000263,-0.000002,0.001813,-0.004161,0.105709,-0.004596,0.178652,0.178652,0.176883,0.948037,0.000000,0.000000,0.000000,0.000000,0.000000,0.000000,0.000000,0.000000,0.000000,0.000000,0.000000,0.000000,0.102641,3,0
450000,0.004186,11.422329,0.005186,0.027450,25.090521,0.006096,-0.000173,0.001239,1.570204,-0.005339,-0.000120,-0.000049,0.000006,-0.000279,-0.000002,0.001614,-0.004313,0.090240,-0.042660,0.177899,0.177900,0.175803,0.943131,0.000000,0.000000,0.000000,0.000000,0.000000,0.000000,0.000000,0.000000,0.000000,0.000000,0.000000,0.000000,0.087663,3,0
460000,0.004334,11.680743,0.004674,0.027841,25.100624,0.005566,-0.000188,0.001459,1.570205,-0.006022,-0.000132,0.000004,0.000007,-0.000325,-0.000002,0.010511,-0.004466,0.254115,-0.019729,0.177273,0.177274,0.174847,0.938032,0.000000,0.000000,0.000000,0.000000,0.000000,0.000000,0.000000,0.000000,0.000000,0.000000,0.000000,0.000000,0.246645,3,0
470000,0.004482,11.938062,0.003785,0.028197,25.109205,0.004392,-0.000204,0.001647,1.570201,-0.006618,-0.000145,0.000095,0.000008,-0.000366,-0.000002,0.007602,-0.004618,0.214268,-0.032586,0.176766,0.176766,0.174006,0.932744,0.000000,0.000000,0.000000,0.000000,0.000000,0.000000,0.000000,0.000000,0.000000,0.000000,0.000000,0.000000,0.208004,3,0
480000,0.004630,12.193145,0.004755,0.028623,25.114790,0.005826,-0.000209,0.001778,1.570195,-0.007009,-0.000159,0.000003,0.000009,-0.000394,-0.000003,0.003151,-0.004770,0.135775,0.031986,0.176368,0.176369,0.173271,0.927271,0.000000,0.000000,0.000000,0.000000,0.000000,0.000000,0.000000,0.000000,0.000000,0.000000,0.000000,0.000000,0.131865,3,0
490000,0.004778,12.447207,0.004713,0.029118,25.118963,0.005694,-0.000226,0.001873,1.570188,-0.007305,-0.000173,0.000013,0.000010,-0.000415,-0.000003,0.001601,-0.004923,0.099303,-0.003501,0.176072,0.176073,0.172634,0.921618,0.000000,0.000000,0.000000,0.000000,0.000000,0.000000,0.000000,0.000000,0.000000,0.000000,0.000000,0.000000,0.096507,3,0
500000,0.004928,12.704930,0.005749,0.029614,25.128368,0.006928,-0.000244,0.002096,1.570177,-0.007990,-0.000189,-0.000093,0.000011,-0.000466,-0.000003,0.008231,-0.005077,0.222898,0.034162,0.175871,0.175872,0.172087,0.915788,0.000000,0.000000,0.000000,0.000000,0.000000,0.000000,0.000000,0.000000,0.000000,0.000000,0.000000,0.000000,0.216421,3,0
510000,0.005077,12.960433,0.006247,0.030035,25.134596,0.007575,-0.000261,0.002244,1.570169,-0.008447,-0.000206,-0.000140,0.000013,-0.000501,-0.000003,0.003395,-0.005230,0.143991,0.014952,0.175757,0.175758,0.171622,0.909789,0.000000,0.000000,0.000000,0.000000,0.000000,0.000000,0.000000,0.000000,0.000000,0.000000,0.000000,0.000000,0.139865,3,0
520000,0.005226,13.214916,0.005909,0.030384,25.139370,0.007335,-0.000275,0.002354,1.570162,-0.008797,-0.000223,-0.000092,0.000014,-0.000528,-0.000003,0.001895,-0.005383,0.107095,-0.014645,0.175724,0.175725,0.171234,0.903626,0.000000,0.000000,0.000000,0.000000,0.000000,0.000000,0.000000,0.000000,0.000000,0.000000,0.000000,0.000000,0.104089,3,0
530000,0.005374,13.471309,0.006401,0.030830,25.146950,0.007896,-0.000281,0.002543,1.570151,-0.009371,-0.000242,-0.000142,0.000016,-0.000574,-0.000004,0.004750,-0.005536,0.170627,0.014698,0.175765,0.175766,0.170915,0.897304,0.000000,0.000000,0.000000,0.000000,0.000000,0.000000,0.000000,0.000000,0.000000,0.000000,0.000000,0.000000,0.165716,3,0
540000,0.005522,13.726674,0.005570,0.031186,25.153137,0.006669,-0.000297,0.002709,1.570135,-0.009831,-0.000262,-0.000030,0.000017,-0.000611,-0.000004,0.003025,-0.005689,0.132825,-0.032007,0.175875,0.175876,0.170659,0.890830,0.000000,0.000000,0.000000,0.000000,0.000000,0.000000,0.000000,0.000000,0.000000,0.000000,0.000000,0.000000,0.129049,3,0
550000,0.005669,13.982192,0.005903,0.031594,25.159468,0.007155,-0.000308,0.002879,1.570122,-0.010314,-0.000283,-0.000064,0.000019,-0.000651,-0.000004,0.003004,-0.005841,0.135824,0.009335,0.176048,0.176049,0.170460,0.884211,0.000000,0.000000,0.000000,0.000000,0.000000,0.000000,0.000000,0.000000,0.000000,0.000000,0.000000,0.000000,0.131961,3,0
560000,0.005816,14.237863,0.006680,0.032037,25.166061,0.008242,-0.000312,0.003060,1.570111,-0.010820,-0.000305,-0.000155,0.000021,-0.000694,-0.000004,0.003216,-0.005992,0.138668,0.024802,0.176277,0.176278,0.170314,0.877454,0.000000,0.000000,0.000000,0.000000,0.000000,0.000000,0.000000,0.000000,0.000000,0.000000,0.000000,0.000000,0.134720,3,0
570000,0.005962,14.497780,0.007605,0.032361,25.179296,0.009368,-0.000333,0.003441,1.570109,-0.011871,-0.000328,-0.000268,0.000023,-0.000784,-0.000005,0.012877,-0.006143,0.280510,0.029715,0.176559,0.176560,0.170215,0.870566,0.000000,0.000000,0.000000,0.000000,0.000000,0.000000,0.000000,0.000000,0.000000,0.000000,0.000000,0.000000,0.272320,3,0
580000,0.006107,14.757797,0.007535,0.032755,25.192738,0.009149,-0.000339,0.003828,1.570095,-0.012943,-0.000353,-0.000246,0.000025,-0.000878,-0.000006,0.012592,-0.006292,0.278885,-0.005804,0.176889,0.176890,0.170158,0.863555,0.000000,0.000000,0.000000,0.000000,0.000000,0.000000,0.000000,0.000000,0.000000,0.000000,0.000000,0.000000,0.270732,3,0
590000,0.006249,15.013805,0.008117,0.032975,25.199652,0.009836,-0.000354,0.004032,1.570083,-0.013485,-0.000378,-0.000315,0.000027,-0.000927,-0.000006,0.003136,-0.006440,0.138006,0.017288,0.177261,0.177262,0.170138,0.856428,0.000000,0.000000,0.000000,0.000000,0.000000,0.000000,0.000000,0.000000,0.000000,0.000000,0.000000,0.000000,0.134075,3,0
600000,0.006391,15.272316,0.008931,0.033361,25.210531,0.011186,-0.000362,0.004355,1.570075,-0.014370,-0.000405,-0.000418,0.000030,-0.001008,-0.000007,0.007928,-0.006586,0.219871,0.025091,0.177671,0.177673,0.170152,0.849193,0.000000,0.000000,0.000000,0.000000,0.000000,0.000000,0.000000,0.000000,0.000000,0.000000,0.000000,0.000000,0.213456,3,0
610000,0.006530,15.530947,0.010301,0.033579,25.221621,0.013008,-0.000374,0.004687,1.570061,-0.015275,-0.000433,-0.000604,0.000032,-0.001092,-0.000007,0.008130,-0.006730,0.219676,0.044358,0.178116,0.178117,0.170196,0.841858,0.000000,0.000000,0.000000,0.000000,0.000000,0.000000,0.000000,0.000000,0.000000,0.000000,0.000000,0.000000,0.213255,3,0
620000,0.006666,15.788513,0.011027,0.033801,25.230833,0.014080,-0.000394,0.004974,1.570045,-0.016030,-0.000462,-0.000694,0.000035,-0.001164,-0.000008,0.005294,-0.006871,0.179603,0.020896,0.178591,0.178592,0.170265,0.834431,0.000000,0.000000,0.000000,0.000000,0.000000,0.000000,0.000000,0.000000,0.000000,0.000000,0.000000,0.000000,0.174384,3,0
630000,0.006801,16.046211,0.010019,0.034041,25.240267,0.012564,-0.000412,0.005269,1.570047,-0.016805,-0.000493,-0.000516,0.000038,-0.001238,-0.000008,0.005534,-0.007010,0.180368,-0.040546,0.179093,0.179094,0.170356,0.826920,0.000000,0.000000,0.000000,0.000000,0.000000,0.000000,0.000000,0.000000,0.000000,0.000000,0.000000,0.000000,0.175116,3,0
640000,0.006933,16.306417,0.011332,0.034218,25.253803,0.014434,-0.000432,0.005703,1.570048,-0.017946,-0.000524,-0.000704,0.000041,-0.001351,-0.000009,0.011263,-0.007147,0.260519,0.041744,0.179618,0.179619,0.170466,0.819333,0.000000,0.000000,0.000000,0.000000,0.000000,0.000000,0.000000,0.000000,0.000000,0.000000,0.000000,0.000000,0.252815,3,0
650000,0.007063,16.567324,0.011747,0.034548,25.268415,0.014990,-0.000449,0.006171,1.570044,-0.019190,-0.000557,-0.000748,0.000045,-0.001476,-0.000010,0.012560,-0.007282,0.278481,0.009453,0.180162,0.180164,0.170591,0.811679,0.000000,0.000000,0.000000,0.000000,0.000000,0.000000,0.000000,0.000000,0.000000,0.000000,0.000000,0.000000,0.270211,3,0
660000,0.007193,16.824131,0.010619,0.034849,25.275934,0.013239,-0.000460,0.006399,1.570036,-0.019812,-0.000591,-0.000537,0.000048,-0.001539,-0.000010,0.003357,-0.007415,0.136702,-0.044989,0.180724,0.180725,0.170729,0.803965,0.000000,0.000000,0.000000,0.000000,0.000000,0.000000,0.000000,0.000000,0.000000,0.000000,0.000000,0.000000,0.132779,3,0
670000,0.007318,17.081074,0.011982,0.034969,25.283630,0.015338,-0.000473,0.006642,1.570035,-0.020453,-0.000626,-0.000743,0.000052,-0.001606,-0.000010,0.003399,-0.007546,0.138245,0.043091,0.181299,0.181300,0.170877,0.796200,0.000000,0.000000,0.000000,0.000000,0.000000,0.000000,0.000000,0.000000,0.000000,0.000000,0.000000,0.000000,0.134267,3,0
680000,0.007441,17.338751,0.011053,0.035168,25.292515,0.013833,-0.000496,0.006933,1.570031,-0.021206,-0.000663,-0.000559,0.000056,-0.001686,-0.000011,0.004357,-0.007673,0.159531,-0.038008,0.181885,0.181887,0.171033,0.788392,0.000000,0.000000,0.000000,0.000000,0.000000,0.000000,0.000000,0.000000,0.000000,0.000000,0.000000,0.000000,0.154874,3,0
690000,0.007561,17.598972,0.012034,0.035370,25.305630,0.015284,-0.000511,0.007379,1.570019,-0.022356,-0.000701,-0.000705,0.000060,-0.001810,-0.000012,0.009435,-0.007799,0.239704,0.029445,0.182480,0.182482,0.171194,0.780548,0.000000,0.000000,0.000000,0.000000,0.000000,0.000000,0.000000,0.000000,0.000000,0.000000,0.000000,0.000000,0.232537,3,0
700000,0.007679,17.858080,0.012575,0.035512,25.316824,0.016123,-0.000522,0.007763,1.570013,-0.023321,-0.000740,-0.000774,0.000064,-0.001916,-0.000012,0.006375,-0.007921,0.198019,0.013452,0.183081,0.183083,0.171357,0.772676,0.000000,0.000000,0.000000,0.000000,0.000000,0.000000,0.000000,0.000000,0.000000,0.000000,0.000000,0.000000,0.192130,3,0
710000,0.007794,18.117903,0.012587,0.035693,25.329100,0.016100,-0.000540,0.008200,1.570005,-0.024396,-0.000780,-0.000747,0.000068,-0.002036,-0.000013,0.007630,-0.008040,0.217106,-0.005289,0.183686,0.183688,0.171522,0.764784,0.000000,0.000000,0.000000,0.000000,0.000000,0.000000,0.000000,0.000000,0.000000,0.000000,0.000000,0.000000,0.210603,3,0
720000,0.007907,18.379656,0.011326,0.035816,25.344521,0.013955,-0.000567,0.008743,1.570003,-0.025780,-0.000821,-0.000488,0.000073,-0.002193,-0.000014,0.012647,-0.008156,0.275221,-0.049709,0.184293,0.184295,0.171686,0.756880,0.000000,0.000000,0.000000,0.000000,0.000000,0.000000,0.000000,0.000000,0.000000,0.000000,0.000000,0.000000,0.266885,3,0
730000,0.008016,18.636585,0.010564,0.035945,25.351543,0.012773,-0.000598,0.008987,1.569986,-0.026355,-0.000864,-0.000320,0.000078,-0.002260,-0.000015,0.002224,-0.008270,0.112707,-0.031549,0.184900,0.184902,0.171847,0.748970,0.000000,0.000000,0.000000,0.000000,0.000000,0.000000,0.000000,0.000000,0.000000,0.000000,0.000000,0.000000,0.109528,3,0
740000,0.008124,18.897326,0.009353,0.036171,25.365093,0.010723,-0.000625,0.009486,1.569981,-0.027563,-0.000908,-0.000068,0.000083,-0.002402,-0.000016,0.009164,-0.008382,0.233408,-0.046720,0.185506,0.185508,0.172004,0.741063,0.000000,0.000000,0.000000,0.000000,0.000000,0.000000,0.000000,0.000000,0.000000,0.000000,0.000000,0.000000,0.226338,3,0
750000,0.008228,19.158150,0.010472,0.036312,25.378546,0.012385,-0.000643,0.009981,1.569968,-0.028774,-0.000953,-0.000263,0.000088,-0.002547,-0.000016,0.008827,-0.008491,0.230959,0.035205,0.186108,0.186110,0.172155,0.733164,0.000000,0.000000,0.000000,0.000000,0.000000,0.000000,0.000000,0.000000,0.000000,0.000000,0.000000,0.000000,0.223946,3,0
760000,0.008330,19.416578,0.010521,0.036476,25.387659,0.012506,-0.000676,0.010323,1.569954,-0.029565,-0.000999,-0.000248,0.000094,-0.002643,-0.000017,0.003594,-0.008597,0.148909,-0.002721,0.186705,0.186707,0.172299,0.725281,0.000000,0.000000,0.000000,0.000000,0.000000,0.000000,0.000000,0.000000,0.000000,0.000000,0.000000,0.000000,0.144516,3,0
770000,0.008429,19.676353,0.011387,0.036635,25.399128,0.013753,-0.000700,0.010747,1.569958,-0.030579,-0.001046,-0.000395,0.000100,-0.002768,-0.000018,0.005861,-0.008701,0.188570,0.025713,0.187296,0.187298,0.172436,0.717420,0.000000,0.000000,0.000000,0.000000,0.000000,0.000000,0.000000,0.000000,0.000000,0.000000,0.000000,0.000000,0.182878,3,0
780000,0.008525,19.936838,0.012243,0.036732,25.411640,0.014932,-0.000733,0.011223,1.569949,-0.031705,-0.001094,-0.000539,0.000106,-0.002910,-0.000019,0.007030,-0.008801,0.206985,0.024928,0.187880,0.187882,0.172563,0.709588,0.000000,0.000000,0.000000,0.000000,0.000000,0.000000,0.000000,0.000000,0.000000,0.000000,0.000000,0.000000,0.200685,3,0
790000,0.008618,20.197399,0.013073,0.036857,25.424082,0.015998,-0.000758,0.011710,1.569956,-0.032833,-0.001144,-0.000679,0.000112,-0.003054,-0.000020,0.006874,-0.008898,0.204802,0.023642,0.188456,0.188458,0.172680,0.701790,0.000000,0.000000,0.000000,0.000000,0.000000,0.000000,0.000000,0.000000,0.000000,0.000000,0.000000,0.000000,0.198555,3,0
800000,0.008708,20.459286,0.014179,0.036874,25.438824,0.017327,-0.000781,0.012292,1.569958,-0.034181,-0.001194,-0.000875,0.000119,-0.003230,-0.000021,0.009664,-0.008992,0.242300,0.032841,0.189022,0.189024,0.172787,0.694032,0.000000,0.000000,0.000000,0.000000,0.000000,0.000000,0.000000,0.000000,0.000000,0.000000,0.000000,0.000000,0.234828,3,0
810000,0.008796,20.720602,0.013771,0.036965,25.452341,0.016511,-0.000802,0.012830,1.569960,-0.035413,-0.001246,-0.000755,0.000126,-0.003393,-0.000022,0.007807,-0.009083,0.218811,-0.020179,0.189578,0.189580,0.172882,0.686319,0.000000,0.000000,0.000000,0.000000,0.000000,0.000000,0.000000,0.000000,0.000000,0.000000,0.000000,0.000000,0.212079,3,0
820000,0.008880,20.980719,0.014972,0.037012,25.463659,0.018259,-0.000820,0.013271,1.569962,-0.036413,-0.001298,-0.000975,0.000133,-0.003527,-0.000023,0.005222,-0.009172,0.176025,0.035851,0.190123,0.190125,0.172965,0.678658,0.000000,0.000000,0.000000,0.000000,0.000000,0.000000,0.000000,0.000000,0.000000,0.000000,0.000000,0.000000,0.170679,3,0
830000,0.008961,21.239012,0.016156,0.037010,25.471579,0.019980,-0.000846,0.013585,1.569953,-0.037070,-0.001352,-0.001189,0.000140,-0.003617,-0.000023,0.002327,-0.009256,0.114586,0.034635,0.190657,0.190659,0.173035,0.671052,0.000000,0.000000,0.000000,0.000000,0.000000,0.000000,0.000000,0.000000,0.000000,0.000000,0.000000,0.000000,0.111306,3,0
840000,0.009040,21.499294,0.015538,0.037053,25.482859,0.019056,-0.000873,0.014042,1.569939,-0.038080,-0.001406,-0.001013,0.000148,-0.003757,-0.000024,0.005046,-0.009337,0.174276,-0.028453,0.191179,0.191181,0.173092,0.663507,0.000000,0.000000,0.000000,0.000000,0.000000,0.000000,0.000000,0.000000,0.000000,0.000000,0.000000,0.000000,0.168966,3,0
850000,0.009116,21.760914,0.014044,0.037072,25.496349,0.016734,-0.000901,0.014611,1.569937,-0.039320,-0.001462,-0.000646,0.000155,-0.003932,-0.000025,0.007823,-0.009416,0.212063,-0.058434,0.191688,0.191690,0.173136,0.656027,0.000000,0.000000,0.000000,0.000000,0.000000,0.000000,0.000000,0.000000,0.000000,0.000000,0.000000,0.000000,0.205490,3,0
860000,0.009188,22.023216,0.013176,0.037017,25.510887,0.015159,-0.000931,0.015233,1.569941,-0.040668,-0.001519,-0.000418,0.000163,-0.004125,-0.000027,0.008654,-0.009492,0.228613,-0.035875,0.192185,0.192187,0.173166,0.648617,0.000000,0.000000,0.000000,0.000000,0.000000,0.000000,0.000000,0.000000,0.000000,0.000000,0.000000,0.000000,0.221481,3,0
870000,0.009256,22.281086,0.014122,0.037001,25.517433,0.016261,-0.000968,0.015484,1.569924,-0.041175,-0.001576,-0.000598,0.000172,-0.004199,-0.000027,0.001315,-0.009564,0.085438,0.027576,0.192668,0.192671,0.173182,0.641279,0.000000,0.000000,0.000000,0.000000,0.000000,0.000000,0.000000,0.000000,0.000000,0.000000,0.000000,0.000000,0.083211,3,0
880000,0.009322,22.540964,0.013335,0.037025,25.527485,0.014886,-0.001006,0.015900,1.569927,-0.042047,-0.001634,-0.000384,0.000180,-0.004328,-0.000028,0.003608,-0.009632,0.145565,-0.032910,0.193138,0.193141,0.173184,0.634019,0.000000,0.000000,0.000000,0.000000,0.000000,0.000000,0.000000,0.000000,0.000000,0.000000,0.000000,0.000000,0.141187,3,0
890000,0.009386,22.803469,0.013059,0.037048,25.542063,0.014202,-0.001035,0.016529,1.569920,-0.043396,-0.001693,-0.000289,0.000189,-0.004531,-0.000029,0.008109,-0.009698,0.223528,-0.014703,0.193595,0.193597,0.173171,0.626839,0.000000,0.000000,0.000000,0.000000,0.000000,0.000000,0.000000,0.000000,0.000000,0.000000,0.000000,0.000000,0.216520,3,0
900000,0.009447,23.063429,0.011886,0.037033,25.551994,0.012538,-0.001068,0.016944,1.569921,-0.044246,-0.001753,0.000014,0.000198,-0.004660,-0.000030,0.003504,-0.009762,0.139788,-0.045653,0.194038,0.194041,0.173145,0.619742,0.000000,0.000000,0.000000,0.000000,0.000000,0.000000,0.000000,0.000000,0.000000,0.000000,0.000000,0.000000,0.135597,3,0
910000,0.009504,23.322802,0.011151,0.036941,25.560715,0.011460,-0.001110,0.017308,1.569919,-0.044970,-0.001814,0.000214,0.000207,-0.004773,-0.000031,0.002416,-0.009822,0.118275,-0.029845,0.194468,0.194470,0.173104,0.612732,0.000000,0.000000,0.000000,0.000000,0.000000,0.000000,0.000000,0.000000,0.000000,0.000000,0.000000,0.000000,0.114835,3,0
920000,0.009558,23.581591,0.010680,0.036841,25.568285,0.010615,-0.001149,0.017624,1.569901,-0.045570,-0.001875,0.000352,0.000216,-0.004867,-0.000031,0.001611,-0.009878,0.097361,-0.020297,0.194884,0.194887,0.173049,0.605811,0.000000,0.000000,0.000000,0.000000,0.000000,0.000000,0.000000,0.000000,0.000000,0.000000,0.000000,0.000000,0.094682,3,0
930000,0.009609,23.843683,0.009176,0.036751,25.581627,0.008211,-0.001181,0.018219,1.569905,-0.046787,-0.001937,0.000734,0.000226,-0.005062,-0.000033,0.006734,-0.009931,0.196318,-0.055791,0.195287,0.195289,0.172980,0.598981,0.000000,0.000000,0.000000,0.000000,0.000000,0.000000,0.000000,0.000000,0.000000,0.000000,0.000000,0.000000,0.190171,3,0
940000,0.009655,24.103205,0.010361,0.036668,25.590111,0.009921,-0.001222,0.018598,1.569895,-0.047490,-0.002000,0.000465,0.000236,-0.005176,-0.000033,0.002312,-0.009982,0.113001,0.038244,0.195677,0.195679,0.172897,0.592246,0.000000,0.000000,0.000000,0.000000,0.000000,0.000000,0.000000,0.000000,0.000000,0.000000,0.000000,0.000000,0.109741,3,0
950000,0.009700,24.363430,0.011520,0.036703,25.599800,0.011487,-0.001250,0.019022,1.569881,-0.048314,-0.002063,0.000204,0.000247,-0.005312,-0.000034,0.003032,-0.010028,0.131697,0.036801,0.196054,0.196056,0.172800,0.585606,0.000000,0.000000,0.000000,0.000000,0.000000,0.000000,0.000000,0.000000,0.000000,0.000000,0.000000,0.000000,0.127762,3,0
960000,0.009743,24.622398,0.010088,0.036579,25.607143,0.009528,-0.001292,0.019327,1.569880,-0.048882,-0.002127,0.000585,0.000257,-0.005407,-0.000035,0.001792,-0.010071,0.090042,-0.053823,0.196418,0.196420,0.172690,0.579063,0.000000,0.000000,0.000000,0.000000,0.000000,0.000000,0.000000,0.000000,0.000000,0.000000,0.000000,0.000000,0.087637,3,0
970000,0.009783,24.882729,0.009564,0.036600,25.616877,0.008730,-0.001328,0.019771,1.569867,-0.049700,-0.002191,0.000737,0.000268,-0.005546,-0.000036,0.002782,-0.010115,0.129183,-0.021515,0.196769,0.196771,0.172567,0.572620,0.000000,0.000000,0.000000,0.000000,0.000000,0.000000,0.000000,0.000000,0.000000,0.000000,0.000000,0.000000,0.125329,3,0
980000,0.009820,25.144403,0.010685,0.036551,25.628832,0.010256,-0.001367,0.020334,1.569867,-0.050760,-0.002256,0.000473,0.000279,-0.005729,-0.000037,0.004719,-0.010155,0.166943,0.035987,0.197109,0.197111,0.172430,0.566277,0.000000,0.000000,0.000000,0.000000,0.000000,0.000000,0.000000,0.000000,0.000000,0.000000,0.000000,0.000000,0.161757,3,0
990000,0.009857,25.408060,0.010253,0.036533,25.643980,0.009386,-0.001403,0.021075,1.569874,-0.052185,-0.002322,0.000603,0.000291,-0.005979,-0.000039,0.008103,-0.010191,0.223209,-0.018518,0.197437,0.197438,0.172281,0.560036,0.000000,0.000000,0.000000,0.000000,0.000000,0.000000,0.000000,0.000000,0.000000,0.000000,0.000000,0.000000,0.216089,3,0
1000000,0.009892,25.667116,0.008756,0.036504,25.650856,0.007421,-0.001446,0.021372,1.569856,-0.052691,-0.002388,0.001010,0.000302,-0.006069,-0.000039,0.001514,-0.010228,0.078672,-0.055527,0.197753,0.197754,0.172120,0.553898,0.000000,0.000000,0.000000,0.000000,0.000000,0.000000,0.000000,0.000000,0.000000,0.000000,0.000000,0.000000,0.076719,3,0
1010000,0.009923,25.930817,0.009557,0.036466,25.665928,0.008525,-0.001478,0.022124,1.569850,-0.054087,-0.002455,0.000816,0.000314,-0.006321,-0.000041,0.007720,-0.010263,0.217127,0.025413,0.198058,0.198059,0.171947,0.547863,0.000000,0.000000,0.000000,0.000000,0.000000,0.000000,0.000000,0.000000,0.000000,0.000000,0.000000,0.000000,0.210193,3,0
1020000,0.009951,26.191870,0.010537,0.036273,25.676081,0.009836,-0.001522,0.022613,1.569836,-0.054939,-0.002522,0.000578,0.000327,-0.006477,-0.000042,0.002992,-0.010292,0.132185,0.031308,0.198352,0.198353,0.171761,0.541933,0.000000,0.000000,0.000000,0.000000,0.000000,0.000000,0.000000,0.000000,0.000000,0.000000,0.000000,0.000000,0.128202,3,0
1030000,0.009976,26.451626,0.010950,0.036106,25.683899,0.010153,-0.001569,0.022970,1.569835,-0.055520,-0.002589,0.000493,0.000339,-0.006585,-0.000042,0.001334,-0.010318,0.089697,0.011062,0.198636,0.198637,0.171565,0.536107,0.000000,0.000000,0.000000,0.000000,0.000000,0.000000,0.000000,0.000000,0.000000,0.000000,0.000000,0.000000,0.087299,3,0
1040000,0.009999,26.712076,0.010180,0.035928,25.692741,0.009084,-0.001611,0.023390,1.569823,-0.056223,-0.002657,0.000722,0.000352,-0.006718,-0.000043,0.002053,-0.010341,0.108168,-0.030521,0.198910,0.198911,0.171358,0.530386,0.000000,0.000000,0.000000,0.000000,0.000000,0.000000,0.000000,0.000000,0.000000,0.000000,0.000000,0.000000,0.105059,3,0
1050000,0.010021,26.975191,0.008796,0.035786,25.706343,0.007153,-0.001650,0.024079,1.569821,-0.057433,-0.002725,0.001113,0.000364,-0.006951,-0.000045,0.005998,-0.010363,0.185570,-0.051628,0.199174,0.199175,0.171140,0.524771,0.000000,0.000000,0.000000,0.000000,0.000000,0.000000,0.000000,0.000000,0.000000,0.000000,0.000000,0.000000,0.179689,3,0
1060000,0.010039,27.236969,0.007581,0.035659,25.717394,0.005575,-0.001692,0.024629,1.569821,-0.058355,-0.002794,0.001458,0.000377,-0.007130,-0.000046,0.003550,-0.010383,0.140985,-0.045142,0.199430,0.199431,0.170912,0.519261,0.000000,0.000000,0.000000,0.000000,0.000000,0.000000,0.000000,0.000000,0.000000,0.000000,0.000000,0.000000,0.136668,3,0
1070000,0.010055,27.498749,0.006271,0.035442,25.728331,0.003583,-0.001736,0.025159,1.569822,-0.059256,-0.002863,0.001827,0.000390,-0.007309,-0.000047,0.003436,-0.010400,0.137522,-0.047897,0.199677,0.199678,0.170674,0.513856,0.000000,0.000000,0.000000,0.000000,0.000000,0.000000,0.000000,0.000000,0.000000,0.000000,0.000000,0.000000,0.133324,3,0
1080000,0.010069,27.762516,0.005016,0.035306,25.742559,0.001674,-0.001780,0.025906,1.569830,-0.060527,-0.002933,0.002176,0.000404,-0.007564,-0.000049,0.006393,-0.010414,0.193693,-0.045231,0.199916,0.199917,0.170426,0.508557,0.000000,0.000000,0.000000,0.000000,0.000000,0.000000,0.000000,0.000000,0.000000,0.000000,0.000000,0.000000,0.187509,3,0
1090000,0.010079,28.023596,0.004160,0.035071,25.751860,0.000343,-0.001824,0.026366,1.569823,-0.061242,-0.003002,0.002414,0.000418,-0.007709,-0.000050,0.002073,-0.010426,0.108698,-0.030659,0.200147,0.200147,0.170170,0.503362,0.000000,0.000000,0.000000,0.000000,0.000000,0.000000,0.000000,0.000000,0.000000,0.000000,0.000000,0.000000,0.105554,3,0
1100000,0.010085,28.285347,0.003522,0.034817,25.762339,-0.000599,-0.001870,0.026879,1.569817,-0.062071,-0.003071,0.002589,0.000432,-0.007880,-0.000051,0.002650,-0.010433,0.125826,-0.022518,0.200371,0.200371,0.169905,0.498272,0.000000,0.000000,0.000000,0.000000,0.000000,0.000000,0.000000,0.000000,0.000000,0.000000,0.000000,0.000000,0.122041,3,0
1110000,0.010090,28.543770,0.003780,0.034744,25.766733,-0.000336,-0.001911,0.027034,1.569803,-0.062222,-0.003140,0.002513,0.000446,-0.007912,-0.000051,0.000117,-0.010439,0.023001,0.009391,0.200588,0.200588,0.169633,0.493286,0.000000,0.000000,0.000000,0.000000,0.000000,0.000000,0.000000,0.000000,0.000000,0.000000,0.000000,0.000000,0.024414,3,0
1120000,0.010093,28.804897,0.003194,0.034605,25.775892,-0.001183,-0.001956,0.027486,1.569800,-0.062898,-0.003210,0.002675,0.000461,-0.008056,-0.000052,0.001778,-0.010442,0.102476,-0.020538,0.200799,0.200798,0.169352,0.488403,0.000000,0.000000,0.000000,0.000000,0.000000,0.000000,0.000000,0.000000,0.000000,0.000000,0.000000,0.000000,0.099560,3,0
1130000,0.010092,29.066692,0.004224,0.034421,25.786118,0.000351,-0.002002,0.028007,1.569791,-0.063686,-0.003279,0.002369,0.000476,-0.008226,-0.000053,0.002542,-0.010443,0.119558,0.037038,0.201003,0.201003,0.169064,0.483623,0.000000,0.000000,0.000000,0.000000,0.000000,0.000000,0.000000,0.000000,0.000000,0.000000,0.000000,0.000000,0.115995,3,0
1140000,0.010092,29.325146,0.003782,0.034316,25.790258,-0.000268,-0.002042,0.028135,1.569775,-0.063797,-0.003348,0.002497,0.000491,-0.008250,-0.000053,0.000103,-0.010442,0.016695,-0.015809,0.201203,0.201202,0.168769,0.478945,0.000000,0.000000,0.000000,0.000000,0.000000,0.000000,0.000000,0.000000,0.000000,0.000000,0.000000,0.000000,0.019031,3,0
1150000,0.010088,29.585638,0.004919,0.034112,25.797976,0.001202,-0.002098,0.028495,1.569766,-0.064299,-0.003416,0.002158,0.000507,-0.008361,-0.000054,0.001223,-0.010439,0.076263,0.040691,0.201397,0.201396,0.168468,0.474368,0.000000,0.000000,0.000000,0.000000,0.000000,0.000000,0.000000,0.000000,0.000000,0.000000,0.000000,0.000000,0.074393,3,0
1160000,0.010082,29.848145,0.005432,0.033947,25.809227,0.001950,-0.002149,0.029078,1.569754,-0.065183,-0.003486,0.002002,0.000522,-0.008560,-0.000055,0.002952,-0.010433,0.133755,0.017993,0.201587,0.201585,0.168160,0.469891,0.000000,0.000000,0.000000,0.000000,0.000000,0.000000,0.000000,0.000000,0.000000,0.000000,0.000000,0.000000,0.129654,3,0
1170000,0.010075,30.107952,0.006028,0.033827,25.815548,0.002758,-0.002205,0.029346,1.569745,-0.065513,-0.003555,0.001827,0.000538,-0.008636,-0.000056,0.000490,-0.010427,0.050045,0.020653,0.201772,0.201770,0.167847,0.465514,0.000000,0.000000,0.000000,0.000000,0.000000,0.000000,0.000000,0.000000,0.000000,0.000000,0.000000,0.000000,0.049401,3,0
1180000,0.010068,30.371792,0.005961,0.033687,25.828796,0.002445,-0.002260,0.030094,1.569750,-0.066622,-0.003624,0.001845,0.000554,-0.008893,-0.000057,0.004558,-0.010418,0.167877,-0.003100,0.201954,0.201952,0.167528,0.461234,0.000000,0.000000,0.000000,0.000000,0.000000,0.000000,0.000000,0.000000,0.000000,0.000000,0.000000,0.000000,0.162538,3,0
1190000,0.010058,30.631567,0.005880,0.033500,25.834858,0.002529,-0.002314,0.030341,1.569743,-0.066907,-0.003693,0.001875,0.000570,-0.008960,-0.000058,0.000318,-0.010409,0.043053,-0.003794,0.202132,0.202130,0.167204,0.457052,0.000000,0.000000,0.000000,0.000000,0.000000,0.000000,0.000000,0.000000,0.000000,0.000000,0.000000,0.000000,0.042800,3,0
1200000,0.010046,30.893364,0.006145,0.033215,25.844395,0.002880,-0.002358,0.030831,1.569744,-0.067575,-0.003762,0.001794,0.000587,-0.009120,-0.000059,0.001682,-0.010397,0.101280,0.008745,0.202308,0.202305,0.166876,0.452965,0.000000,0.000000,0.000000,0.000000,0.000000,0.000000,0.000000,0.000000,0.000000,0.000000,0.000000,0.000000,0.098380,3,0
1210000,0.010030,31.153799,0.007103,0.032999,25.851286,0.004116,-0.002418,0.031141,1.569730,-0.067956,-0.003830,0.001503,0.000604,-0.009212,-0.000060,0.000743,-0.010382,0.058056,0.033550,0.202480,0.202477,0.166544,0.448974,0.000000,0.000000,0.000000,0.000000,0.000000,0.000000,0.000000,0.000000,0.000000,0.000000,0.000000,0.000000,0.056989,3,0
1220000,0.010013,31.416922,0.007894,0.032732,25.862864,0.005236,-0.002470,0.031780,1.569726,-0.068848,-0.003899,0.001260,0.000621,-0.009431,-0.000061,0.003094,-0.010364,0.135492,0.027251,0.202651,0.202647,0.166207,0.445075,0.000000,0.000000,0.000000,0.000000,0.000000,0.000000,0.000000,0.000000,0.000000,0.000000,0.000000,0.000000,0.131301,3,0
1230000,0.009994,31.675301,0.007690,0.032422,25.865952,0.004998,-0.002527,0.031830,1.569705,-0.068793,-0.003967,0.001342,0.000638,-0.009417,-0.000061,0.000043,-0.010343,-0.008472,-0.009339,0.202820,0.202816,0.165867,0.441269,0.000000,0.000000,0.000000,0.000000,0.000000,0.000000,0.000000,0.000000,0.000000,0.000000,0.000000,0.000000,0.012919,3,0
1240000,0.009971,31.939087,0.008979,0.032130,25.878548,0.006492,-0.002579,0.032535,1.569702,-0.069781,-0.004035,0.000937,0.000656,-0.009667,-0.000062,0.004000,-0.010321,0.150576,0.045239,0.202987,0.202982,0.165524,0.437554,0.000000,0.000000,0.000000,0.000000,0.000000,0.000000,0.000000,0.000000,0.000000,0.000000,0.000000,0.000000,0.145826,3,0
1250000,0.009948,32.199459,0.008820,0.031974,25.885014,0.006128,-0.002637,0.032815,1.569685,-0.070081,-0.004103,0.001004,0.000673,-0.009744,-0.000063,0.000364,-0.010296,0.045692,-0.007998,0.203152,0.203147,0.165178,0.433930,0.000000,0.000000,0.000000,0.000000,0.000000,0.000000,0.000000,0.000000,0.000000,0.000000,0.000000,0.000000,0.045251,3,0
1260000,0.009922,32.463196,0.009568,0.031696,25.897284,0.006931,-0.002689,0.033508,1.569684,-0.071017,-0.004170,0.000770,0.000691,-0.009987,-0.000065,0.003417,-0.010271,0.143078,0.025314,0.203317,0.203312,0.164829,0.430393,0.000000,0.000000,0.000000,0.000000,0.000000,0.000000,0.000000,0.000000,0.000000,0.000000,0.000000,0.000000,0.138585,3,0
1270000,0.009896,32.724854,0.008849,0.031413,25.905842,0.005780,-0.002743,0.033932,1.569681,-0.071529,-0.004238,0.001019,0.000708,-0.010123,-0.000065,0.001129,-0.010242,0.078007,-0.028536,0.203481,0.203475,0.164478,0.426943,0.000000,0.000000,0.000000,0.000000,0.000000,0.000000,0.000000,0.000000,0.000000,0.000000,0.000000,0.000000,0.076006,3,0
1280000,0.009866,32.987831,0.010038,0.031162,25.916521,0.007180,-0.002793,0.034521,1.569682,-0.072274,-0.004305,0.000638,0.000727,-0.010322,-0.000067,0.002407,-0.010214,0.114445,0.041644,0.203645,0.203638,0.164125,0.423579,0.000000,0.000000,0.000000,0.000000,0.000000,0.000000,0.000000,0.000000,0.000000,0.000000,0.000000,0.000000,0.111004,3,0
1290000,0.009834,33.246037,0.010651,0.030845,25.918684,0.008086,-0.002860,0.034475,1.569662,-0.072081,-0.004370,0.000463,0.000745,-0.010269,-0.000066,0.000218,-0.010180,-0.029366,0.019641,0.203808,0.203801,0.163771,0.420299,0.000000,0.000000,0.000000,0.000000,0.000000,0.000000,0.000000,0.000000,0.000000,0.000000,0.000000,0.000000,0.030022,3,0
1300000,0.009802,33.507652,0.009887,0.030545,25.926922,0.007174,-0.002923,0.034874,1.569658,-0.072539,-0.004437,0.000737,0.000763,-0.010396,-0.000067,0.000965,-0.010145,0.070225,-0.030882,0.203971,0.203964,0.163415,0.417103,0.000000,0.000000,0.000000,0.000000,0.000000,0.000000,0.000000,0.000000,0.000000,0.000000,0.000000,0.000000,0.068541,3,0
1310000,0.009765,33.765854,0.010938,0.030314,25.928988,0.008494,-0.002984,0.034827,1.569651,-0.072327,-0.004502,0.000414,0.000781,-0.010336,-0.000067,0.000395,-0.010111,-0.032440,0.035902,0.204135,0.204127,0.163058,0.413987,0.000000,0.000000,0.000000,0.000000,0.000000,0.000000,0.000000,0.000000,0.000000,0.000000,0.000000,0.000000,0.032820,3,0
1320000,0.009731,34.028152,0.009757,0.030063,25.938320,0.006763,-0.003044,0.035324,1.569634,-0.072891,-0.004568,0.000831,0.000800,-0.010497,-0.000068,0.001585,-0.010072,0.087036,-0.046429,0.204300,0.204290,0.162700,0.410952,0.000000,0.000000,0.000000,0.000000,0.000000,0.000000,0.000000,0.000000,0.000000,0.000000,0.000000,0.000000,0.084630,3,0
1330000,0.009694,34.287701,0.008507,0.029715,25.942568,0.004967,-0.003107,0.035447,1.569613,-0.072917,-0.004634,0.001278,0.000818,-0.010505,-0.000068,0.000402,-0.010034,0.003559,-0.048654,0.204465,0.204455,0.162342,0.407995,0.000000,0.000000,0.000000,0.000000,0.000000,0.000000,0.000000,0.000000,0.000000,0.000000,0.000000,0.000000,0.010284,3,0
1340000,0.009651,34.545891,0.009720,0.029348,25.944391,0.006465,-0.003168,0.035362,1.569597,-0.072675,-0.004697,0.000885,0.000837,-0.010434,-0.000068,0.000540,-0.009994,-0.037373,0.042944,0.204630,0.204620,0.161983,0.405115,0.000000,0.000000,0.000000,0.000000,0.000000,0.000000,0.000000,0.000000,0.000000,0.000000,0.000000,0.000000,0.037363,3,0
1350000,0.009607,34.806137,0.010671,0.029053,25.949781,0.007744,-0.003232,0.035549,1.569592,-0.072817,-0.004760,0.000577,0.000856,-0.010475,-0.000068,0.000273,-0.009948,0.022488,0.032916,0.204797,0.204786,0.161625,0.402309,0.000000,0.000000,0.000000,0.000000,0.000000,0.000000,0.000000,0.000000,0.000000,0.000000,0.000000,0.000000,0.023754,3,0
1360000,0.009565,35.067741,0.009473,0.028845,25.957436,0.006191,-0.003288,0.035930,1.569589,-0.073204,-0.004824,0.001013,0.000875,-0.010593,-0.000069,0.000965,-0.009901,0.060371,-0.047255,0.204965,0.204953,0.161266,0.399578,0.000000,0.000000,0.000000,0.000000,0.000000,0.000000,0.000000,0.000000,0.000000,0.000000,0.000000,0.000000,0.059083,3,0
1370000,0.009519,35.331345,0.009471,0.028531,25.968615,0.006118,-0.003358,0.036584,1.569578,-0.073945,-0.004887,0.001020,0.000894,-0.010819,-0.000070,0.002210,-0.009856,0.116753,-0.001984,0.205135,0.205122,0.160908,0.396919,0.000000,0.000000,0.000000,0.000000,0.000000,0.000000,0.000000,0.000000,0.000000,0.000000,0.000000,0.000000,0.113164,3,0
1380000,0.009473,35.591488,0.008964,0.028256,25.973473,0.005266,-0.003424,0.036741,1.569566,-0.074022,-0.004950,0.001218,0.000913,-0.010843,-0.000071,0.000111,-0.009808,0.012066,-0.021146,0.205305,0.205292,0.160551,0.394332,0.000000,0.000000,0.000000,0.000000,0.000000,0.000000,0.000000,0.000000,0.000000,0.000000,0.000000,0.000000,0.015016,3,0
1390000,0.009424,35.852299,0.008697,0.027850,25.979420,0.004884,-0.003482,0.036994,1.569550,-0.074213,-0.005012,0.001328,0.000932,-0.010903,-0.000071,0.000185,-0.009758,0.030178,-0.011881,0.205478,0.205463,0.160194,0.391814,0.000000,0.000000,0.000000,0.000000,0.000000,0.000000,0.000000,0.000000,0.000000,0.000000,0.000000,0.000000,0.030630,3,0
1400000,0.009372,36.110363,0.008557,0.027426,25.980534,0.004781,-0.003538,0.036845,1.569526,-0.073889,-0.005073,0.001404,0.000951,-0.010800,-0.000070,0.000456,-0.009704,-0.051781,-0.007384,0.205652,0.205637,0.159839,0.389365,0.000000,0.000000,0.000000,0.000000,0.000000,0.000000,0.000000,0.000000,0.000000,0.000000,0.000000,0.000000,0.050878,3,0
1410000,0.009318,36.369808,0.008419,0.027128,25.983912,0.004432,-0.003601,0.036891,1.569517,-0.073816,-0.005133,0.001473,0.000970,-0.010777,-0.000070,0.000045,-0.009649,-0.011669,-0.007005,0.205828,0.205811,0.159485,0.386981,0.000000,0.000000,0.000000,0.000000,0.000000,0.000000,0.000000,0.000000,0.000000,0.000000,0.000000,0.000000,0.014622,3,0
1420000,0.009262,36.631294,0.009142,0.026828,25.990927,0.005181,-0.003656,0.037222,1.569512,-0.074106,-0.005192,0.001219,0.000990,-0.010871,-0.000071,0.000477,-0.009593,0.046913,0.025817,0.206005,0.205988,0.159132,0.384663,0.000000,0.000000,0.000000,0.000000,0.000000,0.000000,0.000000,0.000000,0.000000,0.000000,0.000000,0.000000,0.046244,3,0
1430000,0.009205,36.894802,0.009097,0.026461,26.001484,0.005218,-0.003728,0.037831,1.569503,-0.074744,-0.005251,0.001239,0.001010,-0.011084,-0.000072,0.001738,-0.009533,0.103416,-0.003257,0.206184,0.206166,0.158781,0.382409,0.000000,0.000000,0.000000,0.000000,0.000000,0.000000,0.000000,0.000000,0.000000,0.000000,0.000000,0.000000,0.100285,3,0
1440000,0.009148,37.156872,0.008744,0.026197,26.009308,0.004875,-0.003786,0.038220,1.569487,-0.075104,-0.005310,0.001379,0.001029,-0.011206,-0.000073,0.000602,-0.009473,0.058475,-0.015164,0.206365,0.206347,0.158431,0.380218,0.000000,0.000000,0.000000,0.000000,0.000000,0.000000,0.000000,0.000000,0.000000,0.000000,0.000000,0.000000,0.057198,3,0
1450000,0.009090,37.416843,0.008224,0.025926,26.013363,0.004080,-0.003844,0.038300,1.569483,-0.075075,-0.005368,0.001591,0.001049,-0.011197,-0.000073,0.000094,-0.009413,-0.004887,-0.021581,0.206549,0.206529,0.158083,0.378088,0.000000,0.000000,0.000000,0.000000,0.000000,0.000000,0.000000,0.000000,0.000000,0.000000,0.000000,0.000000,0.010243,3,0
1460000,0.009028,37.678162,0.009311,0.025617,26.019833,0.005531,-0.003902,0.038558,1.569469,-0.075275,-0.005424,0.001195,0.001069,-0.011265,-0.000074,0.000450,-0.009352,0.033283,0.039871,0.206734,0.206713,0.157738,0.376019,0.000000,0.000000,0.000000,0.000000,0.000000,0.000000,0.000000,0.000000,0.000000,0.000000,0.000000,0.000000,0.033386,3,0
1470000,0.008966,37.941505,0.009553,0.025320,26.029869,0.005840,-0.003956,0.039123,1.569460,-0.075817,-0.005480,0.001109,0.001089,-0.011456,-0.000075,0.001326,-0.009287,0.089962,0.007567,0.206921,0.206899,0.157395,0.374007,0.000000,0.000000,0.000000,0.000000,0.000000,0.000000,0.000000,0.000000,0.000000,0.000000,0.000000,0.000000,0.087322,3,0
1480000,0.008904,38.204781,0.009315,0.025041,26.039558,0.005438,-0.004020,0.039679,1.569448,-0.076327,-0.005536,0.001206,0.001109,-0.011639,-0.000076,0.001194,-0.009222,0.084946,-0.010867,0.207110,0.207087,0.157054,0.372052,0.000000,0.000000,0.000000,0.000000,0.000000,0.000000,0.000000,0.000000,0.000000,0.000000,0.000000,0.000000,0.082494,3,0
1490000,0.008844,38.463184,0.007988,0.024765,26.040325,0.003829,-0.004090,0.039476,1.569438,-0.075978,-0.005592,0.001745,0.001128,-0.011514,-0.000075,0.001038,-0.009158,-0.059155,-0.053291,0.207301,0.207277,0.156716,0.370153,0.000000,0.000000,0.000000,0.000000,0.000000,0.000000,0.000000,0.000000,0.000000,0.000000,0.000000,0.000000,0.057798,3,0
1500000,0.008780,38.726402,0.007650,0.024489,26.049879,0.003209,-0.004157,0.040009,1.569434,-0.076452,-0.005647,0.001873,0.001148,-0.011689,-0.000077,0.001075,-0.009094,0.080009,-0.013917,0.207494,0.207469,0.156380,0.368309,0.000000,0.000000,0.000000,0.000000,0.000000,0.000000,0.000000,0.000000,0.000000,0.000000,0.000000,0.000000,0.077737,3,0
1510000,0.008714,38.988163,0.008641,0.024175,26.056633,0.004221,-0.004214,0.040292,1.569431,-0.076658,-0.005699,0.001495,0.001168,-0.011765,-0.000077,0.000438,-0.009028,0.035366,0.037121,0.207688,0.207662,0.156047,0.366517,0.000000,0.000000,0.000000,0.000000,0.000000,0.000000,0.000000,0.000000,0.000000,0.000000,0.000000,0.000000,0.035243,3,0
1520000,0.008645,39.245747,0.009638,0.023754,26.055595,0.005526,-0.004277,0.039933,1.569417,-0.076146,-0.005750,0.001142,0.001188,-0.011569,-0.000076,0.001452,-0.008957,-0.087311,0.036189,0.207885,0.207857,0.155717,0.364777,0.000000,0.000000,0.000000,0.000000,0.000000,0.000000,0.000000,0.000000,0.000000,0.000000,0.000000,0.000000,0.084724,3,0
1530000,0.008578,39.507492,0.008649,0.023370,26.062098,0.004303,-0.004339,0.040217,1.569409,-0.076339,-0.005803,0.001545,0.001208,-0.011645,-0.000077,0.000448,-0.008884,0.032818,-0.040161,0.208083,0.208054,0.155390,0.363086,0.000000,0.000000,0.000000,0.000000,0.000000,0.000000,0.000000,0.000000,0.000000,0.000000,0.000000,0.000000,0.032814,3,0
1540000,0.008506,39.768482,0.009796,0.023057,26.067188,0.005790,-0.004403,0.040375,1.569401,-0.076391,-0.005852,0.001108,0.001228,-0.011664,-0.000077,0.000324,-0.008814,0.009552,0.042732,0.208282,0.208253,0.155066,0.361444,0.000000,0.000000,0.000000,0.000000,0.000000,0.000000,0.000000,0.000000,0.000000,0.000000,0.000000,0.000000,0.012550,3,0
1550000,0.008435,40.027367,0.009866,0.022722,26.068316,0.006019,-0.004473,0.040189,1.569380,-0.076090,-0.005902,0.001117,0.001248,-0.011544,-0.000076,0.000459,-0.008739,-0.052696,-0.000014,0.208484,0.208453,0.154745,0.359850,0.000000,0.000000,0.000000,0.000000,0.000000,0.000000,0.000000,0.000000,0.000000,0.000000,0.000000,0.000000,0.051560,3,0
1560000,0.008365,40.286949,0.008517,0.022339,26.070812,0.004489,-0.004527,0.040108,1.569372,-0.075905,-0.005953,0.001688,0.001267,-0.011472,-0.000076,0.000683,-0.008664,-0.033295,-0.055046,0.208686,0.208654,0.154427,0.358303,0.000000,0.000000,0.000000,0.000000,0.000000,0.000000,0.000000,0.000000,0.000000,0.000000,0.000000,0.000000,0.033217,3,0
1570000,0.008292,40.544434,0.007907,0.021871,26.069366,0.003751,-0.004593,0.039684,1.569348,-0.075378,-0.006001,0.001974,0.001286,-0.011257,-0.000075,0.001548,-0.008590,-0.094109,-0.026201,0.208891,0.208857,0.154113,0.356800,0.000000,0.000000,0.000000,0.000000,0.000000,0.000000,0.000000,0.000000,0.000000,0.000000,0.000000,0.000000,0.091217,3,0
1580000,0.008217,40.802624,0.007282,0.021567,26.069216,0.002894,-0.004657,0.039383,1.569333,-0.074971,-0.006049,0.002260,0.001306,-0.011089,-0.000074,0.000988,-0.008513,-0.073273,-0.026352,0.209096,0.209062,0.153802,0.355341,0.000000,0.000000,0.000000,0.000000,0.000000,0.000000,0.000000,0.000000,0.000000,0.000000,0.000000,0.000000,0.071200,3,0
1590000,0.008140,41.060810,0.007444,0.021132,26.068903,0.003178,-0.004728,0.039066,1.569311,-0.074567,-0.006095,0.002225,0.001326,-0.010918,-0.000073,0.000873,-0.008434,-0.073032,0.004590,0.209303,0.209267,0.153495,0.353924,0.000000,0.000000,0.000000,0.000000,0.000000,0.000000,0.000000,0.000000,0.000000,0.000000,0.000000,0.000000,0.070953,3,0
1600000,0.008060,41.319691,0.008338,0.020783,26.069902,0.004231,-0.004791,0.038850,1.569306,-0.074276,-0.006140,0.001886,0.001345,-0.010792,-0.000072,0.000642,-0.008353,-0.052914,0.033335,0.209511,0.209473,0.153191,0.352549,0.000000,0.000000,0.000000,0.000000,0.000000,0.000000,0.000000,0.000000,0.000000,0.000000,0.000000,0.000000,0.051692,3,0
1610000,0.007980,41.577179,0.008229,0.020336,26.068266,0.004237,-0.004849,0.038413,1.569287,-0.073771,-0.006184,0.001974,0.001365,-0.010572,-0.000071,0.001414,-0.008269,-0.093132,-0.006778,0.209719,0.209681,0.152891,0.351213,0.000000,0.000000,0.000000,0.000000,0.000000,0.000000,0.000000,0.000000,0.000000,0.000000,0.000000,0.000000,0.090232,3,0
1620000,0.007898,41.840240,0.008626,0.019943,26.076973,0.004413,-0.004917,0.038883,1.569286,-0.074129,-0.006228,0.001808,0.001385,-0.010730,-0.000072,0.000764,-0.008185,0.066853,0.014581,0.209929,0.209889,0.152594,0.349917,0.000000,0.000000,0.000000,0.000000,0.000000,0.000000,0.000000,0.000000,0.000000,0.000000,0.000000,0.000000,0.065000,3,0
1630000,0.007815,42.098362,0.008207,0.019443,26.076492,0.004029,-0.004976,0.038545,1.569277,-0.073720,-0.006271,0.002024,0.001404,-0.010547,-0.000071,0.001023,-0.008097,-0.077026,-0.018985,0.210138,0.210097,0.152301,0.348659,0.000000,0.000000,0.000000,0.000000,0.000000,0.000000,0.000000,0.000000,0.000000,0.000000,0.000000,0.000000,0.074743,3,0
1640000,0.007731,42.359276,0.007352,0.019064,26.081070,0.003139,-0.005042,0.038662,1.569256,-0.073737,-0.006315,0.002399,0.001423,-0.010556,-0.000071,0.000215,-0.008010,0.002800,-0.035382,0.210349,0.210306,0.152012,0.347437,0.000000,0.000000,0.000000,0.000000,0.000000,0.000000,0.000000,0.000000,0.000000,0.000000,0.000000,0.000000,0.008187,3,0
1650000,0.007644,42.620136,0.007700,0.018675,26.085476,0.003342,-0.005106,0.038752,1.569240,-0.073738,-0.006356,0.002265,0.001442,-0.010556,-0.000071,0.000036,-0.007923,0.000267,0.012563,0.210560,0.210516,0.151727,0.346251,0.000000,0.000000,0.000000,0.000000,0.000000,0.000000,0.000000,0.000000,0.000000,0.000000,0.000000,0.000000,0.007649,3,0
1660000,0.007556,42.881645,0.008911,0.018336,26.090866,0.004759,-0.005170,0.038947,1.569234,-0.073826,-0.006395,0.001762,0.001461,-0.010596,-0.000072,0.000416,-0.007833,0.017666,0.046785,0.210771,0.210726,0.151446,0.345099,0.000000,0.000000,0.000000,0.000000,0.000000,0.000000,0.000000,0.000000,0.000000,0.000000,0.000000,0.000000,0.018654,3,0
1670000,0.007470,43.138924,0.007983,0.017976,26.088377,0.003781,-0.005238,0.038436,1.569209,-0.073293,-0.006435,0.002210,0.001480,-0.010342,-0.000070,0.002031,-0.007740,-0.104744,-0.039774,0.210982,0.210935,0.151169,0.343980,0.000000,0.000000,0.000000,0.000000,0.000000,0.000000,0.000000,0.000000,0.000000,0.000000,0.000000,0.000000,0.101346,3,0
1680000,0.007380,43.399006,0.008238,0.017493,26.091219,0.004053,-0.005310,0.038386,1.569194,-0.073171,-0.006473,0.002125,0.001499,-0.010283,-0.000070,0.000114,-0.007650,-0.024059,0.008384,0.211193,0.211145,0.150895,0.342895,0.000000,0.000000,0.000000,0.000000,0.000000,0.000000,0.000000,0.000000,0.000000,0.000000,0.000000,0.000000,0.024357,3,0
1690000,0.007289,43.656948,0.009012,0.017071,26.090000,0.005082,-0.005374,0.037964,1.569170,-0.072743,-0.006509,0.001837,0.001518,-0.010070,-0.000069,0.001311,-0.007556,-0.085377,0.028331,0.211404,0.211355,0.150626,0.341841,0.000000,0.000000,0.000000,0.000000,0.000000,0.000000,0.000000,0.000000,0.000000,0.000000,0.000000,0.000000,0.082685,3,0
1700000,0.007198,43.914906,0.008545,0.016646,26.088816,0.004417,-0.005445,0.037555,1.569156,-0.072325,-0.006547,0.002089,0.001536,-0.009860,-0.000068,0.001243,-0.007460,-0.084881,-0.021492,0.211615,0.211564,0.150360,0.340817,0.000000,0.000000,0.000000,0.000000,0.000000,0.000000,0.000000,0.000000,0.000000,0.000000,0.000000,0.000000,0.082210,3,0
1710000,0.007105,44.173561,0.008713,0.016274,26.088892,0.004789,-0.005502,0.037249,1.569138,-0.072010,-0.006582,0.002058,0.001554,-0.009699,-0.000067,0.000681,-0.007365,-0.064526,0.004171,0.211825,0.211772,0.150098,0.339823,0.000000,0.000000,0.000000,0.000000,0.000000,0.000000,0.000000,0.000000,0.000000,0.000000,0.000000,0.000000,0.062652,3,0
1720000,0.007013,44.432209,0.008355,0.015904,26.088943,0.004386,-0.005572,0.036944,1.569127,-0.071698,-0.006618,0.002258,0.001572,-0.009538,-0.000066,0.000730,-0.007269,-0.064754,-0.016963,0.212034,0.211980,0.149841,0.338856,0.000000,0.000000,0.000000,0.000000,0.000000,0.000000,0.000000,0.000000,0.000000,0.000000,0.000000,0.000000,0.062862,3,0
