time_us,pos_x,pos_y,pos_z,vel_x,vel_y,vel_z,roll,pitch,yaw,bias_ax,bias_ay,bias_az,bias_gx,bias_gy,bias_gz,nis,innov_x,innov_y,innov_z,cov_pos_x,cov_pos_y,cov_pos_z,cov_yaw,des_speed,des_heading,des_climb,pid_speed,pid_yaw,pid_alt,speed_meas,yaw_meas,climb_meas,fwd_accel,yaw_rate,vert_accel,drift_m,nav_mode,mission_state
0,-0.000001,0.150002,-0.000003,-0.000176,25.000278,-0.000641,0.000020,-0.000021,1.570784,0.000000,0.000000,0.000000,0.000000,0.000000,0.000000,0.006250,0.000002,-0.250005,0.000006,2.400038,2.400038,3.600017,1.000518,0.000000,0.000000,0.000000,0.000000,0.000000,0.000000,0.000000,0.000000,0.000000,0.000000,0.000000,0.000000,0.150002,1,0
10000,-0.000004,0.387954,-0.014551,-0.000428,25.000595,-0.001321,0.000030,-0.000045,1.570766,0.000000,0.000000,0.000000,0.000000,0.000000,0.000000,0.000368,0.000005,-0.042188,-0.038760,1.714420,1.714420,2.250079,1.001073,0.000000,0.000000,0.000000,0.000000,0.000000,0.000000,0.000000,0.000000,0.000000,0.000000,0.000000,0.000000,0.030133,3,0
20000,-0.000008,0.611045,-0.023966,-0.000620,25.000717,-0.002187,0.000049,-0.000063,1.570751,0.000001,0.000000,0.000000,0.000000,0.000000,-0.000000,0.002045,0.000010,-0.121112,-0.034440,1.333616,1.333616,1.636554,1.001655,0.000000,0.000000,0.000000,0.000000,0.000000,0.000000,0.000000,0.000000,0.000000,0.000000,0.000000,0.000000,0.094193,3,0
30000,-0.000013,0.863533,-0.030803,-0.000777,25.001163,-0.003213,0.000070,-0.000072,1.570737,0.000001,0.000000,0.000001,0.000000,0.000000,-0.000000,0.000157,0.000016,0.013617,-0.031751,1.091392,1.091392,1.286065,1.002257,0.000000,0.000000,0.000000,0.000000,0.000000,0.000000,0.000000,0.000000,0.000000,0.000000,0.000000,0.000000,0.011140,3,0
40000,-0.000020,1.107376,-0.034144,-0.001064,25.001371,-0.004041,0.000087,-0.000094,1.570736,0.000002,0.000000,0.000001,0.000000,0.000000,-0.000000,0.000275,0.000023,-0.040087,-0.018701,0.923811,0.923811,1.059385,1.002869,0.000000,0.000000,0.000000,0.000000,0.000000,0.000000,0.000000,0.000000,0.000000,0.000000,0.000000,0.000000,0.033915,3,0
50000,-0.000028,1.359297,-0.035367,-0.001249,25.001959,-0.004628,0.000104,-0.000114,1.570727,0.000001,0.000000,0.000002,0.000000,0.000000,-0.000000,0.000038,0.000032,0.014250,-0.007835,0.801036,0.801036,0.900822,1.003484,0.000000,0.000000,0.000000,0.000000,0.000000,0.000000,0.000000,0.000000,0.000000,0.000000,0.000000,0.000000,0.012348,3,0
60000,-0.000038,1.607080,-0.040538,-0.001469,25.002192,-0.005712,0.000118,-0.000128,1.570712,0.000003,0.000000,0.000004,0.000000,0.000000,-0.000000,0.000275,0.000043,-0.019007,-0.039172,0.707270,0.707270,0.783741,1.004094,0.000000,0.000000,0.000000,0.000000,0.000000,0.000000,0.000000,0.000000,0.000000,0.000000,0.000000,0.000000,0.016767,3,0
70000,-0.000049,1.864618,-0.036131,-0.001751,25.003218,-0.006125,0.000125,-0.000139,1.570709,-0.000003,0.000000,0.000001,-0.000000,-0.000000,0.000000,0.000975,0.000055,0.071148,0.038664,0.633370,0.633370,0.693801,1.004688,0.000000,0.000000,0.000000,0.000000,0.000000,0.000000,0.000000,0.000000,0.000000,0.000000,0.000000,0.000000,0.063637,3,0
80000,-0.000062,2.112038,-0.035197,-0.001950,25.003529,-0.006725,0.000130,-0.000159,1.570695,-0.000000,0.000000,0.000000,-0.000000,-0.000000,0.000000,0.000127,0.000069,-0.027369,0.009654,0.573673,0.573673,0.622594,1.005260,0.000000,0.000000,0.000000,0.000000,0.000000,0.000000,0.000000,0.000000,0.000000,0.000000,0.000000,0.000000,0.024752,3,0
90000,-0.000077,2.360647,-0.034703,-0.002198,25.003815,-0.007235,0.000149,-0.000181,1.570677,0.000002,0.000000,-0.000001,-0.000000,0.000000,-0.000000,0.000046,0.000084,-0.016366,0.006022,0.524488,0.524488,0.564865,1.005801,0.000000,0.000000,0.000000,0.000000,0.000000,0.000000,0.000000,0.000000,0.000000,0.000000,0.000000,0.000000,0.014935,3,0
100000,-0.000092,2.616568,-0.038172,-0.002319,25.005013,-0.008337,0.000155,-0.000190,1.570671,-0.000009,0.000000,0.000005,-0.000000,-0.000000,0.000000,0.001051,0.000100,0.072963,-0.039312,0.483303,0.483303,0.517162,1.006301,0.000000,0.000000,0.000000,0.000000,0.000000,0.000000,0.000000,0.000000,0.000000,0.000000,0.000000,0.000000,0.067086,3,0
110000,-0.000109,2.866320,-0.039144,-0.002598,25.005499,-0.009321,0.000160,-0.000217,1.570669,-0.000009,0.000000,0.000007,-0.000000,-0.000000,0.000000,0.000021,0.000118,-0.004059,-0.011067,0.448353,0.448353,0.477121,1.006754,0.000000,0.000000,0.000000,0.000000,0.000000,0.000000,0.000000,0.000000,0.000000,0.000000,0.000000,0.000000,0.003757,3,0
120000,-0.000127,3.122244,-0.040782,-0.002749,25.006844,-0.010251,0.000169,-0.000221,1.570669,-0.000027,0.000000,0.000012,-0.000000,-0.000000,0.000000,0.001164,0.000137,0.084127,-0.020825,0.418358,0.418358,0.443071,1.007150,0.000000,0.000000,0.000000,0.000000,0.000000,0.000000,0.000000,0.000000,0.000000,0.000000,0.000000,0.000000,0.078261,3,0
130000,-0.000147,3.371482,-0.043375,-0.002994,25.007215,-0.011220,0.000181,-0.000237,1.570652,-0.000024,0.000000,0.000021,-0.000000,-0.000000,0.000000,0.000227,0.000157,-0.012781,-0.036032,0.392369,0.392369,0.413797,1.007481,0.000000,0.000000,0.000000,0.000000,0.000000,0.000000,0.000000,0.000000,0.000000,0.000000,0.000000,0.000000,0.011946,3,0
140000,-0.000168,3.621338,-0.042640,-0.003253,25.007668,-0.011645,0.000190,-0.000249,1.570645,-0.000023,0.000000,0.000017,-0.000000,-0.000000,0.000000,0.000029,0.000179,-0.003597,0.013177,0.369666,0.369666,0.388393,1.007739,0.000000,0.000000,0.000000,0.000000,0.000000,0.000000,0.000000,0.000000,0.000000,0.000000,0.000000,0.000000,0.003379,3,0
150000,-0.000190,3.869392,-0.042666,-0.003349,25.007669,-0.012263,0.000203,-0.000272,1.570626,-0.000011,0.000000,0.000016,-0.000000,-0.000000,0.000000,0.000190,0.000202,-0.034789,0.001585,0.349694,0.349694,0.366172,1.007915,0.000000,0.000000,0.000000,0.000000,0.000000,0.000000,0.000000,0.000000,0.000000,0.000000,0.000000,0.000000,0.032762,3,0
160000,-0.000213,4.124723,-0.040753,-0.003509,25.009581,-0.012487,0.000220,-0.000280,1.570617,-0.000047,0.000000,0.000003,-0.000000,-0.000001,0.000000,0.001613,0.000225,0.094856,0.035371,0.332020,0.332020,0.346600,1.008002,0.000000,0.000000,0.000000,0.000000,0.000000,0.000000,0.000000,0.000000,0.000000,0.000000,0.000000,0.000000,0.089607,3,0
170000,-0.000237,4.375795,-0.040852,-0.003719,25.010380,-0.013193,0.000240,-0.000300,1.570598,-0.000055,0.000000,0.000003,-0.000000,-0.000001,0.000000,0.000054,0.000250,0.018416,0.000591,0.316296,0.316296,0.329260,1.007991,0.000000,0.000000,0.000000,0.000000,0.000000,0.000000,0.000000,0.000000,0.000000,0.000000,0.000000,0.000000,0.017447,3,0
180000,-0.000262,4.627201,-0.038769,-0.003869,25.011202,-0.013319,0.000260,-0.000305,1.570590,-0.000067,0.000001,-0.000017,-0.000000,-0.000001,0.000000,0.000390,0.000276,0.025764,0.042506,0.302245,0.302245,0.313817,1.007875,0.000000,0.000000,0.000000,0.000000,0.000000,0.000000,0.000000,0.000000,0.000000,0.000000,0.000000,0.000000,0.024467,3,0
190000,-0.000287,4.884657,-0.039247,-0.003975,25.014324,-0.014098,0.000279,-0.000295,1.570575,-0.000148,0.000001,-0.000013,-0.000000,-0.000003,0.000000,0.003674,0.000301,0.152049,-0.006754,0.289640,0.289640,0.300003,1.007645,0.000000,0.000000,0.000000,0.000000,0.000000,0.000000,0.000000,0.000000,0.000000,0.000000,0.000000,0.000000,0.144709,3,0
200000,-0.000313,5.141901,-0.038086,-0.004107,25.017502,-0.014376,0.000292,-0.000284,1.570559,-0.000237,0.000001,-0.000029,-0.000000,-0.000006,0.000000,0.003838,0.000328,0.152987,0.027318,0.278294,0.278293,0.287598,1.007295,0.000000,0.000000,0.000000,0.000000,0.000000,0.000000,0.000000,0.000000,0.000000,0.000000,0.000000,0.000000,0.145892,3,0
210000,-0.000340,5.394526,-0.039218,-0.004345,25.019018,-0.015601,0.000299,-0.000295,1.570542,-0.000272,0.000001,-0.000016,-0.000000,-0.000007,0.000000,0.000549,0.000356,0.054743,-0.021286,0.268052,0.268052,0.276421,1.006816,0.000000,0.000000,0.000000,0.000000,0.000000,0.000000,0.000000,0.000000,0.000000,0.000000,0.000000,0.000000,0.052298,3,0
220000,-0.000370,5.649045,-0.038190,-0.004576,25.021416,-0.015661,0.000308,-0.000284,1.570532,-0.000342,0.000001,-0.000034,-0.000000,-0.000009,0.000000,0.001718,0.000386,0.100287,0.026811,0.258785,0.258785,0.266321,1.006202,0.000000,0.000000,0.000000,0.000000,0.000000,0.000000,0.000000,0.000000,0.000000,0.000000,0.000000,0.000000,0.095962,3,0
230000,-0.000399,5.899464,-0.036605,-0.004691,25.021990,-0.015795,0.000326,-0.000309,1.570533,-0.000346,0.000002,-0.000065,-0.000000,-0.000009,0.000000,0.000270,0.000417,0.004774,0.040863,0.250383,0.250382,0.257172,1.005446,0.000000,0.000000,0.000000,0.000000,0.000000,0.000000,0.000000,0.000000,0.000000,0.000000,0.000000,0.000000,0.004592,3,0
240000,-0.000431,6.152618,-0.036720,-0.004947,25.024031,-0.016407,0.000348,-0.000301,1.570525,-0.000406,0.000002,-0.000066,-0.000000,-0.000011,0.000000,0.000839,0.000449,0.072413,0.001182,0.242752,0.242752,0.248866,1.004541,0.000000,0.000000,0.000000,0.000000,0.000000,0.000000,0.000000,0.000000,0.000000,0.000000,0.000000,0.000000,0.069485,3,0
250000,-0.000462,6.404352,-0.037765,-0.005029,25.025337,-0.017596,0.000363,-0.000304,1.570512,-0.000439,0.000002,-0.000047,-0.000000,-0.000012,0.000000,0.000306,0.000481,0.037906,-0.021732,0.235814,0.235814,0.241314,1.003481,0.000000,0.000000,0.000000,0.000000,0.000000,0.000000,0.000000,0.000000,0.000000,0.000000,0.000000,0.000000,0.036419,3,0
260000,-0.000495,6.657836,-0.036797,-0.005205,25.027702,-0.017818,0.000380,-0.000290,1.570504,-0.000520,0.000003,-0.000075,-0.000000,-0.000015,0.000000,0.001280,0.000514,0.084343,0.029515,0.229500,0.229500,0.234436,1.002258,0.000000,0.000000,0.000000,0.000000,0.000000,0.000000,0.000000,0.000000,0.000000,0.000000,0.000000,0.000000,0.081118,3,0
270000,-0.000529,6.910704,-0.038257,-0.005445,25.029764,-0.019442,0.000393,-0.000284,1.570487,-0.000592,0.000004,-0.000040,-0.000000,-0.000018,0.000000,0.000952,0.000549,0.069383,-0.033491,0.223749,0.223749,0.228165,1.000869,0.000000,0.000000,0.000000,0.000000,0.000000,0.000000,0.000000,0.000000,0.000000,0.000000,0.000000,0.000000,0.066798,3,0
280000,-0.000564,7.164458,-0.037067,-0.005636,25.032503,-0.019269,0.000410,-0.000275,1.570472,-0.000696,0.000004,-0.000081,-0.000000,-0.000022,0.000000,0.001670,0.000585,0.094799,0.037552,0.218510,0.218510,0.222443,0.999307,0.000000,0.000000,0.000000,0.000000,0.000000,0.000000,0.000000,0.000000,0.000000,0.000000,0.000000,0.000000,0.091348,3,0
290000,-0.000601,7.419745,-0.035231,-0.005889,25.036516,-0.018651,0.000426,-0.000250,1.570456,-0.000861,0.000005,-0.000147,-0.000000,-0.000029,0.000000,0.003622,0.000623,0.139202,0.056224,0.213738,0.213738,0.217219,0.997567,0.000000,0.000000,0.000000,0.000000,0.000000,0.000000,0.000000,0.000000,0.000000,0.000000,0.000000,0.000000,0.134244,3,0
300000,-0.000638,7.673000,-0.036377,-0.006000,25.039192,-0.020024,0.000446,-0.000240,1.570442,-0.000964,0.000006,-0.000113,-0.000000,-0.000033,0.000000,0.001215,0.000661,0.082662,-0.026894,0.209391,0.209391,0.212446,0.995645,0.000000,0.000000,0.000000,0.000000,0.000000,0.000000,0.000000,0.000000,0.000000,0.000000,0.000000,0.000000,0.079780,3,0
310000,-0.000675,7.929806,-0.035781,-0.006086,25.044739,-0.020099,0.000454,-0.000189,1.570436,-0.001214,0.000007,-0.000144,-0.000000,-0.000044,0.000000,0.005727,0.000699,0.187201,0.023173,0.205435,0.205435,0.208087,0.993536,0.000000,0.000000,0.000000,0.000000,0.000000,0.000000,0.000000,0.000000,0.000000,0.000000,0.000000,0.000000,0.180793,3,0
320000,-0.000712,8.187277,-0.035052,-0.006191,25.051151,-0.020114,0.000463,-0.000117,1.570423,-0.001510,0.000008,-0.000183,-0.000000,-0.000058,0.000000,0.007134,0.000737,0.208645,0.027552,0.201838,0.201838,0.204105,0.991237,0.000000,0.000000,0.000000,0.000000,0.000000,0.000000,0.000000,0.000000,0.000000,0.000000,0.000000,0.000000,0.201627,3,0
330000,-0.000751,8.442755,-0.035249,-0.006433,25.056072,-0.020671,0.000470,-0.000066,1.570415,-0.001734,0.000009,-0.000183,-0.000000,-0.000068,0.000000,0.003621,0.000777,0.149899,0.000288,0.198571,0.198571,0.200469,0.988743,0.000000,0.000000,0.000000,0.000000,0.000000,0.000000,0.000000,0.000000,0.000000,0.000000,0.000000,0.000000,0.144939,3,0
340000,-0.000791,8.698301,-0.033695,-0.006653,25.061152,-0.019987,0.000484,-0.000008,1.570398,-0.001976,0.000010,-0.000268,-0.000000,-0.000080,0.000000,0.004232,0.000818,0.152798,0.053853,0.195610,0.195610,0.197151,0.986053,0.000000,0.000000,0.000000,0.000000,0.000000,0.000000,0.000000,0.000000,0.000000,0.000000,0.000000,0.000000,0.147819,3,0
350000,-0.000832,8.954561,-0.033562,-0.006861,25.067118,-0.020566,0.000493,0.000068,1.570385,-0.002269,0.000011,-0.000285,-0.000000,-0.000095,0.000000,0.004987,0.000860,0.175504,0.010565,0.192930,0.192930,0.194125,0.983164,0.000000,0.000000,0.000000,0.000000,0.000000,0.000000,0.000000,0.000000,0.000000,0.000000,0.000000,0.000000,0.169863,3,0
360000,-0.000874,9.207089,-0.034841,-0.007032,25.069489,-0.022284,0.000508,0.000087,1.570383,-0.002371,0.000013,-0.000227,-0.000001,-0.000100,0.000000,0.000730,0.000903,0.058337,-0.033436,0.190512,0.190512,0.191370,0.980073,0.000000,0.000000,0.000000,0.000000,0.000000,0.000000,0.000000,0.000000,0.000000,0.000000,0.000000,0.000000,0.056492,3,0
370000,-0.000917,9.462925,-0.035456,-0.007238,25.075342,-0.023361,0.000530,0.000158,1.570366,-0.002673,0.000015,-0.000204,-0.000001,-0.000116,0.000000,0.004345,0.000947,0.163606,-0.012225,0.188337,0.188337,0.188863,0.976779,0.000000,0.000000,0.000000,0.000000,0.000000,0.000000,0.000000,0.000000,0.000000,0.000000,0.000000,0.000000,0.158473,3,0
380000,-0.000960,9.718843,-0.034027,-0.007342,25.081318,-0.022481,0.000545,0.000249,1.570353,-0.002994,0.000016,-0.000307,-0.000001,-0.000134,0.000000,0.004924,0.000991,0.166139,0.053732,0.186386,0.186386,0.186586,0.973282,0.000000,0.000000,0.000000,0.000000,0.000000,0.000000,0.000000,0.000000,0.000000,0.000000,0.000000,0.000000,0.160980,3,0
390000,-0.001004,9.972404,-0.034714,-0.007543,25.084948,-0.023863,0.000561,0.000281,1.570341,-0.003174,0.000019,-0.000278,-0.000001,-0.000144,0.000000,0.001317,0.001036,0.089069,-0.014731,0.184645,0.184645,0.184522,0.969581,0.000000,0.000000,0.000000,0.000000,0.000000,0.000000,0.000000,0.000000,0.000000,0.000000,0.000000,0.000000,0.086334,3,0
400000,-0.001048,10.226730,-0.034706,-0.007677,25.089466,-0.024235,0.000578,0.000346,1.570327,-0.003415,0.000021,-0.000295,-0.000001,-0.000158,0.000000,0.002103,0.001081,0.113778,0.008314,0.183099,0.183099,0.182656,0.965675,0.000000,0.000000,0.000000,0.000000,0.000000,0.000000,0.000000,0.000000,0.000000,0.000000,0.000000,0.000000,0.110311,3,0
410000,-0.001092,10.484812,-0.033295,-0.007710,25.098545,-0.023167,0.000584,0.000510,1.570317,-0.003939,0.000023,-0.000416,-0.000001,-0.000189,0.000000,0.009576,0.001126,0.237105,0.055052,0.181734,0.181733,0.180971,0.961566,0.000000,0.000000,0.000000,0.000000,0.000000,0.000000,0.000000,0.000000,0.000000,0.000000,0.000000,0.000000,0.229927,3,0
420000,-0.001135,10.741749,-0.033221,-0.007802,25.106310,-0.023631,0.000595,0.000648,1.570308,-0.004394,0.000026,-0.000441,-0.000001,-0.000216,0.000000,0.006330,0.001170,0.197601,0.010503,0.180537,0.180537,0.179456,0.957255,0.000000,0.000000,0.000000,0.000000,0.000000,0.000000,0.000000,0.000000,0.000000,0.000000,0.000000,0.000000,0.191659,3,0
430000,-0.001178,10.999960,-0.033547,-0.007886,25.115700,-0.024531,0.000619,0.000825,1.570306,-0.004967,0.000029,-0.000434,-0.000002,-0.000252,0.000001,0.009219,0.001214,0.238771,-0.002713,0.179498,0.179498,0.178097,0.952743,0.000000,0.000000,0.000000,0.000000,0.000000,0.000000,0.000000,0.000000,0.000000,0.000000,0.000000,0.000000,0.231631,3,0
440000,-0.001220,11.258235,-0.033777,-0.007909,25.125463,-0.025445,0.000638,0.001000,1.570305,-0.005563,0.000032,-0.000436,-0.000002,-0.000290,0.000001,0.009229,0.001257,0.238891,0.000851,0.178605,0.178605,0.176883,0.948033,0.000000,0.000000,0.000000,0.000000,0.000000,0.000000,0.000000,0.000000,0.000000,0.000000,0.000000,0.000000,0.231782,3,0
450000,-0.001261,11.513043,-0.032513,-0.007932,25.130772,-0.024473,0.000645,0.001084,1.570297,-0.005873,0.000035,-0.000571,-0.000002,-0.000311,0.000001,0.002756,0.001300,0.119669,0.052134,0.177849,0.177849,0.175803,0.943127,0.000000,0.000000,0.000000,0.000000,0.000000,0.000000,0.000000,0.000000,0.000000,0.000000,0.000000,0.000000,0.116129,3,0
460000,-0.001302,11.769758,-0.032701,-0.007960,25.138531,-0.025164,0.000670,0.001223,1.570290,-0.006364,0.000038,-0.000577,-0.000002,-0.000344,0.000001,0.005410,0.001341,0.182872,0.002210,0.177219,0.177219,0.174847,0.938028,0.000000,0.000000,0.000000,0.000000,0.000000,0.000000,0.000000,0.000000,0.000000,0.000000,0.000000,0.000000,0.177475,3,0
470000,-0.001342,12.027169,-0.034120,-0.008052,25.147358,-0.027265,0.000683,0.001404,1.570290,-0.006933,0.000042,-0.000465,-0.000002,-0.000383,0.000001,0.007016,0.001383,0.204384,-0.039997,0.176708,0.176707,0.174006,0.932740,0.000000,0.000000,0.000000,0.000000,0.000000,0.000000,0.000000,0.000000,0.000000,0.000000,0.000000,0.000000,0.198369,3,0
480000,-0.001383,12.283514,-0.034821,-0.008236,25.154734,-0.028541,0.000707,0.001545,1.570274,-0.007410,0.000046,-0.000423,-0.000003,-0.000416,0.000001,0.004468,0.001425,0.165553,-0.014578,0.176306,0.176305,0.173271,0.927267,0.000000,0.000000,0.000000,0.000000,0.000000,0.000000,0.000000,0.000000,0.000000,0.000000,0.000000,0.000000,0.160694,3,0
490000,-0.001425,12.538234,-0.036176,-0.008400,25.159798,-0.030666,0.000714,0.001632,1.570258,-0.007732,0.000050,-0.000313,-0.000003,-0.000440,0.000001,0.002105,0.001468,0.107924,-0.036903,0.176005,0.176005,0.172634,0.921613,0.000000,0.000000,0.000000,0.000000,0.000000,0.000000,0.000000,0.000000,0.000000,0.000000,0.000000,0.000000,0.104767,3,0
500000,-0.001467,12.795438,-0.037584,-0.008537,25.168596,-0.032773,0.000723,0.001825,1.570251,-0.008319,0.000055,-0.000195,-0.000003,-0.000483,0.000001,0.006143,0.001511,0.191093,-0.038124,0.175799,0.175799,0.172087,0.915784,0.000000,0.000000,0.000000,0.000000,0.000000,0.000000,0.000000,0.000000,0.000000,0.000000,0.000000,0.000000,0.185500,3,0
510000,-0.001508,13.049849,-0.036578,-0.008652,25.173292,-0.031816,0.000735,0.001922,1.570234,-0.008614,0.000060,-0.000344,-0.000004,-0.000505,0.000001,0.001751,0.001554,0.092833,0.046905,0.175681,0.175680,0.171622,0.909785,0.000000,0.000000,0.000000,0.000000,0.000000,0.000000,0.000000,0.000000,0.000000,0.000000,0.000000,0.000000,0.090127,3,0
520000,-0.001549,13.307332,-0.035726,-0.008641,25.182590,-0.031170,0.000742,0.002138,1.570223,-0.009255,0.000065,-0.000481,-0.000004,-0.000554,0.000001,0.006505,0.001595,0.196195,0.041381,0.175643,0.175642,0.171234,0.903621,0.000000,0.000000,0.000000,0.000000,0.000000,0.000000,0.000000,0.000000,0.000000,0.000000,0.000000,0.000000,0.190458,3,0
530000,-0.001588,13.564352,-0.035839,-0.008694,25.191097,-0.031813,0.000749,0.002331,1.570221,-0.009852,0.000070,-0.000505,-0.000005,-0.000601,0.000001,0.005087,0.001636,0.177166,0.007316,0.175679,0.175678,0.170914,0.897300,0.000000,0.000000,0.000000,0.000000,0.000000,0.000000,0.000000,0.000000,0.000000,0.000000,0.000000,0.000000,0.171986,3,0
540000,-0.001628,13.822083,-0.036051,-0.008824,25.200798,-0.032322,0.000765,0.002558,1.570217,-0.010538,0.000076,-0.000519,-0.000005,-0.000656,0.000001,0.006369,0.001677,0.198364,0.003990,0.175783,0.175783,0.170658,0.890826,0.000000,0.000000,0.000000,0.000000,0.000000,0.000000,0.000000,0.000000,0.000000,0.000000,0.000000,0.000000,0.192559,3,0
550000,-0.001667,14.079932,-0.034890,-0.008839,25.210550,-0.031189,0.000780,0.002792,1.570210,-0.011246,0.000082,-0.000709,-0.000006,-0.000714,0.000002,0.006853,0.001717,0.198965,0.052617,0.175950,0.175950,0.170460,0.884207,0.000000,0.000000,0.000000,0.000000,0.000000,0.000000,0.000000,0.000000,0.000000,0.000000,0.000000,0.000000,0.193138,3,0
560000,-0.001705,14.336734,-0.034073,-0.008895,25.218624,-0.030315,0.000797,0.002984,1.570198,-0.011830,0.000088,-0.000857,-0.000006,-0.000763,0.000002,0.004385,0.001757,0.159684,0.040055,0.176174,0.176174,0.170314,0.877450,0.000000,0.000000,0.000000,0.000000,0.000000,0.000000,0.000000,0.000000,0.000000,0.000000,0.000000,0.000000,0.155005,3,0
570000,-0.001743,14.593085,-0.033153,-0.009018,25.225971,-0.029223,0.000816,0.003160,1.570189,-0.012360,0.000094,-0.001021,-0.000007,-0.000808,0.000002,0.003537,0.001796,0.141349,0.043353,0.176450,0.176450,0.170214,0.870562,0.000000,0.000000,0.000000,0.000000,0.000000,0.000000,0.000000,0.000000,0.000000,0.000000,0.000000,0.000000,0.137203,3,0
580000,-0.001780,14.852505,-0.033115,-0.009036,25.238194,-0.029580,0.000831,0.003476,1.570173,-0.013292,0.000101,-0.001068,-0.000007,-0.000889,0.000002,0.009555,0.001834,0.242744,0.011971,0.176774,0.176773,0.170157,0.863551,0.000000,0.000000,0.000000,0.000000,0.000000,0.000000,0.000000,0.000000,0.000000,0.000000,0.000000,0.000000,0.235600,3,0
590000,-0.001817,15.108508,-0.033090,-0.009153,25.244904,-0.029729,0.000848,0.003649,1.570167,-0.013774,0.000108,-0.001114,-0.000008,-0.000932,0.000002,0.002444,0.001873,0.122354,0.011559,0.177140,0.177139,0.170138,0.856424,0.000000,0.000000,0.000000,0.000000,0.000000,0.000000,0.000000,0.000000,0.000000,0.000000,0.000000,0.000000,0.118755,3,0
600000,-0.001853,15.365245,-0.032551,-0.009117,25.252781,-0.029221,0.000873,0.003847,1.570149,-0.014356,0.000116,-0.001236,-0.000009,-0.000985,0.000002,0.003525,0.001909,0.144588,0.029779,0.177544,0.177544,0.170152,0.849189,0.000000,0.000000,0.000000,0.000000,0.000000,0.000000,0.000000,0.000000,0.000000,0.000000,0.000000,0.000000,0.140323,3,0
610000,-0.001887,15.625657,-0.033546,-0.009102,25.266590,-0.031089,0.000899,0.004232,1.570136,-0.015449,0.000124,-0.001134,-0.000009,-0.001086,0.000002,0.011495,0.001945,0.265473,-0.024401,0.177983,0.177982,0.170195,0.841855,0.000000,0.000000,0.000000,0.000000,0.000000,0.000000,0.000000,0.000000,0.000000,0.000000,0.000000,0.000000,0.257605,3,0
620000,-0.001921,15.885573,-0.034801,-0.009170,25.279451,-0.033383,0.000907,0.004591,1.570124,-0.016473,0.000132,-0.000993,-0.000010,-0.001182,0.000003,0.009762,0.001980,0.243469,-0.032909,0.178451,0.178451,0.170264,0.834428,0.000000,0.000000,0.000000,0.000000,0.000000,0.000000,0.000000,0.000000,0.000000,0.000000,0.000000,0.000000,0.236236,3,0
630000,-0.001954,16.145592,-0.035260,-0.009234,25.292463,-0.034310,0.000916,0.004967,1.570108,-0.017512,0.000140,-0.000976,-0.000011,-0.001282,0.000003,0.009461,0.002014,0.241848,-0.004067,0.178947,0.178946,0.170356,0.826917,0.000000,0.000000,0.000000,0.000000,0.000000,0.000000,0.000000,0.000000,0.000000,0.000000,0.000000,0.000000,0.234643,3,0
640000,-0.001986,16.402142,-0.036563,-0.009220,25.299639,-0.036441,0.000931,0.005152,1.570093,-0.018042,0.000149,-0.000825,-0.000012,-0.001333,0.000003,0.002544,0.002048,0.120853,-0.033521,0.179465,0.179464,0.170465,0.819331,0.000000,0.000000,0.000000,0.000000,0.000000,0.000000,0.000000,0.000000,0.000000,0.000000,0.000000,0.000000,0.117256,3,0
650000,-0.002018,16.658234,-0.037483,-0.009251,25.306036,-0.038118,0.000951,0.005319,1.570086,-0.018501,0.000158,-0.000737,-0.000013,-0.001379,0.000003,0.001768,0.002080,0.102777,-0.019201,0.180003,0.180002,0.170591,0.811678,0.000000,0.000000,0.000000,0.000000,0.000000,0.000000,0.000000,0.000000,0.000000,0.000000,0.000000,0.000000,0.099714,3,0
660000,-0.002048,16.919252,-0.036781,-0.009322,25.320671,-0.037220,0.000959,0.005762,1.570083,-0.019704,0.000167,-0.000918,-0.000014,-0.001501,0.000003,0.011513,0.002112,0.264078,0.038423,0.180558,0.180557,0.170729,0.803964,0.000000,0.000000,0.000000,0.000000,0.000000,0.000000,0.000000,0.000000,0.000000,0.000000,0.000000,0.000000,0.256140,3,0
670000,-0.002078,17.179159,-0.037259,-0.009310,25.333141,-0.038227,0.000982,0.006153,1.570063,-0.020732,0.000177,-0.000902,-0.000015,-0.001607,0.000003,0.007939,0.002142,0.221582,-0.003349,0.181126,0.181125,0.170877,0.796200,0.000000,0.000000,0.000000,0.000000,0.000000,0.000000,0.000000,0.000000,0.000000,0.000000,0.000000,0.000000,0.214903,3,0
680000,-0.002106,17.435555,-0.037503,-0.009340,25.339678,-0.038701,0.001009,0.006335,1.570055,-0.021207,0.000187,-0.000927,-0.000016,-0.001657,0.000004,0.001644,0.002172,0.100698,0.005124,0.181705,0.181705,0.171033,0.788392,0.000000,0.000000,0.000000,0.000000,0.000000,0.000000,0.000000,0.000000,0.000000,0.000000,0.000000,0.000000,0.097671,3,0
690000,-0.002135,17.696915,-0.038398,-0.009380,25.354485,-0.040389,0.001031,0.006814,1.570048,-0.022463,0.000197,-0.000842,-0.000017,-0.001791,0.000004,0.011117,0.002201,0.261698,-0.017386,0.182293,0.182292,0.171193,0.780548,0.000000,0.000000,0.000000,0.000000,0.000000,0.000000,0.000000,0.000000,0.000000,0.000000,0.000000,0.000000,0.253755,3,0
700000,-0.002161,17.955931,-0.037670,-0.009287,25.365114,-0.039460,0.001041,0.007156,1.570035,-0.023337,0.000208,-0.001044,-0.000018,-0.001886,0.000004,0.005443,0.002229,0.179100,0.039959,0.182887,0.182886,0.171357,0.772677,0.000000,0.000000,0.000000,0.000000,0.000000,0.000000,0.000000,0.000000,0.000000,0.000000,0.000000,0.000000,0.173655,3,0
710000,-0.002186,18.216875,-0.037664,-0.009340,25.379053,-0.039440,0.001058,0.007611,1.570017,-0.024517,0.000219,-0.001119,-0.000019,-0.002016,0.000004,0.009189,0.002255,0.238039,0.014306,0.183485,0.183484,0.171522,0.764786,0.000000,0.000000,0.000000,0.000000,0.000000,0.000000,0.000000,0.000000,0.000000,0.000000,0.000000,0.000000,0.230771,3,0
720000,-0.002210,18.474241,-0.036353,-0.009305,25.386610,-0.037675,0.001068,0.007837,1.570011,-0.025101,0.000230,-0.001433,-0.000020,-0.002082,0.000004,0.002760,0.002280,0.116106,0.059937,0.184085,0.184084,0.171685,0.756883,0.000000,0.000000,0.000000,0.000000,0.000000,0.000000,0.000000,0.000000,0.000000,0.000000,0.000000,0.000000,0.112567,3,0
730000,-0.002233,18.732948,-0.037781,-0.009258,25.396355,-0.040154,0.001079,0.008156,1.570003,-0.025902,0.000241,-0.001240,-0.000022,-0.002174,0.000005,0.004188,0.002304,0.156849,-0.036320,0.184685,0.184684,0.171846,0.748974,0.000000,0.000000,0.000000,0.000000,0.000000,0.000000,0.000000,0.000000,0.000000,0.000000,0.000000,0.000000,0.152038,3,0
740000,-0.002255,18.994827,-0.036510,-0.009310,25.411631,-0.038266,0.001103,0.008675,1.569993,-0.027226,0.000253,-0.001559,-0.000023,-0.002328,0.000005,0.011132,0.002328,0.255863,0.058660,0.185283,0.185282,0.172003,0.741067,0.000000,0.000000,0.000000,0.000000,0.000000,0.000000,0.000000,0.000000,0.000000,0.000000,0.000000,0.000000,0.247973,3,0
750000,-0.002277,19.256159,-0.036603,-0.009345,25.425758,-0.038612,0.001130,0.009172,1.569974,-0.028446,0.000265,-0.001618,-0.000025,-0.002473,0.000005,0.008740,0.002350,0.232378,0.010484,0.185878,0.185877,0.172155,0.733169,0.000000,0.000000,0.000000,0.000000,0.000000,0.000000,0.000000,0.000000,0.000000,0.000000,0.000000,0.000000,0.225191,3,0
760000,-0.002298,19.514471,-0.035364,-0.009334,25.434420,-0.036989,0.001145,0.009450,1.569965,-0.029136,0.000277,-0.001937,-0.000026,-0.002556,0.000005,0.003252,0.002372,0.129936,0.056924,0.186468,0.186467,0.172299,0.725287,0.000000,0.000000,0.000000,0.000000,0.000000,0.000000,0.000000,0.000000,0.000000,0.000000,0.000000,0.000000,0.125919,3,0
770000,-0.002318,19.773502,-0.036696,-0.009312,25.444170,-0.039006,0.001154,0.009787,1.569953,-0.029943,0.000290,-0.001749,-0.000028,-0.002655,0.000006,0.003805,0.002392,0.149843,-0.033204,0.187052,0.187051,0.172435,0.717427,0.000000,0.000000,0.000000,0.000000,0.000000,0.000000,0.000000,0.000000,0.000000,0.000000,0.000000,0.000000,0.145191,3,0
780000,-0.002336,20.032625,-0.036520,-0.009216,25.454082,-0.038723,0.001169,0.010118,1.569952,-0.030755,0.000302,-0.001865,-0.000029,-0.002756,0.000006,0.003656,0.002411,0.149137,0.019945,0.187629,0.187627,0.172563,0.709595,0.000000,0.000000,0.000000,0.000000,0.000000,0.000000,0.000000,0.000000,0.000000,0.000000,0.000000,0.000000,0.144493,3,0
790000,-0.002352,20.294331,-0.037517,-0.009106,25.468311,-0.040380,0.001190,0.010648,1.569933,-0.032011,0.000315,-0.001745,-0.000031,-0.002915,0.000006,0.008453,0.002428,0.227858,-0.020791,0.188197,0.188196,0.172680,0.701798,0.000000,0.000000,0.000000,0.000000,0.000000,0.000000,0.000000,0.000000,0.000000,0.000000,0.000000,0.000000,0.220723,3,0
800000,-0.002368,20.552340,-0.038171,-0.009128,25.475824,-0.041505,0.001210,0.010906,1.569923,-0.032597,0.000329,-0.001696,-0.000033,-0.002991,0.000006,0.001798,0.002445,0.105164,-0.008369,0.188756,0.188755,0.172787,0.694041,0.000000,0.000000,0.000000,0.000000,0.000000,0.000000,0.000000,0.000000,0.000000,0.000000,0.000000,0.000000,0.101882,3,0
810000,-0.002383,20.809816,-0.037639,-0.009148,25.482357,-0.040840,0.001223,0.011125,1.569915,-0.033079,0.000342,-0.001896,-0.000035,-0.003054,0.000006,0.001363,0.002461,0.085627,0.033200,0.189306,0.189304,0.172882,0.686330,0.000000,0.000000,0.000000,0.000000,0.000000,0.000000,0.000000,0.000000,0.000000,0.000000,0.000000,0.000000,0.082960,3,0
820000,-0.002398,21.069912,-0.038907,-0.009163,25.493486,-0.042952,0.001249,0.011526,1.569896,-0.034024,0.000356,-0.001719,-0.000036,-0.003180,0.000007,0.004590,0.002476,0.166023,-0.029429,0.189844,0.189842,0.172965,0.678670,0.000000,0.000000,0.000000,0.000000,0.000000,0.000000,0.000000,0.000000,0.000000,0.000000,0.000000,0.000000,0.160788,3,0
830000,-0.002411,21.331968,-0.039017,-0.009065,25.507887,-0.043286,0.001279,0.012088,1.569886,-0.035311,0.000370,-0.001792,-0.000038,-0.003354,0.000007,0.008111,0.002490,0.223879,0.011485,0.190371,0.190369,0.173035,0.671065,0.000000,0.000000,0.000000,0.000000,0.000000,0.000000,0.000000,0.000000,0.000000,0.000000,0.000000,0.000000,0.216789,3,0
840000,-0.002422,21.592173,-0.040201,-0.008950,25.518867,-0.045311,0.001303,0.012495,1.569880,-0.036241,0.000384,-0.001633,-0.000040,-0.003482,0.000007,0.004262,0.002502,0.160467,-0.025594,0.190885,0.190884,0.173092,0.663522,0.000000,0.000000,0.000000,0.000000,0.000000,0.000000,0.000000,0.000000,0.000000,0.000000,0.000000,0.000000,0.155380,3,0
850000,-0.002433,21.851170,-0.039096,-0.008942,25.527550,-0.043877,0.001318,0.012811,1.569862,-0.036937,0.000398,-0.001978,-0.000042,-0.003579,0.000007,0.002758,0.002513,0.118820,0.054375,0.191388,0.191386,0.173136,0.656043,0.000000,0.000000,0.000000,0.000000,0.000000,0.000000,0.000000,0.000000,0.000000,0.000000,0.000000,0.000000,0.115058,3,0
860000,-0.002442,22.113420,-0.038721,-0.008871,25.541748,-0.043423,0.001341,0.013376,1.569856,-0.038221,0.000413,-0.002164,-0.000044,-0.003761,0.000008,0.007770,0.002523,0.217558,0.028608,0.191877,0.191876,0.173166,0.648634,0.000000,0.000000,0.000000,0.000000,0.000000,0.000000,0.000000,0.000000,0.000000,0.000000,0.000000,0.000000,0.210616,3,0
870000,-0.002450,22.371246,-0.040090,-0.008798,25.548067,-0.045498,0.001353,0.013580,1.569850,-0.038664,0.000428,-0.001957,-0.000046,-0.003825,0.000008,0.001061,0.002531,0.074438,-0.032075,0.192354,0.192352,0.173182,0.641298,0.000000,0.000000,0.000000,0.000000,0.000000,0.000000,0.000000,0.000000,0.000000,0.000000,0.000000,0.000000,0.072092,3,0
880000,-0.002457,22.634270,-0.040432,-0.008705,25.563459,-0.046248,0.001367,0.014220,1.569844,-0.040067,0.000442,-0.001989,-0.000049,-0.004031,0.000008,0.008837,0.002539,0.234005,0.004418,0.192817,0.192815,0.173184,0.634039,0.000000,0.000000,0.000000,0.000000,0.000000,0.000000,0.000000,0.000000,0.000000,0.000000,0.000000,0.000000,0.226498,3,0
890000,-0.002463,22.892828,-0.040107,-0.008661,25.570768,-0.045806,0.001378,0.014481,1.569830,-0.040612,0.000457,-0.002173,-0.000051,-0.004112,0.000009,0.001434,0.002545,0.090101,0.027626,0.193267,0.193265,0.173171,0.626860,0.000000,0.000000,0.000000,0.000000,0.000000,0.000000,0.000000,0.000000,0.000000,0.000000,0.000000,0.000000,0.087235,3,0
900000,-0.002468,23.155313,-0.041316,-0.008551,25.584953,-0.047847,0.001389,0.015075,1.569810,-0.041885,0.000472,-0.002006,-0.000053,-0.004304,0.000009,0.007163,0.002550,0.209166,-0.025528,0.193704,0.193702,0.173145,0.619765,0.000000,0.000000,0.000000,0.000000,0.000000,0.000000,0.000000,0.000000,0.000000,0.000000,0.000000,0.000000,0.202427,3,0
910000,-0.002472,23.413313,-0.040008,-0.008573,25.591061,-0.046151,0.001413,0.015290,1.569806,-0.042288,0.000488,-0.002428,-0.000056,-0.004366,0.000009,0.001328,0.002555,0.065813,0.062319,0.194127,0.194125,0.173104,0.612757,0.000000,0.000000,0.000000,0.000000,0.000000,0.000000,0.000000,0.000000,0.000000,0.000000,0.000000,0.000000,0.063734,3,0
920000,-0.002476,23.673971,-0.039594,-0.008530,25.601797,-0.045481,0.001436,0.015715,1.569801,-0.043186,0.000503,-0.002640,-0.000058,-0.004506,0.000009,0.003576,0.002559,0.145693,0.030673,0.194537,0.194534,0.173049,0.605837,0.000000,0.000000,0.000000,0.000000,0.000000,0.000000,0.000000,0.000000,0.000000,0.000000,0.000000,0.000000,0.140992,3,0
930000,-0.002478,23.935963,-0.040169,-0.008433,25.614729,-0.046407,0.001464,0.016257,1.569788,-0.044322,0.000518,-0.002618,-0.000061,-0.004686,0.000010,0.005410,0.002561,0.183111,-0.003704,0.194933,0.194930,0.172980,0.599010,0.000000,0.000000,0.000000,0.000000,0.000000,0.000000,0.000000,0.000000,0.000000,0.000000,0.000000,0.000000,0.177180,3,0
940000,-0.002480,24.196032,-0.038827,-0.008437,25.624102,-0.044405,0.001483,0.016627,1.569779,-0.045069,0.000534,-0.003060,-0.000063,-0.004805,0.000010,0.002957,0.002564,0.119780,0.062999,0.195317,0.195314,0.172897,0.592276,0.000000,0.000000,0.000000,0.000000,0.000000,0.000000,0.000000,0.000000,0.000000,0.000000,0.000000,0.000000,0.115909,3,0
950000,-0.002482,24.454853,-0.039723,-0.008361,25.631174,-0.045877,0.001508,0.016881,1.569776,-0.045561,0.000549,-0.002953,-0.000066,-0.004886,0.000010,0.001027,0.002565,0.078283,-0.015335,0.195687,0.195684,0.172801,0.585638,0.000000,0.000000,0.000000,0.000000,0.000000,0.000000,0.000000,0.000000,0.000000,0.000000,0.000000,0.000000,0.075770,3,0
960000,-0.002482,24.715681,-0.040041,-0.008299,25.641569,-0.046449,0.001525,0.017318,1.569771,-0.046428,0.000565,-0.002994,-0.000068,-0.005030,0.000010,0.003052,0.002566,0.137457,0.005317,0.196045,0.196042,0.172691,0.579097,0.000000,0.000000,0.000000,0.000000,0.000000,0.000000,0.000000,0.000000,0.000000,0.000000,0.000000,0.000000,0.132988,3,0
970000,-0.002481,24.974586,-0.039417,-0.008143,25.648458,-0.045848,0.001548,0.017580,1.569762,-0.046905,0.000581,-0.003270,-0.000071,-0.005110,0.000011,0.001152,0.002565,0.075312,0.038261,0.196391,0.196387,0.172567,0.572655,0.000000,0.000000,0.000000,0.000000,0.000000,0.000000,0.000000,0.000000,0.000000,0.000000,0.000000,0.000000,0.072890,3,0
980000,-0.002479,25.233545,-0.038119,-0.008145,25.655354,-0.044286,0.001579,0.017830,1.569744,-0.047381,0.000597,-0.003717,-0.000074,-0.005190,0.000011,0.001515,0.002564,0.074766,0.061541,0.196724,0.196720,0.172431,0.566314,0.000000,0.000000,0.000000,0.000000,0.000000,0.000000,0.000000,0.000000,0.000000,0.000000,0.000000,0.000000,0.072360,3,0
990000,-0.002477,25.491907,-0.037421,-0.008039,25.661079,-0.043548,0.001601,0.018026,1.569741,-0.047727,0.000613,-0.004012,-0.000077,-0.005250,0.000011,0.000737,0.002561,0.054281,0.040129,0.197046,0.197042,0.172282,0.560075,0.000000,0.000000,0.000000,0.000000,0.000000,0.000000,0.000000,0.000000,0.000000,0.000000,0.000000,0.000000,0.052558,3,0
1000000,-0.002474,25.750984,-0.037755,-0.007973,25.668018,-0.044064,0.001632,0.018286,1.569725,-0.048204,0.000629,-0.004042,-0.000080,-0.005334,0.000011,0.000890,0.002558,0.074169,0.003853,0.197356,0.197351,0.172121,0.553938,0.000000,0.000000,0.000000,0.000000,0.000000,0.000000,0.000000,0.000000,0.000000,0.000000,0.000000,0.000000,0.071772,3,0
1010000,-0.002469,26.012730,-0.036960,-0.007817,25.679667,-0.043266,0.001653,0.018817,1.569705,-0.049190,0.000645,-0.004370,-0.000083,-0.005510,0.000011,0.004081,0.002554,0.152960,0.043646,0.197655,0.197650,0.171947,0.547905,0.000000,0.000000,0.000000,0.000000,0.000000,0.000000,0.000000,0.000000,0.000000,0.000000,0.000000,0.000000,0.147943,3,0
1020000,-0.002463,26.273829,-0.036144,-0.007668,25.689856,-0.042294,0.001676,0.019277,1.569697,-0.050028,0.000660,-0.004704,-0.000086,-0.005662,0.000012,0.003024,0.002547,0.129646,0.044058,0.197943,0.197938,0.171762,0.541976,0.000000,0.000000,0.000000,0.000000,0.000000,0.000000,0.000000,0.000000,0.000000,0.000000,0.000000,0.000000,0.125396,3,0
1030000,-0.002456,26.536261,-0.036489,-0.007574,25.702446,-0.042827,0.001707,0.019868,1.569685,-0.051110,0.000676,-0.004734,-0.000089,-0.005861,0.000012,0.004477,0.002540,0.166628,0.003213,0.198221,0.198216,0.171566,0.536152,0.000000,0.000000,0.000000,0.000000,0.000000,0.000000,0.000000,0.000000,0.000000,0.000000,0.000000,0.000000,0.161142,3,0
1040000,-0.002449,26.795403,-0.037980,-0.007443,25.708967,-0.045040,0.001721,0.020112,1.569669,-0.051521,0.000693,-0.004455,-0.000092,-0.005938,0.000012,0.000862,0.002532,0.063103,-0.036842,0.198490,0.198484,0.171359,0.530433,0.000000,0.000000,0.000000,0.000000,0.000000,0.000000,0.000000,0.000000,0.000000,0.000000,0.000000,0.000000,0.061063,3,0
1050000,-0.002439,27.057878,-0.039072,-0.007244,25.721315,-0.046774,0.001740,0.020693,1.569656,-0.052578,0.000709,-0.004292,-0.000095,-0.006139,0.000013,0.004293,0.002522,0.161715,-0.021954,0.198749,0.198743,0.171141,0.524820,0.000000,0.000000,0.000000,0.000000,0.000000,0.000000,0.000000,0.000000,0.000000,0.000000,0.000000,0.000000,0.156376,3,0
1060000,-0.002429,27.319689,-0.039421,-0.007218,25.732382,-0.047555,0.001756,0.021204,1.569647,-0.053479,0.000725,-0.004334,-0.000098,-0.006313,0.000013,0.003058,0.002513,0.137661,0.004740,0.198999,0.198993,0.170913,0.519312,0.000000,0.000000,0.000000,0.000000,0.000000,0.000000,0.000000,0.000000,0.000000,0.000000,0.000000,0.000000,0.133117,3,0
1070000,-0.002418,27.580837,-0.039703,-0.007025,25.742128,-0.048178,0.001771,0.021638,1.569632,-0.054229,0.000741,-0.004395,-0.000101,-0.006460,0.000013,0.002114,0.002501,0.114288,0.007327,0.199240,0.199234,0.170675,0.513909,0.000000,0.000000,0.000000,0.000000,0.000000,0.000000,0.000000,0.000000,0.000000,0.000000,0.000000,0.000000,0.110521,3,0
1080000,-0.002405,27.840012,-0.040098,-0.006870,25.748177,-0.048810,0.001789,0.021866,1.569630,-0.054569,0.000757,-0.004424,-0.000104,-0.006527,0.000013,0.000436,0.002488,0.051830,0.003391,0.199474,0.199467,0.170428,0.508611,0.000000,0.000000,0.000000,0.000000,0.000000,0.000000,0.000000,0.000000,0.000000,0.000000,0.000000,0.000000,0.050166,3,0
1090000,-0.002393,28.101868,-0.039832,-0.006842,25.758837,-0.048714,0.001811,0.022375,1.569625,-0.055429,0.000772,-0.004644,-0.000108,-0.006700,0.000014,0.002866,0.002475,0.130537,0.027175,0.199700,0.199693,0.170172,0.503418,0.000000,0.000000,0.000000,0.000000,0.000000,0.000000,0.000000,0.000000,0.000000,0.000000,0.000000,0.000000,0.126217,3,0
1100000,-0.002378,28.361734,-0.040320,-0.006625,25.766031,-0.049307,0.001830,0.022667,1.569615,-0.055874,0.000788,-0.004649,-0.000111,-0.006791,0.000014,0.000732,0.002460,0.067362,0.000305,0.199919,0.199911,0.169907,0.498330,0.000000,0.000000,0.000000,0.000000,0.000000,0.000000,0.000000,0.000000,0.000000,0.000000,0.000000,0.000000,0.065160,3,0
1110000,-0.002363,28.620296,-0.041010,-0.006491,25.770727,-0.050291,0.001862,0.022813,1.569600,-0.056046,0.000805,-0.004597,-0.000114,-0.006827,0.000014,0.000118,0.002445,0.026093,-0.006669,0.200131,0.200123,0.169634,0.493346,0.000000,0.000000,0.000000,0.000000,0.000000,0.000000,0.000000,0.000000,0.000000,0.000000,0.000000,0.000000,0.025333,3,0
1120000,-0.002347,28.884212,-0.041644,-0.006357,25.784843,-0.051291,0.001876,0.023534,1.569592,-0.057270,0.000820,-0.004573,-0.000117,-0.007084,0.000014,0.005514,0.002428,0.184940,-0.003960,0.200337,0.200329,0.169354,0.488465,0.000000,0.000000,0.000000,0.000000,0.000000,0.000000,0.000000,0.000000,0.000000,0.000000,0.000000,0.000000,0.178780,3,0
1130000,-0.002330,29.142771,-0.041648,-0.006242,25.789358,-0.051414,0.001898,0.023653,1.569592,-0.057404,0.000836,-0.004724,-0.000121,-0.007113,0.000015,0.000122,0.002411,0.020277,0.018405,0.200537,0.200529,0.169066,0.483686,0.000000,0.000000,0.000000,0.000000,0.000000,0.000000,0.000000,0.000000,0.000000,0.000000,0.000000,0.000000,0.019738,3,0
1140000,-0.002313,29.404032,-0.042578,-0.006111,25.798550,-0.052826,0.001914,0.024079,1.569574,-0.058064,0.000851,-0.004612,-0.000124,-0.007256,0.000015,0.001632,0.002393,0.099613,-0.014262,0.200732,0.200723,0.168771,0.479010,0.000000,0.000000,0.000000,0.000000,0.000000,0.000000,0.000000,0.000000,0.000000,0.000000,0.000000,0.000000,0.096307,3,0
1150000,-0.002294,29.665956,-0.044005,-0.005939,25.808798,-0.054620,0.001942,0.024581,1.569571,-0.058838,0.000867,-0.004357,-0.000128,-0.007427,0.000015,0.002351,0.002374,0.116568,-0.031525,0.200922,0.200912,0.168470,0.474434,0.000000,0.000000,0.000000,0.000000,0.000000,0.000000,0.000000,0.000000,0.000000,0.000000,0.000000,0.000000,0.112685,3,0
1160000,-0.002274,29.929863,-0.044138,-0.005787,25.822462,-0.054961,0.001975,0.025295,1.569552,-0.059983,0.000882,-0.004495,-0.000131,-0.007682,0.000016,0.004838,0.002354,0.172600,0.015460,0.201107,0.201098,0.168163,0.469959,0.000000,0.000000,0.000000,0.000000,0.000000,0.000000,0.000000,0.000000,0.000000,0.000000,0.000000,0.000000,0.166832,3,0
1170000,-0.002255,30.191725,-0.044513,-0.005711,25.832352,-0.055334,0.001994,0.025767,1.569538,-0.060695,0.000897,-0.004557,-0.000134,-0.007843,0.000016,0.001864,0.002333,0.107346,0.006742,0.201288,0.201278,0.167849,0.465584,0.000000,0.000000,0.000000,0.000000,0.000000,0.000000,0.000000,0.000000,0.000000,0.000000,0.000000,0.000000,0.103769,3,0
1180000,-0.002233,30.454901,-0.043455,-0.005496,25.844463,-0.054092,0.002024,0.026396,1.569523,-0.061646,0.000911,-0.005057,-0.000138,-0.008060,0.000016,0.003874,0.002311,0.143568,0.058408,0.201466,0.201456,0.167531,0.461306,0.000000,0.000000,0.000000,0.000000,0.000000,0.000000,0.000000,0.000000,0.000000,0.000000,0.000000,0.000000,0.138770,3,0
1190000,-0.002211,30.714037,-0.044410,-0.005311,25.849272,-0.055468,0.002052,0.026532,1.569522,-0.061775,0.000926,-0.004936,-0.000141,-0.008091,0.000016,0.000096,0.002287,0.019423,-0.014509,0.201641,0.201630,0.167207,0.457126,0.000000,0.000000,0.000000,0.000000,0.000000,0.000000,0.000000,0.000000,0.000000,0.000000,0.000000,0.000000,0.018898,3,0
1200000,-0.002188,30.975870,-0.045835,-0.005158,25.858664,-0.057557,0.002085,0.026980,1.569521,-0.062427,0.000941,-0.004680,-0.000145,-0.008245,0.000017,0.001706,0.002264,0.098181,-0.030689,0.201812,0.201801,0.166879,0.453041,0.000000,0.000000,0.000000,0.000000,0.000000,0.000000,0.000000,0.000000,0.000000,0.000000,0.000000,0.000000,0.094901,3,0
1210000,-0.002163,31.239685,-0.045442,-0.004934,25.871468,-0.057084,0.002099,0.027673,1.569515,-0.063448,0.000955,-0.004995,-0.000148,-0.008490,0.000017,0.004042,0.002238,0.154314,0.035631,0.201981,0.201969,0.166547,0.449051,0.000000,0.000000,0.000000,0.000000,0.000000,0.000000,0.000000,0.000000,0.000000,0.000000,0.000000,0.000000,0.149138,3,0
1220000,-0.002137,31.498756,-0.044201,-0.004857,25.875862,-0.055655,0.002123,0.027780,1.569514,-0.063511,0.000969,-0.005564,-0.000152,-0.008503,0.000017,0.000717,0.002213,0.009644,0.065778,0.202148,0.202135,0.166210,0.445155,0.000000,0.000000,0.000000,0.000000,0.000000,0.000000,0.000000,0.000000,0.000000,0.000000,0.000000,0.000000,0.009567,3,0
1230000,-0.002112,31.757183,-0.044000,-0.004697,25.878918,-0.055234,0.002148,0.027794,1.569503,-0.063438,0.000983,-0.005803,-0.000156,-0.008485,0.000017,0.000143,0.002186,-0.010923,0.027555,0.202313,0.202300,0.165871,0.441350,0.000000,0.000000,0.000000,0.000000,0.000000,0.000000,0.000000,0.000000,0.000000,0.000000,0.000000,0.000000,0.010763,3,0
1240000,-0.002087,32.018993,-0.044268,-0.004642,25.887894,-0.055481,0.002166,0.028228,1.569500,-0.064021,0.000996,-0.005903,-0.000159,-0.008631,0.000017,0.001279,0.002160,0.088440,0.010819,0.202476,0.202463,0.165527,0.437637,0.000000,0.000000,0.000000,0.000000,0.000000,0.000000,0.000000,0.000000,0.000000,0.000000,0.000000,0.000000,0.085482,3,0
1250000,-0.002060,32.282787,-0.043972,-0.004465,25.900259,-0.054998,0.002182,0.028904,1.569483,-0.064974,0.001010,-0.006192,-0.000163,-0.008872,0.000018,0.003530,0.002133,0.144604,0.031598,0.202639,0.202624,0.165181,0.434013,0.000000,0.000000,0.000000,0.000000,0.000000,0.000000,0.000000,0.000000,0.000000,0.000000,0.000000,0.000000,0.139740,3,0
1260000,-0.002034,32.544514,-0.043238,-0.004398,25.909004,-0.054016,0.002199,0.029301,1.569466,-0.065496,0.001023,-0.006616,-0.000166,-0.009005,0.000018,0.001380,0.002105,0.079472,0.047268,0.202800,0.202785,0.164833,0.430479,0.000000,0.000000,0.000000,0.000000,0.000000,0.000000,0.000000,0.000000,0.000000,0.000000,0.000000,0.000000,0.076817,3,0
1270000,-0.002007,32.804199,-0.044068,-0.004235,25.914030,-0.055012,0.002231,0.029435,1.569463,-0.065605,0.001036,-0.006525,-0.000170,-0.009034,0.000018,0.000061,0.002078,0.016449,-0.010287,0.202961,0.202946,0.164482,0.427031,0.000000,0.000000,0.000000,0.000000,0.000000,0.000000,0.000000,0.000000,0.000000,0.000000,0.000000,0.000000,0.016018,3,0
1280000,-0.001980,33.066582,-0.044363,-0.004142,25.923573,-0.055553,0.002261,0.029911,1.569461,-0.066225,0.001049,-0.006622,-0.000173,-0.009198,0.000019,0.001460,0.002050,0.094654,0.009984,0.203122,0.203106,0.164129,0.423668,0.000000,0.000000,0.000000,0.000000,0.000000,0.000000,0.000000,0.000000,0.000000,0.000000,0.000000,0.000000,0.091471,3,0
1290000,-0.001953,33.328255,-0.044752,-0.003971,25.931860,-0.056237,0.002285,0.030303,1.569443,-0.066688,0.001062,-0.006689,-0.000177,-0.009322,0.000019,0.000813,0.002021,0.070721,0.006714,0.203283,0.203266,0.163775,0.420390,0.000000,0.000000,0.000000,0.000000,0.000000,0.000000,0.000000,0.000000,0.000000,0.000000,0.000000,0.000000,0.068353,3,0
1300000,-0.001926,33.587879,-0.045687,-0.003920,25.936493,-0.057468,0.002313,0.030416,1.569427,-0.066739,0.001075,-0.006568,-0.000180,-0.009337,0.000019,0.000039,0.001993,0.007751,-0.013367,0.203443,0.203426,0.163419,0.417195,0.000000,0.000000,0.000000,0.000000,0.000000,0.000000,0.000000,0.000000,0.000000,0.000000,0.000000,0.000000,0.007732,3,0
1310000,-0.001898,33.846161,-0.046996,-0.003798,25.938564,-0.058943,0.002336,0.030343,1.569410,-0.066523,0.001088,-0.006320,-0.000184,-0.009278,0.000019,0.000297,0.001965,-0.033249,-0.026964,0.203605,0.203586,0.163063,0.414081,0.000000,0.000000,0.000000,0.000000,0.000000,0.000000,0.000000,0.000000,0.000000,0.000000,0.000000,0.000000,0.032180,3,0
1320000,-0.001871,34.107159,-0.047068,-0.003728,25.945435,-0.058912,0.002365,0.030625,1.569405,-0.066824,0.001100,-0.006503,-0.000187,-0.009362,0.000019,0.000409,0.001937,0.046391,0.019526,0.203766,0.203747,0.162705,0.411046,0.000000,0.000000,0.000000,0.000000,0.000000,0.000000,0.000000,0.000000,0.000000,0.000000,0.000000,0.000000,0.044858,3,0
1330000,-0.001842,34.370838,-0.046706,-0.003542,25.956873,-0.058538,0.002394,0.031252,1.569401,-0.067621,0.001112,-0.006846,-0.000191,-0.009588,0.000019,0.002657,0.001908,0.123268,0.035982,0.203929,0.203909,0.162347,0.408089,0.000000,0.000000,0.000000,0.000000,0.000000,0.000000,0.000000,0.000000,0.000000,0.000000,0.000000,0.000000,0.119098,3,0
1340000,-0.001813,34.630394,-0.046244,-0.003408,25.960978,-0.057835,0.002427,0.031319,1.569391,-0.067611,0.001123,-0.007206,-0.000194,-0.009583,0.000019,0.000248,0.001878,-0.001377,0.039001,0.204093,0.204072,0.161988,0.405211,0.000000,0.000000,0.000000,0.000000,0.000000,0.000000,0.000000,0.000000,0.000000,0.000000,0.000000,0.000000,0.002245,3,0
1350000,-0.001784,34.892670,-0.047535,-0.003247,25.969851,-0.059691,0.002454,0.031760,1.569390,-0.068106,0.001135,-0.006974,-0.000198,-0.009730,0.000020,0.001062,0.001847,0.076969,-0.025750,0.204258,0.204236,0.161630,0.402407,0.000000,0.000000,0.000000,0.000000,0.000000,0.000000,0.000000,0.000000,0.000000,0.000000,0.000000,0.000000,0.074366,3,0
1360000,-0.001754,35.154888,-0.046662,-0.003131,25.978436,-0.058707,0.002480,0.032178,1.569376,-0.068573,0.001146,-0.007499,-0.000201,-0.009866,0.000020,0.001356,0.001817,0.073032,0.055353,0.204424,0.204401,0.161272,0.399677,0.000000,0.000000,0.000000,0.000000,0.000000,0.000000,0.000000,0.000000,0.000000,0.000000,0.000000,0.000000,0.070575,3,0
1370000,-0.001725,35.418430,-0.048019,-0.003058,25.989271,-0.060622,0.002495,0.032775,1.569360,-0.069269,0.001157,-0.007250,-0.000204,-0.010078,0.000020,0.002035,0.001786,0.108910,-0.027791,0.204591,0.204568,0.160914,0.397020,0.000000,0.000000,0.000000,0.000000,0.000000,0.000000,0.000000,0.000000,0.000000,0.000000,0.000000,0.000000,0.105208,3,0
1380000,-0.001697,35.679874,-0.049116,-0.003000,25.996403,-0.061875,0.002513,0.033068,1.569351,-0.069549,0.001168,-0.007086,-0.000208,-0.010164,0.000020,0.000365,0.001757,0.044044,-0.017881,0.204760,0.204736,0.160557,0.394435,0.000000,0.000000,0.000000,0.000000,0.000000,0.000000,0.000000,0.000000,0.000000,0.000000,0.000000,0.000000,0.042572,3,0
1390000,-0.001667,35.942631,-0.048704,-0.002855,26.005600,-0.061390,0.002545,0.033543,1.569338,-0.070059,0.001178,-0.007468,-0.000211,-0.010321,0.000021,0.001300,0.001726,0.080715,0.039324,0.204931,0.204905,0.160200,0.391918,0.000000,0.000000,0.000000,0.000000,0.000000,0.000000,0.000000,0.000000,0.000000,0.000000,0.000000,0.000000,0.077983,3,0
1400000,-0.001637,36.203304,-0.049575,-0.002722,26.011145,-0.062660,0.002565,0.033715,1.569332,-0.070164,0.001189,-0.007382,-0.000215,-0.010355,0.000021,0.000059,0.001695,0.016655,-0.009234,0.205103,0.205077,0.159845,0.389471,0.000000,0.000000,0.000000,0.000000,0.000000,0.000000,0.000000,0.000000,0.000000,0.000000,0.000000,0.000000,0.016166,3,0
1410000,-0.001608,36.463947,-0.049785,-0.002626,26.016453,-0.063046,0.002582,0.033865,1.569332,-0.070254,0.001199,-0.007538,-0.000218,-0.010383,0.000021,0.000076,0.001665,0.014355,0.016120,0.205277,0.205250,0.159491,0.387090,0.000000,0.000000,0.000000,0.000000,0.000000,0.000000,0.000000,0.000000,0.000000,0.000000,0.000000,0.000000,0.013959,3,0
1420000,-0.001577,36.721848,-0.050400,-0.002393,26.016788,-0.063925,0.002599,0.033614,1.569318,-0.069833,0.001209,-0.007535,-0.000221,-0.010246,0.000021,0.000732,0.001633,-0.067432,0.000544,0.205453,0.205425,0.159138,0.384775,0.000000,0.000000,0.000000,0.000000,0.000000,0.000000,0.000000,0.000000,0.000000,0.000000,0.000000,0.000000,0.065144,3,0
1430000,-0.001545,36.981129,-0.050677,-0.002263,26.019451,-0.064392,0.002624,0.033551,1.569307,-0.069664,0.001219,-0.007666,-0.000225,-0.010190,0.000021,0.000150,0.001600,-0.027153,0.013869,0.205631,0.205602,0.158787,0.382522,0.000000,0.000000,0.000000,0.000000,0.000000,0.000000,0.000000,0.000000,0.000000,0.000000,0.000000,0.000000,0.026268,3,0
1440000,-0.001514,37.244499,-0.051556,-0.002184,26.029554,-0.065476,0.002640,0.034085,1.569301,-0.070228,0.001229,-0.007599,-0.000228,-0.010378,0.000021,0.001351,0.001568,0.091236,-0.008048,0.205811,0.205780,0.158438,0.380333,0.000000,0.000000,0.000000,0.000000,0.000000,0.000000,0.000000,0.000000,0.000000,0.000000,0.000000,0.000000,0.088117,3,0
1450000,-0.001483,37.504383,-0.051583,-0.002031,26.033260,-0.065524,0.002659,0.034102,1.569291,-0.070146,0.001238,-0.007833,-0.000231,-0.010350,0.000021,0.000122,0.001536,-0.013203,0.024044,0.205993,0.205961,0.158090,0.378205,0.000000,0.000000,0.000000,0.000000,0.000000,0.000000,0.000000,0.000000,0.000000,0.000000,0.000000,0.000000,0.012831,3,0
1460000,-0.001450,37.764938,-0.052248,-0.001781,26.037983,-0.066410,0.002690,0.034210,1.569286,-0.070178,0.001247,-0.007833,-0.000234,-0.010361,0.000021,0.000005,0.001501,0.005180,-0.000006,0.206176,0.206144,0.157745,0.376135,0.000000,0.000000,0.000000,0.000000,0.000000,0.000000,0.000000,0.000000,0.000000,0.000000,0.000000,0.000000,0.005207,3,0
1470000,-0.001416,38.024769,-0.050976,-0.001654,26.041334,-0.064845,0.002706,0.034194,1.569284,-0.070073,0.001255,-0.008561,-0.000237,-0.010321,0.000021,0.000935,0.001467,-0.016876,0.074006,0.206362,0.206328,0.157402,0.374124,0.000000,0.000000,0.000000,0.000000,0.000000,0.000000,0.000000,0.000000,0.000000,0.000000,0.000000,0.000000,0.016343,3,0
1480000,-0.001383,38.285275,-0.050562,-0.001560,26.045923,-0.064338,0.002729,0.034292,1.569266,-0.070081,0.001263,-0.008967,-0.000240,-0.010322,0.000021,0.000272,0.001433,0.001564,0.040898,0.206550,0.206515,0.157061,0.372170,0.000000,0.000000,0.000000,0.000000,0.000000,0.000000,0.000000,0.000000,0.000000,0.000000,0.000000,0.000000,0.002054,3,0
1490000,-0.001349,38.543015,-0.050366,-0.001359,26.045418,-0.063948,0.002756,0.033950,1.569266,-0.069600,0.001271,-0.009273,-0.000244,-0.010147,0.000021,0.001196,0.001398,-0.080074,0.031827,0.206739,0.206703,0.156723,0.370272,0.000000,0.000000,0.000000,0.000000,0.000000,0.000000,0.000000,0.000000,0.000000,0.000000,0.000000,0.000000,0.077320,3,0
1500000,-0.001316,38.802135,-0.049736,-0.001284,26.047424,-0.062996,0.002771,0.033814,1.569266,-0.069362,0.001279,-0.009754,-0.000247,-0.010058,0.000021,0.000637,0.001363,-0.039623,0.048673,0.206931,0.206893,0.156387,0.368427,0.000000,0.000000,0.000000,0.000000,0.000000,0.000000,0.000000,0.000000,0.000000,0.000000,0.000000,0.000000,0.038269,3,0
1510000,-0.001283,39.061951,-0.050806,-0.001191,26.050526,-0.064380,0.002785,0.033785,1.569249,-0.069241,0.001287,-0.009582,-0.000250,-0.010014,0.000021,0.000113,0.001328,-0.020462,-0.016742,0.207124,0.207086,0.156055,0.366634,0.000000,0.000000,0.000000,0.000000,0.000000,0.000000,0.000000,0.000000,0.000000,0.000000,0.000000,0.000000,0.019802,3,0
1520000,-0.001249,39.323109,-0.050692,-0.001002,26.056011,-0.064037,0.002812,0.033962,1.569234,-0.069346,0.001294,-0.009884,-0.000252,-0.010052,0.000021,0.000194,0.001294,0.017876,0.029561,0.207320,0.207280,0.155725,0.364893,0.000000,0.000000,0.000000,0.000000,0.000000,0.000000,0.000000,0.000000,0.000000,0.000000,0.000000,0.000000,0.017310,3,0
1530000,-0.001214,39.581482,-0.051067,-0.000784,26.056452,-0.064524,0.002838,0.033696,1.569229,-0.068969,0.001302,-0.009975,-0.000255,-0.009908,0.000020,0.000685,0.001257,-0.064430,0.010061,0.207517,0.207476,0.155398,0.363203,0.000000,0.000000,0.000000,0.000000,0.000000,0.000000,0.000000,0.000000,0.000000,0.000000,0.000000,0.000000,0.062210,3,0
1540000,-0.001179,39.843288,-0.049815,-0.000706,26.063108,-0.063098,0.002853,0.033949,1.569217,-0.069170,0.001307,-0.010735,-0.000258,-0.009982,0.000021,0.001087,0.001222,0.035015,0.074010,0.207716,0.207674,0.155074,0.361561,0.000000,0.000000,0.000000,0.000000,0.000000,0.000000,0.000000,0.000000,0.000000,0.000000,0.000000,0.000000,0.033838,3,0
1550000,-0.001143,40.101608,-0.049397,-0.000515,26.063313,-0.062325,0.002873,0.033657,1.569210,-0.068779,0.001314,-0.011136,-0.000261,-0.009826,0.000020,0.001004,0.001185,-0.067829,0.040319,0.207917,0.207873,0.154753,0.359967,0.000000,0.000000,0.000000,0.000000,0.000000,0.000000,0.000000,0.000000,0.000000,0.000000,0.000000,0.000000,0.065482,3,0
1560000,-0.001107,40.364059,-0.048218,-0.000265,26.070925,-0.061070,0.002897,0.034004,1.569207,-0.069072,0.001319,-0.011872,-0.000264,-0.009938,0.000021,0.001242,0.001147,0.051552,0.070802,0.208119,0.208074,0.154436,0.358419,0.000000,0.000000,0.000000,0.000000,0.000000,0.000000,0.000000,0.000000,0.000000,0.000000,0.000000,0.000000,0.049790,3,0
1570000,-0.001069,40.624378,-0.047330,-0.000048,26.074612,-0.059781,0.002921,0.034011,1.569191,-0.069001,0.001324,-0.012473,-0.000266,-0.009906,0.000021,0.000579,0.001108,-0.012188,0.058437,0.208323,0.208277,0.154122,0.356916,0.000000,0.000000,0.000000,0.000000,0.000000,0.000000,0.000000,0.000000,0.000000,0.000000,0.000000,0.000000,0.011802,3,0
1580000,-0.001032,40.881916,-0.047778,0.000068,26.073210,-0.060077,0.002938,0.033579,1.569184,-0.068475,0.001331,-0.012511,-0.000269,-0.009690,0.000020,0.001415,0.001069,-0.093636,0.005243,0.208528,0.208481,0.153811,0.355457,0.000000,0.000000,0.000000,0.000000,0.000000,0.000000,0.000000,0.000000,0.000000,0.000000,0.000000,0.000000,0.090388,3,0
1590000,-0.000994,41.142227,-0.047731,0.000262,26.076763,-0.059991,0.002951,0.033570,1.569172,-0.068401,0.001336,-0.012773,-0.000271,-0.009657,0.000020,0.000134,0.001030,-0.013214,0.025473,0.208735,0.208686,0.153504,0.354040,0.000000,0.000000,0.000000,0.000000,0.000000,0.000000,0.000000,0.000000,0.000000,0.000000,0.000000,0.000000,0.012787,3,0
1600000,-0.000955,41.402496,-0.046940,0.000466,26.080164,-0.059082,0.002969,0.033561,1.569157,-0.068316,0.001341,-0.013341,-0.000274,-0.009618,0.000020,0.000522,0.000990,-0.015133,0.054630,0.208943,0.208893,0.153200,0.352664,0.000000,0.000000,0.000000,0.000000,0.000000,0.000000,0.000000,0.000000,0.000000,0.000000,0.000000,0.000000,0.014622,3,0
1610000,-0.000916,41.664135,-0.047514,0.000651,26.086010,-0.059799,0.003000,0.033774,1.569156,-0.068441,0.001346,-0.013358,-0.000276,-0.009672,0.000020,0.000084,0.000949,0.022747,0.001151,0.209152,0.209100,0.152900,0.351329,0.000000,0.000000,0.000000,0.000000,0.000000,0.000000,0.000000,0.000000,0.000000,0.000000,0.000000,0.000000,0.021973,3,0
1620000,-0.000877,41.924339,-0.048557,0.000777,26.089207,-0.061160,0.003031,0.033743,1.569151,-0.068331,0.001351,-0.013171,-0.000278,-0.009625,0.000020,0.000115,0.000909,-0.020283,-0.017334,0.209362,0.209309,0.152604,0.350033,0.000000,0.000000,0.000000,0.000000,0.000000,0.000000,0.000000,0.000000,0.000000,0.000000,0.000000,0.000000,0.019600,3,0
1630000,-0.000837,42.184486,-0.047501,0.001009,26.092098,-0.060027,0.003059,0.033684,1.569143,-0.068211,0.001355,-0.013863,-0.000280,-0.009567,0.000020,0.000782,0.000868,-0.022095,0.065819,0.209572,0.209518,0.152311,0.348773,0.000000,0.000000,0.000000,0.000000,0.000000,0.000000,0.000000,0.000000,0.000000,0.000000,0.000000,0.000000,0.021322,3,0
1640000,-0.000797,42.445301,-0.047001,0.001169,26.096218,-0.059383,0.003080,0.033724,1.569141,-0.068189,0.001358,-0.014325,-0.000282,-0.009554,0.000020,0.000312,0.000826,-0.003963,0.043640,0.209783,0.209727,0.152022,0.347551,0.000000,0.000000,0.000000,0.000000,0.000000,0.000000,0.000000,0.000000,0.000000,0.000000,0.000000,0.000000,0.003897,3,0
1650000,-0.000757,42.704685,-0.046886,0.001315,26.097607,-0.059334,0.003098,0.033520,1.569127,-0.067946,0.001362,-0.014613,-0.000284,-0.009441,0.000020,0.000469,0.000784,-0.046154,0.027880,0.209995,0.209938,0.151737,0.346365,0.000000,0.000000,0.000000,0.000000,0.000000,0.000000,0.000000,0.000000,0.000000,0.000000,0.000000,0.000000,0.044539,3,0
1660000,-0.000716,42.966137,-0.046689,0.001507,26.102764,-0.059267,0.003110,0.033660,1.569114,-0.068010,0.001366,-0.014955,-0.000286,-0.009469,0.000020,0.000189,0.000742,0.012512,0.031765,0.210206,0.210148,0.151456,0.345213,0.000000,0.000000,0.000000,0.000000,0.000000,0.000000,0.000000,0.000000,0.000000,0.000000,0.000000,0.000000,0.012102,3,0
1670000,-0.000675,43.224033,-0.045581,0.001598,26.101305,-0.058027,0.003141,0.033191,1.569105,-0.067545,0.001368,-0.015654,-0.000288,-0.009244,0.000020,0.002027,0.000700,-0.089958,0.066866,0.210418,0.210359,0.151179,0.344094,0.000000,0.000000,0.000000,0.000000,0.000000,0.000000,0.000000,0.000000,0.000000,0.000000,0.000000,0.000000,0.086787,3,0
1680000,-0.000635,43.485424,-0.044988,0.001794,26.106241,-0.057376,0.003157,0.033313,1.569094,-0.067596,0.001371,-0.016163,-0.000289,-0.009265,0.000020,0.000376,0.000658,0.009979,0.047075,0.210630,0.210569,0.150905,0.343008,0.000000,0.000000,0.000000,0.000000,0.000000,0.000000,0.000000,0.000000,0.000000,0.000000,0.000000,0.000000,0.009664,3,0
1690000,-0.000593,43.743965,-0.044160,0.001985,26.105867,-0.056125,0.003188,0.032947,1.569080,-0.067229,0.001373,-0.016744,-0.000291,-0.009082,0.000020,0.001341,0.000615,-0.072548,0.055179,0.210842,0.210779,0.150636,0.341953,0.000000,0.000000,0.000000,0.000000,0.000000,0.000000,0.000000,0.000000,0.000000,0.000000,0.000000,0.000000,0.069987,3,0
1700000,-0.000553,44.004604,-0.044501,0.002065,26.109327,-0.056446,0.003213,0.032942,1.569068,-0.067164,0.001376,-0.016837,-0.000293,-0.009049,0.000020,0.000040,0.000573,-0.013023,0.008871,0.211054,0.210990,0.150370,0.340928,0.000000,0.000000,0.000000,0.000000,0.000000,0.000000,0.000000,0.000000,0.000000,0.000000,0.000000,0.000000,0.012574,3,0
1710000,-0.000513,44.263115,-0.045744,0.002153,26.108852,-0.057954,0.003240,0.032569,1.569065,-0.066794,0.001380,-0.016518,-0.000294,-0.008865,0.000019,0.001027,0.000532,-0.074913,-0.027679,0.211265,0.211200,0.150109,0.339933,0.000000,0.000000,0.000000,0.000000,0.000000,0.000000,0.000000,0.000000,0.000000,0.000000,0.000000,0.000000,0.072287,3,0
