time_us,pos_x,pos_y,pos_z,vel_x,vel_y,vel_z,roll,pitch,yaw,bias_ax,bias_ay,bias_az,bias_gx,bias_gy,bias_gz,nis,innov_x,innov_y,innov_z,cov_pos_x,cov_pos_y,cov_pos_z,cov_yaw,des_speed,des_heading,des_climb,pid_speed,pid_yaw,pid_alt,speed_meas,yaw_meas,climb_meas,fwd_accel,yaw_rate,vert_accel,drift_m,nav_mode,mission_state
0,0.000002,0.150001,-0.000005,0.000265,25.000254,-0.001145,0.000010,-0.000016,1.570780,0.000000,0.000000,0.000000,0.000000,0.000000,0.000000,0.006250,-0.000003,-0.250005,0.000011,2.400038,2.400038,3.600017,1.000518,0.000000,0.000000,0.000000,0.000000,0.000000,0.000000,0.000000,0.000000,0.000000,0.000000,0.000000,0.000000,0.150001,1,0
10000,0.000005,0.319791,0.009640,0.000472,25.000063,-0.001992,0.000017,-0.000017,1.570773,0.000001,-0.000000,-0.000000,0.000000,0.000000,0.000000,0.009451,-0.000006,-0.280734,0.025771,1.714420,1.714420,2.250079,1.001073,0.000000,0.000000,0.000000,0.000000,0.000000,0.000000,0.000000,0.000000,0.000000,0.000000,0.000000,0.000000,0.200518,3,0
20000,0.000009,0.558029,0.020278,0.000724,25.000420,-0.003098,0.000028,-0.000037,1.570753,0.000001,-0.000000,-0.000000,0.000000,0.000000,0.000000,0.000549,-0.000012,-0.052945,0.039120,1.333616,1.333616,1.636554,1.001655,0.000000,0.000000,0.000000,0.000000,0.000000,0.000000,0.000000,0.000000,0.000000,0.000000,0.000000,0.000000,0.041177,3,0
30000,0.000015,0.791231,0.014230,0.000923,25.000523,-0.004314,0.000039,-0.000041,1.570740,0.000003,-0.000000,0.000000,-0.000000,0.000000,0.000000,0.001267,-0.000018,-0.092397,-0.028019,1.091392,1.091392,1.286065,1.002257,0.000000,0.000000,0.000000,0.000000,0.000000,0.000000,0.000000,0.000000,0.000000,0.000000,0.000000,0.000000,0.075590,3,0
40000,0.000021,1.040079,0.021260,0.001004,25.000860,-0.005070,0.000040,-0.000057,1.570724,0.000003,-0.000000,-0.000001,0.000000,0.000000,0.000000,0.000229,-0.000025,-0.007536,0.040112,0.923811,0.923811,1.059385,1.002869,0.000000,0.000000,0.000000,0.000000,0.000000,0.000000,0.000000,0.000000,0.000000,0.000000,0.000000,0.000000,0.006376,3,0
50000,0.000029,1.274440,0.019953,0.001184,25.000559,-0.006022,0.000051,-0.000064,1.570715,0.000008,-0.000000,-0.000001,0.000000,0.000000,0.000000,0.001995,-0.000033,-0.117235,-0.008312,0.801036,0.801036,0.900822,1.003484,0.000000,0.000000,0.000000,0.000000,0.000000,0.000000,0.000000,0.000000,0.000000,0.000000,0.000000,0.000000,0.101584,3,0
60000,0.000037,1.527526,0.025109,0.001370,25.001043,-0.006768,0.000063,-0.000071,1.570696,0.000007,-0.000000,-0.000003,0.000000,0.000000,0.000000,0.000332,-0.000042,0.026107,0.040009,0.707270,0.707270,0.783741,1.004094,0.000000,0.000000,0.000000,0.000000,0.000000,0.000000,0.000000,0.000000,0.000000,0.000000,0.000000,0.000000,0.023029,3,0
70000,0.000047,1.770368,0.031575,0.001559,25.001022,-0.007515,0.000069,-0.000078,1.570677,0.000012,-0.000000,-0.000007,0.000000,0.000000,0.000000,0.001161,-0.000053,-0.067954,0.056602,0.633370,0.633370,0.693801,1.004688,0.000000,0.000000,0.000000,0.000000,0.000000,0.000000,0.000000,0.000000,0.000000,0.000000,0.000000,0.000000,0.060781,3,0
80000,0.000058,2.019176,0.029582,0.001730,25.001282,-0.008705,0.000068,-0.000082,1.570667,0.000013,-0.000000,-0.000005,0.000000,0.000000,0.000000,0.000074,-0.000065,-0.012611,-0.018385,0.573673,0.573673,0.622594,1.005260,0.000000,0.000000,0.000000,0.000000,0.000000,0.000000,0.000000,0.000000,0.000000,0.000000,0.000000,0.000000,0.011405,3,0
90000,0.000071,2.274144,0.025432,0.001915,25.002188,-0.009995,0.000080,-0.000080,1.570659,0.000006,-0.000000,-0.000000,0.000000,0.000000,0.000000,0.000768,-0.000078,0.056641,-0.043048,0.524488,0.524488,0.564865,1.005801,0.000000,0.000000,0.000000,0.000000,0.000000,0.000000,0.000000,0.000000,0.000000,0.000000,0.000000,0.000000,0.051689,3,0
100000,0.000084,2.529010,0.028641,0.002024,25.003126,-0.010725,0.000083,-0.000094,1.570641,-0.000003,-0.000000,-0.000006,0.000000,-0.000000,-0.000000,0.000779,-0.000091,0.060090,0.038505,0.483303,0.483303,0.517162,1.006301,0.000000,0.000000,0.000000,0.000000,0.000000,0.000000,0.000000,0.000000,0.000000,0.000000,0.000000,0.000000,0.055250,3,0
110000,0.000098,2.773402,0.027392,0.002237,25.002695,-0.011833,0.000089,-0.000100,1.570635,0.000011,-0.000000,-0.000003,0.000000,0.000000,0.000000,0.000910,-0.000106,-0.075512,-0.014234,0.448353,0.448353,0.477121,1.006754,0.000000,0.000000,0.000000,0.000000,0.000000,0.000000,0.000000,0.000000,0.000000,0.000000,0.000000,0.000000,0.069869,3,0
120000,0.000114,3.020532,0.031228,0.002470,25.002537,-0.012165,0.000103,-0.000114,1.570623,0.000020,-0.000000,-0.000015,0.000000,0.000000,0.000000,0.000713,-0.000123,-0.041594,0.053675,0.418358,0.418358,0.443071,1.007150,0.000000,0.000000,0.000000,0.000000,0.000000,0.000000,0.000000,0.000000,0.000000,0.000000,0.000000,0.000000,0.038694,3,0
130000,0.000132,3.277679,0.032298,0.002669,25.004244,-0.012979,0.000110,-0.000121,1.570605,-0.000008,-0.000000,-0.000019,0.000000,-0.000000,-0.000000,0.001893,-0.000141,0.108855,0.017419,0.392369,0.392369,0.413797,1.007481,0.000000,0.000000,0.000000,0.000000,0.000000,0.000000,0.000000,0.000000,0.000000,0.000000,0.000000,0.000000,0.101737,3,0
140000,0.000150,3.527162,0.033159,0.002774,25.004536,-0.013622,0.000115,-0.000123,1.570603,-0.000005,-0.000000,-0.000024,0.000000,-0.000000,-0.000000,0.000050,-0.000160,-0.009158,0.015443,0.369666,0.369666,0.388393,1.007739,0.000000,0.000000,0.000000,0.000000,0.000000,0.000000,0.000000,0.000000,0.000000,0.000000,0.000000,0.000000,0.008595,3,0
150000,0.000169,3.779516,0.035644,0.002950,25.005541,-0.014177,0.000121,-0.000123,1.570598,-0.000019,-0.000000,-0.000038,0.000000,-0.000000,-0.000000,0.000537,-0.000179,0.039541,0.043130,0.349694,0.349694,0.366172,1.007915,0.000000,0.000000,0.000000,0.000000,0.000000,0.000000,0.000000,0.000000,0.000000,0.000000,0.000000,0.000000,0.037237,3,0
160000,0.000188,4.029899,0.035401,0.003046,25.006014,-0.015207,0.000127,-0.000127,1.570585,-0.000021,-0.000000,-0.000037,0.000000,-0.000001,-0.000000,0.000006,-0.000199,0.005845,-0.001582,0.332019,0.332019,0.346600,1.008002,0.000000,0.000000,0.000000,0.000000,0.000000,0.000000,0.000000,0.000000,0.000000,0.000000,0.000000,0.000000,0.005525,3,0
170000,0.000209,4.279646,0.036712,0.003200,25.006279,-0.015740,0.000125,-0.000143,1.570576,-0.000018,-0.000000,-0.000048,0.000000,-0.000000,-0.000000,0.000119,-0.000220,-0.005996,0.026840,0.316296,0.316296,0.329260,1.007991,0.000000,0.000000,0.000000,0.000000,0.000000,0.000000,0.000000,0.000000,0.000000,0.000000,0.000000,0.000000,0.005683,3,0
180000,0.000230,4.531851,0.036640,0.003366,25.007380,-0.016699,0.000127,-0.000156,1.570561,-0.000038,-0.000001,-0.000049,0.000000,-0.000001,-0.000000,0.000286,-0.000242,0.042438,0.001827,0.302244,0.302244,0.313817,1.007875,0.000000,0.000000,0.000000,0.000000,0.000000,0.000000,0.000000,0.000000,0.000000,0.000000,0.000000,0.000000,0.040301,3,0
190000,0.000253,4.785237,0.037032,0.003546,25.009027,-0.017547,0.000144,-0.000159,1.570545,-0.000075,-0.000001,-0.000055,0.000000,-0.000002,-0.000000,0.000765,-0.000266,0.068526,0.011385,0.289639,0.289639,0.300003,1.007645,0.000000,0.000000,0.000000,0.000000,0.000000,0.000000,0.000000,0.000000,0.000000,0.000000,0.000000,0.000000,0.065219,3,0
200000,0.000277,5.037821,0.037717,0.003778,25.010489,-0.018101,0.000143,-0.000150,1.570530,-0.000106,-0.000001,-0.000066,0.000000,-0.000003,-0.000000,0.000510,-0.000291,0.053671,0.018134,0.278293,0.278293,0.287598,1.007295,0.000000,0.000000,0.000000,0.000000,0.000000,0.000000,0.000000,0.000000,0.000000,0.000000,0.000000,0.000000,0.051182,3,0
210000,0.000303,5.292365,0.036974,0.004007,25.012796,-0.019459,0.000146,-0.000140,1.570509,-0.000169,-0.000001,-0.000058,0.000000,-0.000005,-0.000000,0.001591,-0.000317,0.099256,-0.011969,0.268051,0.268051,0.276421,1.006816,0.000000,0.000000,0.000000,0.000000,0.000000,0.000000,0.000000,0.000000,0.000000,0.000000,0.000000,0.000000,0.094822,3,0
220000,0.000330,5.548659,0.037288,0.004192,25.016064,-0.020190,0.000154,-0.000119,1.570497,-0.000269,-0.000001,-0.000066,0.000000,-0.000008,-0.000000,0.003277,-0.000345,0.142873,0.011679,0.258783,0.258783,0.266321,1.006202,0.000000,0.000000,0.000000,0.000000,0.000000,0.000000,0.000000,0.000000,0.000000,0.000000,0.000000,0.000000,0.136712,3,0
230000,0.000359,5.803215,0.036601,0.004447,25.018744,-0.021438,0.000164,-0.000111,1.570496,-0.000349,-0.000002,-0.000058,0.000000,-0.000010,-0.000000,0.001788,-0.000375,0.105214,-0.011072,0.250381,0.250381,0.257172,1.005446,0.000000,0.000000,0.000000,0.000000,0.000000,0.000000,0.000000,0.000000,0.000000,0.000000,0.000000,0.000000,0.100824,3,0
240000,0.000389,6.058622,0.036645,0.004635,25.021852,-0.022466,0.000176,-0.000087,1.570483,-0.000456,-0.000002,-0.000063,0.000000,-0.000014,-0.000000,0.002665,-0.000406,0.128937,0.006509,0.242750,0.242750,0.248866,1.004541,0.000000,0.000000,0.000000,0.000000,0.000000,0.000000,0.000000,0.000000,0.000000,0.000000,0.000000,0.000000,0.123721,3,0
250000,0.000420,6.311685,0.037050,0.004782,25.023792,-0.022993,0.000176,-0.000082,1.570473,-0.000520,-0.000002,-0.000077,0.000000,-0.000016,-0.000000,0.000877,-0.000437,0.072288,0.015867,0.235812,0.235812,0.241314,1.003481,0.000000,0.000000,0.000000,0.000000,0.000000,0.000000,0.000000,0.000000,0.000000,0.000000,0.000000,0.000000,0.069448,3,0
260000,0.000451,6.567937,0.037101,0.004861,25.027788,-0.023881,0.000181,-0.000048,1.570466,-0.000671,-0.000003,-0.000084,0.000000,-0.000022,-0.000000,0.003967,-0.000469,0.157148,0.007453,0.229497,0.229497,0.234436,1.002258,0.000000,0.000000,0.000000,0.000000,0.000000,0.000000,0.000000,0.000000,0.000000,0.000000,0.000000,0.000000,0.151138,3,0
270000,0.000482,6.818971,0.036153,0.004965,25.028755,-0.025319,0.000187,-0.000052,1.570459,-0.000692,-0.000003,-0.000065,0.000000,-0.000022,-0.000000,0.000119,-0.000501,0.020127,-0.018374,0.223746,0.223746,0.228165,1.000869,0.000000,0.000000,0.000000,0.000000,0.000000,0.000000,0.000000,0.000000,0.000000,0.000000,0.000000,0.000000,0.019383,3,0
280000,0.000513,7.073884,0.037416,0.005044,25.032341,-0.025281,0.000189,-0.000021,1.570450,-0.000832,-0.000004,-0.000110,0.000000,-0.000028,-0.000000,0.002858,-0.000532,0.126905,0.041158,0.218507,0.218507,0.222443,0.999307,0.000000,0.000000,0.000000,0.000000,0.000000,0.000000,0.000000,0.000000,0.000000,0.000000,0.000000,0.000000,0.122285,3,0
290000,0.000545,7.325315,0.038289,0.005245,25.033485,-0.025394,0.000191,-0.000011,1.570437,-0.000868,-0.000005,-0.000147,0.000000,-0.000029,-0.000000,0.000312,-0.000566,0.030988,0.031327,0.213734,0.213734,0.217219,0.997567,0.000000,0.000000,0.000000,0.000000,0.000000,0.000000,0.000000,0.000000,0.000000,0.000000,0.000000,0.000000,0.029889,3,0
300000,0.000579,7.581140,0.037915,0.005438,25.038021,-0.026524,0.000197,0.000036,1.570428,-0.001066,-0.000005,-0.000143,0.000000,-0.000038,-0.000000,0.003979,-0.000600,0.157246,-0.003092,0.209387,0.209387,0.212446,0.995645,0.000000,0.000000,0.000000,0.000000,0.000000,0.000000,0.000000,0.000000,0.000000,0.000000,0.000000,0.000000,0.151760,3,0
310000,0.000613,7.832911,0.036565,0.005508,25.039474,-0.028218,0.000208,0.000038,1.570411,-0.001120,-0.000006,-0.000102,0.000000,-0.000040,-0.000000,0.000419,-0.000634,0.040527,-0.031008,0.205430,0.205430,0.208087,0.993536,0.000000,0.000000,0.000000,0.000000,0.000000,0.000000,0.000000,0.000000,0.000000,0.000000,0.000000,0.000000,0.039145,3,0
320000,0.000646,8.085566,0.035750,0.005583,25.041809,-0.029775,0.000216,0.000063,1.570408,-0.001215,-0.000007,-0.000080,0.000000,-0.000044,-0.000000,0.000762,-0.000669,0.067046,-0.015339,0.201833,0.201833,0.204105,0.991237,0.000000,0.000000,0.000000,0.000000,0.000000,0.000000,0.000000,0.000000,0.000000,0.000000,0.000000,0.000000,0.064794,3,0
330000,0.000680,8.343002,0.036918,0.005673,25.048500,-0.029680,0.000221,0.000149,1.570390,-0.001533,-0.000008,-0.000146,0.000000,-0.000059,-0.000000,0.007554,-0.000703,0.211946,0.044212,0.198566,0.198565,0.200469,0.988743,0.000000,0.000000,0.000000,0.000000,0.000000,0.000000,0.000000,0.000000,0.000000,0.000000,0.000000,0.000000,0.204932,3,0
340000,0.000715,8.596541,0.037112,0.005907,25.051664,-0.030373,0.000237,0.000183,1.570378,-0.001681,-0.000010,-0.000170,0.000000,-0.000066,-0.000000,0.001450,-0.000739,0.093596,0.015295,0.195603,0.195603,0.197151,0.986053,0.000000,0.000000,0.000000,0.000000,0.000000,0.000000,0.000000,0.000000,0.000000,0.000000,0.000000,0.000000,0.090548,3,0
350000,0.000751,8.852784,0.035875,0.006062,25.057621,-0.032116,0.000242,0.000271,1.570363,-0.001977,-0.000011,-0.000123,0.000000,-0.000081,-0.000000,0.005241,-0.000776,0.177966,-0.028565,0.192923,0.192923,0.194125,0.983164,0.000000,0.000000,0.000000,0.000000,0.000000,0.000000,0.000000,0.000000,0.000000,0.000000,0.000000,0.000000,0.172246,3,0
360000,0.000787,9.110345,0.035997,0.006159,25.065090,-0.032799,0.000246,0.000381,1.570355,-0.002363,-0.000012,-0.000147,0.000001,-0.000101,-0.000000,0.007832,-0.000813,0.219847,0.014228,0.190505,0.190504,0.191370,0.980073,0.000000,0.000000,0.000000,0.000000,0.000000,0.000000,0.000000,0.000000,0.000000,0.000000,0.000000,0.000000,0.212868,3,0
370000,0.000825,9.366677,0.036143,0.006405,25.071438,-0.033317,0.000246,0.000487,1.570350,-0.002697,-0.000014,-0.000176,0.000001,-0.000119,-0.000000,0.005320,-0.000851,0.180880,0.015389,0.188328,0.188328,0.188863,0.976779,0.000000,0.000000,0.000000,0.000000,0.000000,0.000000,0.000000,0.000000,0.000000,0.000000,0.000000,0.000000,0.175204,3,0
380000,0.000862,9.623695,0.035946,0.006468,25.078697,-0.034109,0.000255,0.000601,1.570349,-0.003089,-0.000016,-0.000185,0.000001,-0.000140,-0.000000,0.006645,-0.000890,0.202788,0.004694,0.186377,0.186377,0.186586,0.973282,0.000000,0.000000,0.000000,0.000000,0.000000,0.000000,0.000000,0.000000,0.000000,0.000000,0.000000,0.000000,0.196491,3,0
390000,0.000901,9.876486,0.034599,0.006713,25.081362,-0.036053,0.000264,0.000626,1.570336,-0.003220,-0.000018,-0.000119,0.000001,-0.000148,-0.000000,0.000852,-0.000929,0.064971,-0.032412,0.184635,0.184635,0.184522,0.969581,0.000000,0.000000,0.000000,0.000000,0.000000,0.000000,0.000000,0.000000,0.000000,0.000000,0.000000,0.000000,0.062979,3,0
400000,0.000940,10.130671,0.034638,0.006843,25.085730,-0.036798,0.000280,0.000694,1.570328,-0.003454,-0.000020,-0.000148,0.000001,-0.000161,-0.000000,0.001997,-0.000970,0.110338,0.013522,0.183087,0.183087,0.182656,0.965675,0.000000,0.000000,0.000000,0.000000,0.000000,0.000000,0.000000,0.000000,0.000000,0.000000,0.000000,0.000000,0.106976,3,0
410000,0.000979,10.387411,0.033908,0.006959,25.093237,-0.038164,0.000294,0.000831,1.570317,-0.003883,-0.000022,-0.000122,0.000001,-0.000186,-0.000000,0.006108,-0.001010,0.194050,-0.011664,0.181721,0.181721,0.180971,0.961566,0.000000,0.000000,0.000000,0.000000,0.000000,0.000000,0.000000,0.000000,0.000000,0.000000,0.000000,0.000000,0.188175,3,0
420000,0.001018,10.644834,0.033680,0.007020,25.101656,-0.038855,0.000294,0.000988,1.570307,-0.004379,-0.000025,-0.000135,0.000001,-0.000217,-0.000000,0.007515,-0.001050,0.215540,0.005420,0.180524,0.180524,0.179456,0.957255,0.000000,0.000000,0.000000,0.000000,0.000000,0.000000,0.000000,0.000000,0.000000,0.000000,0.000000,0.000000,0.209057,3,0
430000,0.001059,10.901735,0.033980,0.007252,25.109436,-0.038950,0.000297,0.001130,1.570292,-0.004851,-0.000027,-0.000191,0.000001,-0.000246,-0.000000,0.006337,-0.001091,0.196580,0.023502,0.179483,0.179483,0.178097,0.952743,0.000000,0.000000,0.000000,0.000000,0.000000,0.000000,0.000000,0.000000,0.000000,0.000000,0.000000,0.000000,0.190703,3,0
440000,0.001100,11.155770,0.033839,0.007429,25.113731,-0.039548,0.000303,0.001195,1.570276,-0.005097,-0.000030,-0.000213,0.000002,-0.000262,-0.000000,0.001586,-0.001133,0.098632,0.008772,0.178589,0.178589,0.176883,0.948033,0.000000,0.000000,0.000000,0.000000,0.000000,0.000000,0.000000,0.000000,0.000000,0.000000,0.000000,0.000000,0.095703,3,0
450000,0.001141,11.413500,0.033004,0.007624,25.122852,-0.040931,0.000315,0.001372,1.570273,-0.005673,-0.000033,-0.000175,0.000002,-0.000299,-0.000001,0.008024,-0.001176,0.222253,-0.014707,0.177832,0.177832,0.175803,0.943126,0.000000,0.000000,0.000000,0.000000,0.000000,0.000000,0.000000,0.000000,0.000000,0.000000,0.000000,0.000000,0.215669,3,0
460000,0.001183,11.668969,0.032791,0.007731,25.129208,-0.041710,0.000325,0.001500,1.570264,-0.006058,-0.000037,-0.000194,0.000002,-0.000325,-0.000001,0.003332,-0.001219,0.143341,0.007110,0.177201,0.177201,0.174847,0.938027,0.000000,0.000000,0.000000,0.000000,0.000000,0.000000,0.000000,0.000000,0.000000,0.000000,0.000000,0.000000,0.139113,3,0
470000,0.001224,11.923988,0.032522,0.007795,25.134872,-0.042398,0.000322,0.001610,1.570254,-0.006410,-0.000040,-0.000209,0.000002,-0.000349,-0.000001,0.002588,-0.001262,0.126356,0.005397,0.176688,0.176688,0.174006,0.932739,0.000000,0.000000,0.000000,0.000000,0.000000,0.000000,0.000000,0.000000,0.000000,0.000000,0.000000,0.000000,0.122641,3,0
480000,0.001266,12.180905,0.033302,0.007976,25.143143,-0.041970,0.000323,0.001788,1.570236,-0.006955,-0.000044,-0.000330,0.000003,-0.000387,-0.000001,0.006087,-0.001305,0.189343,0.042113,0.176285,0.176285,0.173271,0.927266,0.000000,0.000000,0.000000,0.000000,0.000000,0.000000,0.000000,0.000000,0.000000,0.000000,0.000000,0.000000,0.183785,3,0
490000,0.001309,12.439688,0.032140,0.008142,25.154234,-0.043723,0.000326,0.002031,1.570227,-0.007701,-0.000048,-0.000254,0.000003,-0.000441,-0.000001,0.010249,-0.001348,0.250405,-0.025490,0.175983,0.175983,0.172634,0.921613,0.000000,0.000000,0.000000,0.000000,0.000000,0.000000,0.000000,0.000000,0.000000,0.000000,0.000000,0.000000,0.243065,3,0
500000,0.001352,12.698560,0.031392,0.008339,25.165482,-0.045116,0.000332,0.002297,1.570210,-0.008469,-0.000053,-0.000222,0.000003,-0.000498,-0.000001,0.010124,-0.001393,0.249937,-0.010468,0.175776,0.175776,0.172087,0.915784,0.000000,0.000000,0.000000,0.000000,0.000000,0.000000,0.000000,0.000000,0.000000,0.000000,0.000000,0.000000,0.242619,3,0
510000,0.001396,12.955194,0.031466,0.008515,25.173485,-0.045524,0.000335,0.002472,1.570209,-0.009008,-0.000058,-0.000282,0.000004,-0.000538,-0.000001,0.004725,-0.001438,0.169864,0.018748,0.175656,0.175655,0.171622,0.909784,0.000000,0.000000,0.000000,0.000000,0.000000,0.000000,0.000000,0.000000,0.000000,0.000000,0.000000,0.000000,0.164897,3,0
520000,0.001439,13.213123,0.029908,0.008605,25.183510,-0.048174,0.000345,0.002701,1.570194,-0.009699,-0.000063,-0.000156,0.000004,-0.000591,-0.000001,0.007462,-0.001482,0.211330,-0.038197,0.175616,0.175616,0.171234,0.903621,0.000000,0.000000,0.000000,0.000000,0.000000,0.000000,0.000000,0.000000,0.000000,0.000000,0.000000,0.000000,0.205150,3,0
530000,0.001481,13.468254,0.030331,0.008651,25.189240,-0.047931,0.000341,0.002826,1.570188,-0.010077,-0.000068,-0.000265,0.000004,-0.000621,-0.000001,0.002209,-0.001526,0.112334,0.032151,0.175651,0.175650,0.170914,0.897299,0.000000,0.000000,0.000000,0.000000,0.000000,0.000000,0.000000,0.000000,0.000000,0.000000,0.000000,0.000000,0.109056,3,0
540000,0.001523,13.722957,0.030543,0.008700,25.194283,-0.048057,0.000343,0.002932,1.570174,-0.010409,-0.000073,-0.000352,0.000005,-0.000647,-0.000001,0.001580,-0.001569,0.095693,0.024675,0.175753,0.175753,0.170658,0.890825,0.000000,0.000000,0.000000,0.000000,0.000000,0.000000,0.000000,0.000000,0.000000,0.000000,0.000000,0.000000,0.092902,3,0
550000,0.001566,13.980735,0.028939,0.008893,25.204073,-0.050655,0.000354,0.003176,1.570173,-0.011116,-0.000079,-0.000211,0.000005,-0.000705,-0.000001,0.006640,-0.001613,0.198760,-0.039131,0.175919,0.175918,0.170460,0.884206,0.000000,0.000000,0.000000,0.000000,0.000000,0.000000,0.000000,0.000000,0.000000,0.000000,0.000000,0.000000,0.192938,3,0
560000,0.001609,14.238634,0.027916,0.009083,25.213984,-0.052192,0.000350,0.003435,1.570169,-0.011844,-0.000086,-0.000145,0.000006,-0.000766,-0.000001,0.006479,-0.001657,0.199309,-0.017884,0.176141,0.176141,0.170314,0.877449,0.000000,0.000000,0.000000,0.000000,0.000000,0.000000,0.000000,0.000000,0.000000,0.000000,0.000000,0.000000,0.193465,3,0
570000,0.001651,14.496655,0.027959,0.009124,25.224178,-0.052255,0.000354,0.003690,1.570164,-0.012593,-0.000092,-0.000222,0.000006,-0.000829,-0.000001,0.006520,-0.001701,0.199737,0.020248,0.176416,0.176415,0.170214,0.870562,0.000000,0.000000,0.000000,0.000000,0.000000,0.000000,0.000000,0.000000,0.000000,0.000000,0.000000,0.000000,0.193871,3,0
580000,0.001693,14.753043,0.027592,0.009303,25.231733,-0.053099,0.000368,0.003873,1.570160,-0.013132,-0.000099,-0.000245,0.000007,-0.000876,-0.000002,0.003195,-0.001744,0.140402,0.005888,0.176738,0.176737,0.170157,0.863551,0.000000,0.000000,0.000000,0.000000,0.000000,0.000000,0.000000,0.000000,0.000000,0.000000,0.000000,0.000000,0.136276,3,0
590000,0.001736,15.008986,0.027353,0.009508,25.238525,-0.053660,0.000368,0.004048,1.570151,-0.013614,-0.000106,-0.000288,0.000008,-0.000919,-0.000002,0.002446,-0.001789,0.122485,0.010662,0.177102,0.177101,0.170138,0.856424,0.000000,0.000000,0.000000,0.000000,0.000000,0.000000,0.000000,0.000000,0.000000,0.000000,0.000000,0.000000,0.118882,3,0
600000,0.001779,15.267428,0.028446,0.009661,25.249342,-0.052439,0.000374,0.004345,1.570137,-0.014437,-0.000114,-0.000525,0.000008,-0.000993,-0.000002,0.007302,-0.001834,0.204416,0.057912,0.177505,0.177504,0.170152,0.849189,0.000000,0.000000,0.000000,0.000000,0.000000,0.000000,0.000000,0.000000,0.000000,0.000000,0.000000,0.000000,0.198377,3,0
610000,0.001822,15.524813,0.027575,0.009792,25.258392,-0.053886,0.000386,0.004595,1.570129,-0.015115,-0.000122,-0.000476,0.000009,-0.001056,-0.000002,0.004401,-0.001878,0.164533,-0.011822,0.177941,0.177941,0.170195,0.841854,0.000000,0.000000,0.000000,0.000000,0.000000,0.000000,0.000000,0.000000,0.000000,0.000000,0.000000,0.000000,0.159663,3,0
620000,0.001865,15.781145,0.027253,0.009900,25.265566,-0.054423,0.000387,0.004798,1.570112,-0.015644,-0.000130,-0.000510,0.000010,-0.001105,-0.000002,0.002567,-0.001922,0.125726,0.007962,0.178408,0.178408,0.170264,0.834428,0.000000,0.000000,0.000000,0.000000,0.000000,0.000000,0.000000,0.000000,0.000000,0.000000,0.000000,0.000000,0.122002,3,0
630000,0.001908,16.041178,0.026058,0.010101,25.278786,-0.056440,0.000381,0.005187,1.570110,-0.016705,-0.000139,-0.000412,0.000011,-0.001207,-0.000002,0.009949,-0.001967,0.247021,-0.022480,0.178901,0.178901,0.170356,0.826917,0.000000,0.000000,0.000000,0.000000,0.000000,0.000000,0.000000,0.000000,0.000000,0.000000,0.000000,0.000000,0.239662,3,0
640000,0.001951,16.301310,0.026600,0.010196,25.292013,-0.055731,0.000378,0.005576,1.570109,-0.017781,-0.000148,-0.000589,0.000011,-0.001311,-0.000002,0.009979,-0.002011,0.245283,0.039325,0.179418,0.179417,0.170465,0.819331,0.000000,0.000000,0.000000,0.000000,0.000000,0.000000,0.000000,0.000000,0.000000,0.000000,0.000000,0.000000,0.237957,3,0
650000,0.001994,16.562138,0.027139,0.010336,25.306335,-0.055064,0.000386,0.006006,1.570092,-0.018958,-0.000158,-0.000769,0.000012,-0.001428,-0.000002,0.011457,-0.002056,0.263323,0.038982,0.179954,0.179953,0.170591,0.811677,0.000000,0.000000,0.000000,0.000000,0.000000,0.000000,0.000000,0.000000,0.000000,0.000000,0.000000,0.000000,0.255434,3,0
660000,0.002035,16.820665,0.027204,0.010347,25.316694,-0.055033,0.000391,0.006327,1.570089,-0.019783,-0.000167,-0.000872,0.000013,-0.001511,-0.000003,0.005390,-0.002098,0.181261,0.021973,0.180507,0.180506,0.170729,0.803964,0.000000,0.000000,0.000000,0.000000,0.000000,0.000000,0.000000,0.000000,0.000000,0.000000,0.000000,0.000000,0.175820,3,0
670000,0.002075,17.081108,0.026090,0.010371,25.330305,-0.056902,0.000390,0.006747,1.570077,-0.020900,-0.000178,-0.000780,0.000014,-0.001626,-0.000003,0.009425,-0.002140,0.240690,-0.019346,0.181073,0.181073,0.170877,0.796199,0.000000,0.000000,0.000000,0.000000,0.000000,0.000000,0.000000,0.000000,0.000000,0.000000,0.000000,0.000000,0.233436,3,0
680000,0.002115,17.338636,0.025446,0.010403,25.338757,-0.058167,0.000392,0.007002,1.570071,-0.021557,-0.000188,-0.000770,0.000016,-0.001695,-0.000003,0.003131,-0.002181,0.139145,-0.002168,0.181651,0.181650,0.171033,0.788391,0.000000,0.000000,0.000000,0.000000,0.000000,0.000000,0.000000,0.000000,0.000000,0.000000,0.000000,0.000000,0.134948,3,0
690000,0.002152,17.598099,0.025343,0.010424,25.350370,-0.058460,0.000394,0.007375,1.570064,-0.022515,-0.000199,-0.000856,0.000017,-0.001797,-0.000003,0.006486,-0.002220,0.199593,0.017174,0.182237,0.182236,0.171193,0.780548,0.000000,0.000000,0.000000,0.000000,0.000000,0.000000,0.000000,0.000000,0.000000,0.000000,0.000000,0.000000,0.193543,3,0
700000,0.002190,17.858269,0.023789,0.010548,25.363194,-0.060965,0.000390,0.007789,1.570065,-0.023580,-0.000211,-0.000688,0.000018,-0.001913,-0.000003,0.007884,-0.002259,0.218319,-0.033492,0.182829,0.182828,0.171357,0.772677,0.000000,0.000000,0.000000,0.000000,0.000000,0.000000,0.000000,0.000000,0.000000,0.000000,0.000000,0.000000,0.211677,3,0
710000,0.002227,18.115492,0.022997,0.010549,25.370703,-0.062282,0.000400,0.008027,1.570056,-0.024161,-0.000222,-0.000657,0.000019,-0.001977,-0.000003,0.002220,-0.002297,0.117052,-0.005967,0.183425,0.183424,0.171522,0.764786,0.000000,0.000000,0.000000,0.000000,0.000000,0.000000,0.000000,0.000000,0.000000,0.000000,0.000000,0.000000,0.113496,3,0
720000,0.002264,18.372837,0.022211,0.010727,25.378441,-0.063430,0.000400,0.008261,1.570055,-0.024755,-0.000234,-0.000630,0.000021,-0.002044,-0.000004,0.002262,-0.002335,0.118179,-0.005321,0.184023,0.184022,0.171685,0.756882,0.000000,0.000000,0.000000,0.000000,0.000000,0.000000,0.000000,0.000000,0.000000,0.000000,0.000000,0.000000,0.114578,3,0
730000,0.002299,18.629690,0.021514,0.010728,25.385115,-0.064662,0.000393,0.008463,1.570040,-0.025262,-0.000246,-0.000621,0.000022,-0.002102,-0.000004,0.001594,-0.002372,0.099304,-0.001758,0.184621,0.184620,0.171846,0.748973,0.000000,0.000000,0.000000,0.000000,0.000000,0.000000,0.000000,0.000000,0.000000,0.000000,0.000000,0.000000,0.096276,3,0
740000,0.002334,18.888510,0.020471,0.010807,25.395138,-0.066161,0.000386,0.008793,1.570025,-0.026093,-0.000259,-0.000549,0.000023,-0.002199,-0.000004,0.004188,-0.002409,0.160446,-0.013454,0.185217,0.185216,0.172003,0.741067,0.000000,0.000000,0.000000,0.000000,0.000000,0.000000,0.000000,0.000000,0.000000,0.000000,0.000000,0.000000,0.155510,3,0
750000,0.002369,19.148045,0.021182,0.010969,25.406387,-0.065097,0.000395,0.009172,1.570020,-0.027037,-0.000272,-0.000816,0.000025,-0.002310,-0.000004,0.005601,-0.002445,0.179831,0.048274,0.185810,0.185809,0.172155,0.733169,0.000000,0.000000,0.000000,0.000000,0.000000,0.000000,0.000000,0.000000,0.000000,0.000000,0.000000,0.000000,0.174279,3,0
760000,0.002404,19.405203,0.020454,0.010983,25.413383,-0.066404,0.000405,0.009403,1.570020,-0.027564,-0.000286,-0.000804,0.000027,-0.002373,-0.000004,0.001587,-0.002481,0.099092,-0.002212,0.186398,0.186397,0.172299,0.725287,0.000000,0.000000,0.000000,0.000000,0.000000,0.000000,0.000000,0.000000,0.000000,0.000000,0.000000,0.000000,0.096044,3,0
770000,0.002436,19.667435,0.020933,0.010957,25.429045,-0.065692,0.000401,0.009974,1.570009,-0.028960,-0.000300,-0.001034,0.000028,-0.002544,-0.000005,0.011122,-0.002514,0.259321,0.040234,0.186980,0.186979,0.172435,0.717427,0.000000,0.000000,0.000000,0.000000,0.000000,0.000000,0.000000,0.000000,0.000000,0.000000,0.000000,0.000000,0.251252,3,0
780000,0.002468,19.925373,0.021765,0.011075,25.437065,-0.064539,0.000411,0.010242,1.570006,-0.029593,-0.000314,-0.001336,0.000030,-0.002623,-0.000005,0.002623,-0.002548,0.116205,0.052218,0.187555,0.187554,0.172563,0.709595,0.000000,0.000000,0.000000,0.000000,0.000000,0.000000,0.000000,0.000000,0.000000,0.000000,0.000000,0.000000,0.112601,3,0
790000,0.002500,20.184664,0.020497,0.011149,25.447292,-0.066514,0.000414,0.010612,1.570002,-0.030455,-0.000329,-0.001213,0.000032,-0.002732,-0.000005,0.004021,-0.002581,0.156370,-0.021202,0.188121,0.188120,0.172680,0.701798,0.000000,0.000000,0.000000,0.000000,0.000000,0.000000,0.000000,0.000000,0.000000,0.000000,0.000000,0.000000,0.151487,3,0
800000,0.002532,20.445915,0.020538,0.011253,25.460810,-0.066311,0.000419,0.011127,1.570003,-0.031654,-0.000344,-0.001363,0.000034,-0.002886,-0.000005,0.007566,-0.002614,0.215040,0.024930,0.188679,0.188677,0.172787,0.694041,0.000000,0.000000,0.000000,0.000000,0.000000,0.000000,0.000000,0.000000,0.000000,0.000000,0.000000,0.000000,0.208294,3,0
810000,0.002564,20.708485,0.020185,0.011402,25.476583,-0.066862,0.000412,0.011731,1.570002,-0.033073,-0.000359,-0.001433,0.000036,-0.003071,-0.000006,0.010259,-0.002647,0.251837,0.011271,0.189226,0.189224,0.172882,0.686330,0.000000,0.000000,0.000000,0.000000,0.000000,0.000000,0.000000,0.000000,0.000000,0.000000,0.000000,0.000000,0.243908,3,0
820000,0.002596,20.969212,0.019626,0.011547,25.488865,-0.067602,0.000413,0.012198,1.569986,-0.034142,-0.000375,-0.001460,0.000038,-0.003213,-0.000006,0.005702,-0.002681,0.187899,0.004223,0.189762,0.189761,0.172965,0.678670,0.000000,0.000000,0.000000,0.000000,0.000000,0.000000,0.000000,0.000000,0.000000,0.000000,0.000000,0.000000,0.181974,3,0
830000,0.002627,21.227482,0.018264,0.011588,25.496752,-0.069586,0.000414,0.012477,1.569977,-0.034751,-0.000391,-0.001318,0.000040,-0.003295,-0.000006,0.001901,-0.002713,0.105955,-0.023377,0.190287,0.190285,0.173035,0.671066,0.000000,0.000000,0.000000,0.000000,0.000000,0.000000,0.000000,0.000000,0.000000,0.000000,0.000000,0.000000,0.102628,3,0
840000,0.002657,21.488367,0.018246,0.011546,25.509003,-0.069422,0.000411,0.012965,1.569971,-0.035828,-0.000407,-0.001469,0.000042,-0.003443,-0.000006,0.005650,-0.002744,0.185551,0.023919,0.190800,0.190798,0.173092,0.663522,0.000000,0.000000,0.000000,0.000000,0.000000,0.000000,0.000000,0.000000,0.000000,0.000000,0.000000,0.000000,0.179671,3,0
850000,0.002686,21.747410,0.017651,0.011618,25.517950,-0.070316,0.000408,0.013300,1.569955,-0.036550,-0.000424,-0.001495,0.000045,-0.003544,-0.000006,0.002458,-0.002775,0.123331,0.003886,0.191300,0.191299,0.173136,0.656043,0.000000,0.000000,0.000000,0.000000,0.000000,0.000000,0.000000,0.000000,0.000000,0.000000,0.000000,0.000000,0.119428,3,0
860000,0.002715,22.010342,0.016441,0.011701,25.533541,-0.071999,0.000398,0.013953,1.569946,-0.037978,-0.000441,-0.001389,0.000047,-0.003746,-0.000007,0.009489,-0.002805,0.241898,-0.017064,0.191788,0.191786,0.173166,0.648634,0.000000,0.000000,0.000000,0.000000,0.000000,0.000000,0.000000,0.000000,0.000000,0.000000,0.000000,0.000000,0.234181,3,0
870000,0.002743,22.269478,0.017613,0.011731,25.542360,-0.070276,0.000392,0.014288,1.569944,-0.038680,-0.000458,-0.001818,0.000050,-0.003847,-0.000007,0.002951,-0.002834,0.117960,0.066002,0.192263,0.192261,0.173182,0.641298,0.000000,0.000000,0.000000,0.000000,0.000000,0.000000,0.000000,0.000000,0.000000,0.000000,0.000000,0.000000,0.114214,3,0
880000,0.002770,22.531240,0.016376,0.011751,25.555700,-0.072038,0.000396,0.014836,1.569944,-0.039861,-0.000476,-0.001703,0.000052,-0.004019,-0.000007,0.006294,-0.002862,0.196678,-0.018013,0.192725,0.192723,0.173184,0.634039,0.000000,0.000000,0.000000,0.000000,0.000000,0.000000,0.000000,0.000000,0.000000,0.000000,0.000000,0.000000,0.190381,3,0
890000,0.002796,22.792400,0.016595,0.011769,25.567818,-0.071523,0.000394,0.015322,1.569943,-0.040908,-0.000494,-0.001924,0.000055,-0.004175,-0.000008,0.005023,-0.002889,0.173326,0.032960,0.193173,0.193171,0.173171,0.626861,0.000000,0.000000,0.000000,0.000000,0.000000,0.000000,0.000000,0.000000,0.000000,0.000000,0.000000,0.000000,0.167771,3,0
900000,0.002822,23.051035,0.016767,0.011828,25.575268,-0.071339,0.000386,0.015605,1.569926,-0.041462,-0.000512,-0.002134,0.000058,-0.004258,-0.000008,0.001494,-0.002916,0.090958,0.031226,0.193608,0.193606,0.173145,0.619766,0.000000,0.000000,0.000000,0.000000,0.000000,0.000000,0.000000,0.000000,0.000000,0.000000,0.000000,0.000000,0.088069,3,0
910000,0.002847,23.311028,0.017872,0.011948,25.585070,-0.069753,0.000391,0.016001,1.569925,-0.042261,-0.000530,-0.002565,0.000061,-0.004380,-0.000008,0.003397,-0.002943,0.130430,0.063484,0.194029,0.194027,0.173104,0.612757,0.000000,0.000000,0.000000,0.000000,0.000000,0.000000,0.000000,0.000000,0.000000,0.000000,0.000000,0.000000,0.126247,3,0
920000,0.002872,23.572363,0.017521,0.011949,25.597069,-0.070371,0.000398,0.016510,1.569924,-0.043300,-0.000549,-0.002654,0.000063,-0.004541,-0.000008,0.004607,-0.002969,0.168524,0.012567,0.194438,0.194435,0.173049,0.605838,0.000000,0.000000,0.000000,0.000000,0.000000,0.000000,0.000000,0.000000,0.000000,0.000000,0.000000,0.000000,0.163088,3,0
930000,0.002897,23.831150,0.016024,0.011969,25.604391,-0.072667,0.000396,0.016790,1.569922,-0.043835,-0.000568,-0.002470,0.000066,-0.004626,-0.000009,0.001312,-0.002994,0.085979,-0.027026,0.194832,0.194830,0.172980,0.599010,0.000000,0.000000,0.000000,0.000000,0.000000,0.000000,0.000000,0.000000,0.000000,0.000000,0.000000,0.000000,0.083238,3,0
940000,0.002919,24.094528,0.016827,0.011976,25.619709,-0.071401,0.000396,0.017484,1.569907,-0.045237,-0.000587,-0.002848,0.000070,-0.004851,-0.000009,0.008608,-0.003018,0.224695,0.053640,0.195214,0.195211,0.172897,0.592276,0.000000,0.000000,0.000000,0.000000,0.000000,0.000000,0.000000,0.000000,0.000000,0.000000,0.000000,0.000000,0.217406,3,0
950000,0.002942,24.355316,0.017287,0.012067,25.630323,-0.070564,0.000395,0.017932,1.569905,-0.046116,-0.000607,-0.003141,0.000073,-0.004994,-0.000009,0.003440,-0.003042,0.140072,0.041193,0.195583,0.195580,0.172801,0.585638,0.000000,0.000000,0.000000,0.000000,0.000000,0.000000,0.000000,0.000000,0.000000,0.000000,0.000000,0.000000,0.135540,3,0
960000,0.002964,24.614193,0.016722,0.012040,25.637449,-0.071264,0.000382,0.018207,1.569904,-0.046608,-0.000626,-0.003180,0.000076,-0.005075,-0.000009,0.000986,-0.003065,0.077967,0.005289,0.195939,0.195936,0.172691,0.579098,0.000000,0.000000,0.000000,0.000000,0.000000,0.000000,0.000000,0.000000,0.000000,0.000000,0.000000,0.000000,0.075479,3,0
970000,0.002986,24.872477,0.016211,0.012098,25.643332,-0.071836,0.000375,0.018419,1.569889,-0.046973,-0.000646,-0.003235,0.000079,-0.005136,-0.000010,0.000545,-0.003087,0.057566,0.007376,0.196283,0.196280,0.172567,0.572656,0.000000,0.000000,0.000000,0.000000,0.000000,0.000000,0.000000,0.000000,0.000000,0.000000,0.000000,0.000000,0.055763,3,0
980000,0.003007,25.136036,0.016606,0.012181,25.658470,-0.071391,0.000363,0.019120,1.569875,-0.048354,-0.000666,-0.003525,0.000083,-0.005371,-0.000010,0.007822,-0.003110,0.216681,0.039408,0.196615,0.196612,0.172431,0.566315,0.000000,0.000000,0.000000,0.000000,0.000000,0.000000,0.000000,0.000000,0.000000,0.000000,0.000000,0.000000,0.209603,3,0
990000,0.003028,25.396975,0.016541,0.012183,25.668739,-0.071638,0.000366,0.019569,1.569876,-0.049198,-0.000687,-0.003698,0.000087,-0.005517,-0.000010,0.002892,-0.003131,0.131880,0.023177,0.196936,0.196932,0.172282,0.560076,0.000000,0.000000,0.000000,0.000000,0.000000,0.000000,0.000000,0.000000,0.000000,0.000000,0.000000,0.000000,0.127588,3,0
1000000,0.003049,25.659901,0.015525,0.012223,25.682455,-0.073109,0.000370,0.020212,1.569874,-0.050412,-0.000708,-0.003631,0.000090,-0.005731,-0.000011,0.005769,-0.003152,0.188900,-0.009855,0.197244,0.197240,0.172121,0.553940,0.000000,0.000000,0.000000,0.000000,0.000000,0.000000,0.000000,0.000000,0.000000,0.000000,0.000000,0.000000,0.182715,3,0
1010000,0.003068,25.922165,0.015771,0.012226,25.694876,-0.072688,0.000364,0.020784,1.569870,-0.051472,-0.000729,-0.003893,0.000094,-0.005920,-0.000011,0.004552,-0.003173,0.164385,0.034665,0.197542,0.197538,0.171947,0.547907,0.000000,0.000000,0.000000,0.000000,0.000000,0.000000,0.000000,0.000000,0.000000,0.000000,0.000000,0.000000,0.159003,3,0
1020000,0.003086,26.184429,0.016678,0.012241,25.707031,-0.071608,0.000369,0.021354,1.569858,-0.052510,-0.000750,-0.004331,0.000098,-0.006107,-0.000011,0.004689,-0.003192,0.160423,0.057699,0.197829,0.197825,0.171762,0.541979,0.000000,0.000000,0.000000,0.000000,0.000000,0.000000,0.000000,0.000000,0.000000,0.000000,0.000000,0.000000,0.155167,3,0
1030000,0.003105,26.447350,0.016337,0.012289,25.720200,-0.072017,0.000356,0.021974,1.569842,-0.053655,-0.000771,-0.004440,0.000102,-0.006317,-0.000012,0.005044,-0.003211,0.176340,0.013686,0.198106,0.198101,0.171566,0.536155,0.000000,0.000000,0.000000,0.000000,0.000000,0.000000,0.000000,0.000000,0.000000,0.000000,0.000000,0.000000,0.170547,3,0
1040000,0.003122,26.705656,0.017300,0.012225,25.725107,-0.070667,0.000347,0.022131,1.569833,-0.053867,-0.000793,-0.004893,0.000106,-0.006356,-0.000012,0.000743,-0.003229,0.032560,0.059346,0.198373,0.198368,0.171359,0.530437,0.000000,0.000000,0.000000,0.000000,0.000000,0.000000,0.000000,0.000000,0.000000,0.000000,0.000000,0.000000,0.031641,3,0
1050000,0.003138,26.964018,0.015805,0.012135,25.730021,-0.072898,0.000349,0.022286,1.569827,-0.054080,-0.000814,-0.004685,0.000110,-0.006397,-0.000012,0.000293,-0.003245,0.032631,-0.027169,0.198631,0.198625,0.171141,0.524823,0.000000,0.000000,0.000000,0.000000,0.000000,0.000000,0.000000,0.000000,0.000000,0.000000,0.000000,0.000000,0.031705,3,0
1060000,0.003154,27.225067,0.015377,0.012203,25.739727,-0.073548,0.000338,0.022727,1.569812,-0.054815,-0.000836,-0.004775,0.000114,-0.006538,-0.000012,0.002049,-0.003262,0.112160,0.011132,0.198880,0.198874,0.170913,0.519316,0.000000,0.000000,0.000000,0.000000,0.000000,0.000000,0.000000,0.000000,0.000000,0.000000,0.000000,0.000000,0.108488,3,0
1070000,0.003169,27.488766,0.014958,0.012233,25.753891,-0.074126,0.000324,0.023441,1.569809,-0.056056,-0.000858,-0.004875,0.000118,-0.006780,-0.000013,0.005778,-0.003278,0.188955,0.011803,0.199120,0.199114,0.170675,0.513914,0.000000,0.000000,0.000000,0.000000,0.000000,0.000000,0.000000,0.000000,0.000000,0.000000,0.000000,0.000000,0.182713,3,0
1080000,0.003183,27.748474,0.013462,0.012174,25.760965,-0.076008,0.000313,0.023732,1.569798,-0.056479,-0.000880,-0.004672,0.000123,-0.006864,-0.000013,0.000778,-0.003293,0.064268,-0.026177,0.199352,0.199346,0.170428,0.508617,0.000000,0.000000,0.000000,0.000000,0.000000,0.000000,0.000000,0.000000,0.000000,0.000000,0.000000,0.000000,0.062213,3,0
1090000,0.003197,28.007547,0.012983,0.012140,25.766720,-0.076586,0.000313,0.023950,1.569786,-0.056763,-0.000902,-0.004755,0.000127,-0.006921,-0.000013,0.000317,-0.003307,0.043034,0.010347,0.199577,0.199570,0.170172,0.503424,0.000000,0.000000,0.000000,0.000000,0.000000,0.000000,0.000000,0.000000,0.000000,0.000000,0.000000,0.000000,0.041726,3,0
1100000,0.003209,28.271292,0.011754,0.012102,25.780619,-0.078154,0.000310,0.024656,1.569773,-0.057962,-0.000924,-0.004638,0.000132,-0.007166,-0.000014,0.005348,-0.003320,0.181480,-0.015681,0.199795,0.199788,0.169907,0.498336,0.000000,0.000000,0.000000,0.000000,0.000000,0.000000,0.000000,0.000000,0.000000,0.000000,0.000000,0.000000,0.175465,3,0
1110000,0.003220,28.530357,0.012814,0.012078,25.786226,-0.076598,0.000301,0.024842,1.569758,-0.058204,-0.000946,-0.005166,0.000136,-0.007215,-0.000014,0.000917,-0.003332,0.036869,0.065545,0.200006,0.199999,0.169634,0.493353,0.000000,0.000000,0.000000,0.000000,0.000000,0.000000,0.000000,0.000000,0.000000,0.000000,0.000000,0.000000,0.035790,3,0
1120000,0.003232,28.789459,0.012853,0.012168,25.791729,-0.076631,0.000293,0.025033,1.569757,-0.058443,-0.000969,-0.005402,0.000141,-0.007265,-0.000014,0.000349,-0.003344,0.036175,0.028994,0.200211,0.200203,0.169354,0.488472,0.000000,0.000000,0.000000,0.000000,0.000000,0.000000,0.000000,0.000000,0.000000,0.000000,0.000000,0.000000,0.035118,3,0
1130000,0.003244,29.049257,0.012798,0.012248,25.798342,-0.076849,0.000289,0.025307,1.569741,-0.058809,-0.000991,-0.005615,0.000146,-0.007342,-0.000014,0.000603,-0.003356,0.055323,0.025779,0.200410,0.200402,0.169066,0.483694,0.000000,0.000000,0.000000,0.000000,0.000000,0.000000,0.000000,0.000000,0.000000,0.000000,0.000000,0.000000,0.053575,3,0
1140000,0.003255,29.310402,0.013776,0.012212,25.807304,-0.075633,0.000285,0.025710,1.569731,-0.059429,-0.001014,-0.006134,0.000151,-0.007475,-0.000014,0.002051,-0.003368,0.093641,0.062699,0.200604,0.200595,0.168771,0.479018,0.000000,0.000000,0.000000,0.000000,0.000000,0.000000,0.000000,0.000000,0.000000,0.000000,0.000000,0.000000,0.090574,3,0
1150000,0.003266,29.574205,0.014831,0.012257,25.820709,-0.074126,0.000279,0.026413,1.569724,-0.060558,-0.001037,-0.006681,0.000156,-0.007721,-0.000015,0.005366,-0.003379,0.170349,0.065225,0.200793,0.200784,0.168470,0.474443,0.000000,0.000000,0.000000,0.000000,0.000000,0.000000,0.000000,0.000000,0.000000,0.000000,0.000000,0.000000,0.164686,3,0
1160000,0.003277,29.836639,0.013753,0.012254,25.831638,-0.075513,0.000265,0.026952,1.569709,-0.061389,-0.001060,-0.006594,0.000161,-0.007907,-0.000015,0.002543,-0.003390,0.125078,-0.011384,0.200977,0.200967,0.168163,0.469969,0.000000,0.000000,0.000000,0.000000,0.000000,0.000000,0.000000,0.000000,0.000000,0.000000,0.000000,0.000000,0.120932,3,0
1170000,0.003286,30.099712,0.013641,0.012214,25.843508,-0.075702,0.000251,0.027574,1.569705,-0.062324,-0.001083,-0.006800,0.000167,-0.008117,-0.000016,0.003288,-0.003401,0.140839,0.023708,0.201158,0.201147,0.167850,0.465593,0.000000,0.000000,0.000000,0.000000,0.000000,0.000000,0.000000,0.000000,0.000000,0.000000,0.000000,0.000000,0.136158,3,0
1180000,0.003295,30.362078,0.014744,0.012164,25.853983,-0.074171,0.000239,0.028090,1.569696,-0.063094,-0.001106,-0.007373,0.000172,-0.008292,-0.000016,0.002910,-0.003410,0.116194,0.067253,0.201334,0.201324,0.167531,0.461316,0.000000,0.000000,0.000000,0.000000,0.000000,0.000000,0.000000,0.000000,0.000000,0.000000,0.000000,0.000000,0.112349,3,0
1190000,0.003303,30.625753,0.015177,0.012119,25.866751,-0.073526,0.000232,0.028755,1.569689,-0.064101,-0.001129,-0.007746,0.000177,-0.008526,-0.000017,0.004017,-0.003418,0.151907,0.042867,0.201508,0.201497,0.167207,0.457136,0.000000,0.000000,0.000000,0.000000,0.000000,0.000000,0.000000,0.000000,0.000000,0.000000,0.000000,0.000000,0.146846,3,0
1200000,0.003310,30.889378,0.016294,0.012166,25.879232,-0.072050,0.000227,0.029415,1.569678,-0.065072,-0.001153,-0.008330,0.000183,-0.008753,-0.000017,0.004196,-0.003426,0.146530,0.067363,0.201679,0.201667,0.166879,0.453052,0.000000,0.000000,0.000000,0.000000,0.000000,0.000000,0.000000,0.000000,0.000000,0.000000,0.000000,0.000000,0.141650,3,0
1210000,0.003318,31.151619,0.016753,0.012181,25.889210,-0.071555,0.000223,0.029906,1.569676,-0.065743,-0.001176,-0.008707,0.000189,-0.008913,-0.000017,0.001961,-0.003434,0.101446,0.043164,0.201847,0.201834,0.166547,0.449064,0.000000,0.000000,0.000000,0.000000,0.000000,0.000000,0.000000,0.000000,0.000000,0.000000,0.000000,0.000000,0.098094,3,0
1220000,0.003326,31.411154,0.017384,0.012201,25.894274,-0.070713,0.000215,0.030059,1.569661,-0.065861,-0.001198,-0.009131,0.000195,-0.008940,-0.000018,0.000443,-0.003442,0.018015,0.049010,0.202013,0.202000,0.166211,0.445169,0.000000,0.000000,0.000000,0.000000,0.000000,0.000000,0.000000,0.000000,0.000000,0.000000,0.000000,0.000000,0.017727,3,0
1230000,0.003335,31.670708,0.016053,0.012275,25.899279,-0.072516,0.000214,0.030204,1.569648,-0.065974,-0.001221,-0.008940,0.000200,-0.008968,-0.000018,0.000127,-0.003451,0.016853,-0.022172,0.202177,0.202164,0.165871,0.441366,0.000000,0.000000,0.000000,0.000000,0.000000,0.000000,0.000000,0.000000,0.000000,0.000000,0.000000,0.000000,0.016621,3,0
1240000,0.003343,31.930941,0.014981,0.012319,25.905373,-0.073795,0.000213,0.030439,1.569639,-0.066209,-0.001244,-0.008836,0.000206,-0.009027,-0.000018,0.000230,-0.003460,0.035557,-0.012164,0.202340,0.202326,0.165528,0.437654,0.000000,0.000000,0.000000,0.000000,0.000000,0.000000,0.000000,0.000000,0.000000,0.000000,0.000000,0.000000,0.034519,3,0
1250000,0.003351,32.190502,0.014144,0.012283,25.910278,-0.074782,0.000203,0.030585,1.569625,-0.066300,-0.001267,-0.008809,0.000212,-0.009051,-0.000018,0.000034,-0.003468,0.013809,-0.003238,0.202502,0.202487,0.165182,0.434032,0.000000,0.000000,0.000000,0.000000,0.000000,0.000000,0.000000,0.000000,0.000000,0.000000,0.000000,0.000000,0.013758,3,0
1260000,0.003358,32.450737,0.014980,0.012321,25.916275,-0.073818,0.000185,0.030805,1.569616,-0.066513,-0.001290,-0.009326,0.000218,-0.009104,-0.000018,0.000721,-0.003476,0.032505,0.058172,0.202663,0.202647,0.164833,0.430498,0.000000,0.000000,0.000000,0.000000,0.000000,0.000000,0.000000,0.000000,0.000000,0.000000,0.000000,0.000000,0.031593,3,0
1270000,0.003365,32.710976,0.014704,0.012229,25.922209,-0.074294,0.000174,0.031008,1.569606,-0.066714,-0.001313,-0.009483,0.000224,-0.009156,-0.000018,0.000202,-0.003483,0.030632,0.017369,0.202823,0.202807,0.164482,0.427051,0.000000,0.000000,0.000000,0.000000,0.000000,0.000000,0.000000,0.000000,0.000000,0.000000,0.000000,0.000000,0.029789,3,0
1280000,0.003371,32.969193,0.014572,0.012220,25.924522,-0.074359,0.000156,0.030958,1.569599,-0.066510,-0.001336,-0.009681,0.000230,-0.009101,-0.000018,0.000238,-0.003489,-0.030876,0.022507,0.202983,0.202966,0.164130,0.423690,0.000000,0.000000,0.000000,0.000000,0.000000,0.000000,0.000000,0.000000,0.000000,0.000000,0.000000,0.000000,0.030021,3,0
1290000,0.003375,33.231472,0.014451,0.012130,25.933968,-0.074730,0.000140,0.031427,1.569596,-0.067090,-0.001359,-0.009901,0.000236,-0.009256,-0.000019,0.001356,-0.003494,0.088585,0.023577,0.203143,0.203125,0.163775,0.420413,0.000000,0.000000,0.000000,0.000000,0.000000,0.000000,0.000000,0.000000,0.000000,0.000000,0.000000,0.000000,0.085657,3,0
1300000,0.003380,33.493042,0.014620,0.012131,25.942064,-0.074386,0.000129,0.031795,1.569594,-0.067512,-0.001382,-0.010216,0.000243,-0.009370,-0.000019,0.000867,-0.003499,0.064758,0.034201,0.203303,0.203284,0.163420,0.417219,0.000000,0.000000,0.000000,0.000000,0.000000,0.000000,0.000000,0.000000,0.000000,0.000000,0.000000,0.000000,0.062660,3,0
1310000,0.003384,33.754585,0.015067,0.012113,25.949852,-0.073848,0.000111,0.032149,1.569578,-0.067912,-0.001405,-0.010626,0.000249,-0.009479,-0.000019,0.000932,-0.003503,0.061535,0.044425,0.203464,0.203444,0.163063,0.414105,0.000000,0.000000,0.000000,0.000000,0.000000,0.000000,0.000000,0.000000,0.000000,0.000000,0.000000,0.000000,0.059548,3,0
1320000,0.003387,34.017448,0.015374,0.012056,25.960039,-0.073475,0.000102,0.032681,1.569561,-0.068548,-0.001429,-0.010996,0.000256,-0.009656,-0.000019,0.001803,-0.003506,0.098095,0.039348,0.203625,0.203604,0.162705,0.411072,0.000000,0.000000,0.000000,0.000000,0.000000,0.000000,0.000000,0.000000,0.000000,0.000000,0.000000,0.000000,0.094833,3,0
1330000,0.003390,34.279594,0.014402,0.012062,25.968706,-0.074668,0.000097,0.033115,1.569557,-0.069026,-0.001452,-0.010928,0.000262,-0.009792,-0.000020,0.000887,-0.003510,0.073677,-0.008135,0.203787,0.203766,0.162347,0.408116,0.000000,0.000000,0.000000,0.000000,0.000000,0.000000,0.000000,0.000000,0.000000,0.000000,0.000000,0.000000,0.071255,3,0
1340000,0.003394,34.540348,0.014105,0.012097,25.974754,-0.075060,0.000091,0.033334,1.569548,-0.069220,-0.001475,-0.011090,0.000269,-0.009848,-0.000020,0.000196,-0.003513,0.030109,0.017153,0.203950,0.203928,0.161989,0.405238,0.000000,0.000000,0.000000,0.000000,0.000000,0.000000,0.000000,0.000000,0.000000,0.000000,0.000000,0.000000,0.029284,3,0
1350000,0.003397,34.802437,0.012940,0.012049,25.983160,-0.076510,0.000082,0.033743,1.569548,-0.069655,-0.001498,-0.010960,0.000275,-0.009976,-0.000020,0.000770,-0.003516,0.067478,-0.014709,0.204114,0.204091,0.161631,0.402435,0.000000,0.000000,0.000000,0.000000,0.000000,0.000000,0.000000,0.000000,0.000000,0.000000,0.000000,0.000000,0.065270,3,0
1360000,0.003398,35.062443,0.014099,0.011947,25.987801,-0.075188,0.000059,0.033852,1.569543,-0.069679,-0.001520,-0.011633,0.000282,-0.009980,-0.000020,0.000845,-0.003519,0.004093,0.071984,0.204280,0.204256,0.161272,0.399707,0.000000,0.000000,0.000000,0.000000,0.000000,0.000000,0.000000,0.000000,0.000000,0.000000,0.000000,0.000000,0.005221,3,0
1370000,0.003400,35.321777,0.012580,0.011910,25.991152,-0.077156,0.000039,0.033860,1.569523,-0.069569,-0.001542,-0.011365,0.000289,-0.009948,-0.000020,0.000181,-0.003519,-0.017410,-0.028298,0.204447,0.204422,0.160915,0.397051,0.000000,0.000000,0.000000,0.000000,0.000000,0.000000,0.000000,0.000000,0.000000,0.000000,0.000000,0.000000,0.017163,3,0
1380000,0.003400,35.581108,0.011504,0.011849,25.994392,-0.078618,0.000029,0.033870,1.569517,-0.069452,-0.001565,-0.011259,0.000296,-0.009913,-0.000020,0.000076,-0.003520,-0.018353,-0.011048,0.204615,0.204589,0.160557,0.394466,0.000000,0.000000,0.000000,0.000000,0.000000,0.000000,0.000000,0.000000,0.000000,0.000000,0.000000,0.000000,0.018050,3,0
1390000,0.003399,35.843826,0.012114,0.011784,26.003742,-0.077744,0.000019,0.034348,1.569510,-0.069958,-0.001587,-0.011771,0.000303,-0.010068,-0.000021,0.001491,-0.003520,0.080105,0.053007,0.204785,0.204759,0.160201,0.391951,0.000000,0.000000,0.000000,0.000000,0.000000,0.000000,0.000000,0.000000,0.000000,0.000000,0.000000,0.000000,0.077452,3,0
1400000,0.003398,36.102417,0.011994,0.011746,26.005634,-0.077701,0.000002,0.034225,1.569494,-0.069682,-0.001609,-0.012002,0.000310,-0.009980,-0.000021,0.000407,-0.003519,-0.043552,0.024747,0.204958,0.204930,0.159846,0.389505,0.000000,0.000000,0.000000,0.000000,0.000000,0.000000,0.000000,0.000000,0.000000,0.000000,0.000000,0.000000,0.042198,3,0
1410000,0.003397,36.361702,0.011236,0.011671,26.008656,-0.078586,-0.000007,0.034206,1.569478,-0.069532,-0.001631,-0.012008,0.000317,-0.009932,-0.000021,0.000094,-0.003517,-0.023861,0.000915,0.205131,0.205102,0.159492,0.387124,0.000000,0.000000,0.000000,0.000000,0.000000,0.000000,0.000000,0.000000,0.000000,0.000000,0.000000,0.000000,0.023294,3,0
1420000,0.003394,36.625061,0.011703,0.011577,26.018871,-0.078152,-0.000016,0.034751,1.569474,-0.070122,-0.001653,-0.012484,0.000325,-0.010121,-0.000021,0.001818,-0.003515,0.094524,0.048223,0.205307,0.205277,0.159139,0.384809,0.000000,0.000000,0.000000,0.000000,0.000000,0.000000,0.000000,0.000000,0.000000,0.000000,0.000000,0.000000,0.091360,3,0
1430000,0.003390,36.885628,0.012411,0.011480,26.023911,-0.077450,-0.000023,0.034884,1.569473,-0.070182,-0.001675,-0.013035,0.000332,-0.010138,-0.000021,0.000541,-0.003511,0.009975,0.056762,0.205485,0.205454,0.158788,0.382557,0.000000,0.000000,0.000000,0.000000,0.000000,0.000000,0.000000,0.000000,0.000000,0.000000,0.000000,0.000000,0.010222,3,0
1440000,0.003385,37.146183,0.011158,0.011354,26.028894,-0.079178,-0.000042,0.035026,1.569459,-0.070231,-0.001697,-0.012865,0.000339,-0.010155,-0.000021,0.000062,-0.003505,0.007782,-0.017628,0.205665,0.205632,0.158439,0.380368,0.000000,0.000000,0.000000,0.000000,0.000000,0.000000,0.000000,0.000000,0.000000,0.000000,0.000000,0.000000,0.008239,3,0
1450000,0.003381,37.408073,0.010400,0.011380,26.036207,-0.080315,-0.000049,0.035353,1.569441,-0.070510,-0.001719,-0.012891,0.000346,-0.010249,-0.000022,0.000334,-0.003501,0.045361,0.002022,0.205846,0.205813,0.158091,0.378240,0.000000,0.000000,0.000000,0.000000,0.000000,0.000000,0.000000,0.000000,0.000000,0.000000,0.000000,0.000000,0.043934,3,0
1460000,0.003375,37.669224,0.011023,0.011281,26.042080,-0.079585,-0.000059,0.035544,1.569435,-0.070643,-0.001740,-0.013432,0.000354,-0.010292,-0.000022,0.000566,-0.003496,0.021946,0.054775,0.206030,0.205995,0.157746,0.376172,0.000000,0.000000,0.000000,0.000000,0.000000,0.000000,0.000000,0.000000,0.000000,0.000000,0.000000,0.000000,0.021469,3,0
1470000,0.003370,37.928982,0.010436,0.011282,26.045380,-0.080394,-0.000077,0.035534,1.569424,-0.070517,-0.001761,-0.013510,0.000361,-0.010248,-0.000022,0.000081,-0.003490,-0.020599,0.008208,0.206216,0.206180,0.157403,0.374162,0.000000,0.000000,0.000000,0.000000,0.000000,0.000000,0.000000,0.000000,0.000000,0.000000,0.000000,0.000000,0.020173,3,0
1480000,0.003364,38.191444,0.011512,0.011270,26.053440,-0.079202,-0.000095,0.035917,1.569414,-0.070863,-0.001782,-0.014239,0.000369,-0.010367,-0.000022,0.001392,-0.003485,0.057556,0.072649,0.206403,0.206366,0.157063,0.372209,0.000000,0.000000,0.000000,0.000000,0.000000,0.000000,0.000000,0.000000,0.000000,0.000000,0.000000,0.000000,0.055693,3,0
1490000,0.003358,38.451126,0.010594,0.011113,26.056353,-0.080343,-0.000106,0.035874,1.569410,-0.070706,-0.001803,-0.014189,0.000377,-0.010311,-0.000022,0.000115,-0.003477,-0.026077,-0.004625,0.206593,0.206554,0.156724,0.370311,0.000000,0.000000,0.000000,0.000000,0.000000,0.000000,0.000000,0.000000,0.000000,0.000000,0.000000,0.000000,0.025404,3,0
1500000,0.003350,38.712833,0.011679,0.011086,26.062996,-0.079186,-0.000119,0.036123,1.569400,-0.070897,-0.001823,-0.014925,0.000385,-0.010377,-0.000022,0.001037,-0.003471,0.032272,0.073098,0.206784,0.206745,0.156389,0.368468,0.000000,0.000000,0.000000,0.000000,0.000000,0.000000,0.000000,0.000000,0.000000,0.000000,0.000000,0.000000,0.031353,3,0
1510000,0.003341,38.972443,0.012155,0.010957,26.065754,-0.078465,-0.000125,0.036046,1.569397,-0.070713,-0.001844,-0.015411,0.000392,-0.010306,-0.000022,0.000541,-0.003462,-0.030712,0.048870,0.206978,0.206937,0.156056,0.366678,0.000000,0.000000,0.000000,0.000000,0.000000,0.000000,0.000000,0.000000,0.000000,0.000000,0.000000,0.000000,0.029832,3,0
1520000,0.003332,39.230663,0.012701,0.010810,26.065861,-0.077566,-0.000139,0.035759,1.569386,-0.070288,-0.001863,-0.015914,0.000400,-0.010145,-0.000022,0.001250,-0.003452,-0.071682,0.050983,0.207173,0.207131,0.155726,0.364938,0.000000,0.000000,0.000000,0.000000,0.000000,0.000000,0.000000,0.000000,0.000000,0.000000,0.000000,0.000000,0.069279,3,0
1530000,0.003321,39.488884,0.013455,0.010686,26.066006,-0.076439,-0.000157,0.035460,1.569380,-0.069868,-0.001883,-0.016499,0.000408,-0.009982,-0.000022,0.001385,-0.003441,-0.071476,0.058789,0.207370,0.207327,0.155399,0.363249,0.000000,0.000000,0.000000,0.000000,0.000000,0.000000,0.000000,0.000000,0.000000,0.000000,0.000000,0.000000,0.069072,3,0
1540000,0.003311,39.746441,0.012134,0.010670,26.064837,-0.078090,-0.000175,0.035059,1.569365,-0.069339,-0.001902,-0.016260,0.000416,-0.009779,-0.000021,0.001417,-0.003430,-0.091152,-0.021902,0.207569,0.207524,0.155076,0.361608,0.000000,0.000000,0.000000,0.000000,0.000000,0.000000,0.000000,0.000000,0.000000,0.000000,0.000000,0.000000,0.088067,3,0
1550000,0.003301,40.008141,0.010869,0.010541,26.071102,-0.079569,-0.000189,0.035306,1.569345,-0.069506,-0.001922,-0.016079,0.000423,-0.009846,-0.000021,0.000191,-0.003419,0.029003,-0.018184,0.207770,0.207724,0.154755,0.360014,0.000000,0.000000,0.000000,0.000000,0.000000,0.000000,0.000000,0.000000,0.000000,0.000000,0.000000,0.000000,0.028190,3,0
1560000,0.003290,40.267723,0.009786,0.010498,26.073473,-0.080918,-0.000212,0.035207,1.569337,-0.069312,-0.001942,-0.015959,0.000431,-0.009769,-0.000021,0.000207,-0.003408,-0.033970,-0.011034,0.207973,0.207925,0.154438,0.358466,0.000000,0.000000,0.000000,0.000000,0.000000,0.000000,0.000000,0.000000,0.000000,0.000000,0.000000,0.000000,0.032960,3,0
1570000,0.003279,40.527977,0.008459,0.010382,26.076998,-0.082478,-0.000221,0.035216,1.569319,-0.069226,-0.001961,-0.015751,0.000439,-0.009736,-0.000021,0.000104,-0.003396,-0.015270,-0.019944,0.208176,0.208127,0.154124,0.356963,0.000000,0.000000,0.000000,0.000000,0.000000,0.000000,0.000000,0.000000,0.000000,0.000000,0.000000,0.000000,0.015104,3,0
1580000,0.003266,40.788879,0.008557,0.010321,26.081774,-0.082332,-0.000234,0.035311,1.569318,-0.069241,-0.001980,-0.016129,0.000447,-0.009740,-0.000022,0.000218,-0.003384,0.002743,0.036416,0.208382,0.208331,0.153813,0.355505,0.000000,0.000000,0.000000,0.000000,0.000000,0.000000,0.000000,0.000000,0.000000,0.000000,0.000000,0.000000,0.004209,3,0
1590000,0.003254,41.051132,0.007908,0.010316,26.088793,-0.083171,-0.000249,0.035628,1.569315,-0.069464,-0.001999,-0.016215,0.000454,-0.009832,-0.000022,0.000268,-0.003371,0.039974,0.007562,0.208588,0.208537,0.153506,0.354088,0.000000,0.000000,0.000000,0.000000,0.000000,0.000000,0.000000,0.000000,0.000000,0.000000,0.000000,0.000000,0.038723,3,0
1600000,0.003240,41.313309,0.008357,0.010230,26.095709,-0.082510,-0.000275,0.035915,1.569311,-0.069662,-0.002017,-0.016753,0.000463,-0.009913,-0.000022,0.000632,-0.003358,0.036079,0.050866,0.208796,0.208743,0.153202,0.352715,0.000000,0.000000,0.000000,0.000000,0.000000,0.000000,0.000000,0.000000,0.000000,0.000000,0.000000,0.000000,0.034986,3,0
1610000,0.003226,41.571960,0.008854,0.010069,26.096003,-0.081967,-0.000297,0.035607,1.569302,-0.069292,-0.002035,-0.017281,0.000471,-0.009751,-0.000022,0.001159,-0.003343,-0.067135,0.051628,0.209005,0.208950,0.152902,0.351381,0.000000,0.000000,0.000000,0.000000,0.000000,0.000000,0.000000,0.000000,0.000000,0.000000,0.000000,0.000000,0.064865,3,0
1620000,0.003212,41.833393,0.007788,0.010003,26.101418,-0.083282,-0.000313,0.035764,1.569284,-0.069359,-0.002053,-0.017187,0.000478,-0.009780,-0.000022,0.000039,-0.003328,0.012154,-0.009155,0.209215,0.209159,0.152606,0.350086,0.000000,0.000000,0.000000,0.000000,0.000000,0.000000,0.000000,0.000000,0.000000,0.000000,0.000000,0.000000,0.012158,3,0
1630000,0.003198,42.091305,0.006490,0.009901,26.100157,-0.084708,-0.000338,0.035341,1.569278,-0.068872,-0.002071,-0.016969,0.000486,-0.009567,-0.000022,0.001371,-0.003313,-0.090302,-0.018864,0.209425,0.209367,0.152313,0.348828,0.000000,0.000000,0.000000,0.000000,0.000000,0.000000,0.000000,0.000000,0.000000,0.000000,0.000000,0.000000,0.087213,3,0
1640000,0.003183,42.352692,0.005244,0.009835,26.105310,-0.086099,-0.000359,0.035480,1.569259,-0.068924,-0.002088,-0.016809,0.000494,-0.009591,-0.000022,0.000055,-0.003298,0.009617,-0.015291,0.209636,0.209577,0.152025,0.347607,0.000000,0.000000,0.000000,0.000000,0.000000,0.000000,0.000000,0.000000,0.000000,0.000000,0.000000,0.000000,0.009808,3,0
1650000,0.003167,42.611912,0.006407,0.009797,26.106365,-0.084491,-0.000369,0.035250,1.569249,-0.068642,-0.002105,-0.017648,0.000502,-0.009457,-0.000022,0.001488,-0.003284,-0.053028,0.079790,0.209848,0.209787,0.151740,0.346421,0.000000,0.000000,0.000000,0.000000,0.000000,0.000000,0.000000,0.000000,0.000000,0.000000,0.000000,0.000000,0.051249,3,0
1660000,0.003152,42.871136,0.005653,0.009670,26.107433,-0.085153,-0.000383,0.035029,1.569231,-0.068361,-0.002122,-0.017671,0.000510,-0.009326,-0.000021,0.000470,-0.003266,-0.053833,0.003333,0.210060,0.209998,0.151458,0.345270,0.000000,0.000000,0.000000,0.000000,0.000000,0.000000,0.000000,0.000000,0.000000,0.000000,0.000000,0.000000,0.052044,3,0
1670000,0.003135,43.129646,0.004669,0.009507,26.107138,-0.086131,-0.000408,0.034677,1.569221,-0.067975,-0.002138,-0.017593,0.000518,-0.009145,-0.000021,0.000900,-0.003249,-0.074520,-0.005710,0.210272,0.210209,0.151181,0.344153,0.000000,0.000000,0.000000,0.000000,0.000000,0.000000,0.000000,0.000000,0.000000,0.000000,0.000000,0.000000,0.071979,3,0
1680000,0.003116,43.390217,0.005634,0.009339,26.110645,-0.084934,-0.000433,0.034653,1.569210,-0.067897,-0.002154,-0.018375,0.000526,-0.009102,-0.000021,0.000899,-0.003231,-0.014969,0.072825,0.210485,0.210420,0.150908,0.343068,0.000000,0.000000,0.000000,0.000000,0.000000,0.000000,0.000000,0.000000,0.000000,0.000000,0.000000,0.000000,0.014756,3,0
1690000,0.003097,43.652145,0.006157,0.009264,26.116486,-0.084290,-0.000460,0.034864,1.569195,-0.068011,-0.002170,-0.018978,0.000534,-0.009153,-0.000021,0.000581,-0.003211,0.022614,0.055311,0.210697,0.210630,0.150638,0.342013,0.000000,0.000000,0.000000,0.000000,0.000000,0.000000,0.000000,0.000000,0.000000,0.000000,0.000000,0.000000,0.022054,3,0
1700000,0.003077,43.910515,0.006543,0.009068,26.115654,-0.083621,-0.000473,0.034467,1.569186,-0.067608,-0.002185,-0.019485,0.000542,-0.008950,-0.000021,0.001420,-0.003190,-0.080341,0.048403,0.210909,0.210841,0.150373,0.340989,0.000000,0.000000,0.000000,0.000000,0.000000,0.000000,0.000000,0.000000,0.000000,0.000000,0.000000,0.000000,0.077564,3,0
1710000,0.003056,44.168179,0.006886,0.008975,26.113567,-0.082888,-0.000491,0.033948,1.569182,-0.067111,-0.002200,-0.019964,0.000550,-0.008697,-0.000021,0.001962,-0.003169,-0.100159,0.046226,0.211120,0.211051,0.150112,0.339995,0.000000,0.000000,0.000000,0.000000,0.000000,0.000000,0.000000,0.000000,0.000000,0.000000,0.000000,0.000000,0.096671,3,0
1720000,0.003037,44.427956,0.006030,0.008949,26.115303,-0.083822,-0.000508,0.033777,1.569173,-0.066917,-0.002215,-0.019941,0.000558,-0.008598,-0.000021,0.000256,-0.003148,-0.039734,-0.001177,0.211332,0.211261,0.149854,0.339027,0.000000,0.000000,0.000000,0.000000,0.000000,0.000000,0.000000,0.000000,0.000000,0.000000,0.000000,0.000000,0.038454,3,0
