time_us,pos_x,pos_y,pos_z,vel_x,vel_y,vel_z,roll,pitch,yaw,bias_ax,bias_ay,bias_az,bias_gx,bias_gy,bias_gz,nis,innov_x,innov_y,innov_z,cov_pos_x,cov_pos_y,cov_pos_z,cov_yaw,des_speed,des_heading,des_climb,pid_speed,pid_yaw,pid_alt,speed_meas,yaw_meas,climb_meas,fwd_accel,yaw_rate,vert_accel,drift_m,nav_mode,mission_state
0,0.000003,0.149994,0.000003,0.000550,24.999094,0.000841,-0.000004,-0.000006,1.570802,0.000000,0.000000,0.000000,0.000000,0.000000,0.000000,0.006250,-0.000006,-0.249993,-0.000008,2.400038,2.400038,3.600017,1.000518,0.000000,0.000000,0.000000,0.000000,0.000000,0.000000,0.000000,0.000000,0.000000,0.000000,0.000000,0.000000,0.149994,1,0
10000,0.000010,0.348172,-0.026961,0.001089,24.998129,0.001250,0.000003,-0.000016,1.570813,0.000001,-0.000000,0.000000,0.000000,0.000000,0.000000,0.004452,-0.000014,-0.181311,-0.071939,1.714420,1.714420,2.250079,1.001073,0.000000,0.000000,0.000000,0.000000,0.000000,0.000000,0.000000,0.000000,0.000000,0.000000,0.000000,0.000000,0.129504,3,0
20000,0.000020,0.588913,-0.029947,0.001536,24.997232,0.001880,0.000016,-0.000032,1.570832,0.000001,-0.000000,0.000000,-0.000000,0.000000,0.000000,0.000238,-0.000025,-0.041536,-0.011016,1.333616,1.333616,1.636554,1.001655,0.000000,0.000000,0.000000,0.000000,0.000000,0.000000,0.000000,0.000000,0.000000,0.000000,0.000000,0.000000,0.032304,3,0
30000,0.000033,0.841774,-0.027718,0.002029,24.996588,0.002379,0.000011,-0.000057,1.570837,0.000001,-0.000000,0.000000,0.000000,-0.000000,-0.000000,0.000048,-0.000040,0.015915,0.010291,1.091392,1.091392,1.286065,1.002257,0.000000,0.000000,0.000000,0.000000,0.000000,0.000000,0.000000,0.000000,0.000000,0.000000,0.000000,0.000000,0.013020,3,0
40000,0.000049,1.076677,-0.035981,0.002552,24.995499,0.002753,0.000013,-0.000064,1.570851,0.000003,-0.000000,0.000001,-0.000000,0.000000,0.000000,0.001651,-0.000058,-0.097787,-0.046967,0.923811,0.923811,1.059385,1.002869,0.000000,0.000000,0.000000,0.000000,0.000000,0.000000,0.000000,0.000000,0.000000,0.000000,0.000000,0.000000,0.082731,3,0
50000,0.000068,1.332635,-0.029475,0.002922,24.995008,0.003611,0.000014,-0.000075,1.570858,0.000002,-0.000000,-0.000000,0.000000,0.000000,0.000000,0.000556,-0.000079,0.045021,0.043110,0.801036,0.801036,0.900822,1.003484,0.000000,0.000000,0.000000,0.000000,0.000000,0.000000,0.000000,0.000000,0.000000,0.000000,0.000000,0.000000,0.039010,3,0
60000,0.000090,1.576460,-0.025367,0.003412,24.993979,0.004351,0.000022,-0.000086,1.570876,0.000005,-0.000000,-0.000002,0.000000,0.000000,0.000000,0.000536,-0.000102,-0.051902,0.031127,0.707270,0.707270,0.783741,1.004094,0.000000,0.000000,0.000000,0.000000,0.000000,0.000000,0.000000,0.000000,0.000000,0.000000,0.000000,0.000000,0.045784,3,0
70000,0.000115,1.826653,-0.028423,0.003818,24.993223,0.004875,0.000025,-0.000104,1.570888,0.000004,-0.000000,-0.000000,0.000000,0.000000,0.000000,0.000107,-0.000128,0.002468,-0.026868,0.633370,0.633370,0.693801,1.004688,0.000000,0.000000,0.000000,0.000000,0.000000,0.000000,0.000000,0.000000,0.000000,0.000000,0.000000,0.000000,0.002211,3,0
80000,0.000142,2.075701,-0.033624,0.004229,24.992413,0.004970,0.000036,-0.000113,1.570900,0.000005,-0.000000,0.000005,0.000000,0.000000,0.000000,0.000396,-0.000157,-0.009170,-0.050636,0.573673,0.573673,0.622594,1.005260,0.000000,0.000000,0.000000,0.000000,0.000000,0.000000,0.000000,0.000000,0.000000,0.000000,0.000000,0.000000,0.008295,3,0
90000,0.000172,2.318685,-0.037548,0.004674,24.990936,0.005164,0.000042,-0.000124,1.570911,0.000015,-0.000000,0.000010,0.000000,0.000000,0.000000,0.001226,-0.000189,-0.079299,-0.042269,0.524488,0.524488,0.564865,1.005801,0.000000,0.000000,0.000000,0.000000,0.000000,0.000000,0.000000,0.000000,0.000000,0.000000,0.000000,0.000000,0.072368,3,0
100000,0.000206,2.565045,-0.037423,0.005171,24.989742,0.005764,0.000037,-0.000148,1.570917,0.000022,-0.000000,0.000010,0.000000,0.000000,0.000000,0.000296,-0.000224,-0.043964,0.000784,0.483304,0.483304,0.517162,1.006301,0.000000,0.000000,0.000000,0.000000,0.000000,0.000000,0.000000,0.000000,0.000000,0.000000,0.000000,0.000000,0.040423,3,0
110000,0.000242,2.817010,-0.040378,0.005563,24.989376,0.005967,0.000041,-0.000158,1.570935,0.000017,-0.000000,0.000017,0.000000,0.000000,0.000000,0.000340,-0.000262,0.027749,-0.037951,0.448354,0.448354,0.477121,1.006754,0.000000,0.000000,0.000000,0.000000,0.000000,0.000000,0.000000,0.000000,0.000000,0.000000,0.000000,0.000000,0.025676,3,0
120000,0.000281,3.074827,-0.041870,0.006020,24.990025,0.006257,0.000048,-0.000165,1.570943,-0.000008,-0.000000,0.000021,0.000000,-0.000000,-0.000000,0.002074,-0.000302,0.113729,-0.021085,0.418359,0.418359,0.443071,1.007150,0.000000,0.000000,0.000000,0.000000,0.000000,0.000000,0.000000,0.000000,0.000000,0.000000,0.000000,0.000000,0.105800,3,0
130000,0.000324,3.329597,-0.040999,0.006505,24.990206,0.007140,0.000059,-0.000178,1.570949,-0.000027,-0.000000,0.000018,0.000000,-0.000001,-0.000000,0.000887,-0.000346,0.074574,0.011610,0.392369,0.392369,0.413797,1.007481,0.000000,0.000000,0.000000,0.000000,0.000000,0.000000,0.000000,0.000000,0.000000,0.000000,0.000000,0.000000,0.069698,3,0
140000,0.000369,3.585536,-0.037408,0.006953,24.990707,0.008621,0.000057,-0.000193,1.570963,-0.000056,-0.000000,0.000003,0.000000,-0.000001,-0.000000,0.001964,-0.000393,0.098108,0.054255,0.369667,0.369667,0.388393,1.007739,0.000000,0.000000,0.000000,0.000000,0.000000,0.000000,0.000000,0.000000,0.000000,0.000000,0.000000,0.000000,0.092064,3,0
150000,0.000416,3.834346,-0.039853,0.007315,24.989643,0.008673,0.000058,-0.000219,1.570963,-0.000050,-0.000001,0.000016,0.000000,-0.000001,-0.000000,0.000325,-0.000442,-0.018683,-0.041587,0.349696,0.349696,0.366172,1.007916,0.000000,0.000000,0.000000,0.000000,0.000000,0.000000,0.000000,0.000000,0.000000,0.000000,0.000000,0.000000,0.017599,3,0
160000,0.000468,4.089235,-0.038365,0.007859,24.990246,0.009467,0.000068,-0.000234,1.570982,-0.000084,-0.000001,0.000007,0.000000,-0.000002,-0.000000,0.001377,-0.000495,0.090337,0.024189,0.332022,0.332022,0.346600,1.008003,0.000000,0.000000,0.000000,0.000000,0.000000,0.000000,0.000000,0.000000,0.000000,0.000000,0.000000,0.000000,0.085339,3,0
170000,0.000521,4.341983,-0.038063,0.008230,24.990408,0.010048,0.000068,-0.000235,1.570982,-0.000107,-0.000001,0.000006,0.000000,-0.000002,-0.000000,0.000464,-0.000550,0.054110,0.003686,0.316298,0.316298,0.329260,1.007992,0.000000,0.000000,0.000000,0.000000,0.000000,0.000000,0.000000,0.000000,0.000000,0.000000,0.000000,0.000000,0.051260,3,0
180000,0.000578,4.595893,-0.039433,0.008773,24.991083,0.010233,0.000078,-0.000237,1.570983,-0.000145,-0.000001,0.000019,0.000000,-0.000003,-0.000000,0.001131,-0.000609,0.079665,-0.028245,0.302248,0.302248,0.313817,1.007876,0.000000,0.000000,0.000000,0.000000,0.000000,0.000000,0.000000,0.000000,0.000000,0.000000,0.000000,0.000000,0.075654,3,0
190000,0.000637,4.850821,-0.037309,0.009133,24.992208,0.011528,0.000077,-0.000228,1.570999,-0.000200,-0.000002,-0.000002,0.000000,-0.000005,-0.000000,0.001975,-0.000670,0.104053,0.040311,0.289643,0.289643,0.300003,1.007647,0.000000,0.000000,0.000000,0.000000,0.000000,0.000000,0.000000,0.000000,0.000000,0.000000,0.000000,0.000000,0.099032,3,0
200000,0.000700,5.101112,-0.038034,0.009619,24.991568,0.011800,0.000077,-0.000242,1.570999,-0.000205,-0.000002,0.000008,0.000000,-0.000005,-0.000000,0.000060,-0.000734,0.008147,-0.017658,0.278297,0.278297,0.287598,1.007297,0.000000,0.000000,0.000000,0.000000,0.000000,0.000000,0.000000,0.000000,0.000000,0.000000,0.000000,0.000000,0.007801,3,0
210000,0.000765,5.353525,-0.039443,0.010048,24.991928,0.011887,0.000088,-0.000254,1.571009,-0.000241,-0.000003,0.000029,0.000000,-0.000006,-0.000000,0.000676,-0.000800,0.056045,-0.033298,0.268056,0.268056,0.276421,1.006818,0.000000,0.000000,0.000000,0.000000,0.000000,0.000000,0.000000,0.000000,0.000000,0.000000,0.000000,0.000000,0.053546,3,0
220000,0.000832,5.605256,-0.041231,0.010442,24.992069,0.011628,0.000099,-0.000262,1.571019,-0.000270,-0.000003,0.000059,0.000000,-0.000007,-0.000000,0.000579,-0.000869,0.042175,-0.043071,0.258790,0.258790,0.266321,1.006205,0.000000,0.000000,0.000000,0.000000,0.000000,0.000000,0.000000,0.000000,0.000000,0.000000,0.000000,0.000000,0.040365,3,0
230000,0.000902,5.862187,-0.042914,0.010892,24.994907,0.011382,0.000102,-0.000245,1.571023,-0.000398,-0.000004,0.000091,0.000000,-0.000011,-0.000000,0.004799,-0.000941,0.168141,-0.042132,0.250389,0.250389,0.257172,1.005449,0.000000,0.000000,0.000000,0.000000,0.000000,0.000000,0.000000,0.000000,0.000000,0.000000,0.000000,0.000000,0.161127,3,0
240000,0.000974,6.113362,-0.043564,0.011346,24.994928,0.011546,0.000096,-0.000256,1.571028,-0.000423,-0.000005,0.000106,0.000000,-0.000012,-0.000000,0.000203,-0.001015,0.030456,-0.018537,0.242760,0.242760,0.248866,1.004544,0.000000,0.000000,0.000000,0.000000,0.000000,0.000000,0.000000,0.000000,0.000000,0.000000,0.000000,0.000000,0.029240,3,0
250000,0.001050,6.366349,-0.043269,0.011827,24.995987,0.012205,0.000101,-0.000241,1.571039,-0.000492,-0.000006,0.000102,0.000000,-0.000014,-0.000000,0.000964,-0.001093,0.077465,0.004313,0.235824,0.235823,0.241314,1.003483,0.000000,0.000000,0.000000,0.000000,0.000000,0.000000,0.000000,0.000000,0.000000,0.000000,0.000000,0.000000,0.074427,3,0
260000,0.001128,6.620993,-0.042615,0.012294,24.998081,0.013272,0.000100,-0.000210,1.571056,-0.000610,-0.000007,0.000089,0.000000,-0.000019,-0.000000,0.002440,-0.001173,0.122652,0.013425,0.229510,0.229510,0.234436,1.002262,0.000000,0.000000,0.000000,0.000000,0.000000,0.000000,0.000000,0.000000,0.000000,0.000000,0.000000,0.000000,0.117965,3,0
270000,0.001209,6.877905,-0.043274,0.012769,25.001890,0.013637,0.000110,-0.000163,1.571059,-0.000802,-0.000008,0.000111,0.000000,-0.000026,-0.000000,0.005625,-0.001256,0.186049,-0.021053,0.223761,0.223761,0.228165,1.000872,0.000000,0.000000,0.000000,0.000000,0.000000,0.000000,0.000000,0.000000,0.000000,0.000000,0.000000,0.000000,0.179115,3,0
280000,0.001292,7.130403,-0.041619,0.013165,25.002924,0.015286,0.000105,-0.000145,1.571074,-0.000877,-0.000010,0.000066,0.000000,-0.000029,-0.000000,0.001015,-0.001341,0.068251,0.040791,0.218524,0.218524,0.222443,0.999310,0.000000,0.000000,0.000000,0.000000,0.000000,0.000000,0.000000,0.000000,0.000000,0.000000,0.000000,0.000000,0.065778,3,0
290000,0.001378,7.383776,-0.040503,0.013659,25.004742,0.016406,0.000102,-0.000123,1.571087,-0.000988,-0.000011,0.000035,0.000000,-0.000034,-0.000000,0.001534,-0.001429,0.094048,0.026454,0.213754,0.213754,0.217219,0.997571,0.000000,0.000000,0.000000,0.000000,0.000000,0.000000,0.000000,0.000000,0.000000,0.000000,0.000000,0.000000,0.090707,3,0
300000,0.001466,7.640744,-0.039861,0.014072,25.009441,0.017303,0.000112,-0.000056,1.571089,-0.001237,-0.000013,0.000019,0.000000,-0.000044,-0.000000,0.006365,-0.001520,0.198476,0.013345,0.209409,0.209409,0.212446,0.995649,0.000000,0.000000,0.000000,0.000000,0.000000,0.000000,0.000000,0.000000,0.000000,0.000000,0.000000,0.000000,0.191554,3,0
310000,0.001556,7.894272,-0.037842,0.014465,25.011473,0.019348,0.000111,-0.000031,1.571093,-0.001371,-0.000015,-0.000051,0.000001,-0.000050,-0.000000,0.002079,-0.001612,0.100493,0.053040,0.205456,0.205456,0.208087,0.993540,0.000000,0.000000,0.000000,0.000000,0.000000,0.000000,0.000000,0.000000,0.000000,0.000000,0.000000,0.000000,0.097065,3,0
320000,0.001648,8.149263,-0.037419,0.014825,25.014944,0.020293,0.000112,0.000018,1.571102,-0.001577,-0.000018,-0.000061,0.000001,-0.000060,-0.000000,0.003400,-0.001705,0.145127,0.006506,0.201861,0.201861,0.204105,0.991241,0.000000,0.000000,0.000000,0.000000,0.000000,0.000000,0.000000,0.000000,0.000000,0.000000,0.000000,0.000000,0.140254,3,0
330000,0.001742,8.401690,-0.035960,0.015339,25.016249,0.021993,0.000120,0.000032,1.571111,-0.001680,-0.000020,-0.000116,0.000001,-0.000065,-0.000000,0.000993,-0.001802,0.069014,0.037393,0.198598,0.198598,0.200469,0.988748,0.000000,0.000000,0.000000,0.000000,0.000000,0.000000,0.000000,0.000000,0.000000,0.000000,0.000000,0.000000,0.066752,3,0
340000,0.001838,8.658180,-0.036458,0.015757,25.021463,0.022141,0.000130,0.000109,1.571127,-0.001988,-0.000023,-0.000081,0.000001,-0.000080,-0.000000,0.006165,-0.001900,0.194272,-0.022104,0.195639,0.195639,0.197151,0.986058,0.000000,0.000000,0.000000,0.000000,0.000000,0.000000,0.000000,0.000000,0.000000,0.000000,0.000000,0.000000,0.187947,3,0
350000,0.001936,8.910220,-0.036906,0.016099,25.022497,0.022339,0.000129,0.000116,1.571130,-0.002083,-0.000027,-0.000047,0.000001,-0.000085,-0.000000,0.000596,-0.002000,0.057004,-0.020941,0.192963,0.192963,0.194125,0.983169,0.000000,0.000000,0.000000,0.000000,0.000000,0.000000,0.000000,0.000000,0.000000,0.000000,0.000000,0.000000,0.055205,3,0
360000,0.002034,9.164978,-0.035972,0.016410,25.026463,0.023705,0.000130,0.000176,1.571142,-0.002334,-0.000030,-0.000085,0.000001,-0.000098,-0.000000,0.003374,-0.002100,0.142894,0.022075,0.190549,0.190549,0.191370,0.980078,0.000000,0.000000,0.000000,0.000000,0.000000,0.000000,0.000000,0.000000,0.000000,0.000000,0.000000,0.000000,0.138370,3,0
370000,0.002134,9.417339,-0.035910,0.016861,25.027975,0.024003,0.000123,0.000211,1.571154,-0.002457,-0.000034,-0.000075,0.000002,-0.000105,-0.000000,0.000731,-0.002203,0.067008,-0.005726,0.188377,0.188377,0.188863,0.976785,0.000000,0.000000,0.000000,0.000000,0.000000,0.000000,0.000000,0.000000,0.000000,0.000000,0.000000,0.000000,0.064939,3,0
380000,0.002236,9.674206,-0.035700,0.017288,25.034376,0.024751,0.000121,0.000332,1.571174,-0.002867,-0.000039,-0.000072,0.000002,-0.000127,-0.000001,0.007273,-0.002307,0.212209,-0.001247,0.186431,0.186431,0.186586,0.973288,0.000000,0.000000,0.000000,0.000000,0.000000,0.000000,0.000000,0.000000,0.000000,0.000000,0.000000,0.000000,0.205627,3,0
390000,0.002339,9.926837,-0.035142,0.017714,25.036251,0.025862,0.000125,0.000376,1.571177,-0.003018,-0.000044,-0.000092,0.000002,-0.000136,-0.000001,0.000914,-0.002414,0.074553,0.009839,0.184694,0.184694,0.184522,0.969587,0.000000,0.000000,0.000000,0.000000,0.000000,0.000000,0.000000,0.000000,0.000000,0.000000,0.000000,0.000000,0.072296,3,0
400000,0.002445,10.182680,-0.035090,0.018148,25.041964,0.026121,0.000122,0.000486,1.571189,-0.003399,-0.000049,-0.000077,0.000002,-0.000158,-0.000001,0.005228,-0.002522,0.179722,-0.006946,0.183153,0.183152,0.182656,0.965681,0.000000,0.000000,0.000000,0.000000,0.000000,0.000000,0.000000,0.000000,0.000000,0.000000,0.000000,0.000000,0.174252,3,0
410000,0.002550,10.436207,-0.034104,0.018442,25.045061,0.027459,0.000116,0.000553,1.571200,-0.003626,-0.000055,-0.000130,0.000003,-0.000172,-0.000001,0.001799,-0.002630,0.102732,0.023830,0.181792,0.181792,0.180971,0.961573,0.000000,0.000000,0.000000,0.000000,0.000000,0.000000,0.000000,0.000000,0.000000,0.000000,0.000000,0.000000,0.099652,3,0
420000,0.002657,10.693480,-0.033178,0.018784,25.052765,0.028875,0.000126,0.000716,1.571215,-0.004148,-0.000061,-0.000179,0.000003,-0.000204,-0.000001,0.008397,-0.002739,0.226874,0.021527,0.180601,0.180601,0.179456,0.957262,0.000000,0.000000,0.000000,0.000000,0.000000,0.000000,0.000000,0.000000,0.000000,0.000000,0.000000,0.000000,0.220061,3,0
430000,0.002764,10.949039,-0.033149,0.019159,25.058401,0.029358,0.000123,0.000835,1.571220,-0.004552,-0.000068,-0.000157,0.000004,-0.000230,-0.000001,0.004595,-0.002849,0.168313,-0.009042,0.179568,0.179568,0.178097,0.952750,0.000000,0.000000,0.000000,0.000000,0.000000,0.000000,0.000000,0.000000,0.000000,0.000000,0.000000,0.000000,0.163299,3,0
440000,0.002872,11.205305,-0.032918,0.019449,25.065165,0.029981,0.000123,0.000984,1.571237,-0.005028,-0.000075,-0.000151,0.000004,-0.000261,-0.000001,0.005902,-0.002960,0.191002,-0.002391,0.178681,0.178681,0.176883,0.948040,0.000000,0.000000,0.000000,0.000000,0.000000,0.000000,0.000000,0.000000,0.000000,0.000000,0.000000,0.000000,0.185336,3,0
450000,0.002980,11.462857,-0.032124,0.019855,25.073687,0.031173,0.000122,0.001179,1.571251,-0.005631,-0.000083,-0.000194,0.000005,-0.000301,-0.000001,0.008815,-0.003071,0.232851,0.016650,0.177931,0.177930,0.175803,0.943134,0.000000,0.000000,0.000000,0.000000,0.000000,0.000000,0.000000,0.000000,0.000000,0.000000,0.000000,0.000000,0.225965,3,0
460000,0.003089,11.719318,-0.032195,0.020182,25.080778,0.031299,0.000129,0.001346,1.571261,-0.006152,-0.000091,-0.000158,0.000005,-0.000336,-0.000002,0.006110,-0.003183,0.193882,-0.013356,0.177308,0.177307,0.174847,0.938035,0.000000,0.000000,0.000000,0.000000,0.000000,0.000000,0.000000,0.000000,0.000000,0.000000,0.000000,0.000000,0.188178,3,0
470000,0.003199,11.975305,-0.031179,0.020571,25.087421,0.032834,0.000133,0.001499,1.571278,-0.006642,-0.000100,-0.000225,0.000006,-0.000371,-0.000002,0.005099,-0.003296,0.175896,0.023969,0.176803,0.176803,0.174006,0.932747,0.000000,0.000000,0.000000,0.000000,0.000000,0.000000,0.000000,0.000000,0.000000,0.000000,0.000000,0.000000,0.170742,3,0
480000,0.003310,12.232001,-0.030892,0.020998,25.095160,0.033567,0.000133,0.001690,1.571288,-0.007213,-0.000110,-0.000220,0.000006,-0.000411,-0.000002,0.006354,-0.003411,0.198148,-0.001746,0.176408,0.176408,0.173271,0.927274,0.000000,0.000000,0.000000,0.000000,0.000000,0.000000,0.000000,0.000000,0.000000,0.000000,0.000000,0.000000,0.192350,3,0
490000,0.003422,12.487062,-0.030814,0.021410,25.100485,0.033995,0.000141,0.001831,1.571303,-0.007630,-0.000120,-0.000192,0.000007,-0.000442,-0.000002,0.003194,-0.003526,0.140164,-0.009233,0.176115,0.176115,0.172634,0.921621,0.000000,0.000000,0.000000,0.000000,0.000000,0.000000,0.000000,0.000000,0.000000,0.000000,0.000000,0.000000,0.136093,3,0
500000,0.003534,12.744599,-0.031860,0.021643,25.109503,0.032800,0.000148,0.002049,1.571312,-0.008315,-0.000131,-0.000042,0.000008,-0.000493,-0.000002,0.008429,-0.003640,0.222992,-0.048574,0.175917,0.175916,0.172087,0.915792,0.000000,0.000000,0.000000,0.000000,0.000000,0.000000,0.000000,0.000000,0.000000,0.000000,0.000000,0.000000,0.216483,3,0
510000,0.003646,13.001665,-0.031250,0.022013,25.117899,0.033939,0.000145,0.002260,1.571332,-0.008962,-0.000143,-0.000072,0.000009,-0.000542,-0.000002,0.006744,-0.003756,0.203910,0.009541,0.175806,0.175806,0.171623,0.909792,0.000000,0.000000,0.000000,0.000000,0.000000,0.000000,0.000000,0.000000,0.000000,0.000000,0.000000,0.000000,0.197969,3,0
520000,0.003756,13.260599,-0.029669,0.022222,25.129141,0.036336,0.000143,0.002548,1.571339,-0.009828,-0.000156,-0.000215,0.000010,-0.000610,-0.000003,0.011651,-0.003869,0.264822,0.043204,0.175776,0.175776,0.171234,0.903629,0.000000,0.000000,0.000000,0.000000,0.000000,0.000000,0.000000,0.000000,0.000000,0.000000,0.000000,0.000000,0.257091,3,0
530000,0.003865,13.517882,-0.028392,0.022448,25.137859,0.038353,0.000135,0.002775,1.571343,-0.010516,-0.000169,-0.000322,0.000011,-0.000665,-0.000003,0.006936,-0.003982,0.204564,0.031775,0.175821,0.175820,0.170915,0.897307,0.000000,0.000000,0.000000,0.000000,0.000000,0.000000,0.000000,0.000000,0.000000,0.000000,0.000000,0.000000,0.198607,3,0
540000,0.003975,13.775288,-0.029218,0.022810,25.146833,0.037338,0.000127,0.003023,1.571357,-0.011228,-0.000183,-0.000173,0.000012,-0.000723,-0.000003,0.007140,-0.004095,0.205619,-0.042829,0.175934,0.175934,0.170659,0.890833,0.000000,0.000000,0.000000,0.000000,0.000000,0.000000,0.000000,0.000000,0.000000,0.000000,0.000000,0.000000,0.199629,3,0
550000,0.004085,14.032231,-0.028571,0.023131,25.154972,0.038556,0.000123,0.003251,1.571378,-0.011892,-0.000198,-0.000206,0.000013,-0.000778,-0.000004,0.005654,-0.004209,0.186673,0.009318,0.176110,0.176110,0.170460,0.884214,0.000000,0.000000,0.000000,0.000000,0.000000,0.000000,0.000000,0.000000,0.000000,0.000000,0.000000,0.000000,0.181240,3,0
560000,0.004195,14.288138,-0.028842,0.023459,25.161604,0.038230,0.000121,0.003427,1.571383,-0.012433,-0.000213,-0.000120,0.000015,-0.000824,-0.000004,0.003650,-0.004322,0.148314,-0.023401,0.176344,0.176343,0.170314,0.877457,0.000000,0.000000,0.000000,0.000000,0.000000,0.000000,0.000000,0.000000,0.000000,0.000000,0.000000,0.000000,0.144015,3,0
570000,0.004304,14.545947,-0.028412,0.023760,25.171242,0.039084,0.000121,0.003713,1.571402,-0.013222,-0.000230,-0.000125,0.000016,-0.000892,-0.000004,0.007164,-0.004434,0.210402,0.001342,0.176630,0.176629,0.170215,0.870569,0.000000,0.000000,0.000000,0.000000,0.000000,0.000000,0.000000,0.000000,0.000000,0.000000,0.000000,0.000000,0.204254,3,0
580000,0.004412,14.801533,-0.027698,0.024039,25.177221,0.040095,0.000128,0.003897,1.571413,-0.013726,-0.000247,-0.000168,0.000018,-0.000937,-0.000004,0.002817,-0.004547,0.131409,0.011173,0.176963,0.176962,0.170158,0.863558,0.000000,0.000000,0.000000,0.000000,0.000000,0.000000,0.000000,0.000000,0.000000,0.000000,0.000000,0.000000,0.127609,3,0
590000,0.004521,15.057858,-0.027789,0.024350,25.184425,0.040057,0.000123,0.004115,1.571427,-0.014332,-0.000265,-0.000098,0.000019,-0.000991,-0.000004,0.003893,-0.004658,0.154068,-0.017627,0.177339,0.177339,0.170138,0.856430,0.000000,0.000000,0.000000,0.000000,0.000000,0.000000,0.000000,0.000000,0.000000,0.000000,0.000000,0.000000,0.149583,3,0
600000,0.004627,15.314913,-0.028883,0.024535,25.192690,0.038378,0.000123,0.004359,1.571439,-0.015040,-0.000284,0.000119,0.000021,-0.001056,-0.000005,0.005466,-0.004768,0.175976,-0.052943,0.177754,0.177753,0.170152,0.849195,0.000000,0.000000,0.000000,0.000000,0.000000,0.000000,0.000000,0.000000,0.000000,0.000000,0.000000,0.000000,0.170826,3,0
610000,0.004732,15.575055,-0.028533,0.024665,25.206064,0.039107,0.000125,0.004777,1.571448,-0.016179,-0.000304,0.000126,0.000023,-0.001163,-0.000005,0.012382,-0.004876,0.276657,-0.001561,0.178203,0.178202,0.170196,0.841860,0.000000,0.000000,0.000000,0.000000,0.000000,0.000000,0.000000,0.000000,0.000000,0.000000,0.000000,0.000000,0.268482,3,0
620000,0.004835,15.831746,-0.029332,0.024939,25.213661,0.037894,0.000120,0.005012,1.571469,-0.016833,-0.000325,0.000307,0.000025,-0.001225,-0.000006,0.004204,-0.004983,0.155534,-0.042166,0.178682,0.178681,0.170265,0.834433,0.000000,0.000000,0.000000,0.000000,0.000000,0.000000,0.000000,0.000000,0.000000,0.000000,0.000000,0.000000,0.150980,3,0
630000,0.004937,16.087391,-0.027947,0.025191,25.219505,0.039847,0.000123,0.005194,1.571476,-0.017337,-0.000347,0.000152,0.000027,-0.001274,-0.000006,0.002435,-0.005090,0.117434,0.035243,0.179188,0.179187,0.170356,0.826922,0.000000,0.000000,0.000000,0.000000,0.000000,0.000000,0.000000,0.000000,0.000000,0.000000,0.000000,0.000000,0.114033,3,0
640000,0.005040,16.346758,-0.028877,0.025476,25.231527,0.038408,0.000124,0.005587,1.571491,-0.018386,-0.000369,0.000363,0.000029,-0.001378,-0.000006,0.009631,-0.005195,0.239429,-0.047052,0.179718,0.179717,0.170466,0.819335,0.000000,0.000000,0.000000,0.000000,0.000000,0.000000,0.000000,0.000000,0.000000,0.000000,0.000000,0.000000,0.232313,3,0
650000,0.005140,16.602652,-0.027371,0.025768,25.237526,0.040837,0.000126,0.005779,1.571501,-0.018918,-0.000393,0.000184,0.000031,-0.001432,-0.000006,0.002546,-0.005300,0.119095,0.039144,0.180267,0.180266,0.170591,0.811681,0.000000,0.000000,0.000000,0.000000,0.000000,0.000000,0.000000,0.000000,0.000000,0.000000,0.000000,0.000000,0.115631,3,0
660000,0.005241,16.862886,-0.027577,0.026022,25.250940,0.040624,0.000129,0.006230,1.571522,-0.020104,-0.000417,0.000286,0.000034,-0.001553,-0.000007,0.011070,-0.005403,0.260719,-0.021921,0.180832,0.180831,0.170729,0.803967,0.000000,0.000000,0.000000,0.000000,0.000000,0.000000,0.000000,0.000000,0.000000,0.000000,0.000000,0.000000,0.252915,3,0
670000,0.005339,17.122019,-0.028440,0.026143,25.262234,0.039501,0.000133,0.006618,1.571536,-0.021120,-0.000442,0.000501,0.000036,-0.001660,-0.000008,0.008085,-0.005505,0.219019,-0.044946,0.181412,0.181411,0.170878,0.796201,0.000000,0.000000,0.000000,0.000000,0.000000,0.000000,0.000000,0.000000,0.000000,0.000000,0.000000,0.000000,0.212464,3,0
680000,0.005436,17.379452,-0.028541,0.026413,25.270565,0.039228,0.000122,0.006913,1.571546,-0.021867,-0.000469,0.000586,0.000039,-0.001739,-0.000008,0.004119,-0.005606,0.158562,-0.017624,0.182003,0.182002,0.171033,0.788393,0.000000,0.000000,0.000000,0.000000,0.000000,0.000000,0.000000,0.000000,0.000000,0.000000,0.000000,0.000000,0.153847,3,0
690000,0.005531,17.637012,-0.027274,0.026612,25.279051,0.041211,0.000109,0.007203,1.571568,-0.022632,-0.000496,0.000435,0.000042,-0.001822,-0.000008,0.004264,-0.005705,0.159472,0.030369,0.182602,0.182601,0.171194,0.780548,0.000000,0.000000,0.000000,0.000000,0.000000,0.000000,0.000000,0.000000,0.000000,0.000000,0.000000,0.000000,0.154716,3,0
700000,0.005624,17.897734,-0.025843,0.026694,25.292921,0.043503,0.000103,0.007703,1.571578,-0.023897,-0.000524,0.000257,0.000045,-0.001962,-0.000009,0.011100,-0.005801,0.259645,0.035282,0.183208,0.183207,0.171358,0.772676,0.000000,0.000000,0.000000,0.000000,0.000000,0.000000,0.000000,0.000000,0.000000,0.000000,0.000000,0.000000,0.251779,3,0
710000,0.005715,18.158545,-0.026084,0.026786,25.306746,0.043164,0.000104,0.008214,1.571587,-0.025171,-0.000552,0.000380,0.000049,-0.002105,-0.000010,0.010787,-0.005895,0.257212,-0.024006,0.183818,0.183817,0.171522,0.764784,0.000000,0.000000,0.000000,0.000000,0.000000,0.000000,0.000000,0.000000,0.000000,0.000000,0.000000,0.000000,0.249398,3,0
720000,0.005802,18.417000,-0.025027,0.026852,25.316494,0.044574,0.000090,0.008564,1.571596,-0.026051,-0.000582,0.000266,0.000052,-0.002206,-0.000010,0.005038,-0.005986,0.175171,0.021597,0.184429,0.184428,0.171686,0.756879,0.000000,0.000000,0.000000,0.000000,0.000000,0.000000,0.000000,0.000000,0.000000,0.000000,0.000000,0.000000,0.169886,3,0
730000,0.005889,18.675566,-0.025681,0.027072,25.326191,0.043438,0.000089,0.008924,1.571602,-0.026944,-0.000613,0.000472,0.000056,-0.002309,-0.000010,0.005197,-0.006076,0.175045,-0.038635,0.185041,0.185040,0.171847,0.748969,0.000000,0.000000,0.000000,0.000000,0.000000,0.000000,0.000000,0.000000,0.000000,0.000000,0.000000,0.000000,0.169749,3,0
740000,0.005973,18.933626,-0.025227,0.027152,25.335070,0.044165,0.000074,0.009248,1.571608,-0.027745,-0.000645,0.000469,0.000059,-0.002404,-0.000011,0.003883,-0.006164,0.154926,0.000370,0.185651,0.185649,0.172004,0.741061,0.000000,0.000000,0.000000,0.000000,0.000000,0.000000,0.000000,0.000000,0.000000,0.000000,0.000000,0.000000,0.150252,3,0
750000,0.006055,19.191799,-0.023690,0.027231,25.344002,0.046334,0.000064,0.009590,1.571625,-0.028558,-0.000677,0.000261,0.000063,-0.002502,-0.000011,0.004129,-0.006249,0.155203,0.037891,0.186257,0.186256,0.172155,0.733162,0.000000,0.000000,0.000000,0.000000,0.000000,0.000000,0.000000,0.000000,0.000000,0.000000,0.000000,0.000000,0.150507,3,0
760000,0.006135,19.449463,-0.023314,0.027352,25.351868,0.046693,0.000057,0.009885,1.571632,-0.029277,-0.000710,0.000278,0.000067,-0.002590,-0.000012,0.002972,-0.006332,0.135489,-0.003263,0.186859,0.186858,0.172299,0.725278,0.000000,0.000000,0.000000,0.000000,0.000000,0.000000,0.000000,0.000000,0.000000,0.000000,0.000000,0.000000,0.131413,3,0
770000,0.006212,19.709106,-0.021976,0.027419,25.363199,0.048559,0.000054,0.010338,1.571654,-0.030330,-0.000745,0.000107,0.000072,-0.002721,-0.000012,0.006343,-0.006412,0.195808,0.030021,0.187454,0.187453,0.172436,0.717416,0.000000,0.000000,0.000000,0.000000,0.000000,0.000000,0.000000,0.000000,0.000000,0.000000,0.000000,0.000000,0.189791,3,0
780000,0.006287,19.970085,-0.021379,0.027523,25.376675,0.049401,0.000045,0.010873,1.571675,-0.031604,-0.000779,0.000086,0.000076,-0.002883,-0.000013,0.008867,-0.006490,0.234236,0.003516,0.188043,0.188041,0.172563,0.709583,0.000000,0.000000,0.000000,0.000000,0.000000,0.000000,0.000000,0.000000,0.000000,0.000000,0.000000,0.000000,0.226981,3,0
790000,0.006361,20.228014,-0.021560,0.027605,25.384680,0.049175,0.000031,0.011183,1.571686,-0.032331,-0.000815,0.000225,0.000081,-0.002976,-0.000013,0.002918,-0.006567,0.132151,-0.023803,0.188623,0.188621,0.172680,0.701784,0.000000,0.000000,0.000000,0.000000,0.000000,0.000000,0.000000,0.000000,0.000000,0.000000,0.000000,0.000000,0.128154,3,0
800000,0.006431,20.486675,-0.020560,0.027603,25.393894,0.050660,0.000026,0.011556,1.571698,-0.033179,-0.000852,0.000122,0.000086,-0.003087,-0.000014,0.003807,-0.006640,0.152447,0.017305,0.189193,0.189192,0.172787,0.694025,0.000000,0.000000,0.000000,0.000000,0.000000,0.000000,0.000000,0.000000,0.000000,0.000000,0.000000,0.000000,0.147780,3,0
810000,0.006499,20.747948,-0.021179,0.027666,25.407650,0.049433,0.000018,0.012126,1.571707,-0.034482,-0.000889,0.000357,0.000090,-0.003260,-0.000015,0.008917,-0.006711,0.231632,-0.039340,0.189754,0.189752,0.172882,0.686312,0.000000,0.000000,0.000000,0.000000,0.000000,0.000000,0.000000,0.000000,0.000000,0.000000,0.000000,0.000000,0.224402,3,0
820000,0.006566,21.006132,-0.020368,0.027819,25.415800,0.050461,-0.000002,0.012459,1.571723,-0.035216,-0.000928,0.000291,0.000096,-0.003359,-0.000015,0.002722,-0.006781,0.129255,0.010714,0.190303,0.190302,0.172965,0.678649,0.000000,0.000000,0.000000,0.000000,0.000000,0.000000,0.000000,0.000000,0.000000,0.000000,0.000000,0.000000,0.125329,3,0
830000,0.006631,21.268841,-0.020279,0.027878,25.431696,0.050426,-0.000013,0.013138,1.571734,-0.036756,-0.000966,0.000381,0.000101,-0.003571,-0.000016,0.011682,-0.006849,0.268570,-0.014750,0.190841,0.190840,0.173035,0.671043,0.000000,0.000000,0.000000,0.000000,0.000000,0.000000,0.000000,0.000000,0.000000,0.000000,0.000000,0.000000,0.260111,3,0
840000,0.006694,21.526522,-0.019117,0.027932,25.438665,0.051968,-0.000019,0.013421,1.571738,-0.037364,-0.001006,0.000239,0.000107,-0.003656,-0.000017,0.001872,-0.006915,0.105093,0.022546,0.191367,0.191366,0.173092,0.663497,0.000000,0.000000,0.000000,0.000000,0.000000,0.000000,0.000000,0.000000,0.000000,0.000000,0.000000,0.000000,0.101960,3,0
850000,0.006756,21.785572,-0.020269,0.028043,25.447886,0.050097,-0.000029,0.013817,1.571760,-0.038215,-0.001047,0.000606,0.000112,-0.003776,-0.000017,0.003973,-0.006978,0.145527,-0.058228,0.191881,0.191880,0.173136,0.656016,0.000000,0.000000,0.000000,0.000000,0.000000,0.000000,0.000000,0.000000,0.000000,0.000000,0.000000,0.000000,0.141035,3,0
860000,0.006816,22.045977,-0.020552,0.028181,25.459280,0.049580,-0.000050,0.014322,1.571773,-0.039302,-0.001088,0.000781,0.000118,-0.003933,-0.000018,0.005626,-0.007042,0.184568,-0.027476,0.192382,0.192380,0.173166,0.648604,0.000000,0.000000,0.000000,0.000000,0.000000,0.000000,0.000000,0.000000,0.000000,0.000000,0.000000,0.000000,0.178782,3,0
870000,0.006873,22.303890,-0.019590,0.028138,25.466198,0.050713,-0.000062,0.014622,1.571781,-0.039914,-0.001130,0.000677,0.000124,-0.004023,-0.000018,0.001759,-0.007102,0.102959,0.015953,0.192869,0.192868,0.173182,0.641266,0.000000,0.000000,0.000000,0.000000,0.000000,0.000000,0.000000,0.000000,0.000000,0.000000,0.000000,0.000000,0.099886,3,0
880000,0.006928,22.566380,-0.019104,0.028105,25.481062,0.051173,-0.000069,0.015300,1.571800,-0.041365,-0.001172,0.000682,0.000130,-0.004238,-0.000019,0.009498,-0.007158,0.242554,-0.001051,0.193343,0.193342,0.173183,0.634004,0.000000,0.000000,0.000000,0.000000,0.000000,0.000000,0.000000,0.000000,0.000000,0.000000,0.000000,0.000000,0.234840,3,0
890000,0.006981,22.825047,-0.018138,0.028197,25.489004,0.052576,-0.000081,0.015652,1.571807,-0.042083,-0.001215,0.000579,0.000137,-0.004347,-0.000020,0.002333,-0.007214,0.119068,0.015418,0.193804,0.193802,0.173171,0.626823,0.000000,0.000000,0.000000,0.000000,0.000000,0.000000,0.000000,0.000000,0.000000,0.000000,0.000000,0.000000,0.115434,3,0
900000,0.007031,23.083151,-0.016675,0.028232,25.495972,0.054534,-0.000101,0.015955,1.571816,-0.042682,-0.001259,0.000362,0.000144,-0.004439,-0.000020,0.001753,-0.007267,0.098866,0.032222,0.194251,0.194249,0.173144,0.619725,0.000000,0.000000,0.000000,0.000000,0.000000,0.000000,0.000000,0.000000,0.000000,0.000000,0.000000,0.000000,0.095923,3,0
910000,0.007082,23.344564,-0.016980,0.028331,25.508615,0.053874,-0.000116,0.016536,1.571825,-0.043896,-0.001303,0.000561,0.000151,-0.004628,-0.000021,0.006507,-0.007319,0.198513,-0.029771,0.194684,0.194683,0.173104,0.612713,0.000000,0.000000,0.000000,0.000000,0.000000,0.000000,0.000000,0.000000,0.000000,0.000000,0.000000,0.000000,0.192202,3,0
920000,0.007129,23.607311,-0.015758,0.028285,25.523445,0.055351,-0.000129,0.017233,1.571845,-0.045342,-0.001348,0.000399,0.000158,-0.004857,-0.000022,0.009014,-0.007369,0.235155,0.023388,0.195104,0.195103,0.173049,0.605791,0.000000,0.000000,0.000000,0.000000,0.000000,0.000000,0.000000,0.000000,0.000000,0.000000,0.000000,0.000000,0.227620,3,0
930000,0.007174,23.870724,-0.015935,0.028197,25.539333,0.054770,-0.000155,0.017999,1.571869,-0.046893,-0.001393,0.000573,0.000165,-0.005107,-0.000023,0.010238,-0.007415,0.250565,-0.025617,0.195511,0.195510,0.172979,0.598959,0.000000,0.000000,0.000000,0.000000,0.000000,0.000000,0.000000,0.000000,0.000000,0.000000,0.000000,0.000000,0.242507,3,0
940000,0.007218,24.130251,-0.017010,0.028198,25.548187,0.053006,-0.000166,0.018414,1.571882,-0.047679,-0.001440,0.000966,0.000172,-0.005235,-0.000024,0.003092,-0.007460,0.126146,-0.056561,0.195905,0.195903,0.172896,0.592222,0.000000,0.000000,0.000000,0.000000,0.000000,0.000000,0.000000,0.000000,0.000000,0.000000,0.000000,0.000000,0.122242,3,0
950000,0.007260,24.389185,-0.018008,0.028239,25.555779,0.051438,-0.000185,0.018764,1.571893,-0.048337,-0.001486,0.001340,0.000180,-0.005344,-0.000024,0.002250,-0.007505,0.105076,-0.053348,0.196285,0.196283,0.172800,0.585580,0.000000,0.000000,0.000000,0.000000,0.000000,0.000000,0.000000,0.000000,0.000000,0.000000,0.000000,0.000000,0.101898,3,0
960000,0.007300,24.650789,-0.017452,0.028291,25.567984,0.051916,-0.000213,0.019351,1.571908,-0.049495,-0.001533,0.001329,0.000188,-0.005539,-0.000025,0.005468,-0.007547,0.184008,0.001225,0.196652,0.196651,0.172690,0.579036,0.000000,0.000000,0.000000,0.000000,0.000000,0.000000,0.000000,0.000000,0.000000,0.000000,0.000000,0.000000,0.178126,3,0
970000,0.007340,24.911766,-0.018618,0.028364,25.579041,0.050296,-0.000224,0.019889,1.571931,-0.050512,-0.001581,0.001749,0.000196,-0.005713,-0.000026,0.004741,-0.007588,0.160828,-0.058944,0.197007,0.197006,0.172566,0.572591,0.000000,0.000000,0.000000,0.000000,0.000000,0.000000,0.000000,0.000000,0.000000,0.000000,0.000000,0.000000,0.155721,3,0
980000,0.007377,25.173429,-0.018707,0.028295,25.591082,0.049995,-0.000237,0.020481,1.571951,-0.051643,-0.001629,0.001898,0.000204,-0.005909,-0.000027,0.005189,-0.007627,0.178043,-0.020869,0.197350,0.197349,0.172430,0.566246,0.000000,0.000000,0.000000,0.000000,0.000000,0.000000,0.000000,0.000000,0.000000,0.000000,0.000000,0.000000,0.172346,3,0
990000,0.007412,25.435768,-0.019078,0.028237,25.604141,0.049313,-0.000254,0.021143,1.571967,-0.052884,-0.001677,0.002118,0.000212,-0.006127,-0.000028,0.006263,-0.007664,0.194567,-0.030601,0.197681,0.197680,0.172281,0.560003,0.000000,0.000000,0.000000,0.000000,0.000000,0.000000,0.000000,0.000000,0.000000,0.000000,0.000000,0.000000,0.188302,3,0
1000000,0.007445,25.698771,-0.019449,0.028229,25.618271,0.048655,-0.000279,0.021862,1.571984,-0.054231,-0.001726,0.002338,0.000221,-0.006368,-0.000029,0.007293,-0.007699,0.210400,-0.030378,0.198000,0.197999,0.172119,0.553863,0.000000,0.000000,0.000000,0.000000,0.000000,0.000000,0.000000,0.000000,0.000000,0.000000,0.000000,0.000000,0.203593,3,0
1010000,0.007476,25.957829,-0.019416,0.028142,25.625336,0.048660,-0.000298,0.022191,1.571991,-0.054787,-0.001776,0.002456,0.000230,-0.006469,-0.000029,0.001255,-0.007731,0.086409,-0.016111,0.198309,0.198307,0.171946,0.547826,0.000000,0.000000,0.000000,0.000000,0.000000,0.000000,0.000000,0.000000,0.000000,0.000000,0.000000,0.000000,0.083887,3,0
1020000,0.007506,26.216280,-0.020077,0.028140,25.631222,0.047686,-0.000322,0.022456,1.572002,-0.055212,-0.001826,0.002757,0.000239,-0.006548,-0.000030,0.000971,-0.007762,0.065825,-0.040319,0.198606,0.198604,0.171761,0.541894,0.000000,0.000000,0.000000,0.000000,0.000000,0.000000,0.000000,0.000000,0.000000,0.000000,0.000000,0.000000,0.064087,3,0
1030000,0.007535,26.476109,-0.021207,0.028146,25.639481,0.046025,-0.000346,0.022861,1.572025,-0.055896,-0.001876,0.003181,0.000248,-0.006675,-0.000030,0.002319,-0.007792,0.105497,-0.056449,0.198893,0.198891,0.171564,0.536066,0.000000,0.000000,0.000000,0.000000,0.000000,0.000000,0.000000,0.000000,0.000000,0.000000,0.000000,0.000000,0.102279,3,0
1040000,0.007562,26.735977,-0.020780,0.028166,25.647715,0.046686,-0.000362,0.023257,1.572047,-0.056570,-0.001926,0.003190,0.000257,-0.006804,-0.000031,0.001753,-0.007821,0.104012,-0.001427,0.199170,0.199168,0.171357,0.530343,0.000000,0.000000,0.000000,0.000000,0.000000,0.000000,0.000000,0.000000,0.000000,0.000000,0.000000,0.000000,0.100843,3,0
1050000,0.007588,26.996542,-0.021857,0.028106,25.657024,0.045266,-0.000394,0.023727,1.572054,-0.057368,-0.001977,0.003605,0.000267,-0.006957,-0.000031,0.002902,-0.007847,0.122366,-0.054408,0.199438,0.199436,0.171139,0.524725,0.000000,0.000000,0.000000,0.000000,0.000000,0.000000,0.000000,0.000000,0.000000,0.000000,0.000000,0.000000,0.118543,3,0
1060000,0.007610,27.259117,-0.021327,0.027981,25.669758,0.045963,-0.000410,0.024401,1.572065,-0.058539,-0.002028,0.003582,0.000277,-0.007187,-0.000032,0.005218,-0.007872,0.179770,0.002469,0.199696,0.199694,0.170911,0.519213,0.000000,0.000000,0.000000,0.000000,0.000000,0.000000,0.000000,0.000000,0.000000,0.000000,0.000000,0.000000,0.173953,3,0
1070000,0.007631,27.521025,-0.021038,0.027897,25.681267,0.046362,-0.000426,0.025004,1.572074,-0.059556,-0.002079,0.003627,0.000287,-0.007389,-0.000033,0.003918,-0.007894,0.155613,-0.006281,0.199946,0.199944,0.170673,0.513806,0.000000,0.000000,0.000000,0.000000,0.000000,0.000000,0.000000,0.000000,0.000000,0.000000,0.000000,0.000000,0.150620,3,0
1080000,0.007649,27.784924,-0.019585,0.027800,25.696136,0.048211,-0.000452,0.025817,1.572101,-0.060940,-0.002130,0.003349,0.000297,-0.007668,-0.000035,0.007422,-0.007913,0.211653,0.034650,0.200188,0.200186,0.170425,0.508504,0.000000,0.000000,0.000000,0.000000,0.000000,0.000000,0.000000,0.000000,0.000000,0.000000,0.000000,0.000000,0.204735,3,0
1090000,0.007667,28.047464,-0.019848,0.027776,25.708401,0.047790,-0.000484,0.026479,1.572121,-0.062031,-0.002182,0.003554,0.000308,-0.007891,-0.000036,0.004578,-0.007931,0.166273,-0.026526,0.200422,0.200420,0.170169,0.503307,0.000000,0.000000,0.000000,0.000000,0.000000,0.000000,0.000000,0.000000,0.000000,0.000000,0.000000,0.000000,0.160902,3,0
1100000,0.007683,28.307335,-0.021070,0.027628,25.715868,0.045976,-0.000505,0.026833,1.572137,-0.062575,-0.002234,0.004032,0.000318,-0.008004,-0.000036,0.001694,-0.007948,0.082518,-0.060207,0.200649,0.200647,0.169904,0.498214,0.000000,0.000000,0.000000,0.000000,0.000000,0.000000,0.000000,0.000000,0.000000,0.000000,0.000000,0.000000,0.080127,3,0
1110000,0.007696,28.566565,-0.019862,0.027490,25.721996,0.047668,-0.000526,0.027113,1.572155,-0.062976,-0.002286,0.003820,0.000329,-0.008088,-0.000036,0.000723,-0.007963,0.061123,0.026220,0.200869,0.200867,0.169631,0.493226,0.000000,0.000000,0.000000,0.000000,0.000000,0.000000,0.000000,0.000000,0.000000,0.000000,0.000000,0.000000,0.059575,3,0
1120000,0.007707,28.825830,-0.019092,0.027380,25.728237,0.048771,-0.000558,0.027409,1.572161,-0.063372,-0.002338,0.003736,0.000341,-0.008173,-0.000037,0.000612,-0.007974,0.060253,0.010134,0.201083,0.201080,0.169350,0.488340,0.000000,0.000000,0.000000,0.000000,0.000000,0.000000,0.000000,0.000000,0.000000,0.000000,0.000000,0.000000,0.058741,3,0
1130000,0.007718,29.087799,-0.020170,0.027268,25.739185,0.047096,-0.000594,0.027991,1.572167,-0.064289,-0.002390,0.004185,0.000352,-0.008372,-0.000038,0.003619,-0.007984,0.138866,-0.055708,0.201291,0.201288,0.169062,0.483558,0.000000,0.000000,0.000000,0.000000,0.000000,0.000000,0.000000,0.000000,0.000000,0.000000,0.000000,0.000000,0.134429,3,0
1140000,0.007724,29.349091,-0.018976,0.027095,25.748665,0.048510,-0.000620,0.028499,1.572182,-0.065049,-0.002442,0.003971,0.000363,-0.008539,-0.000038,0.002259,-0.007994,0.115337,0.025563,0.201493,0.201490,0.168767,0.478876,0.000000,0.000000,0.000000,0.000000,0.000000,0.000000,0.000000,0.000000,0.000000,0.000000,0.000000,0.000000,0.111731,3,0
1150000,0.007730,29.609715,-0.018394,0.026971,25.756901,0.049132,-0.000645,0.028919,1.572187,-0.065658,-0.002495,0.003941,0.000375,-0.008676,-0.000039,0.001390,-0.007999,0.092493,0.003276,0.201690,0.201687,0.168466,0.474296,0.000000,0.000000,0.000000,0.000000,0.000000,0.000000,0.000000,0.000000,0.000000,0.000000,0.000000,0.000000,0.089718,3,0
1160000,0.007736,29.869009,-0.019684,0.026882,25.762672,0.047499,-0.000681,0.029196,1.572203,-0.065994,-0.002548,0.004470,0.000387,-0.008752,-0.000039,0.001080,-0.008003,0.050457,-0.063821,0.201882,0.201879,0.168158,0.469817,0.000000,0.000000,0.000000,0.000000,0.000000,0.000000,0.000000,0.000000,0.000000,0.000000,0.000000,0.000000,0.049369,3,0
1170000,0.007739,30.131680,-0.018262,0.026851,25.774460,0.049309,-0.000721,0.029862,1.572221,-0.066975,-0.002600,0.004182,0.000399,-0.008977,-0.000040,0.003766,-0.008009,0.148924,0.033711,0.202071,0.202067,0.167845,0.465436,0.000000,0.000000,0.000000,0.000000,0.000000,0.000000,0.000000,0.000000,0.000000,0.000000,0.000000,0.000000,0.144117,3,0
1180000,0.007742,30.395668,-0.018285,0.026772,25.788450,0.049074,-0.000745,0.030666,1.572229,-0.068191,-0.002652,0.004331,0.000411,-0.009261,-0.000042,0.005538,-0.008011,0.184319,-0.018590,0.202255,0.202252,0.167526,0.461154,0.000000,0.000000,0.000000,0.000000,0.000000,0.000000,0.000000,0.000000,0.000000,0.000000,0.000000,0.000000,0.178273,3,0
1190000,0.007742,30.659609,-0.016901,0.026674,25.802177,0.050568,-0.000773,0.031468,1.572245,-0.069366,-0.002704,0.004052,0.000424,-0.009540,-0.000043,0.005314,-0.008013,0.178617,0.032024,0.202436,0.202433,0.167202,0.456969,0.000000,0.000000,0.000000,0.000000,0.000000,0.000000,0.000000,0.000000,0.000000,0.000000,0.000000,0.000000,0.172766,3,0
1200000,0.007744,30.919476,-0.018069,0.026631,25.808517,0.048956,-0.000808,0.031766,1.572252,-0.069723,-0.002757,0.004564,0.000436,-0.009625,-0.000043,0.001065,-0.008013,0.053690,-0.060378,0.202614,0.202610,0.166874,0.452880,0.000000,0.000000,0.000000,0.000000,0.000000,0.000000,0.000000,0.000000,0.000000,0.000000,0.000000,0.000000,0.052451,3,0
1210000,0.007742,31.178013,-0.017211,0.026423,25.812445,0.049888,-0.000841,0.031896,1.572271,-0.069804,-0.002810,0.004451,0.000449,-0.009645,-0.000043,0.000063,-0.008013,0.012426,0.013103,0.202789,0.202785,0.166541,0.448886,0.000000,0.000000,0.000000,0.000000,0.000000,0.000000,0.000000,0.000000,0.000000,0.000000,0.000000,0.000000,0.014286,3,0
1220000,0.007740,31.436584,-0.017963,0.026310,25.816332,0.048895,-0.000865,0.032035,1.572282,-0.069887,-0.002863,0.004843,0.000461,-0.009666,-0.000043,0.000368,-0.008010,0.012278,-0.045373,0.202962,0.202958,0.166204,0.444985,0.000000,0.000000,0.000000,0.000000,0.000000,0.000000,0.000000,0.000000,0.000000,0.000000,0.000000,0.000000,0.014164,3,0
1230000,0.007737,31.699902,-0.018678,0.026196,25.828629,0.047636,-0.000907,0.032753,1.572292,-0.070883,-0.002915,0.005213,0.000474,-0.009916,-0.000045,0.004001,-0.008007,0.151243,-0.043563,0.203133,0.203129,0.165864,0.441176,0.000000,0.000000,0.000000,0.000000,0.000000,0.000000,0.000000,0.000000,0.000000,0.000000,0.000000,0.000000,0.146327,3,0
1240000,0.007732,31.959806,-0.018893,0.026110,25.834686,0.047149,-0.000946,0.033043,1.572302,-0.071191,-0.002968,0.005431,0.000487,-0.009994,-0.000045,0.000466,-0.008003,0.046835,-0.025176,0.203302,0.203297,0.165521,0.437458,0.000000,0.000000,0.000000,0.000000,0.000000,0.000000,0.000000,0.000000,0.000000,0.000000,0.000000,0.000000,0.045904,3,0
1250000,0.007725,32.220394,-0.018418,0.025897,25.841892,0.047523,-0.000990,0.033404,1.572308,-0.071618,-0.003020,0.005427,0.000501,-0.010104,-0.000045,0.000694,-0.007996,0.065174,0.000045,0.203470,0.203465,0.165174,0.433830,0.000000,0.000000,0.000000,0.000000,0.000000,0.000000,0.000000,0.000000,0.000000,0.000000,0.000000,0.000000,0.063438,3,0
1260000,0.007717,32.479633,-0.018750,0.025780,25.846651,0.047128,-0.001032,0.033597,1.572310,-0.071771,-0.003072,0.005688,0.000514,-0.010145,-0.000045,0.000239,-0.007988,0.023182,-0.029633,0.203637,0.203631,0.164826,0.430291,0.000000,0.000000,0.000000,0.000000,0.000000,0.000000,0.000000,0.000000,0.000000,0.000000,0.000000,0.000000,0.023688,3,0
1270000,0.007709,32.739567,-0.020020,0.025598,25.852591,0.045504,-0.001067,0.033860,1.572316,-0.072050,-0.003125,0.006252,0.000528,-0.010219,-0.000046,0.000955,-0.007978,0.042202,-0.063701,0.203802,0.203797,0.164474,0.426838,0.000000,0.000000,0.000000,0.000000,0.000000,0.000000,0.000000,0.000000,0.000000,0.000000,0.000000,0.000000,0.041490,3,0
1280000,0.007699,33.000862,-0.020355,0.025528,25.860851,0.044855,-0.001112,0.034306,1.572326,-0.072575,-0.003176,0.006506,0.000541,-0.010360,-0.000046,0.001186,-0.007969,0.080391,-0.028914,0.203968,0.203962,0.164121,0.423471,0.000000,0.000000,0.000000,0.000000,0.000000,0.000000,0.000000,0.000000,0.000000,0.000000,0.000000,0.000000,0.078037,3,0
1290000,0.007686,33.262138,-0.019423,0.025379,25.868950,0.045803,-0.001141,0.034740,1.572342,-0.073077,-0.003227,0.006342,0.000555,-0.010498,-0.000047,0.001026,-0.007958,0.077438,0.017666,0.204133,0.204127,0.163767,0.420188,0.000000,0.000000,0.000000,0.000000,0.000000,0.000000,0.000000,0.000000,0.000000,0.000000,0.000000,0.000000,0.075200,3,0
1300000,0.007674,33.525429,-0.019184,0.025269,25.880598,0.046148,-0.001181,0.035440,1.572363,-0.073946,-0.003278,0.006407,0.000570,-0.010739,-0.000048,0.002918,-0.007944,0.134144,-0.008074,0.204298,0.204291,0.163411,0.416988,0.000000,0.000000,0.000000,0.000000,0.000000,0.000000,0.000000,0.000000,0.000000,0.000000,0.000000,0.000000,0.129805,3,0
1310000,0.007659,33.789349,-0.018597,0.025083,25.893150,0.046884,-0.001215,0.036207,1.572371,-0.074908,-0.003329,0.006355,0.000584,-0.011010,-0.000049,0.003590,-0.007929,0.149040,0.004613,0.204463,0.204456,0.163054,0.413869,0.000000,0.000000,0.000000,0.000000,0.000000,0.000000,0.000000,0.000000,0.000000,0.000000,0.000000,0.000000,0.144166,3,0
1320000,0.007645,34.051178,-0.019926,0.024888,25.901995,0.045221,-0.001243,0.036691,1.572377,-0.075451,-0.003380,0.006956,0.000598,-0.011165,-0.000050,0.001855,-0.007913,0.083782,-0.066390,0.204629,0.204622,0.162696,0.410831,0.000000,0.000000,0.000000,0.000000,0.000000,0.000000,0.000000,0.000000,0.000000,0.000000,0.000000,0.000000,0.081281,3,0
1330000,0.007628,34.313656,-0.020579,0.024697,25.911873,0.044133,-0.001272,0.037251,1.572389,-0.076097,-0.003431,0.007324,0.000612,-0.011353,-0.000051,0.001895,-0.007897,0.100170,-0.040797,0.204796,0.204788,0.162337,0.407871,0.000000,0.000000,0.000000,0.000000,0.000000,0.000000,0.000000,0.000000,0.000000,0.000000,0.000000,0.000000,0.097049,3,0
1340000,0.007611,34.574059,-0.021824,0.024469,25.917833,0.042473,-0.001316,0.037527,1.572403,-0.076334,-0.003482,0.007901,0.000626,-0.011423,-0.000051,0.000859,-0.007878,0.036381,-0.062610,0.204963,0.204955,0.161978,0.404987,0.000000,0.000000,0.000000,0.000000,0.000000,0.000000,0.000000,0.000000,0.000000,0.000000,0.000000,0.000000,0.035948,3,0
1350000,0.007591,34.832409,-0.021635,0.024369,25.920128,0.042811,-0.001353,0.037504,1.572410,-0.076173,-0.003532,0.007987,0.000641,-0.011375,-0.000051,0.000126,-0.007859,-0.025291,-0.009032,0.205131,0.205122,0.161620,0.402180,0.000000,0.000000,0.000000,0.000000,0.000000,0.000000,0.000000,0.000000,0.000000,0.000000,0.000000,0.000000,0.025578,3,0
1360000,0.007571,35.093506,-0.022227,0.024239,25.927153,0.041960,-0.001395,0.037854,1.572426,-0.076520,-0.003582,0.008338,0.000656,-0.011480,-0.000051,0.000719,-0.007838,0.054276,-0.038026,0.205301,0.205291,0.161261,0.399446,0.000000,0.000000,0.000000,0.000000,0.000000,0.000000,0.000000,0.000000,0.000000,0.000000,0.000000,0.000000,0.052962,3,0
1370000,0.007549,35.352535,-0.021901,0.024077,25.930468,0.042494,-0.001443,0.037922,1.572440,-0.076469,-0.003632,0.008374,0.000671,-0.011464,-0.000051,0.000023,-0.007817,-0.008102,-0.003744,0.205471,0.205461,0.160903,0.396785,0.000000,0.000000,0.000000,0.000000,0.000000,0.000000,0.000000,0.000000,0.000000,0.000000,0.000000,0.000000,0.010872,3,0
1380000,0.007526,35.612942,-0.021882,0.023888,25.936249,0.042474,-0.001481,0.038179,1.572448,-0.076666,-0.003681,0.008516,0.000686,-0.011526,-0.000052,0.000203,-0.007793,0.031021,-0.015304,0.205643,0.205633,0.160545,0.394195,0.000000,0.000000,0.000000,0.000000,0.000000,0.000000,0.000000,0.000000,0.000000,0.000000,0.000000,0.000000,0.030888,3,0
1390000,0.007503,35.872654,-0.022255,0.023709,25.940578,0.041822,-0.001518,0.038333,1.572451,-0.076725,-0.003730,0.008800,0.000701,-0.011545,-0.000052,0.000169,-0.007768,0.009102,-0.029990,0.205817,0.205806,0.160188,0.391674,0.000000,0.000000,0.000000,0.000000,0.000000,0.000000,0.000000,0.000000,0.000000,0.000000,0.000000,0.000000,0.011556,3,0
1400000,0.007476,36.134411,-0.021507,0.023496,25.948557,0.042635,-0.001555,0.038762,1.572473,-0.077145,-0.003778,0.008675,0.000717,-0.011679,-0.000052,0.000766,-0.007742,0.067406,0.012404,0.205992,0.205980,0.159833,0.389222,0.000000,0.000000,0.000000,0.000000,0.000000,0.000000,0.000000,0.000000,0.000000,0.000000,0.000000,0.000000,0.065522,3,0
1410000,0.007448,36.396133,-0.020675,0.023236,25.956377,0.043627,-0.001600,0.039181,1.572491,-0.077541,-0.003825,0.008524,0.000732,-0.011808,-0.000053,0.000706,-0.007713,0.063995,0.015221,0.206169,0.206156,0.159478,0.386836,0.000000,0.000000,0.000000,0.000000,0.000000,0.000000,0.000000,0.000000,0.000000,0.000000,0.000000,0.000000,0.062245,3,0
1420000,0.007418,36.658501,-0.019702,0.023081,25.965267,0.044876,-0.001638,0.039688,1.572501,-0.078037,-0.003872,0.008321,0.000748,-0.011972,-0.000054,0.001119,-0.007683,0.080502,0.020256,0.206347,0.206334,0.159125,0.384516,0.000000,0.000000,0.000000,0.000000,0.000000,0.000000,0.000000,0.000000,0.000000,0.000000,0.000000,0.000000,0.078089,3,0
1430000,0.007390,36.921513,-0.020392,0.022895,25.975199,0.044105,-0.001688,0.040269,1.572508,-0.078633,-0.003919,0.008728,0.000764,-0.012172,-0.000054,0.001803,-0.007652,0.096348,-0.043010,0.206527,0.206514,0.158774,0.382260,0.000000,0.000000,0.000000,0.000000,0.000000,0.000000,0.000000,0.000000,0.000000,0.000000,0.000000,0.000000,0.093322,3,0
1440000,0.007359,37.180355,-0.020821,0.022586,25.977573,0.043708,-0.001722,0.040239,1.572512,-0.078466,-0.003966,0.009055,0.000779,-0.012115,-0.000054,0.000312,-0.007621,-0.027611,-0.033284,0.206709,0.206695,0.158424,0.380067,0.000000,0.000000,0.000000,0.000000,0.000000,0.000000,0.000000,0.000000,0.000000,0.000000,0.000000,0.000000,0.027658,3,0
1450000,0.007327,37.440578,-0.021336,0.022340,25.982386,0.042845,-0.001770,0.040403,1.572515,-0.078540,-0.004013,0.009408,0.000795,-0.012141,-0.000054,0.000244,-0.007587,0.011707,-0.036234,0.206893,0.206878,0.158076,0.377935,0.000000,0.000000,0.000000,0.000000,0.000000,0.000000,0.000000,0.000000,0.000000,0.000000,0.000000,0.000000,0.013467,3,0
1460000,0.007292,37.700787,-0.021296,0.022087,25.987118,0.042952,-0.001819,0.040565,1.572528,-0.078601,-0.004059,0.009554,0.000811,-0.012163,-0.000054,0.000061,-0.007552,0.009861,-0.014984,0.207079,0.207063,0.157730,0.375863,0.000000,0.000000,0.000000,0.000000,0.000000,0.000000,0.000000,0.000000,0.000000,0.000000,0.000000,0.000000,0.011990,3,0
1470000,0.007257,37.961666,-0.021185,0.021925,25.993013,0.042826,-0.001865,0.040810,1.572545,-0.078770,-0.004104,0.009671,0.000826,-0.012223,-0.000055,0.000158,-0.007516,0.027908,-0.012163,0.207267,0.207250,0.157387,0.373849,0.000000,0.000000,0.000000,0.000000,0.000000,0.000000,0.000000,0.000000,0.000000,0.000000,0.000000,0.000000,0.027903,3,0
1480000,0.007220,38.221146,-0.021598,0.021595,25.996311,0.042409,-0.001911,0.040852,1.572560,-0.078687,-0.004149,0.009995,0.000842,-0.012193,-0.000054,0.000213,-0.007478,-0.014362,-0.032445,0.207456,0.207439,0.157046,0.371892,0.000000,0.000000,0.000000,0.000000,0.000000,0.000000,0.000000,0.000000,0.000000,0.000000,0.000000,0.000000,0.015637,3,0
1490000,0.007182,38.480618,-0.021423,0.021432,25.999466,0.042615,-0.001960,0.040881,1.572566,-0.078596,-0.004194,0.010094,0.000858,-0.012160,-0.000054,0.000063,-0.007439,-0.015446,-0.009791,0.207647,0.207629,0.156707,0.369990,0.000000,0.000000,0.000000,0.000000,0.000000,0.000000,0.000000,0.000000,0.000000,0.000000,0.000000,0.000000,0.016551,3,0
1500000,0.007144,38.742840,-0.022106,0.021242,26.007612,0.041552,-0.001996,0.041322,1.572582,-0.078971,-0.004238,0.010511,0.000874,-0.012300,-0.000055,0.000939,-0.007399,0.062988,-0.042421,0.207840,0.207822,0.156371,0.368143,0.000000,0.000000,0.000000,0.000000,0.000000,0.000000,0.000000,0.000000,0.000000,0.000000,0.000000,0.000000,0.061221,3,0
1510000,0.007105,39.000877,-0.022786,0.020962,26.008026,0.040561,-0.002045,0.041112,1.572595,-0.078622,-0.004282,0.010946,0.000890,-0.012169,-0.000054,0.000885,-0.007359,-0.060158,-0.042522,0.208035,0.208016,0.156038,0.366349,0.000000,0.000000,0.000000,0.000000,0.000000,0.000000,0.000000,0.000000,0.000000,0.000000,0.000000,0.000000,0.058512,3,0
1520000,0.007065,39.263065,-0.023076,0.020789,26.015957,0.040322,-0.002081,0.041538,1.572607,-0.078970,-0.004325,0.011209,0.000906,-0.012302,-0.000055,0.000694,-0.007318,0.059498,-0.026758,0.208231,0.208211,0.155708,0.364606,0.000000,0.000000,0.000000,0.000000,0.000000,0.000000,0.000000,0.000000,0.000000,0.000000,0.000000,0.000000,0.057863,3,0
1530000,0.007024,39.523827,-0.024180,0.020523,26.021269,0.038841,-0.002126,0.041738,1.572623,-0.079067,-0.004368,0.011798,0.000922,-0.012340,-0.000055,0.000601,-0.007274,0.015900,-0.058279,0.208429,0.208408,0.155380,0.362914,0.000000,0.000000,0.000000,0.000000,0.000000,0.000000,0.000000,0.000000,0.000000,0.000000,0.000000,0.000000,0.016871,3,0
1540000,0.006979,39.785240,-0.023531,0.020222,26.027575,0.039631,-0.002165,0.042023,1.572632,-0.079257,-0.004409,0.011692,0.000938,-0.012415,-0.000055,0.000204,-0.007231,0.033390,0.010050,0.208629,0.208607,0.155056,0.361270,0.000000,0.000000,0.000000,0.000000,0.000000,0.000000,0.000000,0.000000,0.000000,0.000000,0.000000,0.000000,0.032977,3,0
1550000,0.006932,40.043846,-0.022584,0.019928,26.028690,0.040627,-0.002207,0.041863,1.572647,-0.078976,-0.004450,0.011484,0.000955,-0.012302,-0.000055,0.000469,-0.007183,-0.049179,0.020958,0.208830,0.208807,0.154735,0.359674,0.000000,0.000000,0.000000,0.000000,0.000000,0.000000,0.000000,0.000000,0.000000,0.000000,0.000000,0.000000,0.047970,3,0
1560000,0.006886,40.305233,-0.023518,0.019572,26.034967,0.039569,-0.002253,0.042146,1.572659,-0.079150,-0.004491,0.012016,0.000971,-0.012374,-0.000055,0.000596,-0.007132,0.030148,-0.052163,0.209032,0.209008,0.154417,0.358125,0.000000,0.000000,0.000000,0.000000,0.000000,0.000000,0.000000,0.000000,0.000000,0.000000,0.000000,0.000000,0.029895,3,0
1570000,0.006836,40.563793,-0.022569,0.019360,26.035858,0.040761,-0.002306,0.041967,1.572658,-0.078856,-0.004530,0.011806,0.000987,-0.012252,-0.000055,0.000522,-0.007084,-0.052391,0.021060,0.209236,0.209211,0.154103,0.356621,0.000000,0.000000,0.000000,0.000000,0.000000,0.000000,0.000000,0.000000,0.000000,0.000000,0.000000,0.000000,0.051020,3,0
1580000,0.006785,40.825832,-0.022375,0.019012,26.043179,0.040800,-0.002344,0.042331,1.572665,-0.079116,-0.004569,0.011884,0.001003,-0.012361,-0.000055,0.000372,-0.007031,0.046856,-0.008184,0.209441,0.209415,0.153792,0.355161,0.000000,0.000000,0.000000,0.000000,0.000000,0.000000,0.000000,0.000000,0.000000,0.000000,0.000000,0.000000,0.045726,3,0
1590000,0.006736,41.087822,-0.022947,0.018804,26.050297,0.039858,-0.002382,0.042689,1.572684,-0.079357,-0.004608,0.012275,0.001019,-0.012464,-0.000056,0.000544,-0.006978,0.043171,-0.038182,0.209646,0.209619,0.153484,0.353743,0.000000,0.000000,0.000000,0.000000,0.000000,0.000000,0.000000,0.000000,0.000000,0.000000,0.000000,0.000000,0.042198,3,0
1600000,0.006682,41.349056,-0.022508,0.018464,26.055918,0.040166,-0.002434,0.042905,1.572692,-0.079463,-0.004646,0.012256,0.001035,-0.012510,-0.000056,0.000070,-0.006925,0.019657,0.001588,0.209853,0.209825,0.153180,0.352368,0.000000,0.000000,0.000000,0.000000,0.000000,0.000000,0.000000,0.000000,0.000000,0.000000,0.000000,0.000000,0.020113,3,0
1610000,0.006628,41.607460,-0.022007,0.018197,26.056194,0.040719,-0.002471,0.042666,1.572699,-0.079125,-0.004683,0.012231,0.001052,-0.012362,-0.000055,0.000642,-0.006869,-0.062721,0.003349,0.210061,0.210031,0.152880,0.351032,0.000000,0.000000,0.000000,0.000000,0.000000,0.000000,0.000000,0.000000,0.000000,0.000000,0.000000,0.000000,0.060886,3,0
1620000,0.006572,41.866562,-0.021121,0.017898,26.057678,0.041621,-0.002516,0.042520,1.572702,-0.078895,-0.004719,0.012044,0.001068,-0.012259,-0.000055,0.000357,-0.006812,-0.042828,0.018398,0.210269,0.210239,0.152583,0.349735,0.000000,0.000000,0.000000,0.000000,0.000000,0.000000,0.000000,0.000000,0.000000,0.000000,0.000000,0.000000,0.041844,3,0
1630000,0.006518,42.124966,-0.021911,0.017639,26.057987,0.040529,-0.002560,0.042269,1.572703,-0.078563,-0.004756,0.012563,0.001084,-0.012110,-0.000054,0.001030,-0.006753,-0.063396,-0.048106,0.210477,0.210446,0.152290,0.348477,0.000000,0.000000,0.000000,0.000000,0.000000,0.000000,0.000000,0.000000,0.000000,0.000000,0.000000,0.000000,0.061526,3,0
1640000,0.006461,42.383366,-0.021780,0.017342,26.058199,0.040772,-0.002601,0.042009,1.572701,-0.078232,-0.004792,0.012696,0.001100,-0.011958,-0.000053,0.000675,-0.006696,-0.063377,-0.011475,0.210686,0.210654,0.152001,0.347255,0.000000,0.000000,0.000000,0.000000,0.000000,0.000000,0.000000,0.000000,0.000000,0.000000,0.000000,0.000000,0.061494,3,0
1650000,0.006404,42.643166,-0.022002,0.017129,26.060877,0.040322,-0.002657,0.041982,1.572707,-0.078112,-0.004827,0.012968,0.001116,-0.011902,-0.000053,0.000200,-0.006637,-0.023594,-0.025208,0.210896,0.210862,0.151715,0.346069,0.000000,0.000000,0.000000,0.000000,0.000000,0.000000,0.000000,0.000000,0.000000,0.000000,0.000000,0.000000,0.023653,3,0
1660000,0.006345,42.902233,-0.021106,0.016841,26.062286,0.041448,-0.002704,0.041815,1.572721,-0.077880,-0.004861,0.012774,0.001133,-0.011792,-0.000053,0.000389,-0.006577,-0.044872,0.018970,0.211105,0.211071,0.151434,0.344918,0.000000,0.000000,0.000000,0.000000,0.000000,0.000000,0.000000,0.000000,0.000000,0.000000,0.000000,0.000000,0.043752,3,0
1670000,0.006287,43.163399,-0.021214,0.016641,26.067467,0.041247,-0.002751,0.042004,1.572731,-0.077954,-0.004895,0.012995,0.001148,-0.011827,-0.000053,0.000109,-0.006516,0.014107,-0.020825,0.211315,0.211279,0.151156,0.343800,0.000000,0.000000,0.000000,0.000000,0.000000,0.000000,0.000000,0.000000,0.000000,0.000000,0.000000,0.000000,0.014989,3,0
1680000,0.006228,43.423119,-0.021425,0.016397,26.069836,0.040816,-0.002805,0.041941,1.572744,-0.077813,-0.004928,0.013271,0.001164,-0.011759,-0.000053,0.000239,-0.006455,-0.028442,-0.025129,0.211524,0.211487,0.150883,0.342714,0.000000,0.000000,0.000000,0.000000,0.000000,0.000000,0.000000,0.000000,0.000000,0.000000,0.000000,0.000000,0.028145,3,0
1690000,0.006167,43.682812,-0.021030,0.016024,26.072182,0.041288,-0.002852,0.041871,1.572758,-0.077665,-0.004960,0.013287,0.001180,-0.011685,-0.000052,0.000149,-0.006393,-0.029758,-0.000953,0.211733,0.211695,0.150613,0.341660,0.000000,0.000000,0.000000,0.000000,0.000000,0.000000,0.000000,0.000000,0.000000,0.000000,0.000000,0.000000,0.029364,3,0
1700000,0.006105,43.943184,-0.020893,0.015683,26.075743,0.041294,-0.002902,0.041915,1.572770,-0.077612,-0.004991,0.013412,0.001196,-0.011658,-0.000052,0.000047,-0.006328,-0.011173,-0.011280,0.211942,0.211902,0.150347,0.340637,0.000000,0.000000,0.000000,0.000000,0.000000,0.000000,0.000000,0.000000,0.000000,0.000000,0.000000,0.000000,0.012389,3,0
1710000,0.006042,44.202114,-0.020462,0.015460,26.076586,0.041911,-0.002943,0.041695,1.572777,-0.077355,-0.005022,0.013422,0.001211,-0.011526,-0.000052,0.000456,-0.006264,-0.052910,0.000044,0.212150,0.212109,0.150085,0.339643,0.000000,0.000000,0.000000,0.000000,0.000000,0.000000,0.000000,0.000000,0.000000,0.000000,0.000000,0.000000,0.051397,3,0
1720000,0.005978,44.465248,-0.019734,0.015088,26.085197,0.042689,-0.002981,0.042189,1.572787,-0.077669,-0.005051,0.013269,0.001227,-0.011691,-0.000052,0.000730,-0.006197,0.065849,0.012766,0.212357,0.212315,0.149827,0.338678,0.000000,0.000000,0.000000,0.000000,0.000000,0.000000,0.000000,0.000000,0.000000,0.000000,0.000000,0.000000,0.063803,3,0
