time_us,pos_x,pos_y,pos_z,vel_x,vel_y,vel_z,roll,pitch,yaw,bias_ax,bias_ay,bias_az,bias_gx,bias_gy,bias_gz,nis,innov_x,innov_y,innov_z,cov_pos_x,cov_pos_y,cov_pos_z,cov_yaw,des_speed,des_heading,des_climb,pid_speed,pid_yaw,pid_alt,speed_meas,yaw_meas,climb_meas,fwd_accel,yaw_rate,vert_accel,drift_m,nav_mode,mission_state
0,-0.000001,0.150001,-0.000002,-0.000126,25.000246,-0.000481,-0.000014,-0.000003,1.570801,0.000000,0.000000,0.000000,0.000000,0.000000,0.000000,0.006250,0.000001,-0.250005,0.000005,2.400038,2.400038,3.600017,1.000518,0.000000,0.000000,0.000000,0.000000,0.000000,0.000000,0.000000,0.000000,0.000000,0.000000,0.000000,0.000000,0.150001,1,0
10000,-0.000003,0.370914,-0.018351,-0.000303,25.000587,-0.000778,-0.000022,-0.000005,1.570803,0.000000,0.000000,0.000000,0.000000,0.000000,0.000000,0.001483,0.000004,-0.101825,-0.048912,1.714420,1.714420,2.250079,1.001073,0.000000,0.000000,0.000000,0.000000,0.000000,0.000000,0.000000,0.000000,0.000000,0.000000,0.000000,0.000000,0.072730,3,0
20000,-0.000006,0.593375,-0.025417,-0.000501,25.000818,-0.001010,-0.000033,-0.000003,1.570820,0.000001,0.000000,0.000000,0.000000,0.000000,-0.000000,0.002073,0.000008,-0.123953,-0.025868,1.333616,1.333616,1.636554,1.001655,0.000000,0.000000,0.000000,0.000000,0.000000,0.000000,0.000000,0.000000,0.000000,0.000000,0.000000,0.000000,0.096402,3,0
30000,-0.000010,0.845463,-0.017151,-0.000655,25.001369,-0.001001,-0.000050,-0.000002,1.570836,0.000001,0.000000,-0.000000,-0.000000,0.000000,-0.000000,0.000213,0.000013,0.011405,0.038615,1.091392,1.091392,1.286065,1.002257,0.000000,0.000000,0.000000,0.000000,0.000000,0.000000,0.000000,0.000000,0.000000,0.000000,0.000000,0.000000,0.009331,3,0
40000,-0.000016,1.095152,-0.022386,-0.000905,25.001854,-0.001284,-0.000064,-0.000013,1.570840,0.000001,0.000000,0.000001,0.000000,0.000000,-0.000000,0.000121,0.000019,-0.002141,-0.029585,0.923811,0.923811,1.059385,1.002869,0.000000,0.000000,0.000000,0.000000,0.000000,0.000000,0.000000,0.000000,0.000000,0.000000,0.000000,0.000000,0.001811,3,0
50000,-0.000024,1.343401,-0.021828,-0.001083,25.002285,-0.001477,-0.000091,-0.000014,1.570850,0.000002,0.000000,0.000000,-0.000000,0.000000,-0.000000,0.000028,0.000027,-0.013288,0.003816,0.801036,0.801036,0.900822,1.003484,0.000000,0.000000,0.000000,0.000000,0.000000,0.000000,0.000000,0.000000,0.000000,0.000000,0.000000,0.000000,0.011514,3,0
60000,-0.000032,1.590720,-0.022094,-0.001228,25.002773,-0.001768,-0.000109,-0.000011,1.570868,0.000003,0.000000,0.000000,-0.000000,0.000000,-0.000000,0.000078,0.000036,-0.022996,-0.001897,0.707270,0.707270,0.783741,1.004094,0.000000,0.000000,0.000000,0.000000,0.000000,0.000000,0.000000,0.000000,0.000000,0.000000,0.000000,0.000000,0.020285,3,0
70000,-0.000041,1.843694,-0.018665,-0.001378,25.003481,-0.001971,-0.000132,-0.000006,1.570874,0.000001,0.000000,-0.000002,-0.000000,-0.000000,0.000000,0.000247,0.000045,0.027866,0.029834,0.633370,0.633370,0.693801,1.004688,0.000000,0.000000,0.000000,0.000000,0.000000,0.000000,0.000000,0.000000,0.000000,0.000000,0.000000,0.000000,0.024924,3,0
80000,-0.000051,2.083614,-0.020105,-0.001633,25.003160,-0.002216,-0.000152,-0.000016,1.570887,0.000012,0.000000,-0.000000,-0.000000,0.000000,-0.000000,0.001716,0.000057,-0.105842,-0.013668,0.573673,0.573673,0.622594,1.005260,0.000000,0.000000,0.000000,0.000000,0.000000,0.000000,0.000000,0.000000,0.000000,0.000000,0.000000,0.000000,0.095723,3,0
90000,-0.000063,2.327756,-0.017588,-0.001719,25.003212,-0.002299,-0.000173,-0.000025,1.570900,0.000020,0.000000,-0.000004,-0.000000,0.000000,-0.000000,0.000802,0.000069,-0.067456,0.027000,0.524488,0.524488,0.564865,1.005801,0.000000,0.000000,0.000000,0.000000,0.000000,0.000000,0.000000,0.000000,0.000000,0.000000,0.000000,0.000000,0.061559,3,0
100000,-0.000075,2.571908,-0.015233,-0.001876,25.002996,-0.002403,-0.000186,-0.000035,1.570904,0.000032,0.000000,-0.000008,-0.000000,0.000000,-0.000000,0.000934,0.000081,-0.073049,0.027630,0.483303,0.483303,0.517162,1.006301,0.000000,0.000000,0.000000,0.000000,0.000000,0.000000,0.000000,0.000000,0.000000,0.000000,0.000000,0.000000,0.067165,3,0
110000,-0.000088,2.826465,-0.012297,-0.002065,25.004196,-0.002359,-0.000201,-0.000036,1.570921,0.000021,0.000000,-0.000015,-0.000000,0.000000,-0.000000,0.000777,0.000096,0.060498,0.037259,0.448353,0.448353,0.477121,1.006754,0.000000,0.000000,0.000000,0.000000,0.000000,0.000000,0.000000,0.000000,0.000000,0.000000,0.000000,0.000000,0.055978,3,0
120000,-0.000103,3.074070,-0.009385,-0.002263,25.004385,-0.002123,-0.000218,-0.000034,1.570932,0.000028,0.000000,-0.000023,-0.000000,0.000000,-0.000000,0.000435,0.000111,-0.035039,0.039789,0.418358,0.418358,0.443071,1.007150,0.000000,0.000000,0.000000,0.000000,0.000000,0.000000,0.000000,0.000000,0.000000,0.000000,0.000000,0.000000,0.032596,3,0
130000,-0.000120,3.321236,-0.012412,-0.002463,25.004438,-0.003065,-0.000237,-0.000046,1.570933,0.000039,0.000000,-0.000012,-0.000000,0.000001,-0.000000,0.000597,0.000128,-0.044098,-0.043522,0.392369,0.392369,0.413797,1.007481,0.000000,0.000000,0.000000,0.000000,0.000000,0.000000,0.000000,0.000000,0.000000,0.000000,0.000000,0.000000,0.041215,3,0
140000,-0.000136,3.569262,-0.010859,-0.002569,25.004477,-0.002996,-0.000264,-0.000059,1.570937,0.000049,0.000000,-0.000019,-0.000000,0.000001,-0.000000,0.000262,0.000145,-0.032838,0.024499,0.369666,0.369666,0.388393,1.007739,0.000000,0.000000,0.000000,0.000000,0.000000,0.000000,0.000000,0.000000,0.000000,0.000000,0.000000,0.000000,0.030815,3,0
150000,-0.000154,3.819163,-0.011083,-0.002720,25.005039,-0.003484,-0.000291,-0.000056,1.570947,0.000050,0.000000,-0.000018,-0.000000,0.000001,-0.000000,0.000003,0.000164,-0.002560,-0.003105,0.349695,0.349695,0.366172,1.007915,0.000000,0.000000,0.000000,0.000000,0.000000,0.000000,0.000000,0.000000,0.000000,0.000000,0.000000,0.000000,0.002416,3,0
160000,-0.000174,4.070649,-0.008426,-0.002986,25.006002,-0.003015,-0.000301,-0.000052,1.570964,0.000040,0.000000,-0.000036,-0.000000,0.000001,-0.000000,0.000447,0.000184,0.025837,0.046628,0.332020,0.332020,0.346600,1.008002,0.000000,0.000000,0.000000,0.000000,0.000000,0.000000,0.000000,0.000000,0.000000,0.000000,0.000000,0.000000,0.024408,3,0
170000,-0.000194,4.321393,-0.011102,-0.003103,25.006693,-0.004076,-0.000321,-0.000054,1.570970,0.000035,0.000000,-0.000016,-0.000000,0.000000,-0.000000,0.000391,0.000205,0.012890,-0.048149,0.316297,0.316297,0.329260,1.007991,0.000000,0.000000,0.000000,0.000000,0.000000,0.000000,0.000000,0.000000,0.000000,0.000000,0.000000,0.000000,0.012212,3,0
180000,-0.000216,4.576509,-0.011468,-0.003351,25.008987,-0.004461,-0.000332,-0.000048,1.570989,-0.000013,0.000000,-0.000013,-0.000000,-0.000001,0.000000,0.001591,0.000228,0.100079,-0.006174,0.302246,0.302246,0.313817,1.007875,0.000000,0.000000,0.000000,0.000000,0.000000,0.000000,0.000000,0.000000,0.000000,0.000000,0.000000,0.000000,0.095037,3,0
190000,-0.000239,4.830633,-0.011391,-0.003504,25.010908,-0.004681,-0.000355,-0.000036,1.570989,-0.000057,0.000001,-0.000014,-0.000000,-0.000002,0.000000,0.001107,0.000251,0.083489,0.002488,0.289641,0.289641,0.300003,1.007645,0.000000,0.000000,0.000000,0.000000,0.000000,0.000000,0.000000,0.000000,0.000000,0.000000,0.000000,0.000000,0.079460,3,0
200000,-0.000263,5.082973,-0.009909,-0.003643,25.012239,-0.004383,-0.000369,-0.000037,1.570991,-0.000085,0.000001,-0.000032,-0.000000,-0.000003,0.000000,0.000528,0.000276,0.048014,0.031946,0.278295,0.278295,0.287598,1.007295,0.000000,0.000000,0.000000,0.000000,0.000000,0.000000,0.000000,0.000000,0.000000,0.000000,0.000000,0.000000,0.045788,3,0
210000,-0.000288,5.339958,-0.010223,-0.003845,25.015709,-0.004969,-0.000387,-0.000007,1.571003,-0.000183,0.000001,-0.000029,-0.000000,-0.000006,0.000000,0.003756,0.000301,0.153480,-0.005761,0.268053,0.268053,0.276421,1.006816,0.000000,0.000000,0.000000,0.000000,0.000000,0.000000,0.000000,0.000000,0.000000,0.000000,0.000000,0.000000,0.146623,3,0
220000,-0.000314,5.597658,-0.012052,-0.004003,25.019697,-0.005880,-0.000413,0.000026,1.571014,-0.000306,0.000001,-0.000001,-0.000000,-0.000009,0.000000,0.005126,0.000328,0.174765,-0.040043,0.258786,0.258786,0.266321,1.006202,0.000000,0.000000,0.000000,0.000000,0.000000,0.000000,0.000000,0.000000,0.000000,0.000000,0.000000,0.000000,0.167228,3,0
230000,-0.000341,5.851864,-0.010003,-0.004151,25.022186,-0.005042,-0.000441,0.000044,1.571029,-0.000379,0.000001,-0.000038,-0.000000,-0.000012,0.000000,0.001856,0.000355,0.095935,0.049210,0.250385,0.250385,0.257172,1.005446,0.000000,0.000000,0.000000,0.000000,0.000000,0.000000,0.000000,0.000000,0.000000,0.000000,0.000000,0.000000,0.091932,3,0
240000,-0.000368,6.102925,-0.009919,-0.004314,25.023146,-0.005408,-0.000453,0.000058,1.571046,-0.000396,0.000002,-0.000041,-0.000000,-0.000012,0.000000,0.000070,0.000384,0.020615,0.003340,0.242755,0.242755,0.248866,1.004541,0.000000,0.000000,0.000000,0.000000,0.000000,0.000000,0.000000,0.000000,0.000000,0.000000,0.000000,0.000000,0.019785,3,0
250000,-0.000396,6.354261,-0.008372,-0.004434,25.024332,-0.004797,-0.000475,0.000063,1.571061,-0.000420,0.000002,-0.000076,-0.000000,-0.000013,0.000000,0.000380,0.000413,0.027970,0.039881,0.235817,0.235817,0.241314,1.003481,0.000000,0.000000,0.000000,0.000000,0.000000,0.000000,0.000000,0.000000,0.000000,0.000000,0.000000,0.000000,0.026874,3,0
260000,-0.000426,6.607371,-0.006890,-0.004608,25.026571,-0.004336,-0.000485,0.000083,1.571072,-0.000492,0.000003,-0.000113,-0.000000,-0.000016,0.000000,0.001144,0.000443,0.074807,0.039247,0.229503,0.229503,0.234436,1.002259,0.000000,0.000000,0.000000,0.000000,0.000000,0.000000,0.000000,0.000000,0.000000,0.000000,0.000000,0.000000,0.071946,3,0
270000,-0.000455,6.862854,-0.008413,-0.004736,25.030550,-0.005360,-0.000505,0.000133,1.571072,-0.000636,0.000003,-0.000073,-0.000000,-0.000021,0.000000,0.003375,0.000473,0.139736,-0.038869,0.223753,0.223753,0.228165,1.000869,0.000000,0.000000,0.000000,0.000000,0.000000,0.000000,0.000000,0.000000,0.000000,0.000000,0.000000,0.000000,0.134526,3,0
280000,-0.000487,7.116187,-0.006922,-0.004969,25.033150,-0.004837,-0.000521,0.000151,1.571072,-0.000728,0.000004,-0.000119,-0.000000,-0.000025,0.000000,0.001387,0.000505,0.083003,0.041801,0.218515,0.218515,0.222443,0.999308,0.000000,0.000000,0.000000,0.000000,0.000000,0.000000,0.000000,0.000000,0.000000,0.000000,0.000000,0.000000,0.079982,3,0
290000,-0.000520,7.373202,-0.007869,-0.005196,25.038534,-0.005778,-0.000530,0.000227,1.571090,-0.000949,0.000004,-0.000090,-0.000000,-0.000034,0.000000,0.005747,0.000539,0.187465,-0.024723,0.213743,0.213743,0.217219,0.997568,0.000000,0.000000,0.000000,0.000000,0.000000,0.000000,0.000000,0.000000,0.000000,0.000000,0.000000,0.000000,0.180787,3,0
300000,-0.000554,7.628101,-0.009382,-0.005419,25.042551,-0.007283,-0.000548,0.000270,1.571096,-0.001111,0.000005,-0.000039,-0.000000,-0.000041,0.000000,0.002954,0.000574,0.129185,-0.040976,0.209397,0.209397,0.212446,0.995646,0.000000,0.000000,0.000000,0.000000,0.000000,0.000000,0.000000,0.000000,0.000000,0.000000,0.000000,0.000000,0.124677,3,0
310000,-0.000590,7.882395,-0.007970,-0.005673,25.046291,-0.006384,-0.000573,0.000317,1.571101,-0.001262,0.000006,-0.000096,-0.000000,-0.000048,0.000000,0.002343,0.000611,0.112792,0.042863,0.205442,0.205442,0.208087,0.993537,0.000000,0.000000,0.000000,0.000000,0.000000,0.000000,0.000000,0.000000,0.000000,0.000000,0.000000,0.000000,0.108931,3,0
320000,-0.000628,8.138135,-0.008718,-0.005961,25.051445,-0.007395,-0.000589,0.000384,1.571104,-0.001484,0.000007,-0.000068,-0.000000,-0.000058,0.000000,0.004016,0.000650,0.156643,-0.019959,0.201846,0.201845,0.204105,0.991238,0.000000,0.000000,0.000000,0.000000,0.000000,0.000000,0.000000,0.000000,0.000000,0.000000,0.000000,0.000000,0.151374,3,0
330000,-0.000668,8.391953,-0.009312,-0.006222,25.054897,-0.008142,-0.000601,0.000434,1.571112,-0.001633,0.000008,-0.000045,-0.000000,-0.000065,0.000000,0.001639,0.000690,0.099643,-0.015452,0.198580,0.198580,0.200469,0.988744,0.000000,0.000000,0.000000,0.000000,0.000000,0.000000,0.000000,0.000000,0.000000,0.000000,0.000000,0.000000,0.096347,3,0
340000,-0.000708,8.647850,-0.009938,-0.006419,25.060432,-0.009055,-0.000627,0.000510,1.571122,-0.001892,0.000009,-0.000019,-0.000000,-0.000078,0.000000,0.004372,0.000732,0.163853,-0.016433,0.195619,0.195619,0.197151,0.986054,0.000000,0.000000,0.000000,0.000000,0.000000,0.000000,0.000000,0.000000,0.000000,0.000000,0.000000,0.000000,0.158512,3,0
350000,-0.000750,8.905087,-0.009023,-0.006682,25.067345,-0.008410,-0.000646,0.000618,1.571123,-0.002236,0.000010,-0.000071,-0.000000,-0.000095,0.000000,0.007007,0.000775,0.206084,0.031147,0.192941,0.192941,0.194125,0.983164,0.000000,0.000000,0.000000,0.000000,0.000000,0.000000,0.000000,0.000000,0.000000,0.000000,0.000000,0.000000,0.199459,3,0
360000,-0.000793,9.159190,-0.010408,-0.006890,25.071390,-0.009772,-0.000658,0.000676,1.571131,-0.002425,0.000012,0.000000,-0.000001,-0.000105,0.000000,0.002143,0.000819,0.107808,-0.040708,0.190524,0.190524,0.191370,0.980074,0.000000,0.000000,0.000000,0.000000,0.000000,0.000000,0.000000,0.000000,0.000000,0.000000,0.000000,0.000000,0.104387,3,0
370000,-0.000837,9.415300,-0.009086,-0.007017,25.077543,-0.008838,-0.000681,0.000775,1.571133,-0.002742,0.000014,-0.000083,-0.000001,-0.000122,0.000000,0.005091,0.000864,0.171728,0.045217,0.188350,0.188350,0.188863,0.976780,0.000000,0.000000,0.000000,0.000000,0.000000,0.000000,0.000000,0.000000,0.000000,0.000000,0.000000,0.000000,0.166339,3,0
380000,-0.000882,9.672724,-0.008390,-0.007310,25.085394,-0.008298,-0.000704,0.000912,1.571142,-0.003155,0.000015,-0.000131,-0.000001,-0.000144,0.000000,0.007481,0.000910,0.213737,0.025322,0.186401,0.186400,0.186586,0.973283,0.000000,0.000000,0.000000,0.000000,0.000000,0.000000,0.000000,0.000000,0.000000,0.000000,0.000000,0.000000,0.207099,3,0
390000,-0.000927,9.927132,-0.008165,-0.007424,25.089977,-0.008138,-0.000724,0.000980,1.571154,-0.003388,0.000017,-0.000152,-0.000001,-0.000157,0.000000,0.002163,0.000956,0.115269,0.010066,0.184661,0.184661,0.184522,0.969582,0.000000,0.000000,0.000000,0.000000,0.000000,0.000000,0.000000,0.000000,0.000000,0.000000,0.000000,0.000000,0.111725,3,0
400000,-0.000974,10.184711,-0.008478,-0.007703,25.098303,-0.008593,-0.000749,0.001125,1.571161,-0.003851,0.000020,-0.000136,-0.000001,-0.000184,0.000000,0.007733,0.001004,0.218635,-0.007517,0.183116,0.183116,0.182656,0.965677,0.000000,0.000000,0.000000,0.000000,0.000000,0.000000,0.000000,0.000000,0.000000,0.000000,0.000000,0.000000,0.211964,3,0
410000,-0.001021,10.442348,-0.007440,-0.007894,25.106936,-0.007477,-0.000776,0.001277,1.571171,-0.004336,0.000022,-0.000218,-0.000001,-0.000213,0.000000,0.008005,0.001053,0.219397,0.037311,0.181752,0.181752,0.180971,0.961568,0.000000,0.000000,0.000000,0.000000,0.000000,0.000000,0.000000,0.000000,0.000000,0.000000,0.000000,0.000000,0.212753,3,0
420000,-0.001068,10.700645,-0.006385,-0.008006,25.116373,-0.006649,-0.000797,0.001450,1.571169,-0.004889,0.000025,-0.000305,-0.000001,-0.000247,0.000000,0.009542,0.001102,0.239980,0.037925,0.180558,0.180558,0.179456,0.957257,0.000000,0.000000,0.000000,0.000000,0.000000,0.000000,0.000000,0.000000,0.000000,0.000000,0.000000,0.000000,0.232761,3,0
430000,-0.001117,10.957809,-0.006231,-0.008246,25.124674,-0.006569,-0.000815,0.001603,1.571170,-0.005369,0.000027,-0.000323,-0.000001,-0.000277,0.000000,0.006493,0.001151,0.200254,0.007512,0.179520,0.179520,0.178097,0.952745,0.000000,0.000000,0.000000,0.000000,0.000000,0.000000,0.000000,0.000000,0.000000,0.000000,0.000000,0.000000,0.194266,3,0
440000,-0.001166,11.214470,-0.007542,-0.008472,25.132366,-0.008196,-0.000837,0.001755,1.571184,-0.005822,0.000031,-0.000218,-0.000002,-0.000306,0.000001,0.005618,0.001202,0.181555,-0.042184,0.178630,0.178629,0.176883,0.948035,0.000000,0.000000,0.000000,0.000000,0.000000,0.000000,0.000000,0.000000,0.000000,0.000000,0.000000,0.000000,0.176153,3,0
450000,-0.001217,11.473001,-0.008625,-0.008720,25.142508,-0.009748,-0.000852,0.001961,1.571191,-0.006451,0.000034,-0.000130,-0.000002,-0.000348,0.000001,0.009728,0.001254,0.242880,-0.034008,0.177875,0.177875,0.175803,0.943129,0.000000,0.000000,0.000000,0.000000,0.000000,0.000000,0.000000,0.000000,0.000000,0.000000,0.000000,0.000000,0.235683,3,0
460000,-0.001269,11.729843,-0.008117,-0.008993,25.150640,-0.009425,-0.000875,0.002121,1.571199,-0.006943,0.000037,-0.000186,-0.000002,-0.000381,0.000001,0.005490,0.001307,0.183035,0.020925,0.177248,0.177247,0.174847,0.938030,0.000000,0.000000,0.000000,0.000000,0.000000,0.000000,0.000000,0.000000,0.000000,0.000000,0.000000,0.000000,0.177632,3,0
470000,-0.001322,11.984450,-0.006928,-0.009288,25.155603,-0.008050,-0.000896,0.002227,1.571217,-0.007235,0.000041,-0.000310,-0.000002,-0.000401,0.000001,0.002103,0.001362,0.105023,0.044347,0.176738,0.176738,0.174006,0.932742,0.000000,0.000000,0.000000,0.000000,0.000000,0.000000,0.000000,0.000000,0.000000,0.000000,0.000000,0.000000,0.101938,3,0
480000,-0.001375,12.240380,-0.007522,-0.009451,25.162466,-0.008795,-0.000916,0.002379,1.571226,-0.007663,0.000045,-0.000259,-0.000003,-0.000431,0.000001,0.003621,0.001417,0.148551,-0.017731,0.176339,0.176338,0.173271,0.927269,0.000000,0.000000,0.000000,0.000000,0.000000,0.000000,0.000000,0.000000,0.000000,0.000000,0.000000,0.000000,0.144192,3,0
490000,-0.001429,12.497610,-0.008153,-0.009588,25.171320,-0.009758,-0.000924,0.002566,1.571242,-0.008231,0.000050,-0.000203,-0.000003,-0.000472,0.000001,0.005943,0.001472,0.190735,-0.018773,0.176041,0.176040,0.172634,0.921616,0.000000,0.000000,0.000000,0.000000,0.000000,0.000000,0.000000,0.000000,0.000000,0.000000,0.000000,0.000000,0.185144,3,0
500000,-0.001482,12.756702,-0.008136,-0.009721,25.182833,-0.009699,-0.000948,0.002836,1.571246,-0.009004,0.000055,-0.000216,-0.000003,-0.000530,0.000001,0.010234,0.001526,0.251479,0.004061,0.175837,0.175837,0.172087,0.915787,0.000000,0.000000,0.000000,0.000000,0.000000,0.000000,0.000000,0.000000,0.000000,0.000000,0.000000,0.000000,0.244114,3,0
510000,-0.001536,13.012971,-0.008347,-0.010010,25.190258,-0.010182,-0.000969,0.002999,1.571254,-0.009484,0.000060,-0.000204,-0.000004,-0.000566,0.000001,0.003706,0.001583,0.151302,-0.003843,0.175721,0.175721,0.171622,0.909788,0.000000,0.000000,0.000000,0.000000,0.000000,0.000000,0.000000,0.000000,0.000000,0.000000,0.000000,0.000000,0.146880,3,0
520000,-0.001590,13.270539,-0.007595,-0.010124,25.199686,-0.009167,-0.000984,0.003219,1.571265,-0.010116,0.000065,-0.000302,-0.000004,-0.000615,0.000001,0.006181,0.001638,0.193142,0.029989,0.175686,0.175685,0.171234,0.903624,0.000000,0.000000,0.000000,0.000000,0.000000,0.000000,0.000000,0.000000,0.000000,0.000000,0.000000,0.000000,0.187493,3,0
530000,-0.001644,13.527061,-0.006802,-0.010305,25.207529,-0.008189,-0.001004,0.003408,1.571279,-0.010634,0.000071,-0.000408,-0.000005,-0.000656,0.000001,0.004002,0.001694,0.154148,0.031161,0.175725,0.175724,0.170914,0.897303,0.000000,0.000000,0.000000,0.000000,0.000000,0.000000,0.000000,0.000000,0.000000,0.000000,0.000000,0.000000,0.149642,3,0
540000,-0.001698,13.783717,-0.008269,-0.010423,25.215458,-0.010238,-0.001013,0.003610,1.571288,-0.011174,0.000077,-0.000239,-0.000005,-0.000699,0.000001,0.004319,0.001749,0.155974,-0.048612,0.175832,0.175832,0.170658,0.890829,0.000000,0.000000,0.000000,0.000000,0.000000,0.000000,0.000000,0.000000,0.000000,0.000000,0.000000,0.000000,0.151413,3,0
550000,-0.001752,14.042839,-0.007934,-0.010630,25.227283,-0.010052,-0.001035,0.003916,1.571292,-0.012018,0.000084,-0.000295,-0.000006,-0.000769,0.000001,0.009141,0.001805,0.237181,0.015613,0.176002,0.176002,0.170460,0.884211,0.000000,0.000000,0.000000,0.000000,0.000000,0.000000,0.000000,0.000000,0.000000,0.000000,0.000000,0.000000,0.230230,3,0
560000,-0.001807,14.299146,-0.007908,-0.010904,25.234678,-0.010341,-0.001057,0.004091,1.571292,-0.012519,0.000091,-0.000312,-0.000006,-0.000811,0.000002,0.003039,0.001862,0.136970,0.004647,0.176230,0.176229,0.170314,0.877454,0.000000,0.000000,0.000000,0.000000,0.000000,0.000000,0.000000,0.000000,0.000000,0.000000,0.000000,0.000000,0.132959,3,0
570000,-0.001862,14.555007,-0.007363,-0.010989,25.241234,-0.009595,-0.001064,0.004253,1.571296,-0.012965,0.000098,-0.000400,-0.000007,-0.000849,0.000002,0.002382,0.001918,0.119138,0.022939,0.176509,0.176508,0.170214,0.870566,0.000000,0.000000,0.000000,0.000000,0.000000,0.000000,0.000000,0.000000,0.000000,0.000000,0.000000,0.000000,0.115648,3,0
580000,-0.001916,14.811601,-0.007352,-0.011196,25.248995,-0.009909,-0.001090,0.004460,1.571296,-0.013509,0.000106,-0.000416,-0.000008,-0.000896,0.000002,0.003243,0.001975,0.141516,0.003982,0.176836,0.176835,0.170157,0.863556,0.000000,0.000000,0.000000,0.000000,0.000000,0.000000,0.000000,0.000000,0.000000,0.000000,0.000000,0.000000,0.137359,3,0
590000,-0.001972,15.069507,-0.008792,-0.011418,25.258812,-0.012216,-0.001107,0.004720,1.571309,-0.014229,0.000114,-0.000228,-0.000008,-0.000961,0.000002,0.005779,0.002032,0.183027,-0.047126,0.177205,0.177205,0.170138,0.856429,0.000000,0.000000,0.000000,0.000000,0.000000,0.000000,0.000000,0.000000,0.000000,0.000000,0.000000,0.000000,0.177633,3,0
600000,-0.002027,15.328126,-0.009505,-0.011637,25.269852,-0.013485,-0.001121,0.005033,1.571313,-0.015047,0.000123,-0.000143,-0.000009,-0.001035,0.000002,0.006756,0.002089,0.203327,-0.020625,0.177613,0.177612,0.170152,0.849195,0.000000,0.000000,0.000000,0.000000,0.000000,0.000000,0.000000,0.000000,0.000000,0.000000,0.000000,0.000000,0.197319,3,0
610000,-0.002083,15.583912,-0.008344,-0.011907,25.276169,-0.011945,-0.001140,0.005188,1.571319,-0.015474,0.000132,-0.000336,-0.000010,-0.001075,0.000002,0.002078,0.002147,0.103628,0.045843,0.178055,0.178054,0.170196,0.841860,0.000000,0.000000,0.000000,0.000000,0.000000,0.000000,0.000000,0.000000,0.000000,0.000000,0.000000,0.000000,0.100575,3,0
620000,-0.002140,15.843395,-0.009807,-0.012057,25.288504,-0.014035,-0.001152,0.005550,1.571317,-0.016422,0.000141,-0.000134,-0.000011,-0.001164,0.000002,0.008583,0.002205,0.225478,-0.047245,0.178527,0.178526,0.170265,0.834434,0.000000,0.000000,0.000000,0.000000,0.000000,0.000000,0.000000,0.000000,0.000000,0.000000,0.000000,0.000000,0.218780,3,0
630000,-0.002195,16.100019,-0.010759,-0.012138,25.295866,-0.015448,-0.001170,0.005758,1.571319,-0.016959,0.000151,-0.000009,-0.000012,-0.001216,0.000002,0.002654,0.002262,0.124903,-0.028456,0.179026,0.179025,0.170356,0.826924,0.000000,0.000000,0.000000,0.000000,0.000000,0.000000,0.000000,0.000000,0.000000,0.000000,0.000000,0.000000,0.121196,3,0
640000,-0.002250,16.360350,-0.011758,-0.012392,25.309410,-0.016980,-0.001192,0.006160,1.571319,-0.018037,0.000161,0.000123,-0.000013,-0.001322,0.000003,0.009919,0.002320,0.245905,-0.029549,0.179548,0.179547,0.170465,0.819338,0.000000,0.000000,0.000000,0.000000,0.000000,0.000000,0.000000,0.000000,0.000000,0.000000,0.000000,0.000000,0.238557,3,0
650000,-0.002305,16.620180,-0.010788,-0.012494,25.322046,-0.015759,-0.001211,0.006537,1.571327,-0.019037,0.000172,-0.000063,-0.000014,-0.001422,0.000003,0.008375,0.002377,0.223986,0.040326,0.180090,0.180089,0.170591,0.811684,0.000000,0.000000,0.000000,0.000000,0.000000,0.000000,0.000000,0.000000,0.000000,0.000000,0.000000,0.000000,0.217274,3,0
660000,-0.002359,16.877121,-0.011498,-0.012614,25.329754,-0.016890,-0.001233,0.006769,1.571327,-0.019598,0.000183,0.000027,-0.000015,-0.001479,0.000003,0.002509,0.002432,0.123058,-0.019249,0.180648,0.180647,0.170729,0.803972,0.000000,0.000000,0.000000,0.000000,0.000000,0.000000,0.000000,0.000000,0.000000,0.000000,0.000000,0.000000,0.119376,3,0
670000,-0.002414,17.135391,-0.010980,-0.012836,25.339510,-0.015982,-0.001241,0.007062,1.571340,-0.020359,0.000195,-0.000090,-0.000016,-0.001558,0.000003,0.004455,0.002489,0.164225,0.024217,0.181220,0.181219,0.170877,0.796207,0.000000,0.000000,0.000000,0.000000,0.000000,0.000000,0.000000,0.000000,0.000000,0.000000,0.000000,0.000000,0.159284,3,0
680000,-0.002469,17.394382,-0.012292,-0.013076,25.350468,-0.018113,-0.001256,0.007413,1.571339,-0.021228,0.000207,0.000105,-0.000017,-0.001650,0.000003,0.005744,0.002546,0.184160,-0.040209,0.181804,0.181802,0.171033,0.788400,0.000000,0.000000,0.000000,0.000000,0.000000,0.000000,0.000000,0.000000,0.000000,0.000000,0.000000,0.000000,0.178596,3,0
690000,-0.002523,17.655293,-0.012909,-0.013214,25.364588,-0.019122,-0.001263,0.007882,1.571345,-0.022395,0.000220,0.000179,-0.000019,-0.001775,0.000004,0.009590,0.002602,0.243122,-0.015062,0.182396,0.182394,0.171194,0.780557,0.000000,0.000000,0.000000,0.000000,0.000000,0.000000,0.000000,0.000000,0.000000,0.000000,0.000000,0.000000,0.235745,3,0
700000,-0.002577,17.912046,-0.013697,-0.013315,25.371456,-0.020476,-0.001267,0.008080,1.571351,-0.022889,0.000233,0.000283,-0.000020,-0.001829,0.000004,0.001730,0.002658,0.101343,-0.020689,0.182993,0.182992,0.171357,0.772686,0.000000,0.000000,0.000000,0.000000,0.000000,0.000000,0.000000,0.000000,0.000000,0.000000,0.000000,0.000000,0.098285,3,0
710000,-0.002631,18.168926,-0.013257,-0.013562,25.378412,-0.019811,-0.001282,0.008296,1.571358,-0.023399,0.000247,0.000165,-0.000022,-0.001886,0.000004,0.001797,0.002714,0.102947,0.022721,0.183595,0.183594,0.171522,0.764795,0.000000,0.000000,0.000000,0.000000,0.000000,0.000000,0.000000,0.000000,0.000000,0.000000,0.000000,0.000000,0.099833,3,0
720000,-0.002685,18.425932,-0.013010,-0.013778,25.385525,-0.019328,-0.001292,0.008516,1.571369,-0.023924,0.000261,0.000083,-0.000023,-0.001945,0.000004,0.001803,0.002770,0.104424,0.015670,0.184199,0.184197,0.171686,0.756892,0.000000,0.000000,0.000000,0.000000,0.000000,0.000000,0.000000,0.000000,0.000000,0.000000,0.000000,0.000000,0.101253,3,0
730000,-0.002738,18.685511,-0.012484,-0.013931,25.397083,-0.018678,-0.001301,0.008914,1.571382,-0.024870,0.000275,-0.000054,-0.000025,-0.002054,0.000004,0.005651,0.002826,0.185287,0.025362,0.184803,0.184801,0.171847,0.748984,0.000000,0.000000,0.000000,0.000000,0.000000,0.000000,0.000000,0.000000,0.000000,0.000000,0.000000,0.000000,0.179602,3,0
740000,-0.002791,18.944571,-0.011694,-0.014001,25.407570,-0.017368,-0.001315,0.009274,1.571384,-0.025719,0.000291,-0.000240,-0.000027,-0.002153,0.000004,0.004543,0.002880,0.164139,0.034231,0.185405,0.185403,0.172004,0.741078,0.000000,0.000000,0.000000,0.000000,0.000000,0.000000,0.000000,0.000000,0.000000,0.000000,0.000000,0.000000,0.159092,3,0
750000,-0.002843,19.204962,-0.010887,-0.014170,25.420240,-0.016347,-0.001331,0.009720,1.571387,-0.026785,0.000306,-0.000431,-0.000029,-0.002280,0.000005,0.006859,0.002934,0.203157,0.034423,0.186004,0.186002,0.172155,0.733180,0.000000,0.000000,0.000000,0.000000,0.000000,0.000000,0.000000,0.000000,0.000000,0.000000,0.000000,0.000000,0.196880,3,0
760000,-0.002894,19.462345,-0.011547,-0.014212,25.427515,-0.017539,-0.001344,0.009952,1.571401,-0.027325,0.000322,-0.000337,-0.000031,-0.002346,0.000005,0.001718,0.002987,0.101671,-0.017077,0.186598,0.186596,0.172299,0.725299,0.000000,0.000000,0.000000,0.000000,0.000000,0.000000,0.000000,0.000000,0.000000,0.000000,0.000000,0.000000,0.098551,3,0
770000,-0.002945,19.724800,-0.011948,-0.014410,25.443483,-0.018160,-0.001348,0.010552,1.571407,-0.028733,0.000339,-0.000296,-0.000033,-0.002519,0.000005,0.011067,0.003040,0.261673,-0.007581,0.187185,0.187183,0.172436,0.717439,0.000000,0.000000,0.000000,0.000000,0.000000,0.000000,0.000000,0.000000,0.000000,0.000000,0.000000,0.000000,0.253527,3,0
780000,-0.002996,19.984823,-0.011460,-0.014637,25.455032,-0.017591,-0.001369,0.010975,1.571409,-0.029702,0.000356,-0.000433,-0.000035,-0.002641,0.000005,0.005205,0.003093,0.177967,0.023538,0.187766,0.187764,0.172563,0.709608,0.000000,0.000000,0.000000,0.000000,0.000000,0.000000,0.000000,0.000000,0.000000,0.000000,0.000000,0.000000,0.172424,3,0
790000,-0.003047,20.246172,-0.010795,-0.014841,25.468773,-0.016775,-0.001376,0.011496,1.571407,-0.030892,0.000374,-0.000608,-0.000037,-0.002792,0.000006,0.007676,0.003146,0.216013,0.029521,0.188338,0.188336,0.172681,0.701811,0.000000,0.000000,0.000000,0.000000,0.000000,0.000000,0.000000,0.000000,0.000000,0.000000,0.000000,0.000000,0.209255,3,0
800000,-0.003098,20.508209,-0.010333,-0.015018,25.483574,-0.016109,-0.001386,0.012064,1.571407,-0.032188,0.000392,-0.000742,-0.000039,-0.002960,0.000006,0.008831,0.003199,0.232830,0.022118,0.188901,0.188899,0.172787,0.694055,0.000000,0.000000,0.000000,0.000000,0.000000,0.000000,0.000000,0.000000,0.000000,0.000000,0.000000,0.000000,0.225521,3,0
810000,-0.003149,20.765903,-0.009546,-0.015189,25.490541,-0.014977,-0.001394,0.012306,1.571407,-0.032694,0.000411,-0.000941,-0.000042,-0.003026,0.000006,0.001484,0.003252,0.089916,0.033087,0.189454,0.189452,0.172882,0.686344,0.000000,0.000000,0.000000,0.000000,0.000000,0.000000,0.000000,0.000000,0.000000,0.000000,0.000000,0.000000,0.087135,3,0
820000,-0.003200,21.028105,-0.008724,-0.015360,25.505379,-0.013936,-0.001394,0.012878,1.571405,-0.034000,0.000430,-0.001151,-0.000045,-0.003201,0.000007,0.008707,0.003304,0.229731,0.034023,0.189996,0.189993,0.172965,0.678685,0.000000,0.000000,0.000000,0.000000,0.000000,0.000000,0.000000,0.000000,0.000000,0.000000,0.000000,0.000000,0.222479,3,0
830000,-0.003250,21.285931,-0.007992,-0.015502,25.512373,-0.012923,-0.001396,0.013124,1.571405,-0.034498,0.000450,-0.001340,-0.000047,-0.003268,0.000007,0.001363,0.003356,0.086655,0.030382,0.190527,0.190524,0.173035,0.671081,0.000000,0.000000,0.000000,0.000000,0.000000,0.000000,0.000000,0.000000,0.000000,0.000000,0.000000,0.000000,0.083967,3,0
840000,-0.003298,21.548916,-0.008490,-0.015540,25.528332,-0.013956,-0.001409,0.013776,1.571400,-0.035925,0.000470,-0.001266,-0.000050,-0.003466,0.000007,0.009809,0.003407,0.246216,-0.012425,0.191045,0.191042,0.173093,0.663538,0.000000,0.000000,0.000000,0.000000,0.000000,0.000000,0.000000,0.000000,0.000000,0.000000,0.000000,0.000000,0.238399,3,0
850000,-0.003347,21.810026,-0.007354,-0.015737,25.540751,-0.012248,-0.001415,0.014262,1.571404,-0.036988,0.000491,-0.001549,-0.000053,-0.003615,0.000008,0.005658,0.003458,0.181860,0.044441,0.191551,0.191548,0.173136,0.656060,0.000000,0.000000,0.000000,0.000000,0.000000,0.000000,0.000000,0.000000,0.000000,0.000000,0.000000,0.000000,0.176088,3,0
860000,-0.003395,22.071190,-0.007838,-0.015846,25.553223,-0.013104,-0.001418,0.014765,1.571409,-0.038044,0.000512,-0.001473,-0.000056,-0.003765,0.000008,0.005198,0.003507,0.179049,-0.012282,0.192044,0.192041,0.173166,0.648652,0.000000,0.000000,0.000000,0.000000,0.000000,0.000000,0.000000,0.000000,0.000000,0.000000,0.000000,0.000000,0.173350,3,0
870000,-0.003442,22.333675,-0.009194,-0.015853,25.567860,-0.015057,-0.001425,0.015366,1.571417,-0.039329,0.000533,-0.001204,-0.000059,-0.003952,0.000009,0.007812,0.003556,0.215944,-0.042174,0.192524,0.192521,0.173182,0.641316,0.000000,0.000000,0.000000,0.000000,0.000000,0.000000,0.000000,0.000000,0.000000,0.000000,0.000000,0.000000,0.209043,3,0
880000,-0.003488,22.594269,-0.008182,-0.016039,25.578842,-0.013836,-0.001436,0.015811,1.571416,-0.040240,0.000555,-0.001472,-0.000062,-0.004086,0.000009,0.004001,0.003604,0.152102,0.040597,0.192991,0.192988,0.173184,0.634058,0.000000,0.000000,0.000000,0.000000,0.000000,0.000000,0.000000,0.000000,0.000000,0.000000,0.000000,0.000000,0.147252,3,0
890000,-0.003534,22.852989,-0.007312,-0.016166,25.586496,-0.012800,-0.001434,0.016090,1.571416,-0.040784,0.000577,-0.001707,-0.000066,-0.004167,0.000009,0.001514,0.003652,0.090187,0.035167,0.193445,0.193442,0.173172,0.626880,0.000000,0.000000,0.000000,0.000000,0.000000,0.000000,0.000000,0.000000,0.000000,0.000000,0.000000,0.000000,0.087352,3,0
900000,-0.003580,23.111780,-0.006325,-0.016351,25.594172,-0.011425,-0.001437,0.016367,1.571420,-0.041330,0.000600,-0.001968,-0.000069,-0.004250,0.000009,0.001547,0.003699,0.089817,0.038816,0.193885,0.193881,0.173145,0.619786,0.000000,0.000000,0.000000,0.000000,0.000000,0.000000,0.000000,0.000000,0.000000,0.000000,0.000000,0.000000,0.086990,3,0
910000,-0.003625,23.375149,-0.006996,-0.016478,25.609818,-0.012385,-0.001446,0.017055,1.571433,-0.042729,0.000624,-0.001845,-0.000073,-0.004466,0.000010,0.008483,0.003747,0.228525,-0.018973,0.194312,0.194308,0.173105,0.612779,0.000000,0.000000,0.000000,0.000000,0.000000,0.000000,0.000000,0.000000,0.000000,0.000000,0.000000,0.000000,0.221154,3,0
920000,-0.003671,23.634655,-0.008116,-0.016623,25.618475,-0.013944,-0.001460,0.017402,1.571439,-0.043371,0.000647,-0.001612,-0.000076,-0.004567,0.000010,0.001943,0.003794,0.104153,-0.034383,0.194725,0.194721,0.173050,0.605860,0.000000,0.000000,0.000000,0.000000,0.000000,0.000000,0.000000,0.000000,0.000000,0.000000,0.000000,0.000000,0.100838,3,0
930000,-0.003715,23.897449,-0.008933,-0.016692,25.632807,-0.015248,-0.001475,0.018021,1.571434,-0.044626,0.000671,-0.001457,-0.000080,-0.004767,0.000011,0.006693,0.003840,0.202379,-0.023175,0.195125,0.195121,0.172981,0.599033,0.000000,0.000000,0.000000,0.000000,0.000000,0.000000,0.000000,0.000000,0.000000,0.000000,0.000000,0.000000,0.195832,3,0
940000,-0.003759,24.157661,-0.008054,-0.016871,25.642416,-0.014021,-0.001475,0.018420,1.571435,-0.045364,0.000696,-0.001711,-0.000084,-0.004886,0.000011,0.002471,0.003886,0.118349,0.036050,0.195512,0.195508,0.172898,0.592300,0.000000,0.000000,0.000000,0.000000,0.000000,0.000000,0.000000,0.000000,0.000000,0.000000,0.000000,0.000000,0.114556,3,0
950000,-0.003802,24.420511,-0.006774,-0.016914,25.656435,-0.012345,-0.001487,0.019043,1.571432,-0.046592,0.000721,-0.002065,-0.000088,-0.005087,0.000011,0.006594,0.003931,0.195984,0.049662,0.195886,0.195882,0.172801,0.585663,0.000000,0.000000,0.000000,0.000000,0.000000,0.000000,0.000000,0.000000,0.000000,0.000000,0.000000,0.000000,0.189625,3,0
960000,-0.003844,24.684015,-0.006514,-0.016965,25.671535,-0.012232,-0.001493,0.019728,1.571432,-0.047923,0.000747,-0.002169,-0.000093,-0.005309,0.000012,0.007231,0.003974,0.211300,0.013776,0.196248,0.196243,0.172691,0.579123,0.000000,0.000000,0.000000,0.000000,0.000000,0.000000,0.000000,0.000000,0.000000,0.000000,0.000000,0.000000,0.204426,3,0
970000,-0.003885,24.945560,-0.007262,-0.017083,25.682972,-0.013295,-0.001505,0.020226,1.571435,-0.048851,0.000772,-0.002019,-0.000097,-0.005466,0.000012,0.003534,0.004017,0.146431,-0.021513,0.196596,0.196591,0.172568,0.572683,0.000000,0.000000,0.000000,0.000000,0.000000,0.000000,0.000000,0.000000,0.000000,0.000000,0.000000,0.000000,0.141685,3,0
980000,-0.003925,25.207771,-0.006478,-0.017086,25.695454,-0.012454,-0.001510,0.020791,1.571435,-0.049888,0.000799,-0.002257,-0.000102,-0.005644,0.000013,0.004459,0.004058,0.163076,0.032329,0.196933,0.196928,0.172432,0.566344,0.000000,0.000000,0.000000,0.000000,0.000000,0.000000,0.000000,0.000000,0.000000,0.000000,0.000000,0.000000,0.157775,3,0
990000,-0.003965,25.471296,-0.007493,-0.017254,25.709953,-0.014181,-0.001508,0.021463,1.571445,-0.051160,0.000825,-0.002040,-0.000106,-0.005866,0.000013,0.006532,0.004100,0.198925,-0.030555,0.197258,0.197252,0.172283,0.560106,0.000000,0.000000,0.000000,0.000000,0.000000,0.000000,0.000000,0.000000,0.000000,0.000000,0.000000,0.000000,0.192426,3,0
1000000,-0.004006,25.730227,-0.009059,-0.017383,25.716261,-0.016419,-0.001505,0.021693,1.571446,-0.051510,0.000852,-0.001677,-0.000111,-0.005929,0.000014,0.000879,0.004141,0.054527,-0.049500,0.197572,0.197566,0.172122,0.553971,0.000000,0.000000,0.000000,0.000000,0.000000,0.000000,0.000000,0.000000,0.000000,0.000000,0.000000,0.000000,0.052881,3,0
1010000,-0.004045,25.988548,-0.010554,-0.017402,25.721529,-0.018678,-0.001508,0.021857,1.571453,-0.051730,0.000879,-0.001335,-0.000115,-0.005969,0.000014,0.000536,0.004182,0.034079,-0.046226,0.197874,0.197868,0.171948,0.547940,0.000000,0.000000,0.000000,0.000000,0.000000,0.000000,0.000000,0.000000,0.000000,0.000000,0.000000,0.000000,0.033201,3,0
1020000,-0.004081,26.248892,-0.009882,-0.017417,25.730251,-0.017981,-0.001513,0.022227,1.571451,-0.052336,0.000906,-0.001566,-0.000120,-0.006079,0.000014,0.001569,0.004221,0.093769,0.030329,0.198166,0.198159,0.171763,0.542013,0.000000,0.000000,0.000000,0.000000,0.000000,0.000000,0.000000,0.000000,0.000000,0.000000,0.000000,0.000000,0.090765,3,0
1030000,-0.004117,26.508600,-0.008604,-0.017434,25.737625,-0.016164,-0.001507,0.022517,1.571467,-0.052801,0.000934,-0.001955,-0.000126,-0.006165,0.000014,0.001260,0.004258,0.071884,0.051184,0.198447,0.198440,0.171567,0.536190,0.000000,0.000000,0.000000,0.000000,0.000000,0.000000,0.000000,0.000000,0.000000,0.000000,0.000000,0.000000,0.069631,3,0
1040000,-0.004152,26.770979,-0.009636,-0.017458,25.749552,-0.017912,-0.001509,0.023089,1.571480,-0.053777,0.000962,-0.001732,-0.000131,-0.006349,0.000015,0.003777,0.004294,0.150043,-0.030030,0.198719,0.198711,0.171360,0.530473,0.000000,0.000000,0.000000,0.000000,0.000000,0.000000,0.000000,0.000000,0.000000,0.000000,0.000000,0.000000,0.145132,3,0
1050000,-0.004186,27.033350,-0.010594,-0.017508,25.761360,-0.019369,-0.001514,0.023643,1.571486,-0.054730,0.000991,-0.001531,-0.000136,-0.006531,0.000015,0.003554,0.004330,0.145971,-0.026914,0.198981,0.198973,0.171142,0.524861,0.000000,0.000000,0.000000,0.000000,0.000000,0.000000,0.000000,0.000000,0.000000,0.000000,0.000000,0.000000,0.141191,3,0
1060000,-0.004220,27.295050,-0.011416,-0.017568,25.771826,-0.020461,-0.001525,0.024135,1.571486,-0.055528,0.001020,-0.001368,-0.000142,-0.006686,0.000016,0.002479,0.004365,0.122028,-0.021728,0.199234,0.199226,0.170914,0.519354,0.000000,0.000000,0.000000,0.000000,0.000000,0.000000,0.000000,0.000000,0.000000,0.000000,0.000000,0.000000,0.118051,3,0
1070000,-0.004252,27.555426,-0.011822,-0.017614,25.780003,-0.020895,-0.001530,0.024482,1.571496,-0.056045,0.001049,-0.001318,-0.000147,-0.006788,0.000016,0.001014,0.004399,0.078890,-0.006855,0.199478,0.199470,0.170676,0.513954,0.000000,0.000000,0.000000,0.000000,0.000000,0.000000,0.000000,0.000000,0.000000,0.000000,0.000000,0.000000,0.076386,3,0
1080000,-0.004284,27.814497,-0.012472,-0.017632,25.785717,-0.021888,-0.001527,0.024684,1.571504,-0.056289,0.001078,-0.001199,-0.000153,-0.006837,0.000016,0.000263,0.004431,0.037100,-0.015335,0.199715,0.199706,0.170429,0.508658,0.000000,0.000000,0.000000,0.000000,0.000000,0.000000,0.000000,0.000000,0.000000,0.000000,0.000000,0.000000,0.036119,3,0
1090000,-0.004315,28.076912,-0.011264,-0.017765,25.797112,-0.020505,-0.001522,0.025231,1.571501,-0.057181,0.001108,-0.001608,-0.000159,-0.007016,0.000017,0.003392,0.004464,0.135794,0.050798,0.199944,0.199935,0.170173,0.503467,0.000000,0.000000,0.000000,0.000000,0.000000,0.000000,0.000000,0.000000,0.000000,0.000000,0.000000,0.000000,0.131342,3,0
1100000,-0.004346,28.337326,-0.012647,-0.017797,25.805021,-0.022371,-0.001523,0.025564,1.571516,-0.057657,0.001138,-0.001282,-0.000165,-0.007115,0.000017,0.001116,0.004495,0.072052,-0.041309,0.200166,0.200156,0.169909,0.498381,0.000000,0.000000,0.000000,0.000000,0.000000,0.000000,0.000000,0.000000,0.000000,0.000000,0.000000,0.000000,0.069780,3,0
1110000,-0.004377,28.598415,-0.013148,-0.017908,25.813982,-0.023047,-0.001532,0.025962,1.571526,-0.058250,0.001168,-0.001210,-0.000172,-0.007239,0.000017,0.001319,0.004528,0.089863,-0.009511,0.200381,0.200370,0.169636,0.493399,0.000000,0.000000,0.000000,0.000000,0.000000,0.000000,0.000000,0.000000,0.000000,0.000000,0.000000,0.000000,0.086971,3,0
1120000,-0.004406,28.860830,-0.011911,-0.017979,25.825085,-0.021495,-0.001540,0.026489,1.571531,-0.059086,0.001198,-0.001641,-0.000178,-0.007415,0.000018,0.003042,0.004559,0.126867,0.052438,0.200589,0.200579,0.169356,0.488520,0.000000,0.000000,0.000000,0.000000,0.000000,0.000000,0.000000,0.000000,0.000000,0.000000,0.000000,0.000000,0.122708,3,0
1130000,-0.004436,29.123230,-0.012612,-0.018100,25.836069,-0.022416,-0.001538,0.027024,1.571529,-0.059898,0.001229,-0.001511,-0.000185,-0.007590,0.000018,0.002477,0.004590,0.122766,-0.016846,0.200792,0.200781,0.169068,0.483744,0.000000,0.000000,0.000000,0.000000,0.000000,0.000000,0.000000,0.000000,0.000000,0.000000,0.000000,0.000000,0.118739,3,0
1140000,-0.004466,29.385607,-0.013760,-0.018171,25.846838,-0.024122,-0.001546,0.027554,1.571535,-0.060684,0.001260,-0.001252,-0.000191,-0.007761,0.000019,0.002442,0.004621,0.118683,-0.032350,0.200990,0.200978,0.168773,0.479069,0.000000,0.000000,0.000000,0.000000,0.000000,0.000000,0.000000,0.000000,0.000000,0.000000,0.000000,0.000000,0.114791,3,0
1150000,-0.004495,29.644629,-0.015221,-0.018141,25.851677,-0.026060,-0.001536,0.027694,1.571544,-0.060786,0.001290,-0.000896,-0.000198,-0.007785,0.000019,0.000345,0.004650,0.015230,-0.043301,0.201182,0.201170,0.168472,0.474497,0.000000,0.000000,0.000000,0.000000,0.000000,0.000000,0.000000,0.000000,0.000000,0.000000,0.000000,0.000000,0.015386,3,0
1160000,-0.004523,29.908344,-0.015393,-0.018245,25.864693,-0.026278,-0.001539,0.028372,1.571552,-0.061804,0.001322,-0.000936,-0.000205,-0.008013,0.000019,0.003813,0.004680,0.153736,0.003708,0.201370,0.201358,0.168165,0.470024,0.000000,0.000000,0.000000,0.000000,0.000000,0.000000,0.000000,0.000000,0.000000,0.000000,0.000000,0.000000,0.148646,3,0
1170000,-0.004550,30.169342,-0.015011,-0.018277,25.872810,-0.025608,-0.001531,0.028726,1.571551,-0.062259,0.001353,-0.001136,-0.000212,-0.008116,0.000020,0.000854,0.004709,0.068798,0.023334,0.201554,0.201541,0.167852,0.465651,0.000000,0.000000,0.000000,0.000000,0.000000,0.000000,0.000000,0.000000,0.000000,0.000000,0.000000,0.000000,0.066644,3,0
1180000,-0.004576,30.431002,-0.015154,-0.018249,25.881989,-0.025682,-0.001523,0.029134,1.571550,-0.062828,0.001385,-0.001178,-0.000219,-0.008248,0.000020,0.001199,0.004735,0.086027,0.004380,0.201735,0.201721,0.167533,0.461377,0.000000,0.000000,0.000000,0.000000,0.000000,0.000000,0.000000,0.000000,0.000000,0.000000,0.000000,0.000000,0.083261,3,0
1190000,-0.004602,30.692646,-0.015855,-0.018329,25.890848,-0.026741,-0.001530,0.029555,1.571549,-0.063376,0.001417,-0.001052,-0.000227,-0.008376,0.000020,0.001144,0.004762,0.082701,-0.015520,0.201912,0.201897,0.167210,0.457198,0.000000,0.000000,0.000000,0.000000,0.000000,0.000000,0.000000,0.000000,0.000000,0.000000,0.000000,0.000000,0.080048,3,0
1200000,-0.004627,30.956276,-0.015790,-0.018373,25.903143,-0.026865,-0.001527,0.030202,1.571561,-0.064295,0.001449,-0.001170,-0.000234,-0.008595,0.000021,0.003142,0.004789,0.139029,0.012601,0.202086,0.202070,0.166882,0.453116,0.000000,0.000000,0.000000,0.000000,0.000000,0.000000,0.000000,0.000000,0.000000,0.000000,0.000000,0.000000,0.134428,3,0
1210000,-0.004650,31.217840,-0.014704,-0.018295,25.911764,-0.025346,-0.001531,0.030592,1.571572,-0.064784,0.001481,-0.001597,-0.000242,-0.008711,0.000021,0.001279,0.004813,0.074064,0.049139,0.202257,0.202241,0.166549,0.449129,0.000000,0.000000,0.000000,0.000000,0.000000,0.000000,0.000000,0.000000,0.000000,0.000000,0.000000,0.000000,0.071724,3,0
1220000,-0.004674,31.480732,-0.015677,-0.018383,25.922510,-0.026598,-0.001524,0.031136,1.571574,-0.065515,0.001513,-0.001385,-0.000250,-0.008891,0.000022,0.002079,0.004837,0.110598,-0.025474,0.202426,0.202409,0.166213,0.445236,0.000000,0.000000,0.000000,0.000000,0.000000,0.000000,0.000000,0.000000,0.000000,0.000000,0.000000,0.000000,0.106967,3,0
1230000,-0.004697,31.738886,-0.016967,-0.018391,25.924770,-0.028081,-0.001518,0.031091,1.571585,-0.065297,0.001545,-0.001060,-0.000258,-0.008838,0.000022,0.000404,0.004861,-0.033129,-0.037105,0.202594,0.202576,0.165873,0.441435,0.000000,0.000000,0.000000,0.000000,0.000000,0.000000,0.000000,0.000000,0.000000,0.000000,0.000000,0.000000,0.032358,3,0
1240000,-0.004720,32.001095,-0.017419,-0.018492,25.934116,-0.028603,-0.001507,0.031538,1.571582,-0.065867,0.001577,-0.001017,-0.000266,-0.008981,0.000022,0.001211,0.004885,0.086397,-0.005780,0.202760,0.202741,0.165530,0.437724,0.000000,0.000000,0.000000,0.000000,0.000000,0.000000,0.000000,0.000000,0.000000,0.000000,0.000000,0.000000,0.083610,3,0
1250000,-0.004741,32.264610,-0.016336,-0.018554,25.945717,-0.027185,-0.001510,0.032136,1.571593,-0.066669,0.001610,-0.001470,-0.000275,-0.009185,0.000023,0.002822,0.004908,0.122276,0.050309,0.202924,0.202905,0.165185,0.434104,0.000000,0.000000,0.000000,0.000000,0.000000,0.000000,0.000000,0.000000,0.000000,0.000000,0.000000,0.000000,0.118240,3,0
1260000,-0.004764,32.527401,-0.016753,-0.018635,25.955933,-0.027940,-0.001496,0.032649,1.571605,-0.067308,0.001643,-0.001436,-0.000283,-0.009351,0.000023,0.001529,0.004931,0.097191,-0.004709,0.203088,0.203068,0.164836,0.430572,0.000000,0.000000,0.000000,0.000000,0.000000,0.000000,0.000000,0.000000,0.000000,0.000000,0.000000,0.000000,0.094023,3,0
1270000,-0.004786,32.789474,-0.018008,-0.018681,25.964712,-0.029687,-0.001482,0.033058,1.571618,-0.067786,0.001676,-0.001131,-0.000291,-0.009477,0.000024,0.001058,0.004954,0.072845,-0.035104,0.203251,0.203230,0.164485,0.427127,0.000000,0.000000,0.000000,0.000000,0.000000,0.000000,0.000000,0.000000,0.000000,0.000000,0.000000,0.000000,0.070536,3,0
1280000,-0.004809,33.052189,-0.019288,-0.018743,25.974615,-0.031472,-0.001477,0.033536,1.571620,-0.068370,0.001708,-0.000823,-0.000300,-0.009634,0.000024,0.001482,0.004977,0.088985,-0.035367,0.203413,0.203392,0.164133,0.423769,0.000000,0.000000,0.000000,0.000000,0.000000,0.000000,0.000000,0.000000,0.000000,0.000000,0.000000,0.000000,0.086099,3,0
1290000,-0.004827,33.315517,-0.018079,-0.018646,25.985331,-0.029853,-0.001473,0.034082,1.571632,-0.069050,0.001741,-0.001340,-0.000309,-0.009816,0.000025,0.002277,0.004998,0.104477,0.056376,0.203576,0.203553,0.163779,0.420494,0.000000,0.000000,0.000000,0.000000,0.000000,0.000000,0.000000,0.000000,0.000000,0.000000,0.000000,0.000000,0.101056,3,0
1300000,-0.004846,33.577446,-0.019074,-0.018555,25.993448,-0.031108,-0.001460,0.034450,1.571638,-0.069439,0.001774,-0.001118,-0.000318,-0.009924,0.000025,0.000681,0.005016,0.059711,-0.025154,0.203738,0.203715,0.163423,0.417301,0.000000,0.000000,0.000000,0.000000,0.000000,0.000000,0.000000,0.000000,0.000000,0.000000,0.000000,0.000000,0.057885,3,0
1310000,-0.004864,33.835960,-0.019698,-0.018611,25.995548,-0.031800,-0.001452,0.034360,1.571644,-0.069158,0.001807,-0.001008,-0.000327,-0.009846,0.000025,0.000327,0.005035,-0.043274,-0.011610,0.203901,0.203876,0.163067,0.414191,0.000000,0.000000,0.000000,0.000000,0.000000,0.000000,0.000000,0.000000,0.000000,0.000000,0.000000,0.000000,0.042087,3,0
1320000,-0.004880,34.097183,-0.018668,-0.018579,26.002239,-0.030348,-0.001443,0.034617,1.571644,-0.069391,0.001840,-0.001469,-0.000337,-0.009910,0.000025,0.000620,0.005053,0.036137,0.049986,0.204064,0.204039,0.162709,0.411160,0.000000,0.000000,0.000000,0.000000,0.000000,0.000000,0.000000,0.000000,0.000000,0.000000,0.000000,0.000000,0.035255,3,0
1330000,-0.004897,34.357033,-0.019327,-0.018572,26.006420,-0.031311,-0.001431,0.034692,1.571649,-0.069349,0.001872,-0.001349,-0.000346,-0.009899,0.000025,0.000038,0.005069,-0.006481,-0.012990,0.204228,0.204202,0.162351,0.408207,0.000000,0.000000,0.000000,0.000000,0.000000,0.000000,0.000000,0.000000,0.000000,0.000000,0.000000,0.000000,0.007951,3,0
1340000,-0.004912,34.618229,-0.020575,-0.018484,26.012930,-0.032880,-0.001424,0.034947,1.571654,-0.069555,0.001905,-0.001035,-0.000355,-0.009960,0.000026,0.000358,0.005085,0.031811,-0.034316,0.204393,0.204366,0.161993,0.405331,0.000000,0.000000,0.000000,0.000000,0.000000,0.000000,0.000000,0.000000,0.000000,0.000000,0.000000,0.000000,0.031114,3,0
1350000,-0.004927,34.878040,-0.020883,-0.018549,26.017014,-0.033339,-0.001408,0.035004,1.571657,-0.069486,0.001938,-0.001042,-0.000365,-0.009939,0.000026,0.000023,0.005101,-0.010788,0.000870,0.204559,0.204531,0.161635,0.402531,0.000000,0.000000,0.000000,0.000000,0.000000,0.000000,0.000000,0.000000,0.000000,0.000000,0.000000,0.000000,0.011528,3,0
1360000,-0.004941,35.137844,-0.022150,-0.018482,26.020977,-0.034801,-0.001395,0.035048,1.571658,-0.069409,0.001970,-0.000716,-0.000374,-0.009918,0.000026,0.000223,0.005115,-0.012211,-0.034665,0.204727,0.204697,0.161276,0.399805,0.000000,0.000000,0.000000,0.000000,0.000000,0.000000,0.000000,0.000000,0.000000,0.000000,0.000000,0.000000,0.012792,3,0
1370000,-0.004954,35.397636,-0.022838,-0.018454,26.024744,-0.035486,-0.001376,0.035077,1.571665,-0.069323,0.002003,-0.000595,-0.000384,-0.009892,0.000026,0.000060,0.005129,-0.013626,-0.012671,0.204895,0.204864,0.160919,0.397151,0.000000,0.000000,0.000000,0.000000,0.000000,0.000000,0.000000,0.000000,0.000000,0.000000,0.000000,0.000000,0.014066,3,0
1380000,-0.004966,35.655376,-0.022417,-0.018511,26.024912,-0.034965,-0.001375,0.034817,1.571680,-0.068849,0.002035,-0.000857,-0.000394,-0.009745,0.000026,0.001035,0.005142,-0.074673,0.028719,0.205065,0.205033,0.160562,0.394569,0.000000,0.000000,0.000000,0.000000,0.000000,0.000000,0.000000,0.000000,0.000000,0.000000,0.000000,0.000000,0.072288,3,0
1390000,-0.004977,35.914494,-0.021381,-0.018518,26.027405,-0.033416,-0.001367,0.034744,1.571699,-0.068631,0.002068,-0.001344,-0.000405,-0.009675,0.000026,0.000627,0.005154,-0.034229,0.051757,0.205237,0.205204,0.160205,0.392055,0.000000,0.000000,0.000000,0.000000,0.000000,0.000000,0.000000,0.000000,0.000000,0.000000,0.000000,0.000000,0.033423,3,0
1400000,-0.004989,36.177704,-0.022407,-0.018563,26.037249,-0.034674,-0.001350,0.035250,1.571706,-0.069161,0.002100,-0.001114,-0.000415,-0.009844,0.000026,0.001253,0.005166,0.084332,-0.025309,0.205410,0.205376,0.159850,0.389610,0.000000,0.000000,0.000000,0.000000,0.000000,0.000000,0.000000,0.000000,0.000000,0.000000,0.000000,0.000000,0.081593,3,0
1410000,-0.005001,36.436085,-0.023239,-0.018529,26.038334,-0.035658,-0.001330,0.035053,1.571711,-0.068789,0.002133,-0.000928,-0.000425,-0.009725,0.000026,0.000634,0.005178,-0.059708,-0.018478,0.205585,0.205550,0.159496,0.387232,0.000000,0.000000,0.000000,0.000000,0.000000,0.000000,0.000000,0.000000,0.000000,0.000000,0.000000,0.000000,0.057883,3,0
1420000,-0.005011,36.696510,-0.023260,-0.018558,26.043047,-0.035488,-0.001317,0.035140,1.571715,-0.068788,0.002165,-0.001051,-0.000436,-0.009724,0.000026,0.000031,0.005190,-0.000034,0.012755,0.205762,0.205726,0.159144,0.384918,0.000000,0.000000,0.000000,0.000000,0.000000,0.000000,0.000000,0.000000,0.000000,0.000000,0.000000,0.000000,0.005011,3,0
1430000,-0.005022,36.954876,-0.024020,-0.018557,26.044006,-0.036452,-0.001305,0.034939,1.571720,-0.068406,0.002197,-0.000891,-0.000447,-0.009599,0.000026,0.000657,0.005200,-0.061718,-0.015562,0.205941,0.205903,0.158793,0.382669,0.000000,0.000000,0.000000,0.000000,0.000000,0.000000,0.000000,0.000000,0.000000,0.000000,0.000000,0.000000,0.059816,3,0
1440000,-0.005030,37.215969,-0.023702,-0.018470,26.049759,-0.036137,-0.001299,0.035115,1.571720,-0.068515,0.002229,-0.001148,-0.000457,-0.009634,0.000026,0.000167,0.005210,0.017845,0.026147,0.206122,0.206083,0.158444,0.380482,0.000000,0.000000,0.000000,0.000000,0.000000,0.000000,0.000000,0.000000,0.000000,0.000000,0.000000,0.000000,0.017958,3,0
1450000,-0.005037,37.476345,-0.023240,-0.018330,26.054094,-0.035622,-0.001292,0.035173,1.571723,-0.068485,0.002261,-0.001455,-0.000469,-0.009622,0.000026,0.000168,0.005217,-0.004757,0.031417,0.206304,0.206264,0.158097,0.378355,0.000000,0.000000,0.000000,0.000000,0.000000,0.000000,0.000000,0.000000,0.000000,0.000000,0.000000,0.000000,0.006814,3,0
1460000,-0.005043,37.735336,-0.024236,-0.018201,26.055876,-0.036865,-0.001283,0.035030,1.571742,-0.068203,0.002293,-0.001207,-0.000479,-0.009526,0.000026,0.000450,0.005222,-0.046505,-0.024485,0.206489,0.206447,0.157752,0.376287,0.000000,0.000000,0.000000,0.000000,0.000000,0.000000,0.000000,0.000000,0.000000,0.000000,0.000000,0.000000,0.045193,3,0
1470000,-0.005048,37.993641,-0.025345,-0.018156,26.056316,-0.037944,-0.001276,0.034774,1.571760,-0.067798,0.002324,-0.000913,-0.000490,-0.009385,0.000026,0.000860,0.005228,-0.066967,-0.028675,0.206675,0.206632,0.157409,0.374277,0.000000,0.000000,0.000000,0.000000,0.000000,0.000000,0.000000,0.000000,0.000000,0.000000,0.000000,0.000000,0.064864,3,0
1480000,-0.005052,38.251251,-0.024398,-0.018153,26.055550,-0.036819,-0.001268,0.034402,1.571773,-0.067275,0.002355,-0.001397,-0.000502,-0.009196,0.000025,0.001624,0.005233,-0.086731,0.050205,0.206864,0.206819,0.157068,0.372325,0.000000,0.000000,0.000000,0.000000,0.000000,0.000000,0.000000,0.000000,0.000000,0.000000,0.000000,0.000000,0.083885,3,0
1490000,-0.005054,38.513676,-0.023083,-0.018101,26.063427,-0.035244,-0.001244,0.034760,1.571778,-0.067591,0.002387,-0.002053,-0.000514,-0.009307,0.000026,0.001148,0.005236,0.053246,0.065043,0.207054,0.207007,0.156730,0.370427,0.000000,0.000000,0.000000,0.000000,0.000000,0.000000,0.000000,0.000000,0.000000,0.000000,0.000000,0.000000,0.051670,3,0
1500000,-0.005055,38.773987,-0.022480,-0.018031,26.067387,-0.034306,-0.001226,0.034798,1.571791,-0.067528,0.002418,-0.002418,-0.000525,-0.009282,0.000026,0.000240,0.005237,-0.010468,0.036626,0.207246,0.207198,0.156395,0.368584,0.000000,0.000000,0.000000,0.000000,0.000000,0.000000,0.000000,0.000000,0.000000,0.000000,0.000000,0.000000,0.011292,3,0
1510000,-0.005056,39.031521,-0.022005,-0.017944,26.066284,-0.033752,-0.001221,0.034386,1.571794,-0.066984,0.002448,-0.002712,-0.000537,-0.009078,0.000025,0.001518,0.005238,-0.091908,0.030881,0.207440,0.207390,0.156062,0.366793,0.000000,0.000000,0.000000,0.000000,0.000000,0.000000,0.000000,0.000000,0.000000,0.000000,0.000000,0.000000,0.088866,3,0
1520000,-0.005058,39.289085,-0.023064,-0.017888,26.065207,-0.034817,-0.001210,0.033987,1.571807,-0.066452,0.002479,-0.002408,-0.000548,-0.008878,0.000025,0.001469,0.005238,-0.091007,-0.028510,0.207635,0.207585,0.155733,0.365053,0.000000,0.000000,0.000000,0.000000,0.000000,0.000000,0.000000,0.000000,0.000000,0.000000,0.000000,0.000000,0.088009,3,0
1530000,-0.005059,39.551487,-0.024288,-0.017798,26.072935,-0.036380,-0.001187,0.034341,1.571813,-0.066738,0.002509,-0.002080,-0.000560,-0.008990,0.000026,0.000570,0.005239,0.049019,-0.033205,0.207833,0.207781,0.155406,0.363364,0.000000,0.000000,0.000000,0.000000,0.000000,0.000000,0.000000,0.000000,0.000000,0.000000,0.000000,0.000000,0.047583,3,0
1540000,-0.005057,39.813816,-0.024056,-0.017702,26.080389,-0.035959,-0.001165,0.034660,1.571825,-0.066997,0.002540,-0.002328,-0.000572,-0.009089,0.000026,0.000420,0.005239,0.044964,0.023561,0.208032,0.207978,0.155082,0.361723,0.000000,0.000000,0.000000,0.000000,0.000000,0.000000,0.000000,0.000000,0.000000,0.000000,0.000000,0.000000,0.043705,3,0
1550000,-0.005052,40.075382,-0.022896,-0.017539,26.086365,-0.034518,-0.001147,0.034860,1.571839,-0.067116,0.002570,-0.002939,-0.000584,-0.009133,0.000026,0.000647,0.005235,0.021111,0.059269,0.208232,0.208177,0.154762,0.360130,0.000000,0.000000,0.000000,0.000000,0.000000,0.000000,0.000000,0.000000,0.000000,0.000000,0.000000,0.000000,0.021010,3,0
1560000,-0.005047,40.337601,-0.022991,-0.017405,26.093475,-0.034631,-0.001130,0.035159,1.571841,-0.067331,0.002599,-0.003051,-0.000596,-0.009218,0.000027,0.000251,0.005229,0.037785,0.010214,0.208435,0.208378,0.154445,0.358584,0.000000,0.000000,0.000000,0.000000,0.000000,0.000000,0.000000,0.000000,0.000000,0.000000,0.000000,0.000000,0.036824,3,0
1570000,-0.005044,40.596313,-0.024067,-0.017385,26.093945,-0.035700,-0.001105,0.034887,1.571848,-0.066962,0.002629,-0.002739,-0.000608,-0.009070,0.000026,0.000830,0.005225,-0.065472,-0.028957,0.208638,0.208580,0.154131,0.357081,0.000000,0.000000,0.000000,0.000000,0.000000,0.000000,0.000000,0.000000,0.000000,0.000000,0.000000,0.000000,0.063403,3,0
1580000,-0.005038,40.856392,-0.024020,-0.017335,26.096985,-0.035354,-0.001083,0.034835,1.571859,-0.066816,0.002658,-0.002895,-0.000620,-0.009008,0.000026,0.000152,0.005220,-0.026005,0.015563,0.208843,0.208784,0.153820,0.355624,0.000000,0.000000,0.000000,0.000000,0.000000,0.000000,0.000000,0.000000,0.000000,0.000000,0.000000,0.000000,0.025598,3,0
1590000,-0.005030,41.118507,-0.022877,-0.017209,26.103533,-0.033955,-0.001056,0.035083,1.571859,-0.066992,0.002687,-0.003515,-0.000633,-0.009078,0.000027,0.000733,0.005214,0.031948,0.058948,0.209049,0.208989,0.153513,0.354207,0.000000,0.000000,0.000000,0.000000,0.000000,0.000000,0.000000,0.000000,0.000000,0.000000,0.000000,0.000000,0.031257,3,0
1600000,-0.005023,41.377102,-0.022788,-0.017071,26.103626,-0.033792,-0.001037,0.034758,1.571869,-0.066600,0.002715,-0.003669,-0.000645,-0.008910,0.000026,0.000862,0.005205,-0.071201,0.016186,0.209257,0.209194,0.153210,0.352832,0.000000,0.000000,0.000000,0.000000,0.000000,0.000000,0.000000,0.000000,0.000000,0.000000,0.000000,0.000000,0.068897,3,0
1610000,-0.005014,41.634983,-0.021472,-0.017064,26.102333,-0.032095,-0.001016,0.034320,1.571878,-0.066102,0.002743,-0.004321,-0.000657,-0.008690,0.000026,0.002010,0.005197,-0.091248,0.064060,0.209465,0.209401,0.152910,0.351498,0.000000,0.000000,0.000000,0.000000,0.000000,0.000000,0.000000,0.000000,0.000000,0.000000,0.000000,0.000000,0.088190,3,0
1620000,-0.005006,41.895664,-0.022068,-0.016984,26.106195,-0.032656,-0.000993,0.034348,1.571894,-0.066042,0.002771,-0.004204,-0.000670,-0.008664,0.000026,0.000043,0.005187,-0.011177,-0.010815,0.209674,0.209609,0.152614,0.350201,0.000000,0.000000,0.000000,0.000000,0.000000,0.000000,0.000000,0.000000,0.000000,0.000000,0.000000,0.000000,0.011893,3,0
1630000,-0.004997,42.154224,-0.023218,-0.016803,26.106079,-0.033745,-0.000972,0.034025,1.571909,-0.065652,0.002798,-0.003837,-0.000682,-0.008492,0.000026,0.001043,0.005177,-0.073105,-0.033203,0.209884,0.209817,0.152321,0.348943,0.000000,0.000000,0.000000,0.000000,0.000000,0.000000,0.000000,0.000000,0.000000,0.000000,0.000000,0.000000,0.070733,3,0
1640000,-0.004986,42.414154,-0.022951,-0.016765,26.108534,-0.033351,-0.000962,0.033918,1.571918,-0.065474,0.002825,-0.004080,-0.000694,-0.008410,0.000026,0.000275,0.005168,-0.033482,0.023597,0.210095,0.210026,0.152033,0.347722,0.000000,0.000000,0.000000,0.000000,0.000000,0.000000,0.000000,0.000000,0.000000,0.000000,0.000000,0.000000,0.032685,3,0
1650000,-0.004974,42.676834,-0.022356,-0.016576,26.115992,-0.032456,-0.000948,0.034256,1.571934,-0.065706,0.002852,-0.004487,-0.000707,-0.008514,0.000026,0.000549,0.005156,0.044506,0.037295,0.210306,0.210236,0.151748,0.346537,0.000000,0.000000,0.000000,0.000000,0.000000,0.000000,0.000000,0.000000,0.000000,0.000000,0.000000,0.000000,0.043244,3,0
1660000,-0.004960,42.935947,-0.021531,-0.016468,26.116634,-0.031213,-0.000924,0.033984,1.571942,-0.065399,0.002879,-0.004953,-0.000720,-0.008367,0.000026,0.000895,0.005142,-0.059216,0.044899,0.210517,0.210446,0.151467,0.345385,0.000000,0.000000,0.000000,0.000000,0.000000,0.000000,0.000000,0.000000,0.000000,0.000000,0.000000,0.000000,0.057340,3,0
1670000,-0.004947,43.194347,-0.021063,-0.016432,26.115999,-0.030720,-0.000913,0.033594,1.571959,-0.064989,0.002905,-0.005258,-0.000733,-0.008169,0.000026,0.001176,0.005128,-0.079788,0.030183,0.210729,0.210656,0.151190,0.344267,0.000000,0.000000,0.000000,0.000000,0.000000,0.000000,0.000000,0.000000,0.000000,0.000000,0.000000,0.000000,0.077136,3,0
1680000,-0.004934,43.452045,-0.021107,-0.016375,26.113972,-0.030502,-0.000894,0.033089,1.571969,-0.064483,0.002930,-0.005334,-0.000745,-0.007924,0.000025,0.001615,0.005114,-0.099632,0.009337,0.210940,0.210866,0.150916,0.343180,0.000000,0.000000,0.000000,0.000000,0.000000,0.000000,0.000000,0.000000,0.000000,0.000000,0.000000,0.000000,0.096253,3,0
1690000,-0.004923,43.709763,-0.022212,-0.016374,26.111944,-0.031588,-0.000874,0.032595,1.571980,-0.063986,0.002956,-0.004952,-0.000757,-0.007683,0.000025,0.001754,0.005101,-0.098888,-0.033021,0.211152,0.211076,0.150647,0.342124,0.000000,0.000000,0.000000,0.000000,0.000000,0.000000,0.000000,0.000000,0.000000,0.000000,0.000000,0.000000,0.095548,3,0
1700000,-0.004909,43.969570,-0.022704,-0.016208,26.113806,-0.032128,-0.000860,0.032445,1.571985,-0.063795,0.002981,-0.004862,-0.000770,-0.007588,0.000025,0.000252,0.005088,-0.038521,-0.007378,0.211363,0.211285,0.150382,0.341097,0.000000,0.000000,0.000000,0.000000,0.000000,0.000000,0.000000,0.000000,0.000000,0.000000,0.000000,0.000000,0.037489,3,0
1710000,-0.004894,44.227940,-0.022651,-0.016046,26.112938,-0.032050,-0.000833,0.032045,1.571987,-0.063404,0.003005,-0.004995,-0.000782,-0.007388,0.000024,0.001057,0.005073,-0.079678,0.014098,0.211573,0.211495,0.150120,0.340101,0.000000,0.000000,0.000000,0.000000,0.000000,0.000000,0.000000,0.000000,0.000000,0.000000,0.000000,0.000000,0.077022,3,0
