time_us,pos_x,pos_y,pos_z,vel_x,vel_y,vel_z,roll,pitch,yaw,bias_ax,bias_ay,bias_az,bias_gx,bias_gy,bias_gz,nis,innov_x,innov_y,innov_z,cov_pos_x,cov_pos_y,cov_pos_z,cov_yaw,des_speed,des_heading,des_climb,pid_speed,pid_yaw,pid_alt,speed_meas,yaw_meas,climb_meas,fwd_accel,yaw_rate,vert_accel,drift_m,nav_mode,mission_state
0,-0.000001,0.149997,-0.000002,-0.000123,24.999590,-0.000447,0.000014,-0.000015,1.570820,0.000000,0.000000,0.000000,0.000000,0.000000,0.000000,0.006250,0.000001,-0.249998,0.000004,2.400038,2.400038,3.600017,1.000518,0.000000,0.000000,0.000000,0.000000,0.000000,0.000000,0.000000,0.000000,0.000000,0.000000,0.000000,0.000000,0.149997,1,0
10000,-0.000003,0.365222,0.015754,-0.000296,24.999229,-0.000573,0.000031,-0.000027,1.570839,0.000000,0.000000,-0.000000,0.000000,0.000000,0.000000,0.001947,0.000004,-0.121687,0.042031,1.714420,1.714420,2.250079,1.001073,0.000000,0.000000,0.000000,0.000000,0.000000,0.000000,0.000000,0.000000,0.000000,0.000000,0.000000,0.000000,0.086917,3,0
20000,-0.000005,0.588932,0.014131,-0.000377,24.998854,-0.000956,0.000047,-0.000029,1.570862,0.000001,0.000000,-0.000000,0.000000,0.000000,-0.000000,0.001816,0.000006,-0.118241,-0.005917,1.333616,1.333616,1.636554,1.001655,0.000000,0.000000,0.000000,0.000000,0.000000,0.000000,0.000000,0.000000,0.000000,0.000000,0.000000,0.000000,0.091959,3,0
30000,-0.000008,0.852655,0.018432,-0.000485,24.999092,-0.001044,0.000057,-0.000031,1.570876,0.000000,0.000000,-0.000000,-0.000000,-0.000000,0.000000,0.000830,0.000010,0.075510,0.020120,1.091392,1.091392,1.286065,1.002257,0.000000,0.000000,0.000000,0.000000,0.000000,0.000000,0.000000,0.000000,0.000000,0.000000,0.000000,0.000000,0.061775,3,0
40000,-0.000012,1.110395,0.016693,-0.000628,24.999271,-0.001264,0.000055,-0.000050,1.570895,-0.000001,0.000000,-0.000000,-0.000000,-0.000000,0.000000,0.000370,0.000014,0.050331,-0.009780,0.923811,0.923811,1.059385,1.002869,0.000000,0.000000,0.000000,0.000000,0.000000,0.000000,0.000000,0.000000,0.000000,0.000000,0.000000,0.000000,0.042582,3,0
50000,-0.000018,1.364543,0.017934,-0.000824,24.999216,-0.001365,0.000054,-0.000058,1.570916,-0.000003,0.000000,-0.000000,-0.000000,-0.000000,0.000000,0.000150,0.000020,0.031138,0.008358,0.801036,0.801036,0.900822,1.003484,0.000000,0.000000,0.000000,0.000000,0.000000,0.000000,0.000000,0.000000,0.000000,0.000000,0.000000,0.000000,0.026981,3,0
60000,-0.000024,1.611680,0.017987,-0.000956,24.999012,-0.001759,0.000067,-0.000066,1.570935,-0.000001,0.000000,-0.000000,-0.000000,-0.000000,0.000000,0.000086,0.000027,-0.024221,0.000543,0.707270,0.707270,0.783741,1.004094,0.000000,0.000000,0.000000,0.000000,0.000000,0.000000,0.000000,0.000000,0.000000,0.000000,0.000000,0.000000,0.021366,3,0
70000,-0.000032,1.860304,0.020049,-0.001158,24.998863,-0.002068,0.000079,-0.000079,1.570960,-0.000000,0.000000,-0.000002,-0.000000,0.000000,-0.000000,0.000073,0.000036,-0.012930,0.018016,0.633370,0.633370,0.693801,1.004688,0.000000,0.000000,0.000000,0.000000,0.000000,0.000000,0.000000,0.000000,0.000000,0.000000,0.000000,0.000000,0.011565,3,0
80000,-0.000040,2.119495,0.021571,-0.001234,24.999407,-0.002102,0.000092,-0.000097,1.570967,-0.000010,0.000000,-0.000003,-0.000000,-0.000000,0.000000,0.001430,0.000044,0.096269,0.014887,0.573673,0.573673,0.622594,1.005260,0.000000,0.000000,0.000000,0.000000,0.000000,0.000000,0.000000,0.000000,0.000000,0.000000,0.000000,0.000000,0.087065,3,0
90000,-0.000050,2.376098,0.023341,-0.001438,24.999928,-0.002211,0.000103,-0.000098,1.570984,-0.000020,0.000000,-0.000006,-0.000000,-0.000000,0.000000,0.000925,0.000054,0.075619,0.019051,0.524488,0.524488,0.564865,1.005801,0.000000,0.000000,0.000000,0.000000,0.000000,0.000000,0.000000,0.000000,0.000000,0.000000,0.000000,0.000000,0.069009,3,0
100000,-0.000060,2.624327,0.020742,-0.001538,24.999626,-0.002877,0.000109,-0.000119,1.571008,-0.000016,0.000000,-0.000001,-0.000000,-0.000000,0.000000,0.000210,0.000065,-0.021958,-0.029851,0.483303,0.483303,0.517162,1.006301,0.000000,0.000000,0.000000,0.000000,0.000000,0.000000,0.000000,0.000000,0.000000,0.000000,0.000000,0.000000,0.020189,3,0
110000,-0.000071,2.880871,0.018890,-0.001646,25.000465,-0.003255,0.000115,-0.000126,1.571021,-0.000033,0.000000,0.000003,-0.000000,-0.000000,0.000000,0.001265,0.000076,0.087636,-0.022913,0.448353,0.448353,0.477121,1.006754,0.000000,0.000000,0.000000,0.000000,0.000000,0.000000,0.000000,0.000000,0.000000,0.000000,0.000000,0.000000,0.081087,3,0
120000,-0.000082,3.130185,0.016133,-0.001750,25.000191,-0.003898,0.000117,-0.000130,1.571031,-0.000030,0.000000,0.000011,-0.000000,-0.000000,0.000000,0.000225,0.000088,-0.009884,-0.036852,0.418358,0.418358,0.443071,1.007150,0.000000,0.000000,0.000000,0.000000,0.000000,0.000000,0.000000,0.000000,0.000000,0.000000,0.000000,0.000000,0.009195,3,0
130000,-0.000093,3.382736,0.013762,-0.001798,25.000601,-0.004669,0.000116,-0.000141,1.571049,-0.000040,0.000000,0.000019,-0.000000,-0.000001,0.000000,0.000414,0.000100,0.038987,-0.033767,0.392369,0.392369,0.413797,1.007481,0.000000,0.000000,0.000000,0.000000,0.000000,0.000000,0.000000,0.000000,0.000000,0.000000,0.000000,0.000000,0.036438,3,0
140000,-0.000105,3.634280,0.012633,-0.001884,25.000851,-0.005272,0.000115,-0.000159,1.571075,-0.000048,0.000000,0.000024,-0.000000,-0.000001,0.000000,0.000141,0.000112,0.024980,-0.016661,0.369666,0.369666,0.388393,1.007739,0.000000,0.000000,0.000000,0.000000,0.000000,0.000000,0.000000,0.000000,0.000000,0.000000,0.000000,0.000000,0.023441,3,0
150000,-0.000118,3.888462,0.014138,-0.002025,25.001755,-0.005023,0.000126,-0.000159,1.571086,-0.000072,0.000000,0.000016,-0.000000,-0.000001,0.000000,0.000907,0.000126,0.071617,0.025538,0.349695,0.349695,0.366172,1.007915,0.000000,0.000000,0.000000,0.000000,0.000000,0.000000,0.000000,0.000000,0.000000,0.000000,0.000000,0.000000,0.067443,3,0
160000,-0.000131,4.137176,0.012269,-0.002073,25.001328,-0.005608,0.000125,-0.000175,1.571111,-0.000063,0.000000,0.000027,-0.000000,-0.000001,0.000000,0.000243,0.000139,-0.023543,-0.031459,0.332020,0.332020,0.346600,1.008002,0.000000,0.000000,0.000000,0.000000,0.000000,0.000000,0.000000,0.000000,0.000000,0.000000,0.000000,0.000000,0.022241,3,0
170000,-0.000144,4.389603,0.009925,-0.002113,25.001890,-0.006615,0.000136,-0.000176,1.571120,-0.000082,0.000000,0.000045,-0.000000,-0.000001,0.000000,0.000604,0.000152,0.045810,-0.041606,0.316297,0.316297,0.329260,1.007991,0.000000,0.000000,0.000000,0.000000,0.000000,0.000000,0.000000,0.000000,0.000000,0.000000,0.000000,0.000000,0.043396,3,0
180000,-0.000158,4.646235,0.011635,-0.002192,25.003910,-0.006181,0.000154,-0.000160,1.571127,-0.000145,0.000000,0.000029,-0.000000,-0.000003,0.000000,0.002912,0.000166,0.131320,0.033962,0.302246,0.302246,0.313817,1.007875,0.000000,0.000000,0.000000,0.000000,0.000000,0.000000,0.000000,0.000000,0.000000,0.000000,0.000000,0.000000,0.124704,3,0
190000,-0.000173,4.903657,0.010823,-0.002328,25.006378,-0.006511,0.000171,-0.000145,1.571136,-0.000226,0.000000,0.000037,-0.000000,-0.000005,0.000000,0.003747,0.000181,0.152972,-0.014984,0.289641,0.289641,0.300003,1.007645,0.000000,0.000000,0.000000,0.000000,0.000000,0.000000,0.000000,0.000000,0.000000,0.000000,0.000000,0.000000,0.145588,3,0
200000,-0.000188,5.153483,0.008113,-0.002451,25.006119,-0.007828,0.000170,-0.000160,1.571150,-0.000223,0.000001,0.000068,-0.000000,-0.000005,0.000000,0.000486,0.000197,-0.005080,-0.055095,0.278295,0.278295,0.287598,1.007295,0.000000,0.000000,0.000000,0.000000,0.000000,0.000000,0.000000,0.000000,0.000000,0.000000,0.000000,0.000000,0.004848,3,0
210000,-0.000205,5.409029,0.006381,-0.002636,25.008247,-0.008554,0.000178,-0.000148,1.571176,-0.000302,0.000001,0.000091,-0.000000,-0.000007,0.000000,0.002606,0.000214,0.122796,-0.035891,0.268053,0.268053,0.276421,1.006816,0.000000,0.000000,0.000000,0.000000,0.000000,0.000000,0.000000,0.000000,0.000000,0.000000,0.000000,0.000000,0.117310,3,0
220000,-0.000221,5.659385,0.006157,-0.002666,25.008282,-0.009031,0.000182,-0.000157,1.571183,-0.000306,0.000001,0.000093,-0.000000,-0.000007,0.000000,0.000008,0.000231,0.006381,-0.003005,0.258786,0.258786,0.266321,1.006202,0.000000,0.000000,0.000000,0.000000,0.000000,0.000000,0.000000,0.000000,0.000000,0.000000,0.000000,0.000000,0.006110,3,0
230000,-0.000239,5.912560,0.006562,-0.002786,25.009768,-0.009020,0.000187,-0.000159,1.571191,-0.000362,0.000001,0.000084,-0.000000,-0.000009,0.000000,0.000898,0.000249,0.074086,0.011598,0.250385,0.250385,0.257172,1.005446,0.000000,0.000000,0.000000,0.000000,0.000000,0.000000,0.000000,0.000000,0.000000,0.000000,0.000000,0.000000,0.070994,3,0
240000,-0.000257,6.165062,0.005420,-0.002876,25.011013,-0.009665,0.000197,-0.000151,1.571199,-0.000411,0.000001,0.000105,-0.000000,-0.000011,0.000000,0.000668,0.000268,0.059444,-0.025331,0.242755,0.242755,0.248866,1.004541,0.000000,0.000000,0.000000,0.000000,0.000000,0.000000,0.000000,0.000000,0.000000,0.000000,0.000000,0.000000,0.057040,3,0
250000,-0.000275,6.420082,0.006266,-0.002924,25.013597,-0.009568,0.000197,-0.000125,1.571212,-0.000523,0.000002,0.000084,-0.000000,-0.000015,0.000000,0.002590,0.000286,0.124993,0.023535,0.235817,0.235817,0.241314,1.003481,0.000000,0.000000,0.000000,0.000000,0.000000,0.000000,0.000000,0.000000,0.000000,0.000000,0.000000,0.000000,0.120081,3,0
260000,-0.000295,6.675887,0.006990,-0.003130,25.016850,-0.009471,0.000201,-0.000084,1.571229,-0.000665,0.000002,0.000064,-0.000000,-0.000020,0.000000,0.003594,0.000306,0.148252,0.021090,0.229503,0.229503,0.234436,1.002258,0.000000,0.000000,0.000000,0.000000,0.000000,0.000000,0.000000,0.000000,0.000000,0.000000,0.000000,0.000000,0.142582,3,0
270000,-0.000316,6.932420,0.004992,-0.003300,25.020845,-0.010684,0.000202,-0.000047,1.571254,-0.000841,0.000002,0.000115,-0.000000,-0.000027,0.000000,0.005078,0.000328,0.170720,-0.050035,0.223753,0.223753,0.228165,1.000869,0.000000,0.000000,0.000000,0.000000,0.000000,0.000000,0.000000,0.000000,0.000000,0.000000,0.000000,0.000000,0.164353,3,0
280000,-0.000337,7.189636,0.003582,-0.003452,25.025526,-0.011744,0.000213,0.000008,1.571261,-0.001054,0.000003,0.000153,-0.000000,-0.000035,0.000000,0.006146,0.000350,0.192451,-0.035095,0.218515,0.218515,0.222443,0.999307,0.000000,0.000000,0.000000,0.000000,0.000000,0.000000,0.000000,0.000000,0.000000,0.000000,0.000000,0.000000,0.185442,3,0
290000,-0.000360,7.446787,0.004437,-0.003599,25.030399,-0.011524,0.000214,0.000078,1.571271,-0.001282,0.000003,0.000122,-0.000000,-0.000045,0.000000,0.006142,0.000373,0.193614,0.026965,0.213743,0.213743,0.217219,0.997567,0.000000,0.000000,0.000000,0.000000,0.000000,0.000000,0.000000,0.000000,0.000000,0.000000,0.000000,0.000000,0.186717,3,0
300000,-0.000384,7.703197,0.003148,-0.003746,25.035059,-0.012656,0.000219,0.000132,1.571292,-0.001502,0.000004,0.000163,-0.000000,-0.000054,0.000000,0.005099,0.000398,0.174960,-0.033041,0.209397,0.209397,0.212446,0.995645,0.000000,0.000000,0.000000,0.000000,0.000000,0.000000,0.000000,0.000000,0.000000,0.000000,0.000000,0.000000,0.168854,3,0
310000,-0.000407,7.955522,0.003049,-0.003751,25.036633,-0.013084,0.000237,0.000152,1.571305,-0.001579,0.000004,0.000162,-0.000000,-0.000058,0.000000,0.000535,0.000421,0.057655,0.000902,0.205442,0.205442,0.208087,0.993536,0.000000,0.000000,0.000000,0.000000,0.000000,0.000000,0.000000,0.000000,0.000000,0.000000,0.000000,0.000000,0.055683,3,0
320000,-0.000431,8.208701,0.001382,-0.003863,25.038992,-0.014472,0.000239,0.000187,1.571318,-0.001697,0.000005,0.000225,-0.000000,-0.000063,0.000000,0.001453,0.000446,0.083620,-0.045086,0.201846,0.201846,0.204105,0.991236,0.000000,0.000000,0.000000,0.000000,0.000000,0.000000,0.000000,0.000000,0.000000,0.000000,0.000000,0.000000,0.080808,3,0
330000,-0.000455,8.462031,0.000510,-0.003920,25.041603,-0.015349,0.000254,0.000213,1.571338,-0.001830,0.000006,0.000257,-0.000000,-0.000069,0.000000,0.001348,0.000470,0.088842,-0.021684,0.198580,0.198580,0.200469,0.988743,0.000000,0.000000,0.000000,0.000000,0.000000,0.000000,0.000000,0.000000,0.000000,0.000000,0.000000,0.000000,0.085903,3,0
340000,-0.000480,8.715508,-0.000061,-0.004093,25.044344,-0.016138,0.000253,0.000244,1.571346,-0.001979,0.000007,0.000277,-0.000000,-0.000076,0.000000,0.001448,0.000496,0.093914,-0.012565,0.195620,0.195620,0.197151,0.986053,0.000000,0.000000,0.000000,0.000000,0.000000,0.000000,0.000000,0.000000,0.000000,0.000000,0.000000,0.000000,0.090853,3,0
350000,-0.000505,8.969130,-0.001552,-0.004207,25.047298,-0.017505,0.000257,0.000276,1.571365,-0.002144,0.000008,0.000345,-0.000000,-0.000085,0.000000,0.001847,0.000522,0.098835,-0.041040,0.192941,0.192941,0.194125,0.983163,0.000000,0.000000,0.000000,0.000000,0.000000,0.000000,0.000000,0.000000,0.000000,0.000000,0.000000,0.000000,0.095658,3,0
360000,-0.000531,9.226680,-0.002771,-0.004289,25.054346,-0.018540,0.000269,0.000386,1.571381,-0.002535,0.000009,0.000402,-0.000000,-0.000105,0.000000,0.008189,0.000548,0.222882,-0.032712,0.190525,0.190525,0.191370,0.980072,0.000000,0.000000,0.000000,0.000000,0.000000,0.000000,0.000000,0.000000,0.000000,0.000000,0.000000,0.000000,0.215806,3,0
370000,-0.000556,9.480500,-0.002939,-0.004310,25.057692,-0.018833,0.000271,0.000439,1.571396,-0.002727,0.000010,0.000401,-0.000000,-0.000115,0.000000,0.001760,0.000574,0.104415,0.000630,0.188350,0.188350,0.188863,0.976778,0.000000,0.000000,0.000000,0.000000,0.000000,0.000000,0.000000,0.000000,0.000000,0.000000,0.000000,0.000000,0.101139,3,0
380000,-0.000581,9.735080,-0.003547,-0.004327,25.061876,-0.019567,0.000283,0.000519,1.571417,-0.002976,0.000011,0.000427,-0.000000,-0.000129,0.000000,0.002711,0.000599,0.128866,-0.013396,0.186401,0.186401,0.186586,0.973281,0.000000,0.000000,0.000000,0.000000,0.000000,0.000000,0.000000,0.000000,0.000000,0.000000,0.000000,0.000000,0.124864,3,0
390000,-0.000606,9.987946,-0.004748,-0.004438,25.064333,-0.020969,0.000285,0.000564,1.571424,-0.003124,0.000012,0.000493,-0.000001,-0.000137,0.000000,0.001033,0.000625,0.073034,-0.032549,0.184662,0.184662,0.184522,0.969579,0.000000,0.000000,0.000000,0.000000,0.000000,0.000000,0.000000,0.000000,0.000000,0.000000,0.000000,0.000000,0.070789,3,0
400000,-0.000631,10.240986,-0.003727,-0.004473,25.067017,-0.019946,0.000301,0.000612,1.571437,-0.003291,0.000014,0.000407,-0.000001,-0.000147,0.000000,0.001263,0.000651,0.078569,0.040525,0.183117,0.183117,0.182656,0.965674,0.000000,0.000000,0.000000,0.000000,0.000000,0.000000,0.000000,0.000000,0.000000,0.000000,0.000000,0.000000,0.076174,3,0
410000,-0.000657,10.496607,-0.002396,-0.004625,25.072796,-0.018479,0.000308,0.000717,1.571461,-0.003652,0.000015,0.000295,-0.000001,-0.000169,0.000000,0.004734,0.000678,0.163444,0.050785,0.181753,0.181753,0.180971,0.961565,0.000000,0.000000,0.000000,0.000000,0.000000,0.000000,0.000000,0.000000,0.000000,0.000000,0.000000,0.000000,0.158493,3,0
420000,-0.000684,10.751737,-0.002642,-0.004795,25.078033,-0.018688,0.000325,0.000823,1.571470,-0.003989,0.000017,0.000300,-0.000001,-0.000189,0.000000,0.003461,0.000705,0.146313,-0.001987,0.180559,0.180559,0.179456,0.957254,0.000000,0.000000,0.000000,0.000000,0.000000,0.000000,0.000000,0.000000,0.000000,0.000000,0.000000,0.000000,0.141911,3,0
430000,-0.000711,11.008181,-0.002685,-0.004825,25.085072,-0.018957,0.000339,0.000960,1.571484,-0.004443,0.000019,0.000288,-0.000001,-0.000218,0.000000,0.005799,0.000733,0.189313,0.004967,0.179521,0.179521,0.178097,0.952742,0.000000,0.000000,0.000000,0.000000,0.000000,0.000000,0.000000,0.000000,0.000000,0.000000,0.000000,0.000000,0.183650,3,0
440000,-0.000737,11.265317,-0.002887,-0.004824,25.093164,-0.019223,0.000341,0.001134,1.571506,-0.004969,0.000021,0.000289,-0.000001,-0.000252,0.000000,0.007206,0.000759,0.211102,-0.000329,0.178631,0.178631,0.176883,0.948031,0.000000,0.000000,0.000000,0.000000,0.000000,0.000000,0.000000,0.000000,0.000000,0.000000,0.000000,0.000000,0.204819,3,0
450000,-0.000763,11.523723,-0.003638,-0.004923,25.103029,-0.019956,0.000357,0.001347,1.571514,-0.005622,0.000023,0.000338,-0.000001,-0.000295,0.000000,0.010335,0.000786,0.252069,-0.019050,0.177876,0.177876,0.175803,0.943125,0.000000,0.000000,0.000000,0.000000,0.000000,0.000000,0.000000,0.000000,0.000000,0.000000,0.000000,0.000000,0.244597,3,0
460000,-0.000790,11.778673,-0.003022,-0.005041,25.108250,-0.019316,0.000357,0.001455,1.571534,-0.005979,0.000025,0.000263,-0.000001,-0.000319,0.000000,0.002977,0.000814,0.132718,0.028101,0.177249,0.177249,0.174847,0.938025,0.000000,0.000000,0.000000,0.000000,0.000000,0.000000,0.000000,0.000000,0.000000,0.000000,0.000000,0.000000,0.128800,3,0
470000,-0.000816,12.037280,-0.001891,-0.005077,25.118589,-0.018026,0.000362,0.001683,1.571542,-0.006690,0.000028,0.000135,-0.000002,-0.000368,0.000000,0.010892,0.000841,0.255414,0.045776,0.176740,0.176740,0.174006,0.932737,0.000000,0.000000,0.000000,0.000000,0.000000,0.000000,0.000000,0.000000,0.000000,0.000000,0.000000,0.000000,0.247892,3,0
480000,-0.000842,12.294212,-0.001241,-0.005130,25.126633,-0.017249,0.000372,0.001871,1.571566,-0.007253,0.000031,0.000052,-0.000002,-0.000408,0.000001,0.006317,0.000868,0.195494,0.028838,0.176340,0.176340,0.173271,0.927264,0.000000,0.000000,0.000000,0.000000,0.000000,0.000000,0.000000,0.000000,0.000000,0.000000,0.000000,0.000000,0.189750,3,0
490000,-0.000869,12.551840,-0.001669,-0.005285,25.135786,-0.017919,0.000383,0.002083,1.571589,-0.007898,0.000033,0.000078,-0.000002,-0.000454,0.000001,0.007615,0.000895,0.216784,-0.008755,0.176042,0.176042,0.172634,0.921610,0.000000,0.000000,0.000000,0.000000,0.000000,0.000000,0.000000,0.000000,0.000000,0.000000,0.000000,0.000000,0.210425,3,0
500000,-0.000896,12.809573,-0.003066,-0.005340,25.145077,-0.019749,0.000388,0.002304,1.571603,-0.008567,0.000037,0.000209,-0.000002,-0.000504,0.000001,0.007943,0.000923,0.217492,-0.042364,0.175839,0.175839,0.172087,0.915781,0.000000,0.000000,0.000000,0.000000,0.000000,0.000000,0.000000,0.000000,0.000000,0.000000,0.000000,0.000000,0.211120,3,0
510000,-0.000921,13.065666,-0.003838,-0.005301,25.152081,-0.020951,0.000394,0.002463,1.571611,-0.009070,0.000040,0.000272,-0.000002,-0.000542,0.000001,0.004127,0.000949,0.158454,-0.019953,0.175723,0.175723,0.171622,0.909781,0.000000,0.000000,0.000000,0.000000,0.000000,0.000000,0.000000,0.000000,0.000000,0.000000,0.000000,0.000000,0.153816,3,0
520000,-0.000946,13.324223,-0.002538,-0.005258,25.162670,-0.019080,0.000404,0.002727,1.571622,-0.009855,0.000043,0.000098,-0.000003,-0.000603,0.000001,0.009791,0.000974,0.240232,0.052965,0.175687,0.175687,0.171234,0.903618,0.000000,0.000000,0.000000,0.000000,0.000000,0.000000,0.000000,0.000000,0.000000,0.000000,0.000000,0.000000,0.233200,3,0
530000,-0.000971,13.578805,-0.001855,-0.005395,25.167387,-0.018002,0.000420,0.002835,1.571648,-0.010195,0.000047,-0.000006,-0.000003,-0.000629,0.000001,0.001798,0.001000,0.100843,0.030688,0.175726,0.175726,0.170914,0.897295,0.000000,0.000000,0.000000,0.000000,0.000000,0.000000,0.000000,0.000000,0.000000,0.000000,0.000000,0.000000,0.097895,3,0
540000,-0.000996,13.837626,-0.002248,-0.005466,25.178469,-0.018540,0.000435,0.003127,1.571670,-0.011039,0.000051,0.000020,-0.000003,-0.000697,0.000001,0.009624,0.001026,0.243792,-0.007393,0.175834,0.175834,0.170658,0.890821,0.000000,0.000000,0.000000,0.000000,0.000000,0.000000,0.000000,0.000000,0.000000,0.000000,0.000000,0.000000,0.236649,3,0
550000,-0.001021,14.093051,-0.001591,-0.005507,25.184437,-0.017705,0.000436,0.003271,1.571681,-0.011480,0.000054,-0.000087,-0.000004,-0.000734,0.000001,0.002631,0.001052,0.124012,0.029745,0.176004,0.176004,0.170460,0.884202,0.000000,0.000000,0.000000,0.000000,0.000000,0.000000,0.000000,0.000000,0.000000,0.000000,0.000000,0.000000,0.120379,3,0
560000,-0.001045,14.348043,-0.002771,-0.005533,25.189615,-0.019407,0.000454,0.003397,1.571688,-0.011871,0.000059,0.000043,-0.000004,-0.000767,0.000001,0.002056,0.001076,0.107074,-0.035214,0.176231,0.176231,0.170314,0.877445,0.000000,0.000000,0.000000,0.000000,0.000000,0.000000,0.000000,0.000000,0.000000,0.000000,0.000000,0.000000,0.103934,3,0
570000,-0.001069,14.606701,-0.004136,-0.005641,25.200598,-0.021305,0.000465,0.003695,1.571699,-0.012732,0.000063,0.000199,-0.000004,-0.000840,0.000001,0.008812,0.001102,0.229730,-0.041203,0.176511,0.176511,0.170214,0.870557,0.000000,0.000000,0.000000,0.000000,0.000000,0.000000,0.000000,0.000000,0.000000,0.000000,0.000000,0.000000,0.222974,3,0
580000,-0.001094,14.863128,-0.005208,-0.005756,25.207952,-0.022669,0.000471,0.003905,1.571719,-0.013308,0.000068,0.000317,-0.000005,-0.000891,0.000001,0.003781,0.001128,0.149871,-0.030224,0.176837,0.176837,0.170157,0.863545,0.000000,0.000000,0.000000,0.000000,0.000000,0.000000,0.000000,0.000000,0.000000,0.000000,0.000000,0.000000,0.145458,3,0
590000,-0.001118,15.122043,-0.006698,-0.005698,25.219273,-0.024903,0.000478,0.004223,1.571726,-0.014218,0.000072,0.000494,-0.000005,-0.000972,0.000001,0.008974,0.001152,0.231313,-0.044432,0.177207,0.177207,0.170138,0.856418,0.000000,0.000000,0.000000,0.000000,0.000000,0.000000,0.000000,0.000000,0.000000,0.000000,0.000000,0.000000,0.224483,3,0
600000,-0.001140,15.380481,-0.006936,-0.005674,25.229837,-0.025010,0.000486,0.004539,1.571740,-0.015066,0.000078,0.000492,-0.000006,-0.001049,0.000001,0.007189,0.001175,0.210830,0.000445,0.177615,0.177615,0.170152,0.849183,0.000000,0.000000,0.000000,0.000000,0.000000,0.000000,0.000000,0.000000,0.000000,0.000000,0.000000,0.000000,0.204592,3,0
610000,-0.001162,15.637268,-0.008143,-0.005678,25.237743,-0.026816,0.000491,0.004759,1.571764,-0.015688,0.000083,0.000633,-0.000006,-0.001107,0.000001,0.003874,0.001198,0.151075,-0.033611,0.178057,0.178057,0.170195,0.841847,0.000000,0.000000,0.000000,0.000000,0.000000,0.000000,0.000000,0.000000,0.000000,0.000000,0.000000,0.000000,0.146597,3,0
620000,-0.001184,15.893010,-0.008480,-0.005790,25.243874,-0.027032,0.000501,0.004924,1.571778,-0.016163,0.000088,0.000643,-0.000006,-0.001152,0.000001,0.002061,0.001221,0.112876,-0.002365,0.178529,0.178529,0.170264,0.834420,0.000000,0.000000,0.000000,0.000000,0.000000,0.000000,0.000000,0.000000,0.000000,0.000000,0.000000,0.000000,0.109524,3,0
630000,-0.001206,16.151274,-0.007878,-0.005770,25.254009,-0.025860,0.000509,0.005240,1.571784,-0.017001,0.000094,0.000508,-0.000007,-0.001232,0.000002,0.006303,0.001243,0.195015,0.030747,0.179028,0.179028,0.170355,0.826909,0.000000,0.000000,0.000000,0.000000,0.000000,0.000000,0.000000,0.000000,0.000000,0.000000,0.000000,0.000000,0.189199,3,0
640000,-0.001227,16.410252,-0.007886,-0.005889,25.265230,-0.025848,0.000523,0.005589,1.571795,-0.017943,0.000100,0.000467,-0.000008,-0.001325,0.000002,0.007484,0.001265,0.214956,0.008927,0.179550,0.179550,0.170465,0.819322,0.000000,0.000000,0.000000,0.000000,0.000000,0.000000,0.000000,0.000000,0.000000,0.000000,0.000000,0.000000,0.208526,3,0
650000,-0.001248,16.671133,-0.009095,-0.005858,25.279694,-0.027338,0.000530,0.006040,1.571809,-0.019167,0.000106,0.000620,-0.000008,-0.001447,0.000002,0.012311,0.001287,0.273928,-0.033390,0.180092,0.180092,0.170591,0.811668,0.000000,0.000000,0.000000,0.000000,0.000000,0.000000,0.000000,0.000000,0.000000,0.000000,0.000000,0.000000,0.265708,3,0
660000,-0.001268,16.930311,-0.008445,-0.005923,25.291073,-0.026331,0.000546,0.006397,1.571822,-0.020131,0.000112,0.000467,-0.000009,-0.001545,0.000002,0.007416,0.001308,0.211689,0.032544,0.180650,0.180650,0.170729,0.803954,0.000000,0.000000,0.000000,0.000000,0.000000,0.000000,0.000000,0.000000,0.000000,0.000000,0.000000,0.000000,0.205319,3,0
670000,-0.001289,17.188997,-0.008544,-0.005971,25.301594,-0.026458,0.000567,0.006740,1.571841,-0.021016,0.000119,0.000439,-0.000010,-0.001637,0.000002,0.005899,0.001329,0.190943,0.005926,0.181223,0.181223,0.170877,0.796189,0.000000,0.000000,0.000000,0.000000,0.000000,0.000000,0.000000,0.000000,0.000000,0.000000,0.000000,0.000000,0.185179,3,0
680000,-0.001308,17.448999,-0.008315,-0.005978,25.314240,-0.026168,0.000588,0.007150,1.571847,-0.022103,0.000126,0.000353,-0.000010,-0.001752,0.000002,0.008624,0.001349,0.230335,0.017451,0.181806,0.181806,0.171032,0.788380,0.000000,0.000000,0.000000,0.000000,0.000000,0.000000,0.000000,0.000000,0.000000,0.000000,0.000000,0.000000,0.223360,3,0
690000,-0.001326,17.705475,-0.008100,-0.005892,25.320692,-0.025683,0.000593,0.007364,1.571868,-0.022627,0.000133,0.000269,-0.000011,-0.001808,0.000002,0.001979,0.001368,0.109360,0.016797,0.182398,0.182398,0.171193,0.780536,0.000000,0.000000,0.000000,0.000000,0.000000,0.000000,0.000000,0.000000,0.000000,0.000000,0.000000,0.000000,0.106044,3,0
700000,-0.001344,17.963297,-0.008371,-0.005890,25.329456,-0.026004,0.000606,0.007656,1.571880,-0.023364,0.000140,0.000271,-0.000012,-0.001889,0.000002,0.003685,0.001386,0.151003,-0.000391,0.182996,0.182996,0.171357,0.772664,0.000000,0.000000,0.000000,0.000000,0.000000,0.000000,0.000000,0.000000,0.000000,0.000000,0.000000,0.000000,0.146403,3,0
710000,-0.001361,18.221237,-0.007721,-0.005968,25.338268,-0.024880,0.000608,0.007959,1.571899,-0.024114,0.000147,0.000106,-0.000013,-0.001972,0.000002,0.003874,0.001404,0.151518,0.031915,0.183598,0.183598,0.171521,0.764772,0.000000,0.000000,0.000000,0.000000,0.000000,0.000000,0.000000,0.000000,0.000000,0.000000,0.000000,0.000000,0.146887,3,0
720000,-0.001378,18.478071,-0.006935,-0.006013,25.345163,-0.023403,0.000620,0.008186,1.571921,-0.024678,0.000154,-0.000084,-0.000013,-0.002036,0.000003,0.002245,0.001422,0.112158,0.036193,0.184202,0.184202,0.171685,0.756868,0.000000,0.000000,0.000000,0.000000,0.000000,0.000000,0.000000,0.000000,0.000000,0.000000,0.000000,0.000000,0.108724,3,0
730000,-0.001396,18.738708,-0.007401,-0.006110,25.358530,-0.024191,0.000622,0.008664,1.571941,-0.025867,0.000162,-0.000042,-0.000014,-0.002173,0.000003,0.008777,0.001440,0.232954,-0.007968,0.184806,0.184806,0.171846,0.748958,0.000000,0.000000,0.000000,0.000000,0.000000,0.000000,0.000000,0.000000,0.000000,0.000000,0.000000,0.000000,0.225783,3,0
740000,-0.001412,18.997587,-0.007707,-0.006058,25.368713,-0.024370,0.000633,0.009024,1.571954,-0.026752,0.000170,-0.000031,-0.000015,-0.002277,0.000003,0.004722,0.001457,0.170971,-0.002192,0.185408,0.185408,0.172003,0.741051,0.000000,0.000000,0.000000,0.000000,0.000000,0.000000,0.000000,0.000000,0.000000,0.000000,0.000000,0.000000,0.165694,3,0
750000,-0.001428,19.257801,-0.008543,-0.006102,25.381134,-0.025438,0.000651,0.009472,1.571968,-0.027854,0.000179,0.000081,-0.000016,-0.002408,0.000003,0.007203,0.001474,0.210173,-0.020582,0.186007,0.186007,0.172154,0.733152,0.000000,0.000000,0.000000,0.000000,0.000000,0.000000,0.000000,0.000000,0.000000,0.000000,0.000000,0.000000,0.203662,3,0
760000,-0.001443,19.515009,-0.008569,-0.006068,25.388063,-0.025292,0.000666,0.009715,1.571993,-0.028433,0.000187,0.000036,-0.000017,-0.002478,0.000003,0.001925,0.001490,0.108868,0.008016,0.186601,0.186601,0.172299,0.725269,0.000000,0.000000,0.000000,0.000000,0.000000,0.000000,0.000000,0.000000,0.000000,0.000000,0.000000,0.000000,0.105492,3,0
770000,-0.001457,19.773573,-0.008517,-0.006028,25.397285,-0.025095,0.000680,0.010054,1.572009,-0.029239,0.000195,-0.000026,-0.000018,-0.002578,0.000003,0.003641,0.001504,0.149775,0.010698,0.187189,0.187189,0.172435,0.717408,0.000000,0.000000,0.000000,0.000000,0.000000,0.000000,0.000000,0.000000,0.000000,0.000000,0.000000,0.000000,0.145109,3,0
780000,-0.001471,20.034103,-0.009477,-0.006014,25.409798,-0.026351,0.000702,0.010525,1.572021,-0.030378,0.000204,0.000115,-0.000019,-0.002720,0.000003,0.007163,0.001518,0.209179,-0.024584,0.187770,0.187770,0.172562,0.709575,0.000000,0.000000,0.000000,0.000000,0.000000,0.000000,0.000000,0.000000,0.000000,0.000000,0.000000,0.000000,0.202638,3,0
790000,-0.001484,20.295956,-0.008269,-0.006022,25.424484,-0.024614,0.000720,0.011096,1.572045,-0.031736,0.000213,-0.000187,-0.000020,-0.002894,0.000004,0.010252,0.001532,0.246710,0.051306,0.188342,0.188342,0.172680,0.701777,0.000000,0.000000,0.000000,0.000000,0.000000,0.000000,0.000000,0.000000,0.000000,0.000000,0.000000,0.000000,0.238971,3,0
800000,-0.001496,20.557241,-0.008542,-0.006001,25.438005,-0.024840,0.000735,0.011633,1.572056,-0.032980,0.000222,-0.000183,-0.000022,-0.003055,0.000004,0.008046,0.001545,0.223255,-0.000854,0.188905,0.188905,0.172786,0.694019,0.000000,0.000000,0.000000,0.000000,0.000000,0.000000,0.000000,0.000000,0.000000,0.000000,0.000000,0.000000,0.216232,3,0
810000,-0.001507,20.816706,-0.007763,-0.005911,25.448198,-0.023750,0.000738,0.012026,1.572066,-0.033884,0.000232,-0.000400,-0.000023,-0.003174,0.000004,0.004372,0.001556,0.160622,0.035820,0.189458,0.189458,0.172881,0.686306,0.000000,0.000000,0.000000,0.000000,0.000000,0.000000,0.000000,0.000000,0.000000,0.000000,0.000000,0.000000,0.155557,3,0
820000,-0.001517,21.074993,-0.006469,-0.005932,25.456245,-0.021843,0.000760,0.012342,1.572077,-0.034564,0.000241,-0.000725,-0.000024,-0.003265,0.000004,0.002773,0.001567,0.119724,0.053251,0.190001,0.190000,0.172964,0.678645,0.000000,0.000000,0.000000,0.000000,0.000000,0.000000,0.000000,0.000000,0.000000,0.000000,0.000000,0.000000,0.115942,3,0
830000,-0.001526,21.333372,-0.006091,-0.005807,25.464327,-0.021344,0.000772,0.012651,1.572092,-0.035252,0.000250,-0.000854,-0.000025,-0.003358,0.000004,0.002386,0.001576,0.119781,0.020834,0.190531,0.190531,0.173034,0.671039,0.000000,0.000000,0.000000,0.000000,0.000000,0.000000,0.000000,0.000000,0.000000,0.000000,0.000000,0.000000,0.115988,3,0
840000,-0.001534,21.591843,-0.005180,-0.005747,25.472456,-0.020075,0.000787,0.012967,1.572111,-0.035945,0.000260,-0.001099,-0.000027,-0.003454,0.000004,0.002562,0.001584,0.119747,0.039123,0.191050,0.191050,0.173091,0.663494,0.000000,0.000000,0.000000,0.000000,0.000000,0.000000,0.000000,0.000000,0.000000,0.000000,0.000000,0.000000,0.115945,3,0
850000,-0.001542,21.854210,-0.004592,-0.005799,25.487431,-0.019105,0.000807,0.013589,1.572130,-0.037342,0.000270,-0.001275,-0.000028,-0.003650,0.000005,0.009330,0.001593,0.238894,0.027450,0.191556,0.191556,0.173135,0.656014,0.000000,0.000000,0.000000,0.000000,0.000000,0.000000,0.000000,0.000000,0.000000,0.000000,0.000000,0.000000,0.231271,3,0
860000,-0.001550,22.114706,-0.003899,-0.005853,25.498970,-0.017966,0.000812,0.014069,1.572146,-0.038375,0.000280,-0.001473,-0.000030,-0.003798,0.000005,0.005103,0.001601,0.175165,0.030704,0.192050,0.192049,0.173165,0.648604,0.000000,0.000000,0.000000,0.000000,0.000000,0.000000,0.000000,0.000000,0.000000,0.000000,0.000000,0.000000,0.169567,3,0
870000,-0.001557,22.375261,-0.004740,-0.005749,25.510279,-0.019180,0.000831,0.014544,1.572156,-0.039404,0.000290,-0.001328,-0.000031,-0.003947,0.000005,0.004911,0.001608,0.172979,-0.022798,0.192530,0.192530,0.173181,0.641266,0.000000,0.000000,0.000000,0.000000,0.000000,0.000000,0.000000,0.000000,0.000000,0.000000,0.000000,0.000000,0.167436,3,0
880000,-0.001563,22.636515,-0.005761,-0.005751,25.522829,-0.020604,0.000853,0.015073,1.572174,-0.040547,0.000300,-0.001143,-0.000033,-0.004115,0.000005,0.005994,0.001615,0.190613,-0.028630,0.192997,0.192997,0.173183,0.634006,0.000000,0.000000,0.000000,0.000000,0.000000,0.000000,0.000000,0.000000,0.000000,0.000000,0.000000,0.000000,0.184487,3,0
890000,-0.001569,22.895247,-0.006081,-0.005736,25.530682,-0.021065,0.000873,0.015386,1.572183,-0.041200,0.000311,-0.001119,-0.000034,-0.004213,0.000005,0.001889,0.001622,0.108147,-0.003843,0.193451,0.193451,0.173170,0.626825,0.000000,0.000000,0.000000,0.000000,0.000000,0.000000,0.000000,0.000000,0.000000,0.000000,0.000000,0.000000,0.104672,3,0
900000,-0.001574,23.154055,-0.006009,-0.005651,25.538649,-0.020937,0.000887,0.015704,1.572199,-0.041855,0.000321,-0.001187,-0.000036,-0.004313,0.000005,0.001889,0.001627,0.107759,0.009941,0.193891,0.193891,0.173144,0.619729,0.000000,0.000000,0.000000,0.000000,0.000000,0.000000,0.000000,0.000000,0.000000,0.000000,0.000000,0.000000,0.104289,3,0
910000,-0.001578,23.415508,-0.007344,-0.005559,25.551064,-0.022651,0.000905,0.016266,1.572217,-0.042999,0.000332,-0.000926,-0.000037,-0.004489,0.000006,0.005874,0.001631,0.186815,-0.038966,0.194318,0.194318,0.173103,0.612718,0.000000,0.000000,0.000000,0.000000,0.000000,0.000000,0.000000,0.000000,0.000000,0.000000,0.000000,0.000000,0.180772,3,0
920000,-0.001580,23.674417,-0.007121,-0.005458,25.558817,-0.022429,0.000921,0.016592,1.572237,-0.043641,0.000342,-0.001035,-0.000039,-0.004590,0.000006,0.001790,0.001633,0.104145,0.015774,0.194732,0.194731,0.173048,0.605797,0.000000,0.000000,0.000000,0.000000,0.000000,0.000000,0.000000,0.000000,0.000000,0.000000,0.000000,0.000000,0.100778,3,0
930000,-0.001582,23.934040,-0.006105,-0.005377,25.567797,-0.021060,0.000934,0.016975,1.572262,-0.044405,0.000353,-0.001335,-0.000041,-0.004712,0.000006,0.002761,0.001635,0.123465,0.043204,0.195132,0.195131,0.172979,0.598967,0.000000,0.000000,0.000000,0.000000,0.000000,0.000000,0.000000,0.000000,0.000000,0.000000,0.000000,0.000000,0.119460,3,0
940000,-0.001583,24.192423,-0.005629,-0.005368,25.574532,-0.020512,0.000951,0.017259,1.572277,-0.044919,0.000363,-0.001504,-0.000042,-0.004795,0.000006,0.001189,0.001636,0.082418,0.023992,0.195519,0.195518,0.172896,0.592232,0.000000,0.000000,0.000000,0.000000,0.000000,0.000000,0.000000,0.000000,0.000000,0.000000,0.000000,0.000000,0.079749,3,0
950000,-0.001585,24.454124,-0.007068,-0.005411,25.587080,-0.022455,0.000968,0.017827,1.572295,-0.046059,0.000374,-0.001207,-0.000044,-0.004982,0.000006,0.005624,0.001638,0.181787,-0.042700,0.195893,0.195892,0.172799,0.585591,0.000000,0.000000,0.000000,0.000000,0.000000,0.000000,0.000000,0.000000,0.000000,0.000000,0.000000,0.000000,0.175859,3,0
960000,-0.001586,24.716501,-0.007953,-0.005342,25.600523,-0.023758,0.000979,0.018461,1.572315,-0.047309,0.000386,-0.001049,-0.000046,-0.005191,0.000006,0.006422,0.001639,0.198265,-0.022771,0.196254,0.196253,0.172689,0.579049,0.000000,0.000000,0.000000,0.000000,0.000000,0.000000,0.000000,0.000000,0.000000,0.000000,0.000000,0.000000,0.191787,3,0
970000,-0.001585,24.978889,-0.008176,-0.005247,25.613813,-0.023887,0.000988,0.019083,1.572328,-0.048539,0.000397,-0.001057,-0.000048,-0.005399,0.000007,0.006079,0.001639,0.194181,0.000642,0.196603,0.196602,0.172566,0.572605,0.000000,0.000000,0.000000,0.000000,0.000000,0.000000,0.000000,0.000000,0.000000,0.000000,0.000000,0.000000,0.187825,3,0
980000,-0.001585,25.242594,-0.008977,-0.005242,25.629271,-0.024970,0.001012,0.019836,1.572336,-0.050001,0.000408,-0.000922,-0.000050,-0.005650,0.000007,0.008577,0.001639,0.229841,-0.019379,0.196940,0.196939,0.172429,0.566262,0.000000,0.000000,0.000000,0.000000,0.000000,0.000000,0.000000,0.000000,0.000000,0.000000,0.000000,0.000000,0.222303,3,0
990000,-0.001583,25.506287,-0.009493,-0.005118,25.644566,-0.025463,0.001035,0.020591,1.572358,-0.051435,0.000420,-0.000860,-0.000051,-0.005901,0.000007,0.008131,0.001637,0.224409,-0.009130,0.197265,0.197264,0.172280,0.560021,0.000000,0.000000,0.000000,0.000000,0.000000,0.000000,0.000000,0.000000,0.000000,0.000000,0.000000,0.000000,0.217037,3,0
1000000,-0.001581,25.769314,-0.009992,-0.005080,25.658474,-0.026124,0.001042,0.021266,1.572383,-0.052713,0.000431,-0.000803,-0.000053,-0.006127,0.000008,0.006401,0.001635,0.199108,-0.008290,0.197579,0.197577,0.172119,0.553883,0.000000,0.000000,0.000000,0.000000,0.000000,0.000000,0.000000,0.000000,0.000000,0.000000,0.000000,0.000000,0.192557,3,0
1010000,-0.001578,26.029055,-0.010046,-0.004971,25.666460,-0.026137,0.001058,0.021620,1.572401,-0.053324,0.000442,-0.000861,-0.000055,-0.006237,0.000008,0.001463,0.001632,0.094975,0.007383,0.197881,0.197880,0.171945,0.547848,0.000000,0.000000,0.000000,0.000000,0.000000,0.000000,0.000000,0.000000,0.000000,0.000000,0.000000,0.000000,0.091856,3,0
1020000,-0.001573,26.288179,-0.008749,-0.004817,25.673283,-0.024266,0.001064,0.021910,1.572427,-0.053799,0.000453,-0.001272,-0.000057,-0.006324,0.000008,0.001358,0.001627,0.073696,0.054601,0.198173,0.198171,0.171760,0.541918,0.000000,0.000000,0.000000,0.000000,0.000000,0.000000,0.000000,0.000000,0.000000,0.000000,0.000000,0.000000,0.071280,3,0
1030000,-0.001569,26.551954,-0.008600,-0.004840,25.688211,-0.023908,0.001080,0.022654,1.572446,-0.055174,0.000464,-0.001382,-0.000059,-0.006578,0.000008,0.007280,0.001622,0.212084,0.013873,0.198455,0.198453,0.171564,0.536092,0.000000,0.000000,0.000000,0.000000,0.000000,0.000000,0.000000,0.000000,0.000000,0.000000,0.000000,0.000000,0.205075,3,0
1040000,-0.001564,26.810436,-0.007244,-0.004782,25.693686,-0.022032,0.001090,0.022857,1.572456,-0.055482,0.000475,-0.001810,-0.000062,-0.006636,0.000008,0.000873,0.001618,0.047554,0.056019,0.198726,0.198724,0.171356,0.530371,0.000000,0.000000,0.000000,0.000000,0.000000,0.000000,0.000000,0.000000,0.000000,0.000000,0.000000,0.000000,0.046007,3,0
1050000,-0.001558,27.072929,-0.008314,-0.004720,25.706114,-0.023593,0.001114,0.023468,1.572476,-0.056570,0.000486,-0.001588,-0.000064,-0.006844,0.000008,0.004621,0.001612,0.166716,-0.029565,0.198989,0.198987,0.171139,0.524756,0.000000,0.000000,0.000000,0.000000,0.000000,0.000000,0.000000,0.000000,0.000000,0.000000,0.000000,0.000000,0.161194,3,0
1060000,-0.001552,27.333437,-0.009626,-0.004588,25.714903,-0.025556,0.001139,0.023885,1.572496,-0.057243,0.000498,-0.001301,-0.000066,-0.006975,0.000009,0.001934,0.001605,0.102884,-0.037526,0.199242,0.199240,0.170910,0.519246,0.000000,0.000000,0.000000,0.000000,0.000000,0.000000,0.000000,0.000000,0.000000,0.000000,0.000000,0.000000,0.099478,3,0
1070000,-0.001544,27.592638,-0.009097,-0.004450,25.721165,-0.024756,0.001162,0.024153,1.572504,-0.057642,0.000508,-0.001519,-0.000068,-0.007053,0.000009,0.000724,0.001598,0.060961,0.027752,0.199487,0.199484,0.170673,0.513841,0.000000,0.000000,0.000000,0.000000,0.000000,0.000000,0.000000,0.000000,0.000000,0.000000,0.000000,0.000000,0.058955,3,0
1080000,-0.001536,27.854527,-0.008598,-0.004345,25.732229,-0.024224,0.001187,0.024699,1.572511,-0.058558,0.000519,-0.001732,-0.000070,-0.007236,0.000009,0.003256,0.001589,0.139637,0.026549,0.199723,0.199721,0.170425,0.508542,0.000000,0.000000,0.000000,0.000000,0.000000,0.000000,0.000000,0.000000,0.000000,0.000000,0.000000,0.000000,0.134998,3,0
1090000,-0.001527,28.115749,-0.008103,-0.004346,25.741850,-0.023374,0.001208,0.025169,1.572534,-0.059321,0.000530,-0.001944,-0.000072,-0.007390,0.000009,0.002286,0.001580,0.116184,0.026184,0.199952,0.199949,0.170169,0.503347,0.000000,0.000000,0.000000,0.000000,0.000000,0.000000,0.000000,0.000000,0.000000,0.000000,0.000000,0.000000,0.112323,3,0
1100000,-0.001518,28.376974,-0.007077,-0.004246,25.751328,-0.022130,0.001223,0.025631,1.572549,-0.060066,0.000541,-0.002305,-0.000075,-0.007543,0.000009,0.002392,0.001571,0.113291,0.044729,0.200174,0.200171,0.169904,0.498256,0.000000,0.000000,0.000000,0.000000,0.000000,0.000000,0.000000,0.000000,0.000000,0.000000,0.000000,0.000000,0.109523,3,0
1110000,-0.001509,28.636213,-0.008415,-0.004152,25.757322,-0.023983,0.001235,0.025877,1.572572,-0.060402,0.000552,-0.001991,-0.000077,-0.007613,0.000009,0.000666,0.001561,0.050758,-0.039297,0.200389,0.200386,0.169632,0.493270,0.000000,0.000000,0.000000,0.000000,0.000000,0.000000,0.000000,0.000000,0.000000,0.000000,0.000000,0.000000,0.049086,3,0
1120000,-0.001498,28.897478,-0.008632,-0.003991,25.766727,-0.024292,0.001254,0.026341,1.572592,-0.061125,0.000562,-0.002004,-0.000079,-0.007767,0.000009,0.001933,0.001549,0.109522,0.001053,0.200598,0.200594,0.169351,0.488387,0.000000,0.000000,0.000000,0.000000,0.000000,0.000000,0.000000,0.000000,0.000000,0.000000,0.000000,0.000000,0.105870,3,0
1130000,-0.001486,29.157413,-0.009071,-0.003851,25.773653,-0.024717,0.001269,0.026661,1.572609,-0.061567,0.000573,-0.001951,-0.000081,-0.007862,0.000010,0.000727,0.001537,0.066830,-0.006843,0.200800,0.200797,0.169063,0.483606,0.000000,0.000000,0.000000,0.000000,0.000000,0.000000,0.000000,0.000000,0.000000,0.000000,0.000000,0.000000,0.064609,3,0
1140000,-0.001473,29.417366,-0.009013,-0.003799,25.780540,-0.024768,0.001276,0.026975,1.572634,-0.061999,0.000583,-0.002045,-0.000083,-0.007955,0.000010,0.000706,0.001524,0.065254,0.011094,0.200998,0.200994,0.168768,0.478928,0.000000,0.000000,0.000000,0.000000,0.000000,0.000000,0.000000,0.000000,0.000000,0.000000,0.000000,0.000000,0.063086,3,0
1150000,-0.001460,29.680670,-0.008302,-0.003629,25.793383,-0.023813,0.001298,0.027671,1.572655,-0.063077,0.000594,-0.002337,-0.000086,-0.008194,0.000010,0.004475,0.001511,0.163050,0.034491,0.201190,0.201186,0.168467,0.474351,0.000000,0.000000,0.000000,0.000000,0.000000,0.000000,0.000000,0.000000,0.000000,0.000000,0.000000,0.000000,0.157590,3,0
1160000,-0.001445,29.941271,-0.006973,-0.003500,25.801306,-0.022135,0.001308,0.028050,1.572671,-0.063594,0.000604,-0.002807,-0.000088,-0.008309,0.000010,0.001504,0.001496,0.078526,0.056145,0.201378,0.201374,0.168159,0.469874,0.000000,0.000000,0.000000,0.000000,0.000000,0.000000,0.000000,0.000000,0.000000,0.000000,0.000000,0.000000,0.075905,3,0
1170000,-0.001430,30.201210,-0.006926,-0.003337,25.807852,-0.022158,0.001318,0.028341,1.572680,-0.063967,0.000614,-0.002892,-0.000090,-0.008394,0.000010,0.000528,0.001479,0.056395,0.009811,0.201562,0.201557,0.167846,0.465496,0.000000,0.000000,0.000000,0.000000,0.000000,0.000000,0.000000,0.000000,0.000000,0.000000,0.000000,0.000000,0.054519,3,0
1180000,-0.001415,30.461834,-0.007419,-0.003345,25.815548,-0.022998,0.001331,0.028701,1.572701,-0.064462,0.000625,-0.002816,-0.000093,-0.008509,0.000010,0.000913,0.001464,0.074696,-0.009440,0.201742,0.201737,0.167527,0.461216,0.000000,0.000000,0.000000,0.000000,0.000000,0.000000,0.000000,0.000000,0.000000,0.000000,0.000000,0.000000,0.072197,3,0
1190000,-0.001400,30.720451,-0.007567,-0.003300,25.819540,-0.023354,0.001346,0.028829,1.572711,-0.064547,0.000634,-0.002844,-0.000095,-0.008528,0.000010,0.000028,0.001449,0.012783,0.003137,0.201919,0.201913,0.167203,0.457033,0.000000,0.000000,0.000000,0.000000,0.000000,0.000000,0.000000,0.000000,0.000000,0.000000,0.000000,0.000000,0.012433,3,0
1200000,-0.001384,30.980442,-0.008215,-0.003123,25.826025,-0.024351,0.001371,0.029104,1.572726,-0.064893,0.000644,-0.002722,-0.000097,-0.008611,0.000010,0.000476,0.001432,0.052309,-0.014625,0.202092,0.202086,0.166875,0.452946,0.000000,0.000000,0.000000,0.000000,0.000000,0.000000,0.000000,0.000000,0.000000,0.000000,0.000000,0.000000,0.050566,3,0
1210000,-0.001368,31.241785,-0.009025,-0.003114,25.834705,-0.025207,0.001394,0.029544,1.572737,-0.065492,0.000654,-0.002554,-0.000100,-0.008756,0.000011,0.001384,0.001416,0.090437,-0.020222,0.202263,0.202257,0.166542,0.448954,0.000000,0.000000,0.000000,0.000000,0.000000,0.000000,0.000000,0.000000,0.000000,0.000000,0.000000,0.000000,0.087398,3,0
1220000,-0.001351,31.504457,-0.009720,-0.002966,25.845749,-0.025953,0.001405,0.030136,1.572750,-0.066332,0.000664,-0.002426,-0.000102,-0.008962,0.000011,0.002645,0.001399,0.127190,-0.015694,0.202432,0.202425,0.166206,0.445055,0.000000,0.000000,0.000000,0.000000,0.000000,0.000000,0.000000,0.000000,0.000000,0.000000,0.000000,0.000000,0.122906,3,0
1230000,-0.001334,31.764410,-0.008865,-0.002825,25.851732,-0.024815,0.001422,0.030384,1.572774,-0.066616,0.000673,-0.002780,-0.000104,-0.009032,0.000011,0.000569,0.001381,0.043316,0.040517,0.202599,0.202592,0.165866,0.441249,0.000000,0.000000,0.000000,0.000000,0.000000,0.000000,0.000000,0.000000,0.000000,0.000000,0.000000,0.000000,0.041876,3,0
1240000,-0.001316,32.026386,-0.007876,-0.002741,25.861347,-0.023550,0.001439,0.030896,1.572784,-0.067282,0.000683,-0.003182,-0.000107,-0.009199,0.000011,0.001986,0.001362,0.101364,0.045188,0.202765,0.202757,0.165523,0.437534,0.000000,0.000000,0.000000,0.000000,0.000000,0.000000,0.000000,0.000000,0.000000,0.000000,0.000000,0.000000,0.097951,3,0
1250000,-0.001298,32.290356,-0.007752,-0.002679,25.874313,-0.023380,0.001460,0.031636,1.572802,-0.068317,0.000693,-0.003310,-0.000109,-0.009463,0.000011,0.004017,0.001343,0.157356,0.013482,0.202929,0.202921,0.165177,0.433908,0.000000,0.000000,0.000000,0.000000,0.000000,0.000000,0.000000,0.000000,0.000000,0.000000,0.000000,0.000000,0.152040,3,0
1260000,-0.001280,32.550236,-0.009081,-0.002568,25.879932,-0.025023,0.001468,0.031870,1.572814,-0.068531,0.000702,-0.002962,-0.000111,-0.009519,0.000011,0.000425,0.001324,0.032406,-0.039696,0.203092,0.203083,0.164828,0.430371,0.000000,0.000000,0.000000,0.000000,0.000000,0.000000,0.000000,0.000000,0.000000,0.000000,0.000000,0.000000,0.031333,3,0
1270000,-0.001261,32.809448,-0.008971,-0.002518,25.884338,-0.024833,0.001474,0.032003,1.572837,-0.068603,0.000710,-0.003081,-0.000114,-0.009538,0.000011,0.000048,0.001306,0.011017,0.013280,0.203255,0.203246,0.164477,0.426921,0.000000,0.000000,0.000000,0.000000,0.000000,0.000000,0.000000,0.000000,0.000000,0.000000,0.000000,0.000000,0.010717,3,0
1280000,-0.001243,33.072041,-0.007899,-0.002431,25.894547,-0.023516,0.001490,0.032570,1.572845,-0.069317,0.000719,-0.003524,-0.000116,-0.009728,0.000012,0.002317,0.001286,0.109581,0.048642,0.203417,0.203407,0.164124,0.423556,0.000000,0.000000,0.000000,0.000000,0.000000,0.000000,0.000000,0.000000,0.000000,0.000000,0.000000,0.000000,0.105877,3,0
1290000,-0.001225,33.334599,-0.008866,-0.002416,25.904617,-0.024933,0.001505,0.033116,1.572856,-0.070006,0.000728,-0.003295,-0.000118,-0.009914,0.000012,0.001899,0.001267,0.105312,-0.026361,0.203579,0.203569,0.163770,0.420276,0.000000,0.000000,0.000000,0.000000,0.000000,0.000000,0.000000,0.000000,0.000000,0.000000,0.000000,0.000000,0.101745,3,0
1300000,-0.001206,33.595085,-0.008101,-0.002288,25.910906,-0.024144,0.001531,0.033384,1.572876,-0.070274,0.000736,-0.003637,-0.000121,-0.009988,0.000012,0.000505,0.001248,0.041447,0.037545,0.203742,0.203731,0.163414,0.417078,0.000000,0.000000,0.000000,0.000000,0.000000,0.000000,0.000000,0.000000,0.000000,0.000000,0.000000,0.000000,0.040061,3,0
1310000,-0.001187,33.854218,-0.008629,-0.002239,25.914665,-0.024970,0.001555,0.033470,1.572892,-0.070271,0.000744,-0.003543,-0.000123,-0.009987,0.000012,0.000018,0.001229,-0.000439,-0.010362,0.203904,0.203893,0.163057,0.413962,0.000000,0.000000,0.000000,0.000000,0.000000,0.000000,0.000000,0.000000,0.000000,0.000000,0.000000,0.000000,0.001260,3,0
1320000,-0.001168,34.114712,-0.008201,-0.002152,25.920828,-0.024350,0.001572,0.033738,1.572904,-0.070520,0.000752,-0.003777,-0.000125,-0.010057,0.000012,0.000343,0.001209,0.038574,0.025191,0.204067,0.204055,0.162699,0.410925,0.000000,0.000000,0.000000,0.000000,0.000000,0.000000,0.000000,0.000000,0.000000,0.000000,0.000000,0.000000,0.037284,3,0
1330000,-0.001150,34.377907,-0.008261,-0.002125,25.931698,-0.024528,0.001593,0.034352,1.572921,-0.071268,0.000761,-0.003854,-0.000128,-0.010271,0.000012,0.002174,0.001190,0.115963,0.007284,0.204231,0.204218,0.162341,0.407967,0.000000,0.000000,0.000000,0.000000,0.000000,0.000000,0.000000,0.000000,0.000000,0.000000,0.000000,0.000000,0.112021,3,0
1340000,-0.001130,34.637665,-0.009281,-0.001948,25.936279,-0.025772,0.001617,0.034489,1.572946,-0.071344,0.000769,-0.003591,-0.000130,-0.010294,0.000012,0.000155,0.001170,0.011688,-0.028563,0.204395,0.204382,0.161982,0.405085,0.000000,0.000000,0.000000,0.000000,0.000000,0.000000,0.000000,0.000000,0.000000,0.000000,0.000000,0.000000,0.011344,3,0
1350000,-0.001111,34.900127,-0.008387,-0.001946,25.945765,-0.024495,0.001635,0.035000,1.572964,-0.071918,0.000776,-0.004000,-0.000132,-0.010462,0.000012,0.001601,0.001150,0.089825,0.043112,0.204561,0.204547,0.161623,0.402280,0.000000,0.000000,0.000000,0.000000,0.000000,0.000000,0.000000,0.000000,0.000000,0.000000,0.000000,0.000000,0.086772,3,0
1360000,-0.001090,35.161865,-0.007181,-0.001759,25.953754,-0.023114,0.001646,0.035406,1.572978,-0.072335,0.000784,-0.004514,-0.000134,-0.010586,0.000012,0.001177,0.001129,0.065815,0.054383,0.204728,0.204713,0.161265,0.399549,0.000000,0.000000,0.000000,0.000000,0.000000,0.000000,0.000000,0.000000,0.000000,0.000000,0.000000,0.000000,0.063585,3,0
1370000,-0.001070,35.420856,-0.006222,-0.001761,25.956772,-0.021879,0.001661,0.035410,1.572992,-0.072224,0.000790,-0.004930,-0.000137,-0.010552,0.000012,0.000367,0.001109,-0.017094,0.044419,0.204896,0.204881,0.160907,0.396890,0.000000,0.000000,0.000000,0.000000,0.000000,0.000000,0.000000,0.000000,0.000000,0.000000,0.000000,0.000000,0.016541,3,0
1380000,-0.001050,35.683258,-0.006921,-0.001584,25.965807,-0.022993,0.001680,0.035901,1.573016,-0.072743,0.000798,-0.004773,-0.000139,-0.010712,0.000013,0.001124,0.001087,0.081703,-0.017463,0.205066,0.205050,0.160550,0.394302,0.000000,0.000000,0.000000,0.000000,0.000000,0.000000,0.000000,0.000000,0.000000,0.000000,0.000000,0.000000,0.078918,3,0
1390000,-0.001028,35.943577,-0.007474,-0.001430,25.971031,-0.023759,0.001698,0.036080,1.573029,-0.072857,0.000805,-0.004662,-0.000141,-0.010748,0.000013,0.000075,0.001065,0.018002,-0.011888,0.205238,0.205221,0.160193,0.391784,0.000000,0.000000,0.000000,0.000000,0.000000,0.000000,0.000000,0.000000,0.000000,0.000000,0.000000,0.000000,0.017414,3,0
1400000,-0.001007,36.203880,-0.008196,-0.001376,25.976152,-0.024713,0.001719,0.036264,1.573044,-0.072959,0.000812,-0.004492,-0.000143,-0.010780,0.000013,0.000094,0.001043,0.016060,-0.017975,0.205411,0.205393,0.159837,0.389334,0.000000,0.000000,0.000000,0.000000,0.000000,0.000000,0.000000,0.000000,0.000000,0.000000,0.000000,0.000000,0.015539,3,0
1410000,-0.000986,36.464844,-0.006923,-0.001295,25.982435,-0.022987,0.001735,0.036527,1.573070,-0.073168,0.000818,-0.005046,-0.000145,-0.010847,0.000013,0.000721,0.001021,0.034004,0.057381,0.205586,0.205567,0.159483,0.386952,0.000000,0.000000,0.000000,0.000000,0.000000,0.000000,0.000000,0.000000,0.000000,0.000000,0.000000,0.000000,0.032859,3,0
1420000,-0.000963,36.725780,-0.005675,-0.001129,25.988510,-0.021361,0.001745,0.036772,1.573085,-0.073361,0.000824,-0.005589,-0.000147,-0.010908,0.000013,0.000667,0.000998,0.031406,0.055959,0.205762,0.205743,0.159130,0.384634,0.000000,0.000000,0.000000,0.000000,0.000000,0.000000,0.000000,0.000000,0.000000,0.000000,0.000000,0.000000,0.030350,3,0
1430000,-0.000940,36.987381,-0.006479,-0.000933,25.995670,-0.022502,0.001767,0.037125,1.573102,-0.073663,0.000830,-0.005381,-0.000149,-0.011009,0.000013,0.000460,0.000973,0.048714,-0.021967,0.205941,0.205921,0.158779,0.382380,0.000000,0.000000,0.000000,0.000000,0.000000,0.000000,0.000000,0.000000,0.000000,0.000000,0.000000,0.000000,0.047048,3,0
1440000,-0.000916,37.246891,-0.006153,-0.000864,25.998945,-0.021982,0.001786,0.037145,1.573126,-0.073575,0.000836,-0.005583,-0.000151,-0.010979,0.000013,0.000103,0.000949,-0.014172,0.020869,0.206122,0.206100,0.158429,0.380188,0.000000,0.000000,0.000000,0.000000,0.000000,0.000000,0.000000,0.000000,0.000000,0.000000,0.000000,0.000000,0.013714,3,0
1450000,-0.000892,37.507080,-0.006160,-0.000702,26.003403,-0.021859,0.001805,0.037271,1.573133,-0.073603,0.000842,-0.005663,-0.000153,-0.010988,0.000013,0.000014,0.000924,0.004593,0.008143,0.206304,0.206282,0.158082,0.378057,0.000000,0.000000,0.000000,0.000000,0.000000,0.000000,0.000000,0.000000,0.000000,0.000000,0.000000,0.000000,0.004525,3,0
1460000,-0.000868,37.766567,-0.005724,-0.000690,26.006687,-0.021391,0.001827,0.037274,1.573143,-0.073497,0.000847,-0.005906,-0.000155,-0.010951,0.000013,0.000148,0.000899,-0.017097,0.024940,0.206489,0.206466,0.157736,0.375987,0.000000,0.000000,0.000000,0.000000,0.000000,0.000000,0.000000,0.000000,0.000000,0.000000,0.000000,0.000000,0.016529,3,0
1470000,-0.000845,38.030151,-0.004653,-0.000664,26.017227,-0.019998,0.001853,0.037887,1.573163,-0.074106,0.000852,-0.006408,-0.000157,-0.011163,0.000013,0.002044,0.000876,0.101086,0.049575,0.206676,0.206652,0.157393,0.373975,0.000000,0.000000,0.000000,0.000000,0.000000,0.000000,0.000000,0.000000,0.000000,0.000000,0.000000,0.000000,0.097614,3,0
1480000,-0.000822,38.290249,-0.005464,-0.000508,26.021276,-0.021179,0.001868,0.037961,1.573177,-0.074086,0.000858,-0.006178,-0.000159,-0.011157,0.000013,0.000089,0.000851,-0.003574,-0.023189,0.206865,0.206839,0.157052,0.372019,0.000000,0.000000,0.000000,0.000000,0.000000,0.000000,0.000000,0.000000,0.000000,0.000000,0.000000,0.000000,0.003552,3,0
1490000,-0.000798,38.551003,-0.004854,-0.000410,26.026438,-0.020634,0.001886,0.038127,1.573186,-0.074172,0.000862,-0.006496,-0.000161,-0.011187,0.000013,0.000198,0.000826,0.014595,0.031720,0.207055,0.207029,0.156714,0.370119,0.000000,0.000000,0.000000,0.000000,0.000000,0.000000,0.000000,0.000000,0.000000,0.000000,0.000000,0.000000,0.014118,3,0
1500000,-0.000773,38.811039,-0.004262,-0.000279,26.030226,-0.019849,0.001893,0.038186,1.573213,-0.074124,0.000867,-0.006802,-0.000162,-0.011168,0.000013,0.000162,0.000801,-0.007668,0.030677,0.207247,0.207220,0.156378,0.368273,0.000000,0.000000,0.000000,0.000000,0.000000,0.000000,0.000000,0.000000,0.000000,0.000000,0.000000,0.000000,0.007437,3,0
1510000,-0.000748,39.072445,-0.005560,-0.000103,26.036556,-0.021343,0.001906,0.038451,1.573237,-0.074306,0.000872,-0.006383,-0.000164,-0.011237,0.000013,0.000436,0.000775,0.030441,-0.042053,0.207442,0.207414,0.156045,0.366480,0.000000,0.000000,0.000000,0.000000,0.000000,0.000000,0.000000,0.000000,0.000000,0.000000,0.000000,0.000000,0.029390,3,0
1520000,-0.000723,39.332428,-0.005638,-0.000033,26.040094,-0.021325,0.001918,0.038490,1.573262,-0.074234,0.000876,-0.006434,-0.000166,-0.011210,0.000013,0.000029,0.000749,-0.012360,0.005187,0.207638,0.207609,0.155715,0.364739,0.000000,0.000000,0.000000,0.000000,0.000000,0.000000,0.000000,0.000000,0.000000,0.000000,0.000000,0.000000,0.011954,3,0
1530000,-0.000698,39.591694,-0.004995,0.000050,26.042328,-0.020544,0.001927,0.038405,1.573275,-0.074035,0.000880,-0.006763,-0.000167,-0.011132,0.000013,0.000360,0.000723,-0.033829,0.032955,0.207836,0.207806,0.155388,0.363047,0.000000,0.000000,0.000000,0.000000,0.000000,0.000000,0.000000,0.000000,0.000000,0.000000,0.000000,0.000000,0.032657,3,0
1540000,-0.000672,39.853706,-0.003946,0.000180,26.049440,-0.019272,0.001947,0.038743,1.573289,-0.074291,0.000884,-0.007268,-0.000169,-0.011231,0.000013,0.000712,0.000696,0.044823,0.048920,0.208036,0.208004,0.155064,0.361405,0.000000,0.000000,0.000000,0.000000,0.000000,0.000000,0.000000,0.000000,0.000000,0.000000,0.000000,0.000000,0.043283,3,0
1550000,-0.000647,40.112907,-0.002790,0.000220,26.051407,-0.017944,0.001962,0.038634,1.573302,-0.074068,0.000887,-0.007796,-0.000171,-0.011141,0.000013,0.000678,0.000670,-0.038353,0.052161,0.208237,0.208205,0.154743,0.359810,0.000000,0.000000,0.000000,0.000000,0.000000,0.000000,0.000000,0.000000,0.000000,0.000000,0.000000,0.000000,0.037020,3,0
1560000,-0.000621,40.374172,-0.002119,0.000393,26.057087,-0.017108,0.001982,0.038844,1.573328,-0.074183,0.000890,-0.008141,-0.000172,-0.011186,0.000013,0.000248,0.000643,0.020493,0.033281,0.208440,0.208407,0.154425,0.358262,0.000000,0.000000,0.000000,0.000000,0.000000,0.000000,0.000000,0.000000,0.000000,0.000000,0.000000,0.000000,0.019797,3,0
1570000,-0.000594,40.634014,-0.001816,0.000540,26.060085,-0.016972,0.002003,0.038824,1.573342,-0.074057,0.000893,-0.008328,-0.000173,-0.011134,0.000013,0.000134,0.000616,-0.022163,0.018442,0.208645,0.208610,0.154111,0.356759,0.000000,0.000000,0.000000,0.000000,0.000000,0.000000,0.000000,0.000000,0.000000,0.000000,0.000000,0.000000,0.021397,3,0
1580000,-0.000567,40.896610,-0.003030,0.000708,26.068016,-0.018441,0.002014,0.039248,1.573368,-0.074372,0.000898,-0.007920,-0.000175,-0.011265,0.000013,0.000766,0.000588,0.055912,-0.040244,0.208850,0.208814,0.153800,0.355299,0.000000,0.000000,0.000000,0.000000,0.000000,0.000000,0.000000,0.000000,0.000000,0.000000,0.000000,0.000000,0.053962,3,0
1590000,-0.000541,41.156357,-0.002560,0.000739,26.070686,-0.017780,0.002036,0.039181,1.573378,-0.074216,0.000900,-0.008180,-0.000176,-0.011199,0.000013,0.000230,0.000560,-0.027855,0.025440,0.209057,0.209020,0.153493,0.353883,0.000000,0.000000,0.000000,0.000000,0.000000,0.000000,0.000000,0.000000,0.000000,0.000000,0.000000,0.000000,0.026884,3,0
1600000,-0.000514,41.417473,-0.002680,0.000805,26.075834,-0.017948,0.002054,0.039340,1.573389,-0.074274,0.000903,-0.008207,-0.000177,-0.011223,0.000013,0.000019,0.000533,0.010555,0.002428,0.209265,0.209227,0.153189,0.352508,0.000000,0.000000,0.000000,0.000000,0.000000,0.000000,0.000000,0.000000,0.000000,0.000000,0.000000,0.000000,0.010202,3,0
1610000,-0.000489,41.679932,-0.002315,0.000836,26.083366,-0.017639,0.002073,0.039701,1.573397,-0.074532,0.000906,-0.008445,-0.000179,-0.011334,0.000013,0.000442,0.000506,0.047569,0.021863,0.209475,0.209435,0.152889,0.351174,0.000000,0.000000,0.000000,0.000000,0.000000,0.000000,0.000000,0.000000,0.000000,0.000000,0.000000,0.000000,0.045916,3,0
1620000,-0.000463,41.938171,-0.003427,0.000960,26.082960,-0.019028,0.002079,0.039374,1.573412,-0.074125,0.000908,-0.008038,-0.000180,-0.011157,0.000013,0.001151,0.000479,-0.075813,-0.037295,0.209685,0.209644,0.152592,0.349878,0.000000,0.000000,0.000000,0.000000,0.000000,0.000000,0.000000,0.000000,0.000000,0.000000,0.000000,0.000000,0.073175,3,0
1630000,-0.000436,42.196396,-0.002806,0.001051,26.082514,-0.018359,0.002097,0.039025,1.573424,-0.073719,0.000910,-0.008357,-0.000181,-0.010974,0.000013,0.001081,0.000452,-0.075626,0.031497,0.209895,0.209853,0.152299,0.348620,0.000000,0.000000,0.000000,0.000000,0.000000,0.000000,0.000000,0.000000,0.000000,0.000000,0.000000,0.000000,0.072976,3,0
1640000,-0.000411,42.458805,-0.003517,0.001107,26.089741,-0.019462,0.002102,0.039381,1.573442,-0.073952,0.000913,-0.008150,-0.000182,-0.011081,0.000013,0.000376,0.000426,0.043858,-0.020290,0.210106,0.210063,0.152010,0.347399,0.000000,0.000000,0.000000,0.000000,0.000000,0.000000,0.000000,0.000000,0.000000,0.000000,0.000000,0.000000,0.042318,3,0
1650000,-0.000385,42.720448,-0.004114,0.001217,26.095421,-0.020394,0.002123,0.039593,1.573455,-0.074057,0.000915,-0.007988,-0.000183,-0.011130,0.000013,0.000103,0.000399,0.019924,-0.015553,0.210318,0.210273,0.151725,0.346213,0.000000,0.000000,0.000000,0.000000,0.000000,0.000000,0.000000,0.000000,0.000000,0.000000,0.000000,0.000000,0.019226,3,0
1660000,-0.000358,42.979935,-0.003856,0.001406,26.097033,-0.020123,0.002135,0.039441,1.573469,-0.073833,0.000916,-0.008173,-0.000184,-0.011024,0.000013,0.000350,0.000371,-0.042984,0.018047,0.210529,0.210483,0.151444,0.345062,0.000000,0.000000,0.000000,0.000000,0.000000,0.000000,0.000000,0.000000,0.000000,0.000000,0.000000,0.000000,0.041475,3,0
1670000,-0.000332,43.239391,-0.002832,0.001405,26.098701,-0.019002,0.002138,0.039283,1.573486,-0.073605,0.000917,-0.008683,-0.000184,-0.010913,0.000013,0.000692,0.000344,-0.044067,0.048350,0.210741,0.210694,0.151166,0.343946,0.000000,0.000000,0.000000,0.000000,0.000000,0.000000,0.000000,0.000000,0.000000,0.000000,0.000000,0.000000,0.042508,3,0
1680000,-0.000306,43.498138,-0.003065,0.001556,26.098848,-0.019433,0.002146,0.039000,1.573510,-0.073275,0.000918,-0.008647,-0.000185,-0.010754,0.000013,0.000680,0.000317,-0.064991,-0.002164,0.210953,0.210904,0.150893,0.342860,0.000000,0.000000,0.000000,0.000000,0.000000,0.000000,0.000000,0.000000,0.000000,0.000000,0.000000,0.000000,0.062707,3,0
1690000,-0.000279,43.760357,-0.001996,0.001620,26.105471,-0.018114,0.002155,0.039286,1.573532,-0.073443,0.000919,-0.009203,-0.000186,-0.010834,0.000013,0.000605,0.000290,0.034081,0.050741,0.211164,0.211114,0.150623,0.341807,0.000000,0.000000,0.000000,0.000000,0.000000,0.000000,0.000000,0.000000,0.000000,0.000000,0.000000,0.000000,0.032895,3,0
1700000,-0.000253,44.017624,-0.002627,0.001773,26.102865,-0.018622,0.002161,0.038737,1.573544,-0.072904,0.000920,-0.008973,-0.000186,-0.010565,0.000013,0.001967,0.000262,-0.108932,-0.019031,0.211375,0.211324,0.150358,0.340785,0.000000,0.000000,0.000000,0.000000,0.000000,0.000000,0.000000,0.000000,0.000000,0.000000,0.000000,0.000000,0.105099,3,0
1710000,-0.000226,44.276310,-0.003614,0.001881,26.102816,-0.019659,0.002177,0.038434,1.573555,-0.072572,0.000921,-0.008603,-0.000187,-0.010399,0.000013,0.000917,0.000234,-0.067989,-0.032650,0.211586,0.211534,0.150096,0.339791,0.000000,0.000000,0.000000,0.000000,0.000000,0.000000,0.000000,0.000000,0.000000,0.000000,0.000000,0.000000,0.065602,3,0
