time_us,pos_x,pos_y,pos_z,vel_x,vel_y,vel_z,roll,pitch,yaw,bias_ax,bias_ay,bias_az,bias_gx,bias_gy,bias_gz,nis,innov_x,innov_y,innov_z,cov_pos_x,cov_pos_y,cov_pos_z,cov_yaw,des_speed,des_heading,des_climb,pid_speed,pid_yaw,pid_alt,speed_meas,yaw_meas,climb_meas,fwd_accel,yaw_rate,vert_accel,drift_m,nav_mode,mission_state
0,0.000002,0.150000,-0.000003,0.000334,25.000036,-0.000747,-0.000017,-0.000004,1.570795,0.000000,0.000000,0.000000,0.000000,0.000000,0.000000,0.006250,-0.000003,-0.250003,0.000007,2.400038,2.400038,3.600017,1.000518,0.000000,0.000000,0.000000,0.000000,0.000000,0.000000,0.000000,0.000000,0.000000,0.000000,0.000000,0.000000,0.150000,1,0
10000,0.000006,0.359549,0.000478,0.000593,24.999916,-0.001406,-0.000032,-0.000000,1.570789,0.000000,-0.000000,-0.000000,0.000000,0.000000,0.000000,0.002386,-0.000008,-0.141576,0.001320,1.714420,1.714420,2.250079,1.001073,0.000000,0.000000,0.000000,0.000000,0.000000,0.000000,0.000000,0.000000,0.000000,0.000000,0.000000,0.000000,0.101123,3,0
20000,0.000011,0.566854,-0.012793,0.000860,24.999605,-0.001951,-0.000052,-0.000012,1.570794,0.000002,-0.000000,0.000000,-0.000000,0.000000,0.000000,0.005069,-0.000014,-0.192093,-0.048588,1.333616,1.333616,1.636554,1.001655,0.000000,0.000000,0.000000,0.000000,0.000000,0.000000,0.000000,0.000000,0.000000,0.000000,0.000000,0.000000,0.149396,3,0
30000,0.000018,0.791210,-0.005797,0.001047,24.999311,-0.002543,-0.000061,-0.000010,1.570782,0.000005,-0.000000,-0.000000,0.000000,0.000000,0.000000,0.002850,-0.000022,-0.140969,0.032764,1.091392,1.091392,1.286065,1.002257,0.000000,0.000000,0.000000,0.000000,0.000000,0.000000,0.000000,0.000000,0.000000,0.000000,0.000000,0.000000,0.115327,3,0
40000,0.000026,1.040049,-0.004122,0.001296,24.999388,-0.003238,-0.000085,-0.000005,1.570781,0.000005,-0.000000,-0.000000,0.000000,0.000000,0.000000,0.000021,-0.000031,-0.007500,0.009673,0.923811,0.923811,1.059385,1.002869,0.000000,0.000000,0.000000,0.000000,0.000000,0.000000,0.000000,0.000000,0.000000,0.000000,0.000000,0.000000,0.006346,3,0
50000,0.000036,1.290324,-0.011146,0.001514,24.999613,-0.004033,-0.000099,-0.000012,1.570782,0.000005,-0.000000,0.000001,-0.000000,0.000000,0.000000,0.000307,-0.000041,0.002084,-0.046531,0.801036,0.801036,0.900822,1.003484,0.000000,0.000000,0.000000,0.000000,0.000000,0.000000,0.000000,0.000000,0.000000,0.000000,0.000000,0.000000,0.001806,3,0
60000,0.000047,1.534498,-0.008253,0.001773,24.999443,-0.004324,-0.000117,-0.000014,1.570787,0.000008,-0.000000,0.000000,0.000000,0.000000,0.000000,0.000432,-0.000053,-0.049402,0.022490,0.707270,0.707270,0.783741,1.004094,0.000000,0.000000,0.000000,0.000000,0.000000,0.000000,0.000000,0.000000,0.000000,0.000000,0.000000,0.000000,0.043579,3,0
70000,0.000060,1.782882,-0.011115,0.001952,24.999485,-0.004970,-0.000127,-0.000022,1.570777,0.000009,-0.000000,0.000002,0.000000,0.000000,0.000000,0.000122,-0.000067,-0.015270,-0.024341,0.633370,0.633370,0.693801,1.004688,0.000000,0.000000,0.000000,0.000000,0.000000,0.000000,0.000000,0.000000,0.000000,0.000000,0.000000,0.000000,0.013658,3,0
80000,0.000073,2.024775,-0.009751,0.002160,24.998922,-0.005513,-0.000153,-0.000021,1.570777,0.000018,-0.000000,0.000001,0.000000,0.000000,0.000000,0.001110,-0.000081,-0.084744,0.013689,0.573673,0.573673,0.622594,1.005260,0.000000,0.000000,0.000000,0.000000,0.000000,0.000000,0.000000,0.000000,0.000000,0.000000,0.000000,0.000000,0.076641,3,0
90000,0.000090,2.272280,-0.009978,0.002496,24.998865,-0.005992,-0.000162,-0.000024,1.570777,0.000021,-0.000000,0.000001,0.000000,0.000000,0.000000,0.000124,-0.000098,-0.028449,-0.001777,0.524488,0.524488,0.564865,1.005801,0.000000,0.000000,0.000000,0.000000,0.000000,0.000000,0.000000,0.000000,0.000000,0.000000,0.000000,0.000000,0.025962,3,0
100000,0.000108,2.525662,-0.009054,0.002819,24.999428,-0.006505,-0.000183,-0.000028,1.570782,0.000015,-0.000000,-0.000001,0.000000,0.000000,0.000000,0.000292,-0.000118,0.042110,0.011486,0.483303,0.483303,0.517162,1.006301,0.000000,0.000000,0.000000,0.000000,0.000000,0.000000,0.000000,0.000000,0.000000,0.000000,0.000000,0.000000,0.038719,3,0
110000,0.000129,2.782153,-0.007409,0.003093,25.000631,-0.006866,-0.000193,-0.000022,1.570778,-0.000002,-0.000000,-0.000005,0.000000,-0.000000,-0.000000,0.001236,-0.000139,0.086905,0.021585,0.448353,0.448353,0.477121,1.006754,0.000000,0.000000,0.000000,0.000000,0.000000,0.000000,0.000000,0.000000,0.000000,0.000000,0.000000,0.000000,0.080411,3,0
120000,0.000152,3.038354,-0.008851,0.003391,25.001747,-0.007515,-0.000211,-0.000027,1.570767,-0.000021,-0.000000,-0.000001,0.000000,-0.000000,-0.000000,0.001276,-0.000163,0.088830,-0.018542,0.418358,0.418358,0.443071,1.007150,0.000000,0.000000,0.000000,0.000000,0.000000,0.000000,0.000000,0.000000,0.000000,0.000000,0.000000,0.000000,0.082636,3,0
130000,0.000175,3.291727,-0.011127,0.003608,25.002512,-0.008341,-0.000230,-0.000024,1.570774,-0.000034,-0.000000,0.000007,0.000000,-0.000001,-0.000000,0.000567,-0.000188,0.051285,-0.031847,0.392369,0.392369,0.413797,1.007481,0.000000,0.000000,0.000000,0.000000,0.000000,0.000000,0.000000,0.000000,0.000000,0.000000,0.000000,0.000000,0.047932,3,0
140000,0.000200,3.545224,-0.011969,0.003780,25.003366,-0.008869,-0.000237,-0.000030,1.570771,-0.000051,-0.000000,0.000011,0.000000,-0.000001,-0.000000,0.000517,-0.000213,0.056330,-0.011655,0.369666,0.369666,0.388393,1.007739,0.000000,0.000000,0.000000,0.000000,0.000000,0.000000,0.000000,0.000000,0.000000,0.000000,0.000000,0.000000,0.052860,3,0
150000,0.000226,3.794194,-0.012440,0.004035,25.003218,-0.009543,-0.000261,-0.000036,1.570765,-0.000045,-0.000000,0.000013,0.000000,-0.000001,-0.000000,0.000058,-0.000240,-0.018265,-0.006174,0.349695,0.349695,0.366172,1.007915,0.000000,0.000000,0.000000,0.000000,0.000000,0.000000,0.000000,0.000000,0.000000,0.000000,0.000000,0.000000,0.017201,3,0
160000,0.000253,4.047040,-0.015674,0.004165,25.004076,-0.011034,-0.000283,-0.000044,1.570753,-0.000064,-0.000000,0.000033,0.000000,-0.000001,-0.000000,0.000868,-0.000268,0.050829,-0.054197,0.332020,0.332020,0.346600,1.008002,0.000000,0.000000,0.000000,0.000000,0.000000,0.000000,0.000000,0.000000,0.000000,0.000000,0.000000,0.000000,0.048017,3,0
170000,0.000281,4.302153,-0.016119,0.004327,25.005770,-0.011607,-0.000306,-0.000029,1.570754,-0.000105,-0.000001,0.000035,0.000000,-0.000002,-0.000000,0.001466,-0.000297,0.096157,-0.006022,0.316296,0.316296,0.329260,1.007991,0.000000,0.000000,0.000000,0.000000,0.000000,0.000000,0.000000,0.000000,0.000000,0.000000,0.000000,0.000000,0.091088,3,0
180000,0.000311,4.552215,-0.015324,0.004626,25.005896,-0.011863,-0.000320,-0.000041,1.570749,-0.000105,-0.000001,0.000027,0.000000,-0.000002,-0.000000,0.000049,-0.000327,0.000060,0.017528,0.302245,0.302245,0.313817,1.007875,0.000000,0.000000,0.000000,0.000000,0.000000,0.000000,0.000000,0.000000,0.000000,0.000000,0.000000,0.000000,0.000316,3,0
190000,0.000343,4.807481,-0.017730,0.004936,25.008028,-0.013068,-0.000328,-0.000036,1.570751,-0.000162,-0.000001,0.000051,0.000000,-0.000004,-0.000000,0.002174,-0.000360,0.107816,-0.045658,0.289640,0.289640,0.300003,1.007645,0.000000,0.000000,0.000000,0.000000,0.000000,0.000000,0.000000,0.000000,0.000000,0.000000,0.000000,0.000000,0.102612,3,0
200000,0.000376,5.062709,-0.018609,0.005132,25.010202,-0.013975,-0.000352,-0.000023,1.570745,-0.000227,-0.000001,0.000060,0.000000,-0.000006,-0.000000,0.001995,-0.000394,0.110955,-0.015475,0.278294,0.278294,0.287598,1.007295,0.000000,0.000000,0.000000,0.000000,0.000000,0.000000,0.000000,0.000000,0.000000,0.000000,0.000000,0.000000,0.105809,3,0
210000,0.000410,5.318800,-0.019790,0.005277,25.012985,-0.015042,-0.000372,-0.000008,1.570738,-0.000313,-0.000001,0.000074,0.000000,-0.000008,-0.000000,0.002940,-0.000429,0.134009,-0.022464,0.268052,0.268052,0.276421,1.006816,0.000000,0.000000,0.000000,0.000000,0.000000,0.000000,0.000000,0.000000,0.000000,0.000000,0.000000,0.000000,0.128023,3,0
220000,0.000445,5.570525,-0.020556,0.005558,25.013874,-0.015903,-0.000378,-0.000003,1.570735,-0.000338,-0.000002,0.000083,0.000000,-0.000009,-0.000000,0.000247,-0.000465,0.036922,-0.013727,0.258785,0.258785,0.266321,1.006202,0.000000,0.000000,0.000000,0.000000,0.000000,0.000000,0.000000,0.000000,0.000000,0.000000,0.000000,0.000000,0.035332,3,0
230000,0.000482,5.825804,-0.020994,0.005775,25.016628,-0.016595,-0.000394,0.000021,1.570728,-0.000432,-0.000002,0.000088,0.000000,-0.000012,-0.000000,0.002428,-0.000503,0.123130,-0.006379,0.250383,0.250383,0.257172,1.005446,0.000000,0.000000,0.000000,0.000000,0.000000,0.000000,0.000000,0.000000,0.000000,0.000000,0.000000,0.000000,0.117993,3,0
240000,0.000520,6.082688,-0.020161,0.005948,25.020346,-0.016798,-0.000413,0.000057,1.570717,-0.000569,-0.000003,0.000068,0.000000,-0.000016,-0.000000,0.004501,-0.000542,0.166009,0.024262,0.242753,0.242753,0.248866,1.004541,0.000000,0.000000,0.000000,0.000000,0.000000,0.000000,0.000000,0.000000,0.000000,0.000000,0.000000,0.000000,0.159293,3,0
250000,0.000559,6.337132,-0.018819,0.006172,25.022919,-0.016444,-0.000426,0.000090,1.570712,-0.000665,-0.000003,0.000035,0.000000,-0.000020,-0.000000,0.002090,-0.000582,0.107876,0.037647,0.235815,0.235815,0.241314,1.003481,0.000000,0.000000,0.000000,0.000000,0.000000,0.000000,0.000000,0.000000,0.000000,0.000000,0.000000,0.000000,0.103638,3,0
260000,0.000599,6.593923,-0.018643,0.006389,25.027193,-0.016884,-0.000444,0.000146,1.570710,-0.000830,-0.000004,0.000027,0.000000,-0.000026,-0.000000,0.004725,-0.000623,0.171467,0.008878,0.229501,0.229501,0.234436,1.002258,0.000000,0.000000,0.000000,0.000000,0.000000,0.000000,0.000000,0.000000,0.000000,0.000000,0.000000,0.000000,0.164910,3,0
270000,0.000640,6.849910,-0.019320,0.006607,25.031218,-0.017777,-0.000453,0.000195,1.570712,-0.000988,-0.000004,0.000040,0.000000,-0.000032,-0.000000,0.003793,-0.000665,0.153181,-0.013199,0.223750,0.223750,0.228165,1.000869,0.000000,0.000000,0.000000,0.000000,0.000000,0.000000,0.000000,0.000000,0.000000,0.000000,0.000000,0.000000,0.147470,3,0
280000,0.000683,7.104443,-0.017995,0.006869,25.034361,-0.017206,-0.000478,0.000240,1.570710,-0.001116,-0.000005,-0.000004,0.000000,-0.000037,-0.000000,0.002419,-0.000709,0.115821,0.040623,0.218512,0.218512,0.222443,0.999307,0.000000,0.000000,0.000000,0.000000,0.000000,0.000000,0.000000,0.000000,0.000000,0.000000,0.000000,0.000000,0.111605,3,0
290000,0.000727,7.361176,-0.017723,0.007063,25.039194,-0.017465,-0.000496,0.000301,1.570700,-0.001327,-0.000006,-0.000019,0.000000,-0.000046,-0.000000,0.005193,-0.000754,0.179321,0.012435,0.213739,0.213739,0.217219,0.997567,0.000000,0.000000,0.000000,0.000000,0.000000,0.000000,0.000000,0.000000,0.000000,0.000000,0.000000,0.000000,0.172934,3,0
300000,0.000772,7.617886,-0.019445,0.007257,25.044296,-0.019293,-0.000522,0.000378,1.570693,-0.001554,-0.000007,0.000035,0.000000,-0.000055,-0.000000,0.005572,-0.000800,0.180964,-0.043497,0.209393,0.209393,0.212446,0.995645,0.000000,0.000000,0.000000,0.000000,0.000000,0.000000,0.000000,0.000000,0.000000,0.000000,0.000000,0.000000,0.174650,3,0
310000,0.000817,7.869140,-0.018813,0.007366,25.045172,-0.019257,-0.000539,0.000382,1.570695,-0.001586,-0.000008,0.000004,0.000000,-0.000057,-0.000000,0.000182,-0.000846,0.023599,0.023950,0.205437,0.205437,0.208087,0.993536,0.000000,0.000000,0.000000,0.000000,0.000000,0.000000,0.000000,0.000000,0.000000,0.000000,0.000000,0.000000,0.022805,3,0
320000,0.000863,8.124640,-0.020321,0.007585,25.049608,-0.020640,-0.000555,0.000446,1.570683,-0.001798,-0.000009,0.000058,0.000000,-0.000066,-0.000000,0.003865,-0.000893,0.150037,-0.038553,0.201841,0.201841,0.204105,0.991236,0.000000,0.000000,0.000000,0.000000,0.000000,0.000000,0.000000,0.000000,0.000000,0.000000,0.000000,0.000000,0.144993,3,0
330000,0.000910,8.377568,-0.019046,0.007799,25.052086,-0.020176,-0.000575,0.000479,1.570681,-0.001908,-0.000011,-0.000008,0.000000,-0.000072,-0.000000,0.001188,-0.000942,0.073400,0.044574,0.198574,0.198574,0.200469,0.988743,0.000000,0.000000,0.000000,0.000000,0.000000,0.000000,0.000000,0.000000,0.000000,0.000000,0.000000,0.000000,0.070976,3,0
340000,0.000957,8.634553,-0.017951,0.007884,25.058416,-0.019738,-0.000589,0.000578,1.570687,-0.002222,-0.000012,-0.000071,0.000001,-0.000087,-0.000000,0.006584,-0.000989,0.198146,0.039666,0.195613,0.195613,0.197151,0.986053,0.000000,0.000000,0.000000,0.000000,0.000000,0.000000,0.000000,0.000000,0.000000,0.000000,0.000000,0.000000,0.191688,3,0
350000,0.001004,8.890277,-0.017213,0.007997,25.063559,-0.019351,-0.000603,0.000649,1.570676,-0.002488,-0.000014,-0.000119,0.000001,-0.000100,-0.000000,0.004254,-0.001037,0.159767,0.029035,0.192934,0.192934,0.194125,0.983163,0.000000,0.000000,0.000000,0.000000,0.000000,0.000000,0.000000,0.000000,0.000000,0.000000,0.000000,0.000000,0.154633,3,0
360000,0.001052,9.146073,-0.018913,0.008152,25.069031,-0.021173,-0.000625,0.000739,1.570677,-0.002773,-0.000016,-0.000037,0.000001,-0.000115,-0.000000,0.004615,-0.001086,0.162417,-0.047085,0.190516,0.190516,0.191370,0.980072,0.000000,0.000000,0.000000,0.000000,0.000000,0.000000,0.000000,0.000000,0.000000,0.000000,0.000000,0.000000,0.157263,3,0
370000,0.001099,9.398827,-0.017755,0.008251,25.071554,-0.020520,-0.000632,0.000766,1.570666,-0.002894,-0.000018,-0.000117,0.000001,-0.000121,-0.000000,0.001003,-0.001134,0.065597,0.043716,0.188341,0.188341,0.188863,0.976778,0.000000,0.000000,0.000000,0.000000,0.000000,0.000000,0.000000,0.000000,0.000000,0.000000,0.000000,0.000000,0.063547,3,0
380000,0.001147,9.654845,-0.018040,0.008415,25.077515,-0.020963,-0.000647,0.000862,1.570666,-0.003224,-0.000020,-0.000112,0.000001,-0.000139,-0.000000,0.004703,-0.001183,0.170640,-0.002446,0.186391,0.186391,0.186586,0.973281,0.000000,0.000000,0.000000,0.000000,0.000000,0.000000,0.000000,0.000000,0.000000,0.000000,0.000000,0.000000,0.165343,3,0
390000,0.001195,9.909723,-0.018357,0.008566,25.082344,-0.021651,-0.000658,0.000953,1.570661,-0.003494,-0.000023,-0.000105,0.000001,-0.000155,-0.000000,0.002869,-0.001233,0.133229,-0.003293,0.184651,0.184651,0.184522,0.969579,0.000000,0.000000,0.000000,0.000000,0.000000,0.000000,0.000000,0.000000,0.000000,0.000000,0.000000,0.000000,0.129135,3,0
400000,0.001244,10.164115,-0.017485,0.008783,25.086710,-0.021190,-0.000673,0.001040,1.570669,-0.003741,-0.000026,-0.000181,0.000001,-0.000169,-0.000000,0.002416,-0.001283,0.116851,0.035989,0.183105,0.183105,0.182656,0.965674,0.000000,0.000000,0.000000,0.000000,0.000000,0.000000,0.000000,0.000000,0.000000,0.000000,0.000000,0.000000,0.113292,3,0
410000,0.001293,10.417440,-0.018933,0.008959,25.089867,-0.023235,-0.000690,0.001094,1.570673,-0.003920,-0.000029,-0.000092,0.000001,-0.000180,-0.000000,0.001331,-0.001334,0.081083,-0.040730,0.181740,0.181740,0.180971,0.961565,0.000000,0.000000,0.000000,0.000000,0.000000,0.000000,0.000000,0.000000,0.000000,0.000000,0.000000,0.000000,0.078638,3,0
420000,0.001344,10.671533,-0.019568,0.009153,25.094072,-0.024161,-0.000715,0.001170,1.570664,-0.004165,-0.000032,-0.000061,0.000002,-0.000195,-0.000000,0.001846,-0.001386,0.106030,-0.013309,0.180544,0.180544,0.179456,0.957254,0.000000,0.000000,0.000000,0.000000,0.000000,0.000000,0.000000,0.000000,0.000000,0.000000,0.000000,0.000000,0.102848,3,0
430000,0.001395,10.926967,-0.020433,0.009339,25.100010,-0.025398,-0.000741,0.001282,1.570653,-0.004525,-0.000035,-0.000011,0.000002,-0.000217,-0.000001,0.003712,-0.001438,0.150080,-0.020809,0.179506,0.179506,0.178097,0.952742,0.000000,0.000000,0.000000,0.000000,0.000000,0.000000,0.000000,0.000000,0.000000,0.000000,0.000000,0.000000,0.145597,3,0
440000,0.001445,11.182526,-0.020166,0.009387,25.106251,-0.025177,-0.000752,0.001406,1.570654,-0.004906,-0.000039,-0.000056,0.000002,-0.000242,-0.000001,0.003838,-0.001489,0.153011,0.017803,0.178614,0.178614,0.176883,0.948031,0.000000,0.000000,0.000000,0.000000,0.000000,0.000000,0.000000,0.000000,0.000000,0.000000,0.000000,0.000000,0.148464,3,0
450000,0.001495,11.440567,-0.021189,0.009530,25.115683,-0.026550,-0.000770,0.001610,1.570654,-0.005516,-0.000043,0.000012,0.000002,-0.000282,-0.000001,0.009068,-0.001541,0.235333,-0.026161,0.177858,0.177858,0.175803,0.943125,0.000000,0.000000,0.000000,0.000000,0.000000,0.000000,0.000000,0.000000,0.000000,0.000000,0.000000,0.000000,0.228362,3,0
460000,0.001546,11.696926,-0.021784,0.009716,25.123037,-0.027616,-0.000796,0.001775,1.570647,-0.005989,-0.000047,0.000042,0.000003,-0.000313,-0.000001,0.005030,-0.001593,0.175985,-0.011072,0.177229,0.177229,0.174847,0.938026,0.000000,0.000000,0.000000,0.000000,0.000000,0.000000,0.000000,0.000000,0.000000,0.000000,0.000000,0.000000,0.170794,3,0
470000,0.001596,11.955159,-0.021845,0.009825,25.133057,-0.027911,-0.000806,0.002003,1.570652,-0.006650,-0.000052,0.000020,0.000003,-0.000359,-0.000001,0.009143,-0.001645,0.237616,0.007631,0.176719,0.176719,0.174006,0.932737,0.000000,0.000000,0.000000,0.000000,0.000000,0.000000,0.000000,0.000000,0.000000,0.000000,0.000000,0.000000,0.230623,3,0
480000,0.001647,12.211728,-0.022859,0.009937,25.140860,-0.029205,-0.000823,0.002169,1.570641,-0.007163,-0.000057,0.000093,0.000003,-0.000395,-0.000001,0.005234,-0.001696,0.178070,-0.025324,0.176317,0.176317,0.173271,0.927264,0.000000,0.000000,0.000000,0.000000,0.000000,0.000000,0.000000,0.000000,0.000000,0.000000,0.000000,0.000000,0.172845,3,0
490000,0.001697,12.470168,-0.023263,0.010122,25.151356,-0.030060,-0.000833,0.002410,1.570639,-0.007876,-0.000062,0.000104,0.000004,-0.000447,-0.000001,0.009281,-0.001749,0.239486,-0.003642,0.176018,0.176018,0.172634,0.921611,0.000000,0.000000,0.000000,0.000000,0.000000,0.000000,0.000000,0.000000,0.000000,0.000000,0.000000,0.000000,0.232466,3,0
500000,0.001747,12.725206,-0.023020,0.010155,25.156988,-0.029883,-0.000850,0.002535,1.570635,-0.008246,-0.000068,0.000045,0.000004,-0.000474,-0.000001,0.002393,-0.001800,0.120092,0.019156,0.175813,0.175813,0.172087,0.915781,0.000000,0.000000,0.000000,0.000000,0.000000,0.000000,0.000000,0.000000,0.000000,0.000000,0.000000,0.000000,0.116586,3,0
510000,0.001796,12.980395,-0.024016,0.010218,25.162777,-0.031256,-0.000867,0.002666,1.570632,-0.008637,-0.000074,0.000122,0.000004,-0.000503,-0.000001,0.002560,-0.001850,0.123425,-0.024200,0.175695,0.175695,0.171622,0.909782,0.000000,0.000000,0.000000,0.000000,0.000000,0.000000,0.000000,0.000000,0.000000,0.000000,0.000000,0.000000,0.119824,3,0
520000,0.001843,13.236318,-0.024587,0.010239,25.169737,-0.032022,-0.000894,0.002826,1.570630,-0.009116,-0.000080,0.000151,0.000005,-0.000540,-0.000001,0.003485,-0.001899,0.146482,-0.008890,0.175658,0.175658,0.171234,0.903618,0.000000,0.000000,0.000000,0.000000,0.000000,0.000000,0.000000,0.000000,0.000000,0.000000,0.000000,0.000000,0.142206,3,0
530000,0.001889,13.491799,-0.023906,0.010223,25.176048,-0.031139,-0.000915,0.002969,1.570634,-0.009550,-0.000086,0.000031,0.000005,-0.000575,-0.000001,0.002896,-0.001946,0.129037,0.035324,0.175696,0.175696,0.170914,0.897296,0.000000,0.000000,0.000000,0.000000,0.000000,0.000000,0.000000,0.000000,0.000000,0.000000,0.000000,0.000000,0.125273,3,0
540000,0.001936,13.747431,-0.025347,0.010371,25.182554,-0.033112,-0.000943,0.003124,1.570638,-0.010007,-0.000093,0.000169,0.000006,-0.000611,-0.000002,0.003070,-0.001994,0.131918,-0.039576,0.175801,0.175801,0.170658,0.890822,0.000000,0.000000,0.000000,0.000000,0.000000,0.000000,0.000000,0.000000,0.000000,0.000000,0.000000,0.000000,0.128067,3,0
550000,0.001980,14.003211,-0.026013,0.010384,25.189213,-0.034076,-0.000969,0.003288,1.570639,-0.010486,-0.000101,0.000211,0.000007,-0.000651,-0.000002,0.002956,-0.002040,0.134647,-0.011602,0.175969,0.175969,0.170460,0.884203,0.000000,0.000000,0.000000,0.000000,0.000000,0.000000,0.000000,0.000000,0.000000,0.000000,0.000000,0.000000,0.130713,3,0
560000,0.002025,14.262058,-0.027188,0.010487,25.200758,-0.035717,-0.000990,0.003589,1.570642,-0.011351,-0.000108,0.000319,0.000007,-0.000723,-0.000002,0.009196,-0.002086,0.236620,-0.029182,0.176195,0.176195,0.170314,0.877446,0.000000,0.000000,0.000000,0.000000,0.000000,0.000000,0.000000,0.000000,0.000000,0.000000,0.000000,0.000000,0.229680,3,0
570000,0.002069,14.520432,-0.026697,0.010565,25.211437,-0.035165,-0.001008,0.003888,1.570643,-0.012161,-0.000116,0.000204,0.000008,-0.000792,-0.000002,0.007710,-0.002132,0.216205,0.030156,0.176472,0.176472,0.170214,0.870558,0.000000,0.000000,0.000000,0.000000,0.000000,0.000000,0.000000,0.000000,0.000000,0.000000,0.000000,0.000000,0.209856,3,0
580000,0.002113,14.776580,-0.026703,0.010702,25.218599,-0.035393,-0.001019,0.004071,1.570647,-0.012686,-0.000125,0.000155,0.000009,-0.000838,-0.000002,0.003046,-0.002177,0.136633,0.012459,0.176797,0.176797,0.170157,0.863547,0.000000,0.000000,0.000000,0.000000,0.000000,0.000000,0.000000,0.000000,0.000000,0.000000,0.000000,0.000000,0.132623,3,0
590000,0.002156,15.031699,-0.028014,0.010731,25.224092,-0.037422,-0.001028,0.004207,1.570648,-0.013076,-0.000134,0.000289,0.000009,-0.000873,-0.000002,0.001771,-0.002221,0.099082,-0.033510,0.177165,0.177165,0.170138,0.856420,0.000000,0.000000,0.000000,0.000000,0.000000,0.000000,0.000000,0.000000,0.000000,0.000000,0.000000,0.000000,0.096180,3,0
600000,0.002198,15.289917,-0.026905,0.010865,25.234484,-0.035812,-0.001040,0.004498,1.570642,-0.013888,-0.000143,0.000073,0.000010,-0.000946,-0.000002,0.007029,-0.002265,0.201729,0.052513,0.177571,0.177571,0.170152,0.849185,0.000000,0.000000,0.000000,0.000000,0.000000,0.000000,0.000000,0.000000,0.000000,0.000000,0.000000,0.000000,0.195771,3,0
610000,0.002240,15.548257,-0.027579,0.010917,25.245003,-0.037009,-0.001056,0.004807,1.570640,-0.014719,-0.000152,0.000119,0.000011,-0.001023,-0.000003,0.006608,-0.002309,0.201833,-0.010879,0.178010,0.178010,0.170195,0.841850,0.000000,0.000000,0.000000,0.000000,0.000000,0.000000,0.000000,0.000000,0.000000,0.000000,0.000000,0.000000,0.195857,3,0
620000,0.002281,15.806128,-0.026329,0.010969,25.254747,-0.035382,-0.001085,0.005100,1.570646,-0.015484,-0.000162,-0.000128,0.000012,-0.001095,-0.000003,0.005887,-0.002351,0.181933,0.057407,0.178481,0.178481,0.170264,0.834423,0.000000,0.000000,0.000000,0.000000,0.000000,0.000000,0.000000,0.000000,0.000000,0.000000,0.000000,0.000000,0.176536,3,0
630000,0.002320,16.065311,-0.025799,0.010937,25.266695,-0.034784,-0.001103,0.005467,1.570641,-0.016438,-0.000172,-0.000267,0.000013,-0.001187,-0.000003,0.008140,-0.002391,0.222147,0.031401,0.178977,0.178977,0.170355,0.826912,0.000000,0.000000,0.000000,0.000000,0.000000,0.000000,0.000000,0.000000,0.000000,0.000000,0.000000,0.000000,0.215533,3,0
640000,0.002358,16.324013,-0.027132,0.010965,25.277678,-0.036965,-0.001127,0.005798,1.570632,-0.017321,-0.000183,-0.000113,0.000014,-0.001273,-0.000003,0.006750,-0.002431,0.201393,-0.034404,0.179497,0.179497,0.170465,0.819326,0.000000,0.000000,0.000000,0.000000,0.000000,0.000000,0.000000,0.000000,0.000000,0.000000,0.000000,0.000000,0.195382,3,0
650000,0.002395,16.580444,-0.026797,0.010935,25.284788,-0.036422,-0.001141,0.006010,1.570625,-0.017864,-0.000194,-0.000228,0.000015,-0.001327,-0.000003,0.002488,-0.002469,0.121490,0.024995,0.180036,0.180036,0.170591,0.811672,0.000000,0.000000,0.000000,0.000000,0.000000,0.000000,0.000000,0.000000,0.000000,0.000000,0.000000,0.000000,0.117870,3,0
660000,0.002430,16.840008,-0.027889,0.010958,25.297026,-0.037889,-0.001169,0.006394,1.570618,-0.018879,-0.000206,-0.000110,0.000016,-0.001430,-0.000004,0.008131,-0.002505,0.222809,-0.025427,0.180592,0.180592,0.170729,0.803958,0.000000,0.000000,0.000000,0.000000,0.000000,0.000000,0.000000,0.000000,0.000000,0.000000,0.000000,0.000000,0.216116,3,0
670000,0.002465,17.096075,-0.027346,0.010999,25.303192,-0.037251,-0.001198,0.006590,1.570614,-0.019353,-0.000218,-0.000266,0.000018,-0.001479,-0.000004,0.001865,-0.002541,0.102276,0.032669,0.181162,0.181162,0.170877,0.796194,0.000000,0.000000,0.000000,0.000000,0.000000,0.000000,0.000000,0.000000,0.000000,0.000000,0.000000,0.000000,0.099218,3,0
680000,0.002498,17.354092,-0.027095,0.011012,25.312635,-0.036801,-0.001225,0.006888,1.570616,-0.020128,-0.000230,-0.000374,0.000019,-0.001561,-0.000004,0.004438,-0.002576,0.164207,0.022049,0.181743,0.181743,0.171033,0.788385,0.000000,0.000000,0.000000,0.000000,0.000000,0.000000,0.000000,0.000000,0.000000,0.000000,0.000000,0.000000,0.159253,3,0
690000,0.002530,17.611624,-0.026535,0.011051,25.321257,-0.035863,-0.001252,0.007163,1.570606,-0.020822,-0.000242,-0.000537,0.000020,-0.001635,-0.000004,0.003556,-0.002610,0.144644,0.032732,0.182333,0.182333,0.171193,0.780541,0.000000,0.000000,0.000000,0.000000,0.000000,0.000000,0.000000,0.000000,0.000000,0.000000,0.000000,0.000000,0.140272,3,0
700000,0.002562,17.869888,-0.026088,0.011127,25.330950,-0.035274,-0.001266,0.007487,1.570604,-0.021628,-0.000255,-0.000682,0.000022,-0.001723,-0.000004,0.004549,-0.002643,0.165331,0.028446,0.182928,0.182928,0.171357,0.772670,0.000000,0.000000,0.000000,0.000000,0.000000,0.000000,0.000000,0.000000,0.000000,0.000000,0.000000,0.000000,0.160310,3,0
710000,0.002593,18.127054,-0.025847,0.011130,25.338795,-0.034967,-0.001278,0.007746,1.570603,-0.022251,-0.000268,-0.000790,0.000023,-0.001792,-0.000004,0.002623,-0.002675,0.125633,0.021014,0.183528,0.183528,0.171522,0.764779,0.000000,0.000000,0.000000,0.000000,0.000000,0.000000,0.000000,0.000000,0.000000,0.000000,0.000000,0.000000,0.121818,3,0
720000,0.002623,18.388617,-0.025324,0.011130,25.354153,-0.034231,-0.001300,0.008286,1.570599,-0.023589,-0.000282,-0.000953,0.000025,-0.001943,-0.000005,0.011582,-0.002706,0.265968,0.030742,0.184129,0.184129,0.171685,0.756875,0.000000,0.000000,0.000000,0.000000,0.000000,0.000000,0.000000,0.000000,0.000000,0.000000,0.000000,0.000000,0.257820,3,0
730000,0.002650,18.646587,-0.026235,0.011044,25.363079,-0.035527,-0.001316,0.008594,1.570602,-0.024321,-0.000296,-0.000849,0.000026,-0.002027,-0.000005,0.003386,-0.002735,0.143404,-0.019659,0.184731,0.184731,0.171846,0.748966,0.000000,0.000000,0.000000,0.000000,0.000000,0.000000,0.000000,0.000000,0.000000,0.000000,0.000000,0.000000,0.139014,3,0
740000,0.002676,18.905285,-0.026426,0.010981,25.373112,-0.035881,-0.001341,0.008948,1.570610,-0.025168,-0.000310,-0.000882,0.000028,-0.002126,-0.000005,0.004333,-0.002762,0.163651,0.005995,0.185331,0.185330,0.172003,0.741058,0.000000,0.000000,0.000000,0.000000,0.000000,0.000000,0.000000,0.000000,0.000000,0.000000,0.000000,0.000000,0.158619,3,0
750000,0.002702,19.166552,-0.026222,0.011014,25.387518,-0.035597,-0.001365,0.009474,1.570612,-0.026442,-0.000325,-0.000993,0.000030,-0.002277,-0.000006,0.009585,-0.002788,0.242792,0.019863,0.185927,0.185927,0.172154,0.733160,0.000000,0.000000,0.000000,0.000000,0.000000,0.000000,0.000000,0.000000,0.000000,0.000000,0.000000,0.000000,0.235285,3,0
760000,0.002726,19.425425,-0.027254,0.011007,25.397524,-0.037097,-0.001382,0.009844,1.570607,-0.027294,-0.000340,-0.000864,0.000032,-0.002381,-0.000006,0.004238,-0.002813,0.160292,-0.023325,0.186519,0.186518,0.172299,0.725277,0.000000,0.000000,0.000000,0.000000,0.000000,0.000000,0.000000,0.000000,0.000000,0.000000,0.000000,0.000000,0.155332,3,0
770000,0.002749,19.686876,-0.028795,0.010963,25.412029,-0.039290,-0.001395,0.010391,1.570601,-0.028582,-0.000356,-0.000636,0.000034,-0.002539,-0.000006,0.009510,-0.002837,0.239260,-0.040489,0.187104,0.187104,0.172435,0.717417,0.000000,0.000000,0.000000,0.000000,0.000000,0.000000,0.000000,0.000000,0.000000,0.000000,0.000000,0.000000,0.231814,3,0
780000,0.002770,19.946531,-0.028730,0.010893,25.423172,-0.039219,-0.001425,0.010794,1.570599,-0.029543,-0.000371,-0.000731,0.000036,-0.002659,-0.000006,0.005071,-0.002859,0.176453,0.016211,0.187683,0.187682,0.172563,0.709585,0.000000,0.000000,0.000000,0.000000,0.000000,0.000000,0.000000,0.000000,0.000000,0.000000,0.000000,0.000000,0.170955,3,0
790000,0.002789,20.207520,-0.027948,0.010864,25.436502,-0.038197,-0.001447,0.011305,1.570598,-0.030726,-0.000387,-0.000973,0.000038,-0.002809,-0.000007,0.007728,-0.002880,0.214869,0.041114,0.188253,0.188252,0.172680,0.701787,0.000000,0.000000,0.000000,0.000000,0.000000,0.000000,0.000000,0.000000,0.000000,0.000000,0.000000,0.000000,0.208147,3,0
800000,0.002809,20.468578,-0.028228,0.010899,25.449886,-0.038414,-0.001468,0.011825,1.570598,-0.031908,-0.000403,-0.000997,0.000040,-0.002962,-0.000007,0.007270,-0.002900,0.212172,0.003736,0.188813,0.188813,0.172786,0.694030,0.000000,0.000000,0.000000,0.000000,0.000000,0.000000,0.000000,0.000000,0.000000,0.000000,0.000000,0.000000,0.205513,3,0
810000,0.002826,20.729074,-0.029198,0.010751,25.462002,-0.039775,-0.001484,0.012294,1.570590,-0.032976,-0.000420,-0.000878,0.000042,-0.003102,-0.000008,0.005864,-0.002918,0.189526,-0.020077,0.189364,0.189364,0.172881,0.686318,0.000000,0.000000,0.000000,0.000000,0.000000,0.000000,0.000000,0.000000,0.000000,0.000000,0.000000,0.000000,0.183566,3,0
820000,0.002841,20.990271,-0.029987,0.010662,25.475212,-0.041096,-0.001507,0.012818,1.570581,-0.034155,-0.000437,-0.000800,0.000044,-0.003259,-0.000008,0.006960,-0.002934,0.207214,-0.013229,0.189904,0.189904,0.172964,0.678657,0.000000,0.000000,0.000000,0.000000,0.000000,0.000000,0.000000,0.000000,0.000000,0.000000,0.000000,0.000000,0.200675,3,0
830000,0.002855,21.248371,-0.031151,0.010565,25.482910,-0.042891,-0.001537,0.013108,1.570577,-0.034758,-0.000454,-0.000642,0.000046,-0.003341,-0.000008,0.001886,-0.002948,0.104916,-0.025822,0.190432,0.190432,0.173034,0.671053,0.000000,0.000000,0.000000,0.000000,0.000000,0.000000,0.000000,0.000000,0.000000,0.000000,0.000000,0.000000,0.101626,3,0
840000,0.002867,21.510992,-0.030118,0.010443,25.498396,-0.041447,-0.001558,0.013747,1.570582,-0.036174,-0.000471,-0.000963,0.000049,-0.003536,-0.000009,0.010055,-0.002961,0.244316,0.051035,0.190949,0.190948,0.173092,0.663509,0.000000,0.000000,0.000000,0.000000,0.000000,0.000000,0.000000,0.000000,0.000000,0.000000,0.000000,0.000000,0.236559,3,0
850000,0.002877,21.768578,-0.029363,0.010399,25.504871,-0.040354,-0.001583,0.013974,1.570588,-0.036647,-0.000488,-0.001222,0.000051,-0.003602,-0.000009,0.001327,-0.002972,0.080933,0.040767,0.191453,0.191452,0.173135,0.656030,0.000000,0.000000,0.000000,0.000000,0.000000,0.000000,0.000000,0.000000,0.000000,0.000000,0.000000,0.000000,0.078403,3,0
860000,0.002886,22.026896,-0.029642,0.010234,25.512457,-0.040823,-0.001599,0.014269,1.570585,-0.037246,-0.000506,-0.001252,0.000054,-0.003688,-0.000009,0.001670,-0.002981,0.101589,0.004613,0.191944,0.191943,0.173165,0.648620,0.000000,0.000000,0.000000,0.000000,0.000000,0.000000,0.000000,0.000000,0.000000,0.000000,0.000000,0.000000,0.098381,3,0
870000,0.002894,22.285297,-0.028712,0.010257,25.520096,-0.039401,-0.001615,0.014564,1.570577,-0.037851,-0.000524,-0.001555,0.000056,-0.003775,-0.000009,0.002019,-0.002990,0.101620,0.046604,0.192422,0.192421,0.173181,0.641283,0.000000,0.000000,0.000000,0.000000,0.000000,0.000000,0.000000,0.000000,0.000000,0.000000,0.000000,0.000000,0.098405,3,0
880000,0.002902,22.545702,-0.029694,0.010265,25.531267,-0.040717,-0.001643,0.015021,1.570584,-0.038817,-0.000542,-0.001426,0.000059,-0.003917,-0.000009,0.004259,-0.002998,0.161203,-0.020142,0.192887,0.192886,0.173183,0.634023,0.000000,0.000000,0.000000,0.000000,0.000000,0.000000,0.000000,0.000000,0.000000,0.000000,0.000000,0.000000,0.156048,3,0
890000,0.002908,22.806803,-0.029145,0.010128,25.543415,-0.039984,-0.001663,0.015542,1.570590,-0.039898,-0.000560,-0.001650,0.000062,-0.004078,-0.000010,0.005350,-0.003005,0.178993,0.033462,0.193338,0.193337,0.173171,0.626844,0.000000,0.000000,0.000000,0.000000,0.000000,0.000000,0.000000,0.000000,0.000000,0.000000,0.000000,0.000000,0.173250,3,0
900000,0.002913,23.067307,-0.029053,0.010059,25.554327,-0.039931,-0.001683,0.015998,1.570592,-0.040849,-0.000578,-0.001769,0.000065,-0.004222,-0.000010,0.003991,-0.003010,0.156317,0.017361,0.193776,0.193775,0.173144,0.619748,0.000000,0.000000,0.000000,0.000000,0.000000,0.000000,0.000000,0.000000,0.000000,0.000000,0.000000,0.000000,0.151296,3,0
910000,0.002916,23.327860,-0.027967,0.009972,25.565329,-0.038538,-0.001714,0.016461,1.570594,-0.041793,-0.000596,-0.002122,0.000068,-0.004367,-0.000010,0.004268,-0.003014,0.154127,0.051847,0.194201,0.194200,0.173103,0.612739,0.000000,0.000000,0.000000,0.000000,0.000000,0.000000,0.000000,0.000000,0.000000,0.000000,0.000000,0.000000,0.149168,3,0
920000,0.002918,23.589106,-0.026861,0.009788,25.577394,-0.037135,-0.001740,0.016990,1.570587,-0.042851,-0.000615,-0.002481,0.000071,-0.004532,-0.000011,0.005199,-0.003016,0.171768,0.052113,0.194612,0.194611,0.173048,0.605819,0.000000,0.000000,0.000000,0.000000,0.000000,0.000000,0.000000,0.000000,0.000000,0.000000,0.000000,0.000000,0.166224,3,0
930000,0.002919,23.848452,-0.025872,0.009778,25.585978,-0.035605,-0.001773,0.017342,1.570586,-0.043528,-0.000633,-0.002811,0.000074,-0.004639,-0.000011,0.002287,-0.003017,0.109190,0.047389,0.195010,0.195008,0.172979,0.598991,0.000000,0.000000,0.000000,0.000000,0.000000,0.000000,0.000000,0.000000,0.000000,0.000000,0.000000,0.000000,0.105683,3,0
940000,0.002919,24.107859,-0.027296,0.009679,25.594435,-0.037529,-0.001807,0.017696,1.570583,-0.044203,-0.000652,-0.002556,0.000077,-0.004748,-0.000011,0.002108,-0.003017,0.108187,-0.036837,0.195394,0.195393,0.172897,0.592256,0.000000,0.000000,0.000000,0.000000,0.000000,0.000000,0.000000,0.000000,0.000000,0.000000,0.000000,0.000000,0.104703,3,0
950000,0.002918,24.366674,-0.028605,0.009565,25.601807,-0.039517,-0.001829,0.017998,1.570580,-0.044751,-0.000672,-0.002332,0.000080,-0.004838,-0.000012,0.001396,-0.003017,0.087240,-0.032125,0.195766,0.195765,0.172800,0.585617,0.000000,0.000000,0.000000,0.000000,0.000000,0.000000,0.000000,0.000000,0.000000,0.000000,0.000000,0.000000,0.084443,3,0
960000,0.002916,24.627502,-0.029601,0.009390,25.612576,-0.041061,-0.001862,0.018473,1.570571,-0.045675,-0.000691,-0.002190,0.000083,-0.004992,-0.000012,0.003525,-0.003014,0.146414,-0.020494,0.196126,0.196124,0.172690,0.579076,0.000000,0.000000,0.000000,0.000000,0.000000,0.000000,0.000000,0.000000,0.000000,0.000000,0.000000,0.000000,0.141658,3,0
970000,0.002912,24.890318,-0.031081,0.009293,25.626675,-0.043350,-0.001881,0.019136,1.570580,-0.046965,-0.000710,-0.001931,0.000086,-0.005210,-0.000012,0.006899,-0.003010,0.203541,-0.036772,0.196472,0.196470,0.172567,0.572633,0.000000,0.000000,0.000000,0.000000,0.000000,0.000000,0.000000,0.000000,0.000000,0.000000,0.000000,0.000000,0.196896,3,0
980000,0.002906,25.149225,-0.030574,0.009088,25.633860,-0.042653,-0.001916,0.019427,1.570581,-0.047472,-0.000729,-0.002172,0.000089,-0.005297,-0.000013,0.001203,-0.003005,0.079733,0.033025,0.196807,0.196805,0.172430,0.566292,0.000000,0.000000,0.000000,0.000000,0.000000,0.000000,0.000000,0.000000,0.000000,0.000000,0.000000,0.000000,0.077173,3,0
990000,0.002898,25.410805,-0.031385,0.008927,25.645670,-0.043938,-0.001949,0.019966,1.570588,-0.048487,-0.000749,-0.002081,0.000093,-0.005473,-0.000013,0.004088,-0.002997,0.158695,-0.012957,0.197130,0.197127,0.172281,0.560052,0.000000,0.000000,0.000000,0.000000,0.000000,0.000000,0.000000,0.000000,0.000000,0.000000,0.000000,0.000000,0.153508,3,0
1000000,0.002889,25.671093,-0.030657,0.008714,25.654892,-0.042973,-0.001975,0.020386,1.570583,-0.049229,-0.000768,-0.002387,0.000096,-0.005604,-0.000013,0.002430,-0.002987,0.115667,0.041032,0.197441,0.197439,0.172120,0.553915,0.000000,0.000000,0.000000,0.000000,0.000000,0.000000,0.000000,0.000000,0.000000,0.000000,0.000000,0.000000,0.111899,3,0
1010000,0.002879,25.930763,-0.031744,0.008619,25.663067,-0.044348,-0.002009,0.020733,1.570572,-0.049834,-0.000787,-0.002221,0.000100,-0.005713,-0.000014,0.001504,-0.002977,0.093832,-0.022681,0.197741,0.197739,0.171946,0.547882,0.000000,0.000000,0.000000,0.000000,0.000000,0.000000,0.000000,0.000000,0.000000,0.000000,0.000000,0.000000,0.090784,3,0
1020000,0.002868,26.189819,-0.033164,0.008517,25.670036,-0.046427,-0.002028,0.021013,1.570566,-0.050304,-0.000807,-0.001970,0.000103,-0.005799,-0.000014,0.001036,-0.002966,0.072626,-0.033781,0.198031,0.198028,0.171761,0.541952,0.000000,0.000000,0.000000,0.000000,0.000000,0.000000,0.000000,0.000000,0.000000,0.000000,0.000000,0.000000,0.070287,3,0
1030000,0.002855,26.448925,-0.033472,0.008320,25.677057,-0.046848,-0.002051,0.021296,1.570571,-0.050771,-0.000826,-0.002016,0.000107,-0.005885,-0.000014,0.000841,-0.002953,0.071926,0.005779,0.198310,0.198307,0.171565,0.536128,0.000000,0.000000,0.000000,0.000000,0.000000,0.000000,0.000000,0.000000,0.000000,0.000000,0.000000,0.000000,0.069608,3,0
1040000,0.002842,26.711370,-0.034558,0.008184,25.689844,-0.048173,-0.002082,0.021918,1.570570,-0.051882,-0.000845,-0.001860,0.000110,-0.006093,-0.000014,0.004763,-0.002939,0.170572,-0.021257,0.198580,0.198576,0.171358,0.530409,0.000000,0.000000,0.000000,0.000000,0.000000,0.000000,0.000000,0.000000,0.000000,0.000000,0.000000,0.000000,0.164951,3,0
1050000,0.002828,26.974470,-0.034987,0.008126,25.703447,-0.048859,-0.002111,0.022602,1.570576,-0.053098,-0.000864,-0.001884,0.000114,-0.006325,-0.000015,0.005595,-0.002925,0.186304,0.002348,0.198840,0.198836,0.171140,0.524794,0.000000,0.000000,0.000000,0.000000,0.000000,0.000000,0.000000,0.000000,0.000000,0.000000,0.000000,0.000000,0.180152,3,0
1060000,0.002812,27.233601,-0.036280,0.007908,25.710091,-0.050484,-0.002145,0.022877,1.570582,-0.053505,-0.000884,-0.001670,0.000117,-0.006404,-0.000015,0.000752,-0.002908,0.062218,-0.027983,0.199091,0.199087,0.170912,0.519286,0.000000,0.000000,0.000000,0.000000,0.000000,0.000000,0.000000,0.000000,0.000000,0.000000,0.000000,0.000000,0.060218,3,0
1070000,0.002795,27.496735,-0.037301,0.007688,25.723509,-0.051722,-0.002175,0.023554,1.570573,-0.054691,-0.000903,-0.001539,0.000121,-0.006636,-0.000016,0.005315,-0.002891,0.180721,-0.017702,0.199334,0.199329,0.170674,0.513882,0.000000,0.000000,0.000000,0.000000,0.000000,0.000000,0.000000,0.000000,0.000000,0.000000,0.000000,0.000000,0.174739,3,0
1080000,0.002776,27.760509,-0.037302,0.007506,25.737944,-0.051688,-0.002200,0.024293,1.570567,-0.055977,-0.000922,-0.001693,0.000125,-0.006892,-0.000016,0.006232,-0.002872,0.195755,0.018681,0.199568,0.199564,0.170427,0.508584,0.000000,0.000000,0.000000,0.000000,0.000000,0.000000,0.000000,0.000000,0.000000,0.000000,0.000000,0.000000,0.189266,3,0
1090000,0.002756,28.023592,-0.036555,0.007342,25.751047,-0.050561,-0.002223,0.024964,1.570565,-0.057098,-0.000940,-0.002057,0.000129,-0.007118,-0.000017,0.005007,-0.002851,0.170382,0.045048,0.199795,0.199791,0.170171,0.503390,0.000000,0.000000,0.000000,0.000000,0.000000,0.000000,0.000000,0.000000,0.000000,0.000000,0.000000,0.000000,0.164734,3,0
1100000,0.002734,28.284000,-0.035451,0.007117,25.759220,-0.049071,-0.002248,0.025346,1.570566,-0.057664,-0.000959,-0.002516,0.000133,-0.007233,-0.000017,0.001725,-0.002828,0.086079,0.057208,0.200015,0.200010,0.169906,0.498302,0.000000,0.000000,0.000000,0.000000,0.000000,0.000000,0.000000,0.000000,0.000000,0.000000,0.000000,0.000000,0.083257,3,0
1110000,0.002711,28.544428,-0.035145,0.006906,25.767490,-0.048415,-0.002271,0.025719,1.570560,-0.058218,-0.000977,-0.002749,0.000137,-0.007348,-0.000017,0.001270,-0.002804,0.084015,0.028472,0.200228,0.200223,0.169633,0.493317,0.000000,0.000000,0.000000,0.000000,0.000000,0.000000,0.000000,0.000000,0.000000,0.000000,0.000000,0.000000,0.081258,3,0
1120000,0.002687,28.804873,-0.035471,0.006773,25.775599,-0.048715,-0.002293,0.026090,1.570555,-0.058759,-0.000995,-0.002800,0.000140,-0.007462,-0.000017,0.001088,-0.002780,0.081928,0.005940,0.200436,0.200430,0.169352,0.488436,0.000000,0.000000,0.000000,0.000000,0.000000,0.000000,0.000000,0.000000,0.000000,0.000000,0.000000,0.000000,0.079237,3,0
1130000,0.002662,29.066660,-0.035886,0.006562,25.786032,-0.049207,-0.002317,0.026611,1.570554,-0.059551,-0.001014,-0.002830,0.000144,-0.007631,-0.000018,0.002306,-0.002754,0.119585,0.002962,0.200637,0.200631,0.169065,0.483657,0.000000,0.000000,0.000000,0.000000,0.000000,0.000000,0.000000,0.000000,0.000000,0.000000,0.000000,0.000000,0.115618,3,0
1140000,0.002637,29.328444,-0.037207,0.006482,25.796209,-0.050962,-0.002338,0.027131,1.570561,-0.060321,-0.001032,-0.002598,0.000148,-0.007799,-0.000018,0.002310,-0.002729,0.116121,-0.029017,0.200833,0.200826,0.168770,0.478981,0.000000,0.000000,0.000000,0.000000,0.000000,0.000000,0.000000,0.000000,0.000000,0.000000,0.000000,0.000000,0.112263,3,0
1150000,0.002611,29.588882,-0.037765,0.006270,25.803864,-0.051447,-0.002373,0.027474,1.570552,-0.060804,-0.001050,-0.002590,0.000152,-0.007906,-0.000018,0.000858,-0.002702,0.072905,-0.001430,0.201024,0.201017,0.168468,0.474405,0.000000,0.000000,0.000000,0.000000,0.000000,0.000000,0.000000,0.000000,0.000000,0.000000,0.000000,0.000000,0.070510,3,0
1160000,0.002585,29.849998,-0.038489,0.006144,25.812698,-0.052255,-0.002391,0.027897,1.570557,-0.061405,-0.001068,-0.002536,0.000156,-0.008040,-0.000019,0.001334,-0.002674,0.090691,-0.007086,0.201210,0.201203,0.168161,0.469929,0.000000,0.000000,0.000000,0.000000,0.000000,0.000000,0.000000,0.000000,0.000000,0.000000,0.000000,0.000000,0.087686,3,0
1170000,0.002556,30.113777,-0.037558,0.005935,25.826086,-0.051043,-0.002411,0.028617,1.570550,-0.062514,-0.001085,-0.002985,0.000160,-0.008291,-0.000019,0.004964,-0.002646,0.167429,0.052559,0.201393,0.201385,0.167848,0.465553,0.000000,0.000000,0.000000,0.000000,0.000000,0.000000,0.000000,0.000000,0.000000,0.000000,0.000000,0.000000,0.161832,3,0
1180000,0.002529,30.374844,-0.037957,0.005891,25.834541,-0.051376,-0.002444,0.029015,1.570543,-0.063060,-0.001102,-0.003027,0.000164,-0.008416,-0.000019,0.001098,-0.002617,0.082424,0.004348,0.201572,0.201563,0.167529,0.461275,0.000000,0.000000,0.000000,0.000000,0.000000,0.000000,0.000000,0.000000,0.000000,0.000000,0.000000,0.000000,0.079695,3,0
1190000,0.002501,30.633904,-0.039258,0.005783,25.839455,-0.053010,-0.002463,0.029174,1.570548,-0.063194,-0.001120,-0.002791,0.000168,-0.008448,-0.000019,0.000193,-0.002588,0.020061,-0.028000,0.201747,0.201738,0.167206,0.457094,0.000000,0.000000,0.000000,0.000000,0.000000,0.000000,0.000000,0.000000,0.000000,0.000000,0.000000,0.000000,0.019545,3,0
1200000,0.002474,30.894991,-0.039003,0.005737,25.847801,-0.052610,-0.002485,0.029565,1.570555,-0.063716,-0.001137,-0.003040,0.000172,-0.008572,-0.000020,0.001140,-0.002560,0.079018,0.028669,0.201920,0.201911,0.166877,0.453010,0.000000,0.000000,0.000000,0.000000,0.000000,0.000000,0.000000,0.000000,0.000000,0.000000,0.000000,0.000000,0.076401,3,0
1210000,0.002446,31.155403,-0.039132,0.005593,25.854855,-0.052736,-0.002523,0.029877,1.570557,-0.064089,-0.001153,-0.003170,0.000176,-0.008661,-0.000020,0.000548,-0.002531,0.056393,0.014677,0.202090,0.202080,0.166545,0.449020,0.000000,0.000000,0.000000,0.000000,0.000000,0.000000,0.000000,0.000000,0.000000,0.000000,0.000000,0.000000,0.054550,3,0
1220000,0.002417,31.416489,-0.038483,0.005388,25.863083,-0.051727,-0.002544,0.030271,1.570558,-0.064578,-0.001169,-0.003544,0.000181,-0.008779,-0.000020,0.001185,-0.002501,0.074213,0.042821,0.202258,0.202247,0.166209,0.445123,0.000000,0.000000,0.000000,0.000000,0.000000,0.000000,0.000000,0.000000,0.000000,0.000000,0.000000,0.000000,0.071755,3,0
1230000,0.002387,31.675556,-0.038510,0.005248,25.867647,-0.051824,-0.002566,0.030403,1.570553,-0.064656,-0.001185,-0.003702,0.000185,-0.008798,-0.000020,0.000076,-0.002470,0.011833,0.018033,0.202424,0.202413,0.165869,0.441319,0.000000,0.000000,0.000000,0.000000,0.000000,0.000000,0.000000,0.000000,0.000000,0.000000,0.000000,0.000000,0.011681,3,0
1240000,0.002356,31.939341,-0.037524,0.005065,25.880310,-0.050687,-0.002601,0.031107,1.570545,-0.065645,-0.001201,-0.004195,0.000189,-0.009046,-0.000021,0.004134,-0.002439,0.150301,0.055266,0.202588,0.202577,0.165526,0.437606,0.000000,0.000000,0.000000,0.000000,0.000000,0.000000,0.000000,0.000000,0.000000,0.000000,0.000000,0.000000,0.145250,3,0
1250000,0.002325,32.202400,-0.037188,0.004921,25.891687,-0.050402,-0.002620,0.031716,1.570549,-0.066467,-0.001217,-0.004479,0.000193,-0.009254,-0.000021,0.002673,-0.002407,0.124935,0.031267,0.202751,0.202739,0.165180,0.433983,0.000000,0.000000,0.000000,0.000000,0.000000,0.000000,0.000000,0.000000,0.000000,0.000000,0.000000,0.000000,0.120738,3,0
1260000,0.002293,32.461388,-0.037451,0.004714,25.895649,-0.050748,-0.002648,0.031803,1.570546,-0.066473,-0.001232,-0.004559,0.000197,-0.009256,-0.000021,0.000014,-0.002374,0.000912,0.009003,0.202913,0.202901,0.164831,0.430447,0.000000,0.000000,0.000000,0.000000,0.000000,0.000000,0.000000,0.000000,0.000000,0.000000,0.000000,0.000000,0.002457,3,0
1270000,0.002262,32.720394,-0.038398,0.004605,25.899548,-0.051911,-0.002685,0.031896,1.570547,-0.066476,-0.001248,-0.004419,0.000201,-0.009257,-0.000021,0.000041,-0.002341,0.000317,-0.015791,0.203075,0.203061,0.164480,0.426999,0.000000,0.000000,0.000000,0.000000,0.000000,0.000000,0.000000,0.000000,0.000000,0.000000,0.000000,0.000000,0.002282,3,0
1280000,0.002230,32.982109,-0.037573,0.004548,25.908268,-0.050967,-0.002710,0.032323,1.570544,-0.066993,-0.001262,-0.004870,0.000205,-0.009393,-0.000021,0.001411,-0.002309,0.079205,0.049666,0.203236,0.203222,0.164127,0.423636,0.000000,0.000000,0.000000,0.000000,0.000000,0.000000,0.000000,0.000000,0.000000,0.000000,0.000000,0.000000,0.076559,3,0
1290000,0.002197,33.241100,-0.036426,0.004299,25.912020,-0.049487,-0.002742,0.032390,1.570534,-0.066966,-0.001276,-0.005417,0.000209,-0.009385,-0.000021,0.000604,-0.002274,-0.003681,0.060895,0.203397,0.203382,0.163773,0.420358,0.000000,0.000000,0.000000,0.000000,0.000000,0.000000,0.000000,0.000000,0.000000,0.000000,0.000000,0.000000,0.004176,3,0
1300000,0.002163,33.500118,-0.036657,0.004049,25.915842,-0.049823,-0.002774,0.032468,1.570528,-0.066938,-0.001291,-0.005506,0.000213,-0.009377,-0.000021,0.000020,-0.002239,-0.004292,0.009926,0.203558,0.203542,0.163417,0.417162,0.000000,0.000000,0.000000,0.000000,0.000000,0.000000,0.000000,0.000000,0.000000,0.000000,0.000000,0.000000,0.004677,3,0
1310000,0.002129,33.762524,-0.037793,0.003920,25.925524,-0.051273,-0.002806,0.032973,1.570527,-0.067553,-0.001305,-0.005307,0.000217,-0.009548,-0.000022,0.001523,-0.002203,0.094479,-0.022873,0.203719,0.203703,0.163060,0.414047,0.000000,0.000000,0.000000,0.000000,0.000000,0.000000,0.000000,0.000000,0.000000,0.000000,0.000000,0.000000,0.091295,3,0
1320000,0.002093,34.026237,-0.036857,0.003703,25.937513,-0.050190,-0.002832,0.033653,1.570529,-0.068395,-0.001319,-0.005815,0.000221,-0.009784,-0.000022,0.003205,-0.002167,0.130157,0.054187,0.203881,0.203864,0.162703,0.411013,0.000000,0.000000,0.000000,0.000000,0.000000,0.000000,0.000000,0.000000,0.000000,0.000000,0.000000,0.000000,0.125757,3,0
1330000,0.002057,34.285160,-0.036042,0.003562,25.940897,-0.048925,-0.002863,0.033676,1.570521,-0.068300,-0.001332,-0.006262,0.000225,-0.009755,-0.000022,0.000420,-0.002130,-0.014404,0.048776,0.204044,0.204026,0.162345,0.408058,0.000000,0.000000,0.000000,0.000000,0.000000,0.000000,0.000000,0.000000,0.000000,0.000000,0.000000,0.000000,0.014060,3,0
1340000,0.002021,34.543427,-0.036109,0.003415,25.942987,-0.049103,-0.002899,0.033598,1.570522,-0.068075,-0.001345,-0.006404,0.000229,-0.009689,-0.000022,0.000236,-0.002092,-0.034817,0.015770,0.204208,0.204189,0.161986,0.405179,0.000000,0.000000,0.000000,0.000000,0.000000,0.000000,0.000000,0.000000,0.000000,0.000000,0.000000,0.000000,0.033691,3,0
1350000,0.001984,34.805103,-0.036454,0.003222,25.951155,-0.049664,-0.002924,0.033986,1.570510,-0.068490,-0.001358,-0.006466,0.000233,-0.009811,-0.000022,0.000681,-0.002054,0.064720,0.005971,0.204373,0.204353,0.161628,0.402375,0.000000,0.000000,0.000000,0.000000,0.000000,0.000000,0.000000,0.000000,0.000000,0.000000,0.000000,0.000000,0.062547,3,0
1360000,0.001947,35.064709,-0.035595,0.003103,25.955404,-0.048584,-0.002947,0.034082,1.570509,-0.068499,-0.001370,-0.006940,0.000237,-0.009813,-0.000022,0.000418,-0.002017,0.001751,0.050674,0.204539,0.204518,0.161269,0.399645,0.000000,0.000000,0.000000,0.000000,0.000000,0.000000,0.000000,0.000000,0.000000,0.000000,0.000000,0.000000,0.002583,3,0
1370000,0.001911,35.322964,-0.035291,0.003028,25.957235,-0.048005,-0.002971,0.033991,1.570507,-0.068248,-0.001383,-0.007212,0.000241,-0.009736,-0.000022,0.000389,-0.001979,-0.039230,0.029423,0.204706,0.204685,0.160911,0.396988,0.000000,0.000000,0.000000,0.000000,0.000000,0.000000,0.000000,0.000000,0.000000,0.000000,0.000000,0.000000,0.037936,3,0
1380000,0.001874,35.586674,-0.035041,0.002766,25.968807,-0.047850,-0.002992,0.034655,1.570506,-0.069008,-0.001395,-0.007491,0.000245,-0.009968,-0.000023,0.002445,-0.001940,0.119953,0.028122,0.204875,0.204853,0.160554,0.394402,0.000000,0.000000,0.000000,0.000000,0.000000,0.000000,0.000000,0.000000,0.000000,0.000000,0.000000,0.000000,0.115875,3,0
1390000,0.001836,35.848953,-0.034273,0.002695,25.977697,-0.046878,-0.003012,0.035113,1.570505,-0.069479,-0.001406,-0.007948,0.000248,-0.010114,-0.000023,0.001264,-0.001902,0.074799,0.047260,0.205046,0.205023,0.160198,0.391886,0.000000,0.000000,0.000000,0.000000,0.000000,0.000000,0.000000,0.000000,0.000000,0.000000,0.000000,0.000000,0.072274,3,0
1400000,0.001798,36.111870,-0.033770,0.002499,25.987619,-0.046422,-0.003036,0.035657,1.570501,-0.070049,-0.001417,-0.008313,0.000252,-0.010292,-0.000023,0.001550,-0.001862,0.090733,0.037188,0.205218,0.205194,0.159842,0.389438,0.000000,0.000000,0.000000,0.000000,0.000000,0.000000,0.000000,0.000000,0.000000,0.000000,0.000000,0.000000,0.087653,3,0
1410000,0.001760,36.373371,-0.033416,0.002340,25.994738,-0.046104,-0.003072,0.035990,1.570505,-0.070338,-0.001428,-0.008619,0.000256,-0.010384,-0.000024,0.000506,-0.001823,0.046387,0.031274,0.205392,0.205367,0.159488,0.387057,0.000000,0.000000,0.000000,0.000000,0.000000,0.000000,0.000000,0.000000,0.000000,0.000000,0.000000,0.000000,0.044838,3,0
1420000,0.001722,36.632111,-0.032176,0.002211,25.996996,-0.044448,-0.003099,0.035905,1.570501,-0.070109,-0.001438,-0.009232,0.000260,-0.010307,-0.000023,0.000879,-0.001784,-0.036278,0.064110,0.205568,0.205542,0.159135,0.384741,0.000000,0.000000,0.000000,0.000000,0.000000,0.000000,0.000000,0.000000,0.000000,0.000000,0.000000,0.000000,0.035069,3,0
1430000,0.001683,36.891556,-0.033252,0.001990,26.000349,-0.045853,-0.003117,0.035928,1.570492,-0.070006,-0.001449,-0.009000,0.000263,-0.010274,-0.000023,0.000137,-0.001743,-0.016735,-0.023716,0.205746,0.205719,0.158784,0.382489,0.000000,0.000000,0.000000,0.000000,0.000000,0.000000,0.000000,0.000000,0.000000,0.000000,0.000000,0.000000,0.016254,3,0
1440000,0.001644,37.150307,-0.033024,0.001808,26.002449,-0.045504,-0.003140,0.035839,1.570484,-0.069772,-0.001459,-0.009248,0.000267,-0.010195,-0.000023,0.000338,-0.001702,-0.037670,0.025998,0.205926,0.205898,0.158435,0.380299,0.000000,0.000000,0.000000,0.000000,0.000000,0.000000,0.000000,0.000000,0.000000,0.000000,0.000000,0.000000,0.036410,3,0
1450000,0.001604,37.412487,-0.033610,0.001604,26.010691,-0.046299,-0.003174,0.036253,1.570482,-0.070149,-0.001470,-0.009214,0.000270,-0.010323,-0.000024,0.000610,-0.001661,0.061378,-0.004385,0.206108,0.206079,0.158087,0.378171,0.000000,0.000000,0.000000,0.000000,0.000000,0.000000,0.000000,0.000000,0.000000,0.000000,0.000000,0.000000,0.059291,3,0
1460000,0.001562,37.675293,-0.032985,0.001350,26.019829,-0.045574,-0.003206,0.036739,1.570481,-0.070620,-0.001479,-0.009638,0.000274,-0.010484,-0.000024,0.001253,-0.001618,0.077423,0.042097,0.206292,0.206262,0.157742,0.376101,0.000000,0.000000,0.000000,0.000000,0.000000,0.000000,0.000000,0.000000,0.000000,0.000000,0.000000,0.000000,0.074784,3,0
1470000,0.001520,37.938042,-0.032756,0.001083,26.028854,-0.045531,-0.003241,0.037222,1.570488,-0.071062,-0.001488,-0.009913,0.000277,-0.010637,-0.000024,0.000974,-0.001574,0.072952,0.026839,0.206478,0.206447,0.157399,0.374091,0.000000,0.000000,0.000000,0.000000,0.000000,0.000000,0.000000,0.000000,0.000000,0.000000,0.000000,0.000000,0.070462,3,0
1480000,0.001477,38.196629,-0.033264,0.000852,26.030300,-0.046285,-0.003271,0.037060,1.570481,-0.070756,-0.001497,-0.009885,0.000280,-0.010529,-0.000024,0.000415,-0.001529,-0.050735,-0.002069,0.206666,0.206633,0.157058,0.372137,0.000000,0.000000,0.000000,0.000000,0.000000,0.000000,0.000000,0.000000,0.000000,0.000000,0.000000,0.000000,0.049011,3,0
1490000,0.001433,38.459324,-0.032412,0.000710,26.039112,-0.045158,-0.003300,0.037518,1.570469,-0.071163,-0.001505,-0.010403,0.000284,-0.010674,-0.000024,0.001174,-0.001485,0.068363,0.050978,0.206856,0.206822,0.156720,0.370240,0.000000,0.000000,0.000000,0.000000,0.000000,0.000000,0.000000,0.000000,0.000000,0.000000,0.000000,0.000000,0.066033,3,0
1500000,0.001390,38.721279,-0.031992,0.000583,26.046400,-0.044697,-0.003321,0.037848,1.570466,-0.071425,-0.001513,-0.010749,0.000287,-0.010768,-0.000024,0.000501,-0.001440,0.044128,0.033932,0.207048,0.207013,0.156385,0.368396,0.000000,0.000000,0.000000,0.000000,0.000000,0.000000,0.000000,0.000000,0.000000,0.000000,0.000000,0.000000,0.042633,3,0
1510000,0.001347,38.984550,-0.031156,0.000498,26.055914,-0.043682,-0.003355,0.038380,1.570466,-0.071897,-0.001521,-0.011265,0.000290,-0.010941,-0.000025,0.001445,-0.001396,0.080284,0.050105,0.207242,0.207205,0.156052,0.366604,0.000000,0.000000,0.000000,0.000000,0.000000,0.000000,0.000000,0.000000,0.000000,0.000000,0.000000,0.000000,0.077534,3,0
1520000,0.001305,39.242943,-0.030743,0.000349,26.056549,-0.043204,-0.003378,0.038131,1.570467,-0.071521,-0.001528,-0.011583,0.000293,-0.010798,-0.000024,0.000827,-0.001352,-0.063812,0.032505,0.207437,0.207400,0.155722,0.364865,0.000000,0.000000,0.000000,0.000000,0.000000,0.000000,0.000000,0.000000,0.000000,0.000000,0.000000,0.000000,0.061614,3,0
1530000,0.001262,39.505482,-0.032138,0.000183,26.064631,-0.044891,-0.003401,0.038541,1.570465,-0.071846,-0.001536,-0.011221,0.000296,-0.010924,-0.000025,0.000713,-0.001307,0.055489,-0.036571,0.207635,0.207596,0.155395,0.363175,0.000000,0.000000,0.000000,0.000000,0.000000,0.000000,0.000000,0.000000,0.000000,0.000000,0.000000,0.000000,0.053577,3,0
1540000,0.001220,39.768642,-0.033221,0.000090,26.073784,-0.046178,-0.003425,0.039044,1.570467,-0.072259,-0.001544,-0.010991,0.000299,-0.011085,-0.000025,0.000907,-0.001264,0.071175,-0.023786,0.207834,0.207794,0.155071,0.361535,0.000000,0.000000,0.000000,0.000000,0.000000,0.000000,0.000000,0.000000,0.000000,0.000000,0.000000,0.000000,0.068717,3,0
1550000,0.001178,40.026905,-0.033741,-0.000105,26.073996,-0.046935,-0.003446,0.038752,1.570465,-0.071841,-0.001551,-0.010952,0.000301,-0.010920,-0.000025,0.000854,-0.001220,-0.072807,-0.002567,0.208035,0.207994,0.154750,0.359943,0.000000,0.000000,0.000000,0.000000,0.000000,0.000000,0.000000,0.000000,0.000000,0.000000,0.000000,0.000000,0.070296,3,0
1560000,0.001134,40.287933,-0.034429,-0.000359,26.079092,-0.047654,-0.003464,0.038889,1.570465,-0.071881,-0.001558,-0.010869,0.000304,-0.010937,-0.000025,0.000019,-0.001175,0.006870,-0.008262,0.208238,0.208195,0.154433,0.358396,0.000000,0.000000,0.000000,0.000000,0.000000,0.000000,0.000000,0.000000,0.000000,0.000000,0.000000,0.000000,0.006726,3,0
1570000,0.001091,40.548214,-0.033363,-0.000442,26.082731,-0.046301,-0.003492,0.038900,1.570460,-0.071790,-0.001563,-0.011486,0.000307,-0.010897,-0.000025,0.000627,-0.001130,-0.015659,0.060139,0.208442,0.208398,0.154119,0.356895,0.000000,0.000000,0.000000,0.000000,0.000000,0.000000,0.000000,0.000000,0.000000,0.000000,0.000000,0.000000,0.015142,3,0
1580000,0.001048,40.809158,-0.032370,-0.000576,26.087597,-0.044948,-0.003523,0.039013,1.570460,-0.071800,-0.001568,-0.012077,0.000309,-0.010898,-0.000025,0.000528,-0.001086,0.002327,0.056951,0.208647,0.208602,0.153808,0.355438,0.000000,0.000000,0.000000,0.000000,0.000000,0.000000,0.000000,0.000000,0.000000,0.000000,0.000000,0.000000,0.002489,3,0
1590000,0.001004,41.070759,-0.032376,-0.000840,26.093487,-0.044944,-0.003549,0.039231,1.570449,-0.071909,-0.001574,-0.012265,0.000312,-0.010943,-0.000025,0.000113,-0.001040,0.019638,0.017724,0.208854,0.208807,0.153501,0.354023,0.000000,0.000000,0.000000,0.000000,0.000000,0.000000,0.000000,0.000000,0.000000,0.000000,0.000000,0.000000,0.018986,3,0
1600000,0.000960,41.332314,-0.032817,-0.001006,26.099199,-0.045626,-0.003568,0.039423,1.570452,-0.071999,-0.001579,-0.012276,0.000314,-0.010981,-0.000025,0.000044,-0.000994,0.016403,0.000765,0.209062,0.209014,0.153197,0.352650,0.000000,0.000000,0.000000,0.000000,0.000000,0.000000,0.000000,0.000000,0.000000,0.000000,0.000000,0.000000,0.015860,3,0
1610000,0.000915,41.593117,-0.032789,-0.001156,26.103531,-0.045430,-0.003583,0.039496,1.570440,-0.071962,-0.001584,-0.012475,0.000316,-0.010964,-0.000025,0.000066,-0.000949,-0.006660,0.019092,0.209271,0.209221,0.152897,0.351317,0.000000,0.000000,0.000000,0.000000,0.000000,0.000000,0.000000,0.000000,0.000000,0.000000,0.000000,0.000000,0.006489,3,0
1620000,0.000871,41.853184,-0.032477,-0.001316,26.106522,-0.044918,-0.003601,0.039427,1.570438,-0.071804,-0.001588,-0.012785,0.000318,-0.010893,-0.000025,0.000281,-0.000903,-0.028965,0.030018,0.209481,0.209430,0.152601,0.350025,0.000000,0.000000,0.000000,0.000000,0.000000,0.000000,0.000000,0.000000,0.000000,0.000000,0.000000,0.000000,0.027960,3,0
1630000,0.000828,42.110439,-0.032003,-0.001392,26.104239,-0.044173,-0.003615,0.038895,1.570438,-0.071212,-0.001592,-0.013138,0.000320,-0.010628,-0.000025,0.002155,-0.000858,-0.110146,0.035452,0.209692,0.209639,0.152308,0.348770,0.000000,0.000000,0.000000,0.000000,0.000000,0.000000,0.000000,0.000000,0.000000,0.000000,0.000000,0.000000,0.106292,3,0
1640000,0.000783,42.368404,-0.031713,-0.001615,26.103258,-0.043868,-0.003648,0.038485,1.570431,-0.070738,-0.001596,-0.013420,0.000322,-0.010412,-0.000024,0.001406,-0.000812,-0.089073,0.028258,0.209903,0.209849,0.152019,0.347551,0.000000,0.000000,0.000000,0.000000,0.000000,0.000000,0.000000,0.000000,0.000000,0.000000,0.000000,0.000000,0.085953,3,0
1650000,0.000739,42.629158,-0.031694,-0.001820,26.107346,-0.043860,-0.003662,0.038533,1.570423,-0.070690,-0.001599,-0.013612,0.000324,-0.010389,-0.000024,0.000067,-0.000766,-0.009087,0.018224,0.210115,0.210060,0.151734,0.346367,0.000000,0.000000,0.000000,0.000000,0.000000,0.000000,0.000000,0.000000,0.000000,0.000000,0.000000,0.000000,0.008793,3,0
1660000,0.000693,42.889874,-0.031837,-0.002070,26.111279,-0.044180,-0.003683,0.038567,1.570428,-0.070630,-0.001603,-0.013737,0.000326,-0.010360,-0.000024,0.000044,-0.000719,-0.011456,0.011882,0.210327,0.210270,0.151453,0.345218,0.000000,0.000000,0.000000,0.000000,0.000000,0.000000,0.000000,0.000000,0.000000,0.000000,0.000000,0.000000,0.011073,3,0
1670000,0.000647,43.147762,-0.032318,-0.002315,26.109991,-0.044648,-0.003701,0.038113,1.570427,-0.070149,-0.001606,-0.013691,0.000328,-0.010133,-0.000024,0.001401,-0.000671,-0.093300,-0.002361,0.210539,0.210481,0.151176,0.344103,0.000000,0.000000,0.000000,0.000000,0.000000,0.000000,0.000000,0.000000,0.000000,0.000000,0.000000,0.000000,0.090029,3,0
1680000,0.000600,43.409138,-0.032361,-0.002573,26.115011,-0.044538,-0.003726,0.038246,1.570423,-0.070183,-0.001609,-0.013868,0.000329,-0.010148,-0.000024,0.000050,-0.000622,0.006645,0.016294,0.210752,0.210692,0.150902,0.343019,0.000000,0.000000,0.000000,0.000000,0.000000,0.000000,0.000000,0.000000,0.000000,0.000000,0.000000,0.000000,0.006444,3,0
1690000,0.000552,43.670452,-0.031904,-0.002770,26.119831,-0.043836,-0.003757,0.038366,1.570423,-0.070200,-0.001611,-0.014260,0.000331,-0.010154,-0.000024,0.000214,-0.000573,0.003647,0.036128,0.210964,0.210903,0.150633,0.341967,0.000000,0.000000,0.000000,0.000000,0.000000,0.000000,0.000000,0.000000,0.000000,0.000000,0.000000,0.000000,0.003572,3,0
1700000,0.000504,43.932407,-0.031062,-0.002991,26.125687,-0.042937,-0.003775,0.038567,1.570429,-0.070301,-0.001612,-0.014824,0.000332,-0.010200,-0.000024,0.000500,-0.000523,0.020588,0.051555,0.211176,0.211113,0.150367,0.340944,0.000000,0.000000,0.000000,0.000000,0.000000,0.000000,0.000000,0.000000,0.000000,0.000000,0.000000,0.000000,0.019885,3,0
1710000,0.000457,44.189415,-0.032075,-0.003123,26.122499,-0.044059,-0.003807,0.037928,1.570423,-0.069700,-0.001615,-0.014528,0.000333,-0.009898,-0.000024,0.002497,-0.000473,-0.122154,-0.024522,0.211388,0.211324,0.150106,0.339953,0.000000,0.000000,0.000000,0.000000,0.000000,0.000000,0.000000,0.000000,0.000000,0.000000,0.000000,0.000000,0.117860,3,0
