time_us,pos_x,pos_y,pos_z,vel_x,vel_y,vel_z,roll,pitch,yaw,bias_ax,bias_ay,bias_az,bias_gx,bias_gy,bias_gz,nis,innov_x,innov_y,innov_z,cov_pos_x,cov_pos_y,cov_pos_z,cov_yaw,des_speed,des_heading,des_climb,pid_speed,pid_yaw,pid_alt,speed_meas,yaw_meas,climb_meas,fwd_accel,yaw_rate,vert_accel,drift_m,nav_mode,mission_state
0,0.000001,0.149995,0.000003,0.000107,24.999123,0.000744,-0.000001,0.000007,1.570811,0.000000,0.000000,0.000000,0.000000,0.000000,0.000000,0.006250,-0.000001,-0.249994,-0.000007,2.400038,2.400038,3.600017,1.000518,0.000000,0.000000,0.000000,0.000000,0.000000,0.000000,0.000000,0.000000,0.000000,0.000000,0.000000,0.000000,0.149995,1,0
10000,0.000003,0.359533,-0.019684,0.000323,24.998272,0.001308,-0.000002,0.000009,1.570821,0.000000,-0.000000,0.000000,0.000000,0.000000,0.000000,0.002673,-0.000004,-0.141554,-0.052535,1.714420,1.714420,2.250079,1.001073,0.000000,0.000000,0.000000,0.000000,0.000000,0.000000,0.000000,0.000000,0.000000,0.000000,0.000000,0.000000,0.101107,3,0
20000,0.000006,0.571240,-0.034812,0.000459,24.997149,0.001695,-0.000009,0.000004,1.570847,0.000002,-0.000000,0.000001,-0.000000,0.000000,0.000000,0.004216,-0.000007,-0.172173,-0.055527,1.333616,1.333616,1.636554,1.001655,0.000000,0.000000,0.000000,0.000000,0.000000,0.000000,0.000000,0.000000,0.000000,0.000000,0.000000,0.000000,0.133904,3,0
30000,0.000010,0.802003,-0.042602,0.000596,24.996119,0.002332,0.000004,0.000003,1.570870,0.000004,-0.000000,0.000001,-0.000000,0.000000,0.000000,0.001694,-0.000012,-0.105564,-0.036457,1.091392,1.091392,1.286065,1.002257,0.000000,0.000000,0.000000,0.000000,0.000000,0.000000,0.000000,0.000000,0.000000,0.000000,0.000000,0.000000,0.086362,3,0
40000,0.000014,1.043026,-0.048882,0.000739,24.995163,0.002671,0.000016,0.000012,1.570886,0.000005,-0.000000,0.000002,-0.000000,0.000000,0.000000,0.000650,-0.000017,-0.058012,-0.035732,0.923811,0.923811,1.059385,1.002869,0.000000,0.000000,0.000000,0.000000,0.000000,0.000000,0.000000,0.000000,0.000000,0.000000,0.000000,0.000000,0.049080,3,0
50000,0.000021,1.274281,-0.052077,0.000940,24.993738,0.003036,0.000019,0.000021,1.570907,0.000011,-0.000000,0.000003,-0.000000,0.000000,0.000000,0.002896,-0.000024,-0.139993,-0.021486,0.801036,0.801036,0.900822,1.003484,0.000000,0.000000,0.000000,0.000000,0.000000,0.000000,0.000000,0.000000,0.000000,0.000000,0.000000,0.000000,0.121303,3,0
60000,0.000028,1.517943,-0.050980,0.001104,24.992662,0.003710,0.000021,0.000014,1.570933,0.000015,-0.000000,0.000003,0.000000,0.000000,0.000000,0.000425,-0.000032,-0.053171,0.008115,0.707270,0.707270,0.783741,1.004094,0.000000,0.000000,0.000000,0.000000,0.000000,0.000000,0.000000,0.000000,0.000000,0.000000,0.000000,0.000000,0.046903,3,0
70000,0.000036,1.774302,-0.055498,0.001229,24.992437,0.003929,0.000024,0.000027,1.570948,0.000010,-0.000000,0.000006,-0.000000,0.000000,0.000000,0.000784,-0.000040,0.060997,-0.039427,0.633370,0.633370,0.693801,1.004688,0.000000,0.000000,0.000000,0.000000,0.000000,0.000000,0.000000,0.000000,0.000000,0.000000,0.000000,0.000000,0.054559,3,0
80000,0.000046,2.024548,-0.056864,0.001446,24.991854,0.004406,0.000034,0.000023,1.570965,0.000009,-0.000000,0.000007,0.000000,0.000000,0.000000,0.000029,-0.000050,0.003429,-0.013603,0.573673,0.573673,0.622594,1.005260,0.000000,0.000000,0.000000,0.000000,0.000000,0.000000,0.000000,0.000000,0.000000,0.000000,0.000000,0.000000,0.003102,3,0
90000,0.000057,2.273737,-0.055495,0.001656,24.991034,0.005185,0.000038,0.000022,1.570988,0.000011,-0.000000,0.000005,0.000000,0.000000,0.000000,0.000040,-0.000062,-0.008263,0.014002,0.524488,0.524488,0.564865,1.005801,0.000000,0.000000,0.000000,0.000000,0.000000,0.000000,0.000000,0.000000,0.000000,0.000000,0.000000,0.000000,0.007541,3,0
100000,0.000068,2.528524,-0.055967,0.001730,24.990984,0.005820,0.000036,0.000036,1.571003,0.000001,-0.000000,0.000006,0.000000,-0.000000,-0.000000,0.000569,-0.000074,0.060618,-0.006154,0.483304,0.483304,0.517162,1.006301,0.000000,0.000000,0.000000,0.000000,0.000000,0.000000,0.000000,0.000000,0.000000,0.000000,0.000000,0.000000,0.055735,3,0
110000,0.000080,2.783229,-0.054654,0.001786,24.990978,0.006663,0.000037,0.000051,1.571015,-0.000011,-0.000000,0.000003,0.000000,-0.000000,-0.000000,0.000675,-0.000086,0.064258,0.015691,0.448354,0.448354,0.477121,1.006754,0.000000,0.000000,0.000000,0.000000,0.000000,0.000000,0.000000,0.000000,0.000000,0.000000,0.000000,0.000000,0.059456,3,0
120000,0.000092,3.035100,-0.056717,0.001924,24.990711,0.006829,0.000038,0.000058,1.571031,-0.000017,-0.000000,0.000009,0.000000,-0.000000,-0.000000,0.000252,-0.000099,0.028220,-0.028907,0.418359,0.418359,0.443071,1.007150,0.000000,0.000000,0.000000,0.000000,0.000000,0.000000,0.000000,0.000000,0.000000,0.000000,0.000000,0.000000,0.026253,3,0
130000,0.000105,3.283375,-0.053819,0.002008,24.989708,0.007946,0.000033,0.000063,1.571041,-0.000011,-0.000000,-0.000001,0.000000,-0.000000,-0.000000,0.000356,-0.000112,-0.024858,0.040946,0.392369,0.392369,0.413797,1.007481,0.000000,0.000000,0.000000,0.000000,0.000000,0.000000,0.000000,0.000000,0.000000,0.000000,0.000000,0.000000,0.023233,3,0
140000,0.000119,3.534810,-0.055986,0.002175,24.989447,0.007982,0.000040,0.000060,1.571062,-0.000018,-0.000000,0.000009,0.000000,-0.000000,-0.000000,0.000287,-0.000126,0.025060,-0.034787,0.369667,0.369667,0.388393,1.007739,0.000000,0.000000,0.000000,0.000000,0.000000,0.000000,0.000000,0.000000,0.000000,0.000000,0.000000,0.000000,0.023516,3,0
150000,0.000133,3.783090,-0.057717,0.002276,24.988394,0.008140,0.000051,0.000062,1.571072,-0.000009,-0.000000,0.000019,0.000000,-0.000000,-0.000000,0.000258,-0.000141,-0.027583,-0.029756,0.349696,0.349696,0.366172,1.007915,0.000000,0.000000,0.000000,0.000000,0.000000,0.000000,0.000000,0.000000,0.000000,0.000000,0.000000,0.000000,0.025976,3,0
160000,0.000149,4.038603,-0.055883,0.002433,24.989178,0.009031,0.000045,0.000074,1.571082,-0.000048,-0.000000,0.000008,0.000000,-0.000001,-0.000000,0.001777,-0.000158,0.101848,0.030266,0.332022,0.332022,0.346600,1.008002,0.000000,0.000000,0.000000,0.000000,0.000000,0.000000,0.000000,0.000000,0.000000,0.000000,0.000000,0.000000,0.096212,3,0
170000,0.000165,4.294010,-0.057276,0.002494,24.990152,0.009340,0.000050,0.000096,1.571111,-0.000092,-0.000000,0.000019,0.000000,-0.000002,-0.000000,0.001849,-0.000174,0.104753,-0.027168,0.316298,0.316298,0.329260,1.007991,0.000000,0.000000,0.000000,0.000000,0.000000,0.000000,0.000000,0.000000,0.000000,0.000000,0.000000,0.000000,0.099230,3,0
180000,0.000181,4.550334,-0.053991,0.002607,24.991495,0.010931,0.000061,0.000109,1.571137,-0.000153,-0.000000,-0.000009,0.000000,-0.000004,-0.000000,0.003164,-0.000191,0.127641,0.060902,0.302248,0.302248,0.313817,1.007875,0.000000,0.000000,0.000000,0.000000,0.000000,0.000000,0.000000,0.000000,0.000000,0.000000,0.000000,0.000000,0.121212,3,0
190000,0.000199,4.805545,-0.054187,0.002745,24.992678,0.011253,0.000059,0.000138,1.571157,-0.000211,-0.000000,-0.000006,0.000000,-0.000005,-0.000000,0.001920,-0.000209,0.109850,-0.006201,0.289643,0.289643,0.300003,1.007646,0.000000,0.000000,0.000000,0.000000,0.000000,0.000000,0.000000,0.000000,0.000000,0.000000,0.000000,0.000000,0.104548,3,0
200000,0.000217,5.060708,-0.053982,0.002882,24.993992,0.011769,0.000062,0.000154,1.571181,-0.000277,-0.000001,-0.000007,0.000000,-0.000007,-0.000000,0.002032,-0.000227,0.113054,0.001839,0.278297,0.278297,0.287598,1.007296,0.000000,0.000000,0.000000,0.000000,0.000000,0.000000,0.000000,0.000000,0.000000,0.000000,0.000000,0.000000,0.107810,3,0
210000,0.000235,5.316725,-0.053180,0.002928,24.995867,0.012469,0.000060,0.000178,1.571209,-0.000364,-0.000001,-0.000016,0.000000,-0.000010,-0.000000,0.002987,-0.000246,0.136182,0.014746,0.268056,0.268056,0.276421,1.006818,0.000000,0.000000,0.000000,0.000000,0.000000,0.000000,0.000000,0.000000,0.000000,0.000000,0.000000,0.000000,0.130099,3,0
220000,0.000254,5.570082,-0.052308,0.002985,24.996813,0.013243,0.000068,0.000190,1.571222,-0.000419,-0.000001,-0.000028,0.000000,-0.000011,-0.000000,0.001038,-0.000265,0.078935,0.016730,0.258790,0.258790,0.266321,1.006204,0.000000,0.000000,0.000000,0.000000,0.000000,0.000000,0.000000,0.000000,0.000000,0.000000,0.000000,0.000000,0.075531,3,0
230000,0.000274,5.820230,-0.049970,0.003193,24.996174,0.014666,0.000081,0.000201,1.571234,-0.000423,-0.000001,-0.000067,0.000000,-0.000011,-0.000000,0.000424,-0.000286,0.004480,0.051380,0.250389,0.250389,0.257172,1.005448,0.000000,0.000000,0.000000,0.000000,0.000000,0.000000,0.000000,0.000000,0.000000,0.000000,0.000000,0.000000,0.004302,3,0
240000,0.000295,6.071505,-0.048022,0.003323,24.996155,0.016325,0.000084,0.000220,1.571248,-0.000450,-0.000001,-0.000102,0.000000,-0.000012,-0.000000,0.000469,-0.000307,0.032643,0.043240,0.242760,0.242760,0.248866,1.004543,0.000000,0.000000,0.000000,0.000000,0.000000,0.000000,0.000000,0.000000,0.000000,0.000000,0.000000,0.000000,0.031323,3,0
250000,0.000316,6.326149,-0.048782,0.003387,24.998165,0.016412,0.000081,0.000259,1.571262,-0.000556,-0.000002,-0.000081,0.000000,-0.000016,-0.000000,0.002365,-0.000329,0.119309,-0.023113,0.235823,0.235823,0.241314,1.003483,0.000000,0.000000,0.000000,0.000000,0.000000,0.000000,0.000000,0.000000,0.000000,0.000000,0.000000,0.000000,0.114620,3,0
260000,0.000337,6.580832,-0.046846,0.003421,25.000450,0.018035,0.000077,0.000291,1.571279,-0.000674,-0.000002,-0.000124,0.000000,-0.000021,-0.000000,0.002755,-0.000350,0.123070,0.045201,0.229510,0.229510,0.234436,1.002261,0.000000,0.000000,0.000000,0.000000,0.000000,0.000000,0.000000,0.000000,0.000000,0.000000,0.000000,0.000000,0.118362,3,0
270000,0.000359,6.832593,-0.045845,0.003598,25.000942,0.019272,0.000079,0.000302,1.571299,-0.000723,-0.000002,-0.000146,0.000000,-0.000022,-0.000000,0.000432,-0.000373,0.047274,0.021381,0.223761,0.223761,0.228165,1.000872,0.000000,0.000000,0.000000,0.000000,0.000000,0.000000,0.000000,0.000000,0.000000,0.000000,0.000000,0.000000,0.045513,3,0
280000,0.000382,7.086733,-0.045141,0.003791,25.003191,0.020310,0.000075,0.000340,1.571318,-0.000848,-0.000003,-0.000161,0.000000,-0.000027,-0.000000,0.002101,-0.000397,0.113571,0.013602,0.218524,0.218524,0.222443,0.999310,0.000000,0.000000,0.000000,0.000000,0.000000,0.000000,0.000000,0.000000,0.000000,0.000000,0.000000,0.000000,0.109435,3,0
290000,0.000406,7.342372,-0.046192,0.003899,25.006563,0.020193,0.000074,0.000399,1.571341,-0.001034,-0.000003,-0.000120,0.000000,-0.000035,-0.000000,0.004187,-0.000421,0.157593,-0.034862,0.213753,0.213753,0.217219,0.997570,0.000000,0.000000,0.000000,0.000000,0.000000,0.000000,0.000000,0.000000,0.000000,0.000000,0.000000,0.000000,0.151980,3,0
300000,0.000432,7.593865,-0.046881,0.004113,25.007004,0.020284,0.000080,0.000411,1.571369,-0.001086,-0.000004,-0.000089,0.000000,-0.000037,-0.000000,0.000375,-0.000448,0.041073,-0.025365,0.209409,0.209409,0.212446,0.995648,0.000000,0.000000,0.000000,0.000000,0.000000,0.000000,0.000000,0.000000,0.000000,0.000000,0.000000,0.000000,0.039642,3,0
310000,0.000459,7.844891,-0.045503,0.004310,25.007065,0.021878,0.000075,0.000430,1.571387,-0.001123,-0.000004,-0.000133,0.000000,-0.000039,-0.000000,0.000310,-0.000475,0.028123,0.033673,0.205455,0.205455,0.208087,0.993539,0.000000,0.000000,0.000000,0.000000,0.000000,0.000000,0.000000,0.000000,0.000000,0.000000,0.000000,0.000000,0.027164,3,0
320000,0.000486,8.099495,-0.046228,0.004399,25.010281,0.021645,0.000081,0.000489,1.571406,-0.001314,-0.000005,-0.000094,0.000000,-0.000048,-0.000000,0.003057,-0.000503,0.134916,-0.027889,0.201861,0.201861,0.204105,0.991240,0.000000,0.000000,0.000000,0.000000,0.000000,0.000000,0.000000,0.000000,0.000000,0.000000,0.000000,0.000000,0.130378,3,0
330000,0.000514,8.354183,-0.045839,0.004531,25.013790,0.022557,0.000081,0.000563,1.571418,-0.001522,-0.000006,-0.000101,0.000000,-0.000058,-0.000000,0.003104,-0.000532,0.138705,0.004933,0.198597,0.198597,0.200469,0.988747,0.000000,0.000000,0.000000,0.000000,0.000000,0.000000,0.000000,0.000000,0.000000,0.000000,0.000000,0.000000,0.134115,3,0
340000,0.000543,8.607663,-0.046381,0.004666,25.016376,0.022465,0.000075,0.000628,1.571430,-0.001685,-0.000007,-0.000064,0.000000,-0.000066,-0.000000,0.001788,-0.000561,0.102650,-0.023539,0.195639,0.195639,0.197151,0.986057,0.000000,0.000000,0.000000,0.000000,0.000000,0.000000,0.000000,0.000000,0.000000,0.000000,0.000000,0.000000,0.099304,3,0
350000,0.000572,8.863838,-0.045059,0.004853,25.021662,0.024157,0.000073,0.000743,1.571449,-0.001997,-0.000008,-0.000120,0.000000,-0.000082,-0.000000,0.005829,-0.000591,0.187085,0.033688,0.192963,0.192963,0.194125,0.983167,0.000000,0.000000,0.000000,0.000000,0.000000,0.000000,0.000000,0.000000,0.000000,0.000000,0.000000,0.000000,0.181069,3,0
360000,0.000602,9.116273,-0.044088,0.004958,25.023396,0.025436,0.000071,0.000783,1.571461,-0.002119,-0.000009,-0.000160,0.000000,-0.000088,-0.000000,0.000874,-0.000622,0.070009,0.022649,0.190548,0.190548,0.191370,0.980077,0.000000,0.000000,0.000000,0.000000,0.000000,0.000000,0.000000,0.000000,0.000000,0.000000,0.000000,0.000000,0.067789,3,0
370000,0.000633,9.368887,-0.043201,0.005119,25.025318,0.026691,0.000068,0.000834,1.571475,-0.002260,-0.000010,-0.000196,0.000000,-0.000096,-0.000000,0.000996,-0.000654,0.075984,0.019891,0.188377,0.188376,0.188863,0.976783,0.000000,0.000000,0.000000,0.000000,0.000000,0.000000,0.000000,0.000000,0.000000,0.000000,0.000000,0.000000,0.073601,3,0
380000,0.000663,9.624146,-0.042716,0.005131,25.030146,0.027396,0.000066,0.000939,1.571502,-0.002571,-0.000011,-0.000209,0.000001,-0.000113,-0.000000,0.004209,-0.000685,0.161292,0.006843,0.186430,0.186430,0.186586,0.973286,0.000000,0.000000,0.000000,0.000000,0.000000,0.000000,0.000000,0.000000,0.000000,0.000000,0.000000,0.000000,0.156282,3,0
390000,0.000695,9.878891,-0.041803,0.005310,25.034487,0.028574,0.000072,0.001042,1.571529,-0.002864,-0.000012,-0.000251,0.000001,-0.000130,-0.000000,0.003443,-0.000717,0.144531,0.020624,0.184693,0.184693,0.184522,0.969585,0.000000,0.000000,0.000000,0.000000,0.000000,0.000000,0.000000,0.000000,0.000000,0.000000,0.000000,0.000000,0.140084,3,0
400000,0.000727,10.134361,-0.042255,0.005507,25.039923,0.028252,0.000082,0.001157,1.571550,-0.003220,-0.000014,-0.000200,0.000001,-0.000150,-0.000000,0.004659,-0.000750,0.168047,-0.024418,0.183152,0.183151,0.182656,0.965679,0.000000,0.000000,0.000000,0.000000,0.000000,0.000000,0.000000,0.000000,0.000000,0.000000,0.000000,0.000000,0.162919,3,0
410000,0.000761,10.389332,-0.042703,0.005692,25.044758,0.027860,0.000079,0.001271,1.571573,-0.003553,-0.000016,-0.000146,0.000001,-0.000170,-0.000000,0.003784,-0.000784,0.151071,-0.024358,0.181791,0.181791,0.180971,0.961571,0.000000,0.000000,0.000000,0.000000,0.000000,0.000000,0.000000,0.000000,0.000000,0.000000,0.000000,0.000000,0.146496,3,0
420000,0.000793,10.645621,-0.042802,0.005703,25.051409,0.027939,0.000075,0.001427,1.571601,-0.004001,-0.000017,-0.000117,0.000001,-0.000198,-0.000000,0.006125,-0.000818,0.194234,-0.012817,0.180600,0.180600,0.179456,0.957259,0.000000,0.000000,0.000000,0.000000,0.000000,0.000000,0.000000,0.000000,0.000000,0.000000,0.000000,0.000000,0.188390,3,0
430000,0.000825,10.900816,-0.043343,0.005727,25.056730,0.027658,0.000071,0.001565,1.571620,-0.004376,-0.000019,-0.000050,0.000001,-0.000222,-0.000000,0.004088,-0.000851,0.156547,-0.027851,0.179566,0.179566,0.178097,0.952748,0.000000,0.000000,0.000000,0.000000,0.000000,0.000000,0.000000,0.000000,0.000000,0.000000,0.000000,0.000000,0.151863,3,0
440000,0.000859,11.155542,-0.044095,0.005906,25.061543,0.027037,0.000069,0.001678,1.571635,-0.004725,-0.000021,0.000038,0.000001,-0.000244,-0.000000,0.003362,-0.000885,0.139847,-0.035115,0.178679,0.178679,0.176883,0.948037,0.000000,0.000000,0.000000,0.000000,0.000000,0.000000,0.000000,0.000000,0.000000,0.000000,0.000000,0.000000,0.135685,3,0
450000,0.000892,11.412178,-0.043244,0.005993,25.068995,0.028237,0.000081,0.001869,1.571652,-0.005251,-0.000024,-0.000013,0.000001,-0.000279,-0.000000,0.006736,-0.000919,0.203134,0.019625,0.177929,0.177928,0.175803,0.943131,0.000000,0.000000,0.000000,0.000000,0.000000,0.000000,0.000000,0.000000,0.000000,0.000000,0.000000,0.000000,0.197111,3,0
460000,0.000925,11.669506,-0.042443,0.006171,25.077520,0.029511,0.000080,0.002082,1.571672,-0.005855,-0.000026,-0.000061,0.000001,-0.000321,-0.000000,0.008218,-0.000954,0.224727,0.017553,0.177306,0.177305,0.174847,0.938032,0.000000,0.000000,0.000000,0.000000,0.000000,0.000000,0.000000,0.000000,0.000000,0.000000,0.000000,0.000000,0.218087,3,0
470000,0.000960,11.926929,-0.042004,0.006315,25.086235,0.030379,0.000083,0.002294,1.571696,-0.006483,-0.000028,-0.000074,0.000002,-0.000364,-0.000000,0.008247,-0.000989,0.225739,0.004692,0.176801,0.176800,0.174006,0.932744,0.000000,0.000000,0.000000,0.000000,0.000000,0.000000,0.000000,0.000000,0.000000,0.000000,0.000000,0.000000,0.219090,3,0
480000,0.000995,12.180361,-0.043067,0.006483,25.089525,0.029040,0.000084,0.002394,1.571708,-0.006735,-0.000031,0.000063,0.000002,-0.000382,-0.000000,0.001604,-0.001025,0.087502,-0.047486,0.176405,0.176405,0.173271,0.927270,0.000000,0.000000,0.000000,0.000000,0.000000,0.000000,0.000000,0.000000,0.000000,0.000000,0.000000,0.000000,0.084936,3,0
490000,0.001030,12.434549,-0.042606,0.006566,25.093794,0.029802,0.000085,0.002512,1.571735,-0.007070,-0.000034,0.000046,0.000002,-0.000407,-0.000001,0.002047,-0.001061,0.112345,0.005719,0.176112,0.176112,0.172634,0.921617,0.000000,0.000000,0.000000,0.000000,0.000000,0.000000,0.000000,0.000000,0.000000,0.000000,0.000000,0.000000,0.109052,3,0
500000,0.001064,12.690649,-0.043513,0.006605,25.100908,0.028667,0.000081,0.002712,1.571758,-0.007611,-0.000037,0.000176,0.000002,-0.000447,-0.000001,0.005310,-0.001096,0.176175,-0.042186,0.175914,0.175913,0.172087,0.915787,0.000000,0.000000,0.000000,0.000000,0.000000,0.000000,0.000000,0.000000,0.000000,0.000000,0.000000,0.000000,0.171013,3,0
510000,0.001098,12.947465,-0.044547,0.006635,25.109091,0.027577,0.000084,0.002938,1.571786,-0.008240,-0.000041,0.000325,0.000003,-0.000495,-0.000001,0.006712,-0.001131,0.198309,-0.046458,0.175803,0.175802,0.171623,0.909788,0.000000,0.000000,0.000000,0.000000,0.000000,0.000000,0.000000,0.000000,0.000000,0.000000,0.000000,0.000000,0.192501,3,0
520000,0.001131,13.202660,-0.045626,0.006679,25.114933,0.026440,0.000078,0.003114,1.571797,-0.008699,-0.000044,0.000481,0.000003,-0.000531,-0.000001,0.003549,-0.001165,0.140199,-0.047714,0.175772,0.175772,0.171234,0.903624,0.000000,0.000000,0.000000,0.000000,0.000000,0.000000,0.000000,0.000000,0.000000,0.000000,0.000000,0.000000,0.136097,3,0
530000,0.001163,13.459754,-0.045692,0.006667,25.123569,0.026752,0.000085,0.003358,1.571823,-0.009382,-0.000048,0.000522,0.000003,-0.000585,-0.000001,0.006691,-0.001199,0.203010,-0.011913,0.175817,0.175816,0.170915,0.897302,0.000000,0.000000,0.000000,0.000000,0.000000,0.000000,0.000000,0.000000,0.000000,0.000000,0.000000,0.000000,0.197064,3,0
540000,0.001195,13.715226,-0.045562,0.006677,25.129749,0.027320,0.000091,0.003537,1.571849,-0.009883,-0.000052,0.000540,0.000003,-0.000626,-0.000001,0.003388,-0.001231,0.144619,-0.005136,0.175930,0.175929,0.170659,0.890828,0.000000,0.000000,0.000000,0.000000,0.000000,0.000000,0.000000,0.000000,0.000000,0.000000,0.000000,0.000000,0.140384,3,0
550000,0.001226,13.971435,-0.045747,0.006778,25.137222,0.027361,0.000087,0.003762,1.571868,-0.010478,-0.000057,0.000598,0.000004,-0.000675,-0.000001,0.004576,-0.001263,0.167387,-0.016399,0.176105,0.176104,0.170460,0.884209,0.000000,0.000000,0.000000,0.000000,0.000000,0.000000,0.000000,0.000000,0.000000,0.000000,0.000000,0.000000,0.162479,3,0
560000,0.001257,14.230124,-0.044078,0.006803,25.148403,0.029741,0.000091,0.004090,1.571882,-0.011387,-0.000061,0.000417,0.000004,-0.000752,-0.000001,0.010422,-0.001295,0.249047,0.048931,0.176338,0.176337,0.170314,0.877452,0.000000,0.000000,0.000000,0.000000,0.000000,0.000000,0.000000,0.000000,0.000000,0.000000,0.000000,0.000000,0.241731,3,0
570000,0.001287,14.487170,-0.044046,0.006925,25.157007,0.030025,0.000092,0.004349,1.571912,-0.012096,-0.000066,0.000453,0.000005,-0.000814,-0.000001,0.005796,-0.001326,0.189034,-0.009612,0.176624,0.176623,0.170215,0.870564,0.000000,0.000000,0.000000,0.000000,0.000000,0.000000,0.000000,0.000000,0.000000,0.000000,0.000000,0.000000,0.183474,3,0
580000,0.001317,14.743767,-0.043553,0.006917,25.164972,0.031042,0.000087,0.004603,1.571939,-0.012750,-0.000071,0.000428,0.000005,-0.000871,-0.000001,0.004706,-0.001357,0.170446,0.006480,0.176957,0.176956,0.170158,0.863552,0.000000,0.000000,0.000000,0.000000,0.000000,0.000000,0.000000,0.000000,0.000000,0.000000,0.000000,0.000000,0.165425,3,0
590000,0.001347,14.998741,-0.044383,0.006980,25.170170,0.029778,0.000090,0.004783,1.571954,-0.013193,-0.000076,0.000589,0.000005,-0.000911,-0.000001,0.002314,-0.001388,0.112562,-0.040398,0.177333,0.177331,0.170138,0.856425,0.000000,0.000000,0.000000,0.000000,0.000000,0.000000,0.000000,0.000000,0.000000,0.000000,0.000000,0.000000,0.109244,3,0
600000,0.001376,15.255054,-0.044306,0.007110,25.177574,0.030113,0.000096,0.005029,1.571967,-0.013820,-0.000081,0.000622,0.000006,-0.000969,-0.000001,0.003932,-0.001418,0.155719,-0.008049,0.177747,0.177746,0.170152,0.849189,0.000000,0.000000,0.000000,0.000000,0.000000,0.000000,0.000000,0.000000,0.000000,0.000000,0.000000,0.000000,0.151112,3,0
610000,0.001405,15.511516,-0.044393,0.007089,25.185308,0.030310,0.000100,0.005272,1.571989,-0.014469,-0.000087,0.000680,0.000007,-0.001029,-0.000001,0.004057,-0.001448,0.157756,-0.013983,0.178195,0.178194,0.170196,0.841854,0.000000,0.000000,0.000000,0.000000,0.000000,0.000000,0.000000,0.000000,0.000000,0.000000,0.000000,0.000000,0.153077,3,0
620000,0.001434,15.768123,-0.043739,0.007175,25.193171,0.031571,0.000106,0.005537,1.572005,-0.015140,-0.000093,0.000628,0.000007,-0.001093,-0.000001,0.004145,-0.001478,0.159643,0.012038,0.178674,0.178673,0.170265,0.834427,0.000000,0.000000,0.000000,0.000000,0.000000,0.000000,0.000000,0.000000,0.000000,0.000000,0.000000,0.000000,0.154896,3,0
630000,0.001462,16.026060,-0.044384,0.007263,25.203110,0.030601,0.000108,0.005867,1.572016,-0.016004,-0.000099,0.000778,0.000008,-0.001177,-0.000002,0.006730,-0.001507,0.201141,-0.034066,0.179180,0.179178,0.170356,0.826915,0.000000,0.000000,0.000000,0.000000,0.000000,0.000000,0.000000,0.000000,0.000000,0.000000,0.000000,0.000000,0.195141,3,0
640000,0.001490,16.285318,-0.042863,0.007351,25.215254,0.032809,0.000107,0.006282,1.572046,-0.017061,-0.000105,0.000586,0.000008,-0.001282,-0.000002,0.009706,-0.001536,0.241289,0.042556,0.179708,0.179707,0.170466,0.819328,0.000000,0.000000,0.000000,0.000000,0.000000,0.000000,0.000000,0.000000,0.000000,0.000000,0.000000,0.000000,0.234067,3,0
650000,0.001519,16.544691,-0.042741,0.007487,25.227552,0.033239,0.000108,0.006710,1.572072,-0.018134,-0.000112,0.000620,0.000009,-0.001390,-0.000002,0.009347,-0.001566,0.240334,-0.007615,0.180257,0.180256,0.170591,0.811674,0.000000,0.000000,0.000000,0.000000,0.000000,0.000000,0.000000,0.000000,0.000000,0.000000,0.000000,0.000000,0.233119,3,0
660000,0.001547,16.803577,-0.043265,0.007517,25.238832,0.032352,0.000111,0.007106,1.572087,-0.019133,-0.000118,0.000762,0.000010,-0.001493,-0.000002,0.007929,-0.001595,0.219385,-0.030300,0.180822,0.180821,0.170729,0.803960,0.000000,0.000000,0.000000,0.000000,0.000000,0.000000,0.000000,0.000000,0.000000,0.000000,0.000000,0.000000,0.212780,3,0
670000,0.001574,17.064386,-0.043517,0.007518,25.253355,0.032128,0.000116,0.007615,1.572113,-0.020423,-0.000125,0.000859,0.000010,-0.001628,-0.000002,0.012600,-0.001623,0.278448,-0.020528,0.181402,0.181400,0.170877,0.796194,0.000000,0.000000,0.000000,0.000000,0.000000,0.000000,0.000000,0.000000,0.000000,0.000000,0.000000,0.000000,0.270034,3,0
680000,0.001601,17.321674,-0.043620,0.007645,25.261793,0.032188,0.000123,0.007922,1.572137,-0.021162,-0.000133,0.000932,0.000011,-0.001706,-0.000002,0.004003,-0.001651,0.156645,-0.015166,0.181992,0.181990,0.171033,0.788385,0.000000,0.000000,0.000000,0.000000,0.000000,0.000000,0.000000,0.000000,0.000000,0.000000,0.000000,0.000000,0.151902,3,0
690000,0.001629,17.580305,-0.042320,0.007777,25.272364,0.034283,0.000129,0.008303,1.572159,-0.022109,-0.000140,0.000763,0.000012,-0.001809,-0.000002,0.006488,-0.001680,0.197456,0.033985,0.182591,0.182589,0.171194,0.780540,0.000000,0.000000,0.000000,0.000000,0.000000,0.000000,0.000000,0.000000,0.000000,0.000000,0.000000,0.000000,0.191453,3,0
700000,0.001656,17.841478,-0.040866,0.007875,25.287195,0.036366,0.000126,0.008857,1.572185,-0.023457,-0.000148,0.000567,0.000013,-0.001958,-0.000003,0.012610,-0.001708,0.276663,0.038633,0.183196,0.183194,0.171357,0.772668,0.000000,0.000000,0.000000,0.000000,0.000000,0.000000,0.000000,0.000000,0.000000,0.000000,0.000000,0.000000,0.268220,3,0
710000,0.001683,18.100914,-0.041557,0.007947,25.298872,0.035492,0.000134,0.009294,1.572203,-0.024517,-0.000156,0.000757,0.000014,-0.002077,-0.000003,0.007632,-0.001736,0.214127,-0.037206,0.183805,0.183803,0.171522,0.764776,0.000000,0.000000,0.000000,0.000000,0.000000,0.000000,0.000000,0.000000,0.000000,0.000000,0.000000,0.000000,0.207574,3,0
720000,0.001709,18.357399,-0.041154,0.007908,25.305367,0.036059,0.000138,0.009533,1.572221,-0.025088,-0.000164,0.000749,0.000015,-0.002142,-0.000003,0.002086,-0.001763,0.113605,0.001439,0.184416,0.184414,0.171686,0.756871,0.000000,0.000000,0.000000,0.000000,0.000000,0.000000,0.000000,0.000000,0.000000,0.000000,0.000000,0.000000,0.110126,3,0
730000,0.001735,18.617695,-0.040847,0.008020,25.318354,0.036638,0.000142,0.010040,1.572233,-0.026285,-0.000173,0.000760,0.000016,-0.002281,-0.000003,0.008903,-0.001790,0.234756,-0.002176,0.185027,0.185025,0.171847,0.748961,0.000000,0.000000,0.000000,0.000000,0.000000,0.000000,0.000000,0.000000,0.000000,0.000000,0.000000,0.000000,0.227525,3,0
740000,0.001760,18.876240,-0.041232,0.007995,25.328226,0.036188,0.000146,0.010430,1.572247,-0.027181,-0.000182,0.000903,0.000017,-0.002387,-0.000003,0.004955,-0.001816,0.173119,-0.026529,0.185637,0.185635,0.172003,0.741053,0.000000,0.000000,0.000000,0.000000,0.000000,0.000000,0.000000,0.000000,0.000000,0.000000,0.000000,0.000000,0.167772,3,0
750000,0.001784,19.133043,-0.041148,0.007978,25.335007,0.036465,0.000142,0.010694,1.572260,-0.027774,-0.000191,0.000957,0.000018,-0.002458,-0.000003,0.002088,-0.001841,0.113262,-0.009989,0.186243,0.186241,0.172155,0.733154,0.000000,0.000000,0.000000,0.000000,0.000000,0.000000,0.000000,0.000000,0.000000,0.000000,0.000000,0.000000,0.109761,3,0
760000,0.001808,19.391212,-0.040393,0.008109,25.344000,0.037607,0.000132,0.011061,1.572279,-0.028595,-0.000200,0.000882,0.000019,-0.002559,-0.000003,0.003888,-0.001866,0.154577,0.013343,0.186844,0.186842,0.172299,0.725270,0.000000,0.000000,0.000000,0.000000,0.000000,0.000000,0.000000,0.000000,0.000000,0.000000,0.000000,0.000000,0.149774,3,0
770000,0.001831,19.650734,-0.040662,0.008181,25.355307,0.037077,0.000136,0.011520,1.572298,-0.029641,-0.000210,0.001009,0.000020,-0.002689,-0.000004,0.006192,-0.001890,0.194500,-0.022711,0.187439,0.187437,0.172435,0.717408,0.000000,0.000000,0.000000,0.000000,0.000000,0.000000,0.000000,0.000000,0.000000,0.000000,0.000000,0.000000,0.188434,3,0
780000,0.001854,19.907860,-0.039732,0.008181,25.362257,0.038500,0.000134,0.011815,1.572325,-0.030260,-0.000220,0.000898,0.000022,-0.002767,-0.000004,0.002150,-0.001914,0.113773,0.019208,0.188027,0.188025,0.172563,0.709575,0.000000,0.000000,0.000000,0.000000,0.000000,0.000000,0.000000,0.000000,0.000000,0.000000,0.000000,0.000000,0.110224,3,0
790000,0.001876,20.166981,-0.038404,0.008202,25.372702,0.040579,0.000134,0.012251,1.572348,-0.031220,-0.000230,0.000707,0.000023,-0.002891,-0.000004,0.005094,-0.001937,0.174639,0.032432,0.188607,0.188605,0.172680,0.701775,0.000000,0.000000,0.000000,0.000000,0.000000,0.000000,0.000000,0.000000,0.000000,0.000000,0.000000,0.000000,0.169160,3,0
800000,0.001898,20.427450,-0.038615,0.008209,25.385332,0.040349,0.000141,0.012786,1.572362,-0.032409,-0.000240,0.000835,0.000024,-0.003046,-0.000004,0.007442,-0.001960,0.213600,-0.021742,0.189177,0.189175,0.172787,0.694017,0.000000,0.000000,0.000000,0.000000,0.000000,0.000000,0.000000,0.000000,0.000000,0.000000,0.000000,0.000000,0.206874,3,0
810000,0.001919,20.685484,-0.039732,0.008207,25.393539,0.038809,0.000138,0.013132,1.572379,-0.033151,-0.000251,0.001152,0.000026,-0.003145,-0.000004,0.003265,-0.001981,0.131912,-0.053081,0.189737,0.189735,0.172882,0.686303,0.000000,0.000000,0.000000,0.000000,0.000000,0.000000,0.000000,0.000000,0.000000,0.000000,0.000000,0.000000,0.127755,3,0
820000,0.001937,20.946775,-0.038412,0.008130,25.407497,0.040825,0.000136,0.013729,1.572399,-0.034466,-0.000261,0.000956,0.000027,-0.003322,-0.000004,0.008824,-0.002001,0.231615,0.031988,0.190286,0.190284,0.172964,0.678641,0.000000,0.000000,0.000000,0.000000,0.000000,0.000000,0.000000,0.000000,0.000000,0.000000,0.000000,0.000000,0.224278,3,0
830000,0.001955,21.208765,-0.037472,0.008096,25.422529,0.042180,0.000130,0.014380,1.572416,-0.035891,-0.000272,0.000842,0.000029,-0.003518,-0.000005,0.010018,-0.002020,0.248489,0.018161,0.190824,0.190822,0.173035,0.671034,0.000000,0.000000,0.000000,0.000000,0.000000,0.000000,0.000000,0.000000,0.000000,0.000000,0.000000,0.000000,0.240593,3,0
840000,0.001972,21.466370,-0.037213,0.008096,25.429474,0.042336,0.000134,0.014681,1.572434,-0.036503,-0.000283,0.000877,0.000030,-0.003603,-0.000005,0.001806,-0.002037,0.105623,-0.005831,0.191350,0.191348,0.173092,0.663488,0.000000,0.000000,0.000000,0.000000,0.000000,0.000000,0.000000,0.000000,0.000000,0.000000,0.000000,0.000000,0.102274,3,0
850000,0.001990,21.725985,-0.037076,0.008199,25.439995,0.042267,0.000123,0.015152,1.572452,-0.037473,-0.000295,0.000939,0.000032,-0.003741,-0.000005,0.004464,-0.002056,0.166012,-0.010141,0.191863,0.191861,0.173135,0.656007,0.000000,0.000000,0.000000,0.000000,0.000000,0.000000,0.000000,0.000000,0.000000,0.000000,0.000000,0.000000,0.160716,3,0
860000,0.002007,21.986952,-0.037187,0.008227,25.452776,0.042003,0.000126,0.015720,1.572480,-0.038677,-0.000306,0.001057,0.000034,-0.003914,-0.000005,0.006803,-0.002073,0.204473,-0.018772,0.192363,0.192361,0.173165,0.648596,0.000000,0.000000,0.000000,0.000000,0.000000,0.000000,0.000000,0.000000,0.000000,0.000000,0.000000,0.000000,0.197928,3,0
870000,0.002023,22.248617,-0.036584,0.008153,25.466557,0.042864,0.000126,0.016337,1.572491,-0.039994,-0.000318,0.001016,0.000035,-0.004107,-0.000005,0.007934,-0.002090,0.221685,0.006039,0.192850,0.192848,0.173181,0.641257,0.000000,0.000000,0.000000,0.000000,0.000000,0.000000,0.000000,0.000000,0.000000,0.000000,0.000000,0.000000,0.214569,3,0
880000,0.002037,22.508410,-0.036652,0.008134,25.476999,0.042781,0.000132,0.016808,1.572510,-0.040943,-0.000329,0.001128,0.000037,-0.004248,-0.000006,0.004111,-0.002105,0.158667,-0.017482,0.193324,0.193322,0.173183,0.633995,0.000000,0.000000,0.000000,0.000000,0.000000,0.000000,0.000000,0.000000,0.000000,0.000000,0.000000,0.000000,0.153568,3,0
890000,0.002052,22.770840,-0.036256,0.008167,25.491978,0.043370,0.000121,0.017507,1.572532,-0.042370,-0.000341,0.001135,0.000039,-0.004464,-0.000006,0.009038,-0.002120,0.236712,-0.001453,0.193785,0.193782,0.173170,0.626814,0.000000,0.000000,0.000000,0.000000,0.000000,0.000000,0.000000,0.000000,0.000000,0.000000,0.000000,0.000000,0.229076,3,0
900000,0.002065,23.032015,-0.035424,0.008167,25.504517,0.044579,0.000125,0.018091,1.572546,-0.043541,-0.000353,0.001042,0.000041,-0.004643,-0.000006,0.006025,-0.002135,0.192801,0.013522,0.194231,0.194229,0.173144,0.619716,0.000000,0.000000,0.000000,0.000000,0.000000,0.000000,0.000000,0.000000,0.000000,0.000000,0.000000,0.000000,0.186571,3,0
910000,0.002079,23.290657,-0.036033,0.008180,25.512342,0.043766,0.000120,0.018441,1.572566,-0.044216,-0.000366,0.001290,0.000043,-0.004748,-0.000006,0.002187,-0.002149,0.110411,-0.036869,0.194665,0.194662,0.173103,0.612704,0.000000,0.000000,0.000000,0.000000,0.000000,0.000000,0.000000,0.000000,0.000000,0.000000,0.000000,0.000000,0.106849,3,0
920000,0.002091,23.551964,-0.035232,0.008132,25.524853,0.044907,0.000120,0.019039,1.572591,-0.045382,-0.000378,0.001203,0.000045,-0.004933,-0.000006,0.005824,-0.002162,0.189629,0.012307,0.195085,0.195082,0.173048,0.605782,0.000000,0.000000,0.000000,0.000000,0.000000,0.000000,0.000000,0.000000,0.000000,0.000000,0.000000,0.000000,0.183474,3,0
930000,0.002103,23.813311,-0.035915,0.008118,25.537317,0.043664,0.000125,0.019628,1.572618,-0.046538,-0.000391,0.001472,0.000047,-0.005119,-0.000007,0.005868,-0.002174,0.186621,-0.039466,0.195491,0.195489,0.172979,0.598951,0.000000,0.000000,0.000000,0.000000,0.000000,0.000000,0.000000,0.000000,0.000000,0.000000,0.000000,0.000000,0.180552,3,0
940000,0.002114,24.075342,-0.036077,0.008108,25.550680,0.043448,0.000120,0.020284,1.572634,-0.047805,-0.000404,0.001616,0.000049,-0.005325,-0.000007,0.006746,-0.002185,0.203455,-0.021071,0.195885,0.195882,0.172896,0.592214,0.000000,0.000000,0.000000,0.000000,0.000000,0.000000,0.000000,0.000000,0.000000,0.000000,0.000000,0.000000,0.196825,3,0
950000,0.002124,24.333498,-0.037009,0.008037,25.557108,0.041892,0.000110,0.020589,1.572660,-0.048309,-0.000417,0.001950,0.000051,-0.005409,-0.000007,0.001411,-0.002196,0.080441,-0.047619,0.196265,0.196262,0.172799,0.585572,0.000000,0.000000,0.000000,0.000000,0.000000,0.000000,0.000000,0.000000,0.000000,0.000000,0.000000,0.000000,0.077839,3,0
960000,0.002134,24.592382,-0.036661,0.008092,25.564798,0.042130,0.000101,0.020943,1.572682,-0.048942,-0.000430,0.001966,0.000053,-0.005515,-0.000007,0.001631,-0.002206,0.100525,-0.002617,0.196632,0.196630,0.172689,0.579028,0.000000,0.000000,0.000000,0.000000,0.000000,0.000000,0.000000,0.000000,0.000000,0.000000,0.000000,0.000000,0.097254,3,0
970000,0.002145,24.851332,-0.037539,0.008166,25.572483,0.040843,0.000098,0.021310,1.572700,-0.049575,-0.000444,0.002290,0.000056,-0.005623,-0.000007,0.001946,-0.002217,0.099991,-0.045420,0.196987,0.196985,0.172566,0.572584,0.000000,0.000000,0.000000,0.000000,0.000000,0.000000,0.000000,0.000000,0.000000,0.000000,0.000000,0.000000,0.096732,3,0
980000,0.002154,25.113611,-0.038514,0.008087,25.585911,0.039263,0.000090,0.021977,1.572721,-0.050838,-0.000457,0.002636,0.000058,-0.005842,-0.000008,0.006749,-0.002227,0.198788,-0.048336,0.197330,0.197327,0.172429,0.566239,0.000000,0.000000,0.000000,0.000000,0.000000,0.000000,0.000000,0.000000,0.000000,0.000000,0.000000,0.000000,0.192263,3,0
990000,0.002161,25.377218,-0.038219,0.007999,25.601624,0.039516,0.000082,0.022777,1.572739,-0.052334,-0.000470,0.002657,0.000060,-0.006106,-0.000008,0.008870,-0.002235,0.234554,-0.003588,0.197661,0.197658,0.172280,0.559997,0.000000,0.000000,0.000000,0.000000,0.000000,0.000000,0.000000,0.000000,0.000000,0.000000,0.000000,0.000000,0.226838,3,0
1000000,0.002169,25.638195,-0.039299,0.007984,25.612370,0.038015,0.000086,0.023324,1.572753,-0.053293,-0.000483,0.003035,0.000063,-0.006277,-0.000008,0.004045,-0.002243,0.149700,-0.051676,0.197980,0.197977,0.172119,0.553857,0.000000,0.000000,0.000000,0.000000,0.000000,0.000000,0.000000,0.000000,0.000000,0.000000,0.000000,0.000000,0.144776,3,0
1010000,0.002175,25.897886,-0.040278,0.007889,25.620834,0.036655,0.000083,0.023739,1.572773,-0.053984,-0.000497,0.003386,0.000065,-0.006402,-0.000008,0.002223,-0.002249,0.107283,-0.047614,0.198288,0.198285,0.171945,0.547820,0.000000,0.000000,0.000000,0.000000,0.000000,0.000000,0.000000,0.000000,0.000000,0.000000,0.000000,0.000000,0.103760,3,0
1020000,0.002181,26.157623,-0.040508,0.007924,25.629271,0.036368,0.000081,0.024160,1.572799,-0.054668,-0.000511,0.003541,0.000068,-0.006528,-0.000008,0.001881,-0.002256,0.105930,-0.021053,0.198585,0.198582,0.171760,0.541888,0.000000,0.000000,0.000000,0.000000,0.000000,0.000000,0.000000,0.000000,0.000000,0.000000,0.000000,0.000000,0.102448,3,0
1030000,0.002187,26.421356,-0.041001,0.007880,25.644598,0.035630,0.000079,0.024977,1.572822,-0.056116,-0.000525,0.003763,0.000070,-0.006799,-0.000009,0.008220,-0.002261,0.223810,-0.030188,0.198872,0.198869,0.171563,0.536061,0.000000,0.000000,0.000000,0.000000,0.000000,0.000000,0.000000,0.000000,0.000000,0.000000,0.000000,0.000000,0.216404,3,0
1040000,0.002192,26.683754,-0.040510,0.007965,25.657385,0.036221,0.000074,0.025657,1.572834,-0.057274,-0.000538,0.003724,0.000073,-0.007019,-0.000009,0.005144,-0.002267,0.178591,0.004583,0.199148,0.199145,0.171356,0.530338,0.000000,0.000000,0.000000,0.000000,0.000000,0.000000,0.000000,0.000000,0.000000,0.000000,0.000000,0.000000,0.172677,3,0
1050000,0.002198,26.943508,-0.040941,0.008022,25.665318,0.035778,0.000073,0.026048,1.572861,-0.057893,-0.000552,0.003936,0.000076,-0.007139,-0.000009,0.001582,-0.002274,0.094975,-0.028084,0.199416,0.199412,0.171138,0.524721,0.000000,0.000000,0.000000,0.000000,0.000000,0.000000,0.000000,0.000000,0.000000,0.000000,0.000000,0.000000,0.091844,3,0
1060000,0.002204,27.206608,-0.040298,0.007989,25.679049,0.036753,0.000066,0.026784,1.572885,-0.059150,-0.000566,0.003855,0.000078,-0.007385,-0.000009,0.006016,-0.002280,0.192963,0.009796,0.199674,0.199671,0.170910,0.519209,0.000000,0.000000,0.000000,0.000000,0.000000,0.000000,0.000000,0.000000,0.000000,0.000000,0.000000,0.000000,0.186554,3,0
1070000,0.002208,27.469694,-0.040195,0.007948,25.692644,0.036766,0.000061,0.027527,1.572911,-0.060380,-0.000580,0.003922,0.000081,-0.007629,-0.000010,0.005719,-0.002285,0.188148,-0.009403,0.199924,0.199920,0.170672,0.513803,0.000000,0.000000,0.000000,0.000000,0.000000,0.000000,0.000000,0.000000,0.000000,0.000000,0.000000,0.000000,0.181892,3,0
1080000,0.002212,27.733427,-0.040664,0.007867,25.707134,0.036009,0.000059,0.028316,1.572939,-0.061711,-0.000594,0.004148,0.000084,-0.007897,-0.000010,0.006797,-0.002288,0.203230,-0.029593,0.200165,0.200162,0.170424,0.508501,0.000000,0.000000,0.000000,0.000000,0.000000,0.000000,0.000000,0.000000,0.000000,0.000000,0.000000,0.000000,0.196462,3,0
1090000,0.002216,27.993813,-0.039534,0.007938,25.715656,0.037541,0.000048,0.028750,1.572968,-0.062355,-0.000608,0.003932,0.000087,-0.008029,-0.000010,0.001678,-0.002293,0.098383,0.026959,0.200399,0.200395,0.170168,0.503305,0.000000,0.000000,0.000000,0.000000,0.000000,0.000000,0.000000,0.000000,0.000000,0.000000,0.000000,0.000000,0.095122,3,0
1100000,0.002221,28.257542,-0.040352,0.008004,25.730005,0.036543,0.000047,0.029544,1.572985,-0.063643,-0.000622,0.004262,0.000090,-0.008296,-0.000011,0.006463,-0.002298,0.195730,-0.042330,0.200625,0.200621,0.169903,0.498213,0.000000,0.000000,0.000000,0.000000,0.000000,0.000000,0.000000,0.000000,0.000000,0.000000,0.000000,0.000000,0.189199,3,0
1110000,0.002226,28.517246,-0.040317,0.008066,25.736984,0.036718,0.000041,0.029881,1.573007,-0.064110,-0.000637,0.004355,0.000093,-0.008395,-0.000011,0.000836,-0.002303,0.071011,-0.011896,0.200845,0.200841,0.169630,0.493225,0.000000,0.000000,0.000000,0.000000,0.000000,0.000000,0.000000,0.000000,0.000000,0.000000,0.000000,0.000000,0.068670,3,0
1120000,0.002231,28.777645,-0.039743,0.008059,25.745230,0.037278,0.000042,0.030300,1.573023,-0.064699,-0.000651,0.004293,0.000096,-0.008520,-0.000011,0.001301,-0.002308,0.089540,0.007257,0.201058,0.201054,0.169350,0.488340,0.000000,0.000000,0.000000,0.000000,0.000000,0.000000,0.000000,0.000000,0.000000,0.000000,0.000000,0.000000,0.086569,3,0
1130000,0.002236,29.037395,-0.038644,0.008123,25.752275,0.038566,0.000034,0.030638,1.573049,-0.065143,-0.000666,0.004081,0.000099,-0.008617,-0.000011,0.000844,-0.002313,0.067606,0.025686,0.201265,0.201261,0.169062,0.483559,0.000000,0.000000,0.000000,0.000000,0.000000,0.000000,0.000000,0.000000,0.000000,0.000000,0.000000,0.000000,0.065376,3,0
1140000,0.002240,29.300508,-0.038382,0.008117,25.765125,0.038824,0.000024,0.031355,1.573073,-0.066235,-0.000680,0.004111,0.000103,-0.008857,-0.000011,0.004422,-0.002318,0.165606,-0.004523,0.201467,0.201463,0.168767,0.478879,0.000000,0.000000,0.000000,0.000000,0.000000,0.000000,0.000000,0.000000,0.000000,0.000000,0.000000,0.000000,0.160061,3,0
1150000,0.002245,29.564262,-0.037045,0.008133,25.778944,0.040510,0.000027,0.032131,1.573103,-0.067425,-0.000694,0.003825,0.000106,-0.009123,-0.000012,0.005442,-0.002323,0.180668,0.033720,0.201664,0.201659,0.168465,0.474300,0.000000,0.000000,0.000000,0.000000,0.000000,0.000000,0.000000,0.000000,0.000000,0.000000,0.000000,0.000000,0.174611,3,0
1160000,0.002249,29.823298,-0.037804,0.008124,25.784330,0.039247,0.000014,0.032364,1.573120,-0.067665,-0.000709,0.004169,0.000109,-0.009177,-0.000012,0.000491,-0.002327,0.036047,-0.041608,0.201856,0.201851,0.168157,0.469822,0.000000,0.000000,0.000000,0.000000,0.000000,0.000000,0.000000,0.000000,0.000000,0.000000,0.000000,0.000000,0.034906,3,0
1170000,0.002254,30.083704,-0.038088,0.008119,25.792004,0.038715,0.000008,0.032745,1.573133,-0.068162,-0.000724,0.004369,0.000113,-0.009292,-0.000012,0.001006,-0.002332,0.075142,-0.024292,0.202044,0.202038,0.167844,0.465443,0.000000,0.000000,0.000000,0.000000,0.000000,0.000000,0.000000,0.000000,0.000000,0.000000,0.000000,0.000000,0.072646,3,0
1180000,0.002256,30.345459,-0.036877,0.008011,25.801895,0.040344,-0.000007,0.033279,1.573153,-0.068905,-0.000739,0.004116,0.000116,-0.009465,-0.000012,0.002192,-0.002335,0.112843,0.029387,0.202227,0.202222,0.167525,0.461161,0.000000,0.000000,0.000000,0.000000,0.000000,0.000000,0.000000,0.000000,0.000000,0.000000,0.000000,0.000000,0.109063,3,0
1190000,0.002258,30.605862,-0.036127,0.007931,25.809361,0.041346,-0.000008,0.033654,1.573168,-0.069363,-0.000753,0.004008,0.000120,-0.009573,-0.000012,0.000807,-0.002337,0.069656,0.012301,0.202408,0.202402,0.167201,0.456977,0.000000,0.000000,0.000000,0.000000,0.000000,0.000000,0.000000,0.000000,0.000000,0.000000,0.000000,0.000000,0.067344,3,0
1200000,0.002259,30.864929,-0.035678,0.007830,25.814411,0.041877,-0.000012,0.033859,1.573187,-0.069547,-0.000769,0.003997,0.000123,-0.009618,-0.000012,0.000126,-0.002338,0.027847,0.001108,0.202585,0.202579,0.166873,0.452889,0.000000,0.000000,0.000000,0.000000,0.000000,0.000000,0.000000,0.000000,0.000000,0.000000,0.000000,0.000000,0.027002,3,0
1210000,0.002260,31.123354,-0.036637,0.007889,25.818148,0.040626,-0.000017,0.033996,1.573197,-0.069597,-0.000784,0.004425,0.000127,-0.009630,-0.000012,0.000412,-0.002339,0.007278,-0.049831,0.202760,0.202754,0.166540,0.448896,0.000000,0.000000,0.000000,0.000000,0.000000,0.000000,0.000000,0.000000,0.000000,0.000000,0.000000,0.000000,0.007385,3,0
1220000,0.002260,31.383158,-0.036305,0.007769,25.824274,0.040829,-0.000028,0.034297,1.573208,-0.069906,-0.000799,0.004446,0.000131,-0.009706,-0.000012,0.000358,-0.002339,0.046997,-0.002757,0.202932,0.202926,0.166204,0.444996,0.000000,0.000000,0.000000,0.000000,0.000000,0.000000,0.000000,0.000000,0.000000,0.000000,0.000000,0.000000,0.045464,3,0
1230000,0.002260,31.646343,-0.037062,0.007689,25.836382,0.039646,-0.000031,0.035001,1.573234,-0.070861,-0.000813,0.004803,0.000134,-0.009946,-0.000013,0.003672,-0.002339,0.144953,-0.042140,0.203103,0.203096,0.165864,0.441189,0.000000,0.000000,0.000000,0.000000,0.000000,0.000000,0.000000,0.000000,0.000000,0.000000,0.000000,0.000000,0.140063,3,0
1240000,0.002260,31.908815,-0.037813,0.007728,25.847055,0.038408,-0.000033,0.035607,1.573259,-0.071652,-0.000828,0.005159,0.000138,-0.010147,-0.000013,0.002606,-0.002339,0.120192,-0.041530,0.203271,0.203264,0.165520,0.437472,0.000000,0.000000,0.000000,0.000000,0.000000,0.000000,0.000000,0.000000,0.000000,0.000000,0.000000,0.000000,0.116139,3,0
1250000,0.002260,32.169907,-0.038038,0.007792,25.855114,0.038244,-0.000037,0.036036,1.573274,-0.072153,-0.000843,0.005350,0.000142,-0.010276,-0.000013,0.001018,-0.002339,0.076283,-0.022251,0.203438,0.203431,0.165174,0.433845,0.000000,0.000000,0.000000,0.000000,0.000000,0.000000,0.000000,0.000000,0.000000,0.000000,0.000000,0.000000,0.073731,3,0
1260000,0.002260,32.430317,-0.039063,0.007759,25.861900,0.036838,-0.000045,0.036369,1.573290,-0.072507,-0.000858,0.005800,0.000146,-0.010369,-0.000013,0.000891,-0.002339,0.053658,-0.051330,0.203605,0.203597,0.164825,0.430307,0.000000,0.000000,0.000000,0.000000,0.000000,0.000000,0.000000,0.000000,0.000000,0.000000,0.000000,0.000000,0.051883,3,0
1270000,0.002260,32.691402,-0.040217,0.007809,25.869894,0.035440,-0.000049,0.036792,1.573304,-0.072977,-0.000872,0.006290,0.000149,-0.010494,-0.000013,0.001325,-0.002339,0.071480,-0.055646,0.203770,0.203762,0.164474,0.426856,0.000000,0.000000,0.000000,0.000000,0.000000,0.000000,0.000000,0.000000,0.000000,0.000000,0.000000,0.000000,0.069087,3,0
1280000,0.002259,32.951797,-0.039200,0.007685,25.876631,0.036831,-0.000051,0.037110,1.573314,-0.073293,-0.000887,0.006071,0.000154,-0.010580,-0.000013,0.000479,-0.002339,0.048862,0.024094,0.203935,0.203927,0.164121,0.423491,0.000000,0.000000,0.000000,0.000000,0.000000,0.000000,0.000000,0.000000,0.000000,0.000000,0.000000,0.000000,0.047257,3,0
1290000,0.002256,33.212193,-0.037869,0.007553,25.883171,0.038572,-0.000062,0.037430,1.573339,-0.073595,-0.000902,0.005752,0.000158,-0.010662,-0.000014,0.000554,-0.002336,0.046825,0.035141,0.204100,0.204091,0.163766,0.420209,0.000000,0.000000,0.000000,0.000000,0.000000,0.000000,0.000000,0.000000,0.000000,0.000000,0.000000,0.000000,0.045291,3,0
1300000,0.002253,33.472588,-0.038081,0.007505,25.889580,0.038166,-0.000063,0.037736,1.573354,-0.073886,-0.000917,0.005947,0.000162,-0.010743,-0.000014,0.000402,-0.002333,0.044792,-0.021980,0.204265,0.204255,0.163410,0.417011,0.000000,0.000000,0.000000,0.000000,0.000000,0.000000,0.000000,0.000000,0.000000,0.000000,0.000000,0.000000,0.043325,3,0
1310000,0.002250,33.734333,-0.037766,0.007464,25.898413,0.038663,-0.000073,0.038226,1.573364,-0.074419,-0.000931,0.005964,0.000166,-0.010893,-0.000014,0.001098,-0.002329,0.082516,-0.002521,0.204430,0.204420,0.163053,0.413893,0.000000,0.000000,0.000000,0.000000,0.000000,0.000000,0.000000,0.000000,0.000000,0.000000,0.000000,0.000000,0.079736,3,0
1320000,0.002245,33.996052,-0.037136,0.007326,25.907108,0.039258,-0.000090,0.038707,1.573383,-0.074928,-0.000945,0.005875,0.000170,-0.011038,-0.000014,0.001022,-0.002325,0.079109,0.009028,0.204596,0.204585,0.162695,0.410856,0.000000,0.000000,0.000000,0.000000,0.000000,0.000000,0.000000,0.000000,0.000000,0.000000,0.000000,0.000000,0.076445,3,0
1330000,0.002240,34.254356,-0.038119,0.007214,25.909496,0.038157,-0.000104,0.038722,1.573408,-0.074780,-0.000960,0.006347,0.000174,-0.010996,-0.000014,0.000515,-0.002319,-0.023666,-0.051122,0.204762,0.204751,0.162337,0.407897,0.000000,0.000000,0.000000,0.000000,0.000000,0.000000,0.000000,0.000000,0.000000,0.000000,0.000000,0.000000,0.022971,3,0
1340000,0.002235,34.515404,-0.039233,0.007190,25.916767,0.036608,-0.000102,0.039096,1.573434,-0.075142,-0.000975,0.006854,0.000178,-0.011102,-0.000014,0.001002,-0.002314,0.055946,-0.055403,0.204929,0.204917,0.161978,0.405015,0.000000,0.000000,0.000000,0.000000,0.000000,0.000000,0.000000,0.000000,0.000000,0.000000,0.000000,0.000000,0.054078,3,0
1350000,0.002230,34.776428,-0.039012,0.007218,25.923857,0.036661,-0.000115,0.039459,1.573450,-0.075482,-0.000989,0.006900,0.000183,-0.011204,-0.000014,0.000462,-0.002309,0.053253,-0.005370,0.205097,0.205085,0.161620,0.402208,0.000000,0.000000,0.000000,0.000000,0.000000,0.000000,0.000000,0.000000,0.000000,0.000000,0.000000,0.000000,0.051482,3,0
1360000,0.002225,35.037437,-0.038775,0.007235,25.930847,0.036748,-0.000127,0.039819,1.573474,-0.075803,-0.001003,0.006940,0.000187,-0.011301,-0.000014,0.000416,-0.002304,0.050583,-0.004798,0.205266,0.205253,0.161261,0.399476,0.000000,0.000000,0.000000,0.000000,0.000000,0.000000,0.000000,0.000000,0.000000,0.000000,0.000000,0.000000,0.048902,3,0
1370000,0.002219,35.297752,-0.039760,0.007101,25.936565,0.035276,-0.000129,0.040067,1.573484,-0.075985,-0.001018,0.007411,0.000191,-0.011357,-0.000014,0.000540,-0.002297,0.028049,-0.050446,0.205436,0.205423,0.160903,0.396816,0.000000,0.000000,0.000000,0.000000,0.000000,0.000000,0.000000,0.000000,0.000000,0.000000,0.000000,0.000000,0.027175,3,0
1380000,0.002213,35.561462,-0.040489,0.007094,25.948294,0.034152,-0.000144,0.040799,1.573499,-0.076778,-0.001031,0.007778,0.000196,-0.011604,-0.000015,0.002797,-0.002291,0.125496,-0.040155,0.205608,0.205594,0.160545,0.394228,0.000000,0.000000,0.000000,0.000000,0.000000,0.000000,0.000000,0.000000,0.000000,0.000000,0.000000,0.000000,0.121213,3,0
1390000,0.002207,35.821014,-0.039405,0.007084,25.952385,0.035497,-0.000146,0.040927,1.573521,-0.076781,-0.001045,0.007516,0.000200,-0.011605,-0.000015,0.000125,-0.002286,0.000820,0.027644,0.205781,0.205766,0.160189,0.391709,0.000000,0.000000,0.000000,0.000000,0.000000,0.000000,0.000000,0.000000,0.000000,0.000000,0.000000,0.000000,0.002345,3,0
1400000,0.002201,36.083298,-0.040319,0.007002,25.961390,0.034399,-0.000164,0.041441,1.573540,-0.077279,-0.001059,0.007962,0.000204,-0.011765,-0.000015,0.001377,-0.002278,0.079170,-0.047585,0.205955,0.205940,0.159833,0.389258,0.000000,0.000000,0.000000,0.000000,0.000000,0.000000,0.000000,0.000000,0.000000,0.000000,0.000000,0.000000,0.076482,3,0
1410000,0.002194,36.345535,-0.039952,0.006966,25.970161,0.034947,-0.000174,0.041924,1.573560,-0.077747,-0.001073,0.007945,0.000209,-0.011917,-0.000015,0.000912,-0.002272,0.075222,0.000900,0.206131,0.206115,0.159478,0.386875,0.000000,0.000000,0.000000,0.000000,0.000000,0.000000,0.000000,0.000000,0.000000,0.000000,0.000000,0.000000,0.072673,3,0
1420000,0.002186,36.608418,-0.040207,0.006912,25.979961,0.034357,-0.000188,0.042511,1.573572,-0.078312,-0.001086,0.008152,0.000213,-0.012104,-0.000015,0.001422,-0.002264,0.091202,-0.022529,0.206309,0.206292,0.159125,0.384556,0.000000,0.000000,0.000000,0.000000,0.000000,0.000000,0.000000,0.000000,0.000000,0.000000,0.000000,0.000000,0.088089,3,0
1430000,0.002179,36.869869,-0.038748,0.006895,25.987125,0.035967,-0.000189,0.042872,1.573590,-0.078597,-0.001099,0.007738,0.000218,-0.012199,-0.000016,0.000644,-0.002257,0.046886,0.042212,0.206489,0.206471,0.158774,0.382303,0.000000,0.000000,0.000000,0.000000,0.000000,0.000000,0.000000,0.000000,0.000000,0.000000,0.000000,0.000000,0.045329,3,0
1440000,0.002172,37.131294,-0.039320,0.006911,25.994169,0.035038,-0.000197,0.043213,1.573612,-0.078868,-0.001113,0.008076,0.000222,-0.012291,-0.000016,0.000510,-0.002249,0.043789,-0.035202,0.206670,0.206652,0.158424,0.380111,0.000000,0.000000,0.000000,0.000000,0.000000,0.000000,0.000000,0.000000,0.000000,0.000000,0.000000,0.000000,0.042334,3,0
1450000,0.002165,37.393372,-0.039094,0.006842,26.002407,0.035256,-0.000206,0.043639,1.573627,-0.079237,-0.001126,0.008114,0.000227,-0.012418,-0.000016,0.000595,-0.002242,0.060596,-0.004623,0.206853,0.206834,0.158077,0.377982,0.000000,0.000000,0.000000,0.000000,0.000000,0.000000,0.000000,0.000000,0.000000,0.000000,0.000000,0.000000,0.058546,3,0
1460000,0.002157,37.651287,-0.039371,0.006781,26.002903,0.034965,-0.000208,0.043445,1.573643,-0.078861,-0.001140,0.008361,0.000232,-0.012287,-0.000016,0.000724,-0.002234,-0.062408,-0.024397,0.207038,0.207018,0.157731,0.375912,0.000000,0.000000,0.000000,0.000000,0.000000,0.000000,0.000000,0.000000,0.000000,0.000000,0.000000,0.000000,0.060296,3,0
1470000,0.002148,37.914024,-0.038464,0.006652,26.012035,0.036039,-0.000219,0.043974,1.573669,-0.079324,-0.001152,0.008140,0.000236,-0.012451,-0.000016,0.001036,-0.002225,0.077251,0.021407,0.207225,0.207204,0.157388,0.373899,0.000000,0.000000,0.000000,0.000000,0.000000,0.000000,0.000000,0.000000,0.000000,0.000000,0.000000,0.000000,0.074616,3,0
1480000,0.002140,38.176022,-0.039347,0.006679,26.019758,0.034723,-0.000234,0.044389,1.573694,-0.079645,-0.001165,0.008603,0.000241,-0.012567,-0.000016,0.000816,-0.002216,0.052971,-0.047353,0.207414,0.207392,0.157047,0.371944,0.000000,0.000000,0.000000,0.000000,0.000000,0.000000,0.000000,0.000000,0.000000,0.000000,0.000000,0.000000,0.051181,3,0
1490000,0.002132,38.434536,-0.039647,0.006684,26.021044,0.034517,-0.000255,0.044266,1.573719,-0.079350,-0.001179,0.008861,0.000246,-0.012460,-0.000016,0.000508,-0.002208,-0.050079,-0.025236,0.207604,0.207581,0.156708,0.370045,0.000000,0.000000,0.000000,0.000000,0.000000,0.000000,0.000000,0.000000,0.000000,0.000000,0.000000,0.000000,0.048398,3,0
1500000,0.002125,38.693748,-0.040568,0.006689,26.023647,0.033408,-0.000260,0.044233,1.573740,-0.079175,-0.001192,0.009354,0.000251,-0.012396,-0.000016,0.000536,-0.002200,-0.030296,-0.048868,0.207797,0.207773,0.156372,0.368200,0.000000,0.000000,0.000000,0.000000,0.000000,0.000000,0.000000,0.000000,0.000000,0.000000,0.000000,0.000000,0.029332,3,0
1510000,0.002116,38.952950,-0.040225,0.006614,26.026247,0.033728,-0.000273,0.044199,1.573763,-0.078993,-0.001206,0.009358,0.000255,-0.012327,-0.000016,0.000157,-0.002192,-0.031113,0.000059,0.207991,0.207966,0.156039,0.366408,0.000000,0.000000,0.000000,0.000000,0.000000,0.000000,0.000000,0.000000,0.000000,0.000000,0.000000,0.000000,0.030108,3,0
1520000,0.002107,39.212841,-0.040011,0.006498,26.030045,0.033922,-0.000276,0.044251,1.573786,-0.078924,-0.001218,0.009410,0.000260,-0.012301,-0.000016,0.000028,-0.002183,-0.012035,-0.004947,0.208187,0.208161,0.155709,0.364668,0.000000,0.000000,0.000000,0.000000,0.000000,0.000000,0.000000,0.000000,0.000000,0.000000,0.000000,0.000000,0.011809,3,0
1530000,0.002097,39.474785,-0.038971,0.006415,26.037449,0.035039,-0.000295,0.044618,1.573807,-0.079187,-0.001230,0.009127,0.000265,-0.012402,-0.000016,0.000463,-0.002172,0.046097,0.027189,0.208384,0.208357,0.155382,0.362978,0.000000,0.000000,0.000000,0.000000,0.000000,0.000000,0.000000,0.000000,0.000000,0.000000,0.000000,0.000000,0.044548,3,0
1540000,0.002087,39.733231,-0.039439,0.006422,26.038353,0.034620,-0.000302,0.044431,1.573833,-0.078864,-0.001244,0.009464,0.000270,-0.012276,-0.000016,0.000690,-0.002162,-0.056885,-0.032209,0.208583,0.208555,0.155058,0.361337,0.000000,0.000000,0.000000,0.000000,0.000000,0.000000,0.000000,0.000000,0.000000,0.000000,0.000000,0.000000,0.054952,3,0
1550000,0.002078,39.994453,-0.040258,0.006375,26.044256,0.033399,-0.000314,0.044694,1.573851,-0.078997,-0.001256,0.009922,0.000275,-0.012329,-0.000016,0.000413,-0.002153,0.022598,-0.045124,0.208783,0.208754,0.154737,0.359742,0.000000,0.000000,0.000000,0.000000,0.000000,0.000000,0.000000,0.000000,0.000000,0.000000,0.000000,0.000000,0.021904,3,0
1560000,0.002067,40.256317,-0.039674,0.006246,26.051279,0.033841,-0.000315,0.045031,1.573880,-0.079219,-0.001267,0.009814,0.000280,-0.012420,-0.000016,0.000269,-0.002142,0.039623,0.009890,0.208985,0.208955,0.154419,0.358195,0.000000,0.000000,0.000000,0.000000,0.000000,0.000000,0.000000,0.000000,0.000000,0.000000,0.000000,0.000000,0.038302,3,0
1570000,0.002057,40.514679,-0.040608,0.006226,26.051859,0.032813,-0.000334,0.044808,1.573902,-0.078870,-0.001280,0.010341,0.000285,-0.012276,-0.000016,0.001053,-0.002131,-0.063282,-0.050114,0.209188,0.209157,0.154105,0.356693,0.000000,0.000000,0.000000,0.000000,0.000000,0.000000,0.000000,0.000000,0.000000,0.000000,0.000000,0.000000,0.061119,3,0
1580000,0.002045,40.773735,-0.040352,0.006067,26.053720,0.033263,-0.000342,0.044688,1.573924,-0.078630,-0.001292,0.010383,0.000290,-0.012176,-0.000016,0.000305,-0.002119,-0.043346,-0.003305,0.209392,0.209360,0.153794,0.355236,0.000000,0.000000,0.000000,0.000000,0.000000,0.000000,0.000000,0.000000,0.000000,0.000000,0.000000,0.000000,0.041886,3,0
1590000,0.002034,41.032097,-0.041413,0.006080,26.054274,0.031943,-0.000361,0.044462,1.573949,-0.078284,-0.001305,0.010966,0.000295,-0.012030,-0.000015,0.001148,-0.002107,-0.063869,-0.054998,0.209598,0.209564,0.153486,0.353821,0.000000,0.000000,0.000000,0.000000,0.000000,0.000000,0.000000,0.000000,0.000000,0.000000,0.000000,0.000000,0.061683,3,0
1600000,0.002023,41.293934,-0.041692,0.006037,26.061108,0.031482,-0.000362,0.044794,1.573966,-0.078480,-0.001316,0.011203,0.000299,-0.012115,-0.000015,0.000293,-0.002096,0.035580,-0.023325,0.209804,0.209769,0.153182,0.352447,0.000000,0.000000,0.000000,0.000000,0.000000,0.000000,0.000000,0.000000,0.000000,0.000000,0.000000,0.000000,0.034392,3,0
1610000,0.002011,41.555706,-0.040320,0.006020,26.067673,0.033250,-0.000364,0.045101,1.573985,-0.078650,-0.001327,0.010762,0.000304,-0.012188,-0.000016,0.000446,-0.002085,0.032104,0.041506,0.210011,0.209975,0.152882,0.351113,0.000000,0.000000,0.000000,0.000000,0.000000,0.000000,0.000000,0.000000,0.000000,0.000000,0.000000,0.000000,0.031052,3,0
1620000,0.001999,41.818829,-0.040180,0.005922,26.076735,0.033312,-0.000372,0.045622,1.574007,-0.079016,-0.001337,0.010826,0.000309,-0.012352,-0.000016,0.000763,-0.002072,0.068447,-0.007212,0.210219,0.210182,0.152585,0.349819,0.000000,0.000000,0.000000,0.000000,0.000000,0.000000,0.000000,0.000000,0.000000,0.000000,0.000000,0.000000,0.066078,3,0
1630000,0.001987,42.076996,-0.039808,0.005914,26.076542,0.033773,-0.000383,0.045317,1.574025,-0.078617,-0.001349,0.010831,0.000314,-0.012171,-0.000016,0.000917,-0.002060,-0.075493,0.000845,0.210428,0.210389,0.152293,0.348564,0.000000,0.000000,0.000000,0.000000,0.000000,0.000000,0.000000,0.000000,0.000000,0.000000,0.000000,0.000000,0.072873,3,0
1640000,0.001975,42.336563,-0.039542,0.005821,26.078871,0.034088,-0.000395,0.045232,1.574047,-0.078431,-0.001360,0.010872,0.000319,-0.012086,-0.000015,0.000205,-0.002047,-0.035473,-0.003271,0.210637,0.210597,0.152004,0.347345,0.000000,0.000000,0.000000,0.000000,0.000000,0.000000,0.000000,0.000000,0.000000,0.000000,0.000000,0.000000,0.034286,3,0
1650000,0.001963,42.596115,-0.039854,0.005810,26.081108,0.033730,-0.000401,0.045148,1.574069,-0.078243,-0.001371,0.011159,0.000324,-0.011999,-0.000015,0.000329,-0.002035,-0.036636,-0.026255,0.210846,0.210805,0.151718,0.346161,0.000000,0.000000,0.000000,0.000000,0.000000,0.000000,0.000000,0.000000,0.000000,0.000000,0.000000,0.000000,0.035409,3,0
1660000,0.001952,42.858448,-0.040625,0.005745,26.088467,0.032581,-0.000411,0.045516,1.574087,-0.078461,-0.001381,0.011618,0.000329,-0.012103,-0.000016,0.000590,-0.002022,0.041729,-0.043643,0.211056,0.211014,0.151437,0.345012,0.000000,0.000000,0.000000,0.000000,0.000000,0.000000,0.000000,0.000000,0.000000,0.000000,0.000000,0.000000,0.040300,3,0
1670000,0.001938,43.117207,-0.040092,0.005614,26.089043,0.033045,-0.000418,0.045269,1.574103,-0.078148,-0.001392,0.011548,0.000334,-0.011952,-0.000015,0.000621,-0.002009,-0.061642,0.007601,0.211265,0.211222,0.151159,0.343897,0.000000,0.000000,0.000000,0.000000,0.000000,0.000000,0.000000,0.000000,0.000000,0.000000,0.000000,0.000000,0.059503,3,0
1680000,0.001925,43.375271,-0.041014,0.005541,26.088240,0.031836,-0.000431,0.044905,1.574123,-0.077741,-0.001404,0.012110,0.000339,-0.011754,-0.000015,0.001494,-0.001995,-0.081863,-0.050573,0.211475,0.211430,0.150886,0.342813,0.000000,0.000000,0.000000,0.000000,0.000000,0.000000,0.000000,0.000000,0.000000,0.000000,0.000000,0.000000,0.079014,3,0
1690000,0.001912,43.633327,-0.040984,0.005512,26.087433,0.032041,-0.000444,0.044553,1.574134,-0.077337,-0.001414,0.012261,0.000344,-0.011553,-0.000015,0.001094,-0.001982,-0.081493,-0.012419,0.211684,0.211638,0.150616,0.341761,0.000000,0.000000,0.000000,0.000000,0.000000,0.000000,0.000000,0.000000,0.000000,0.000000,0.000000,0.000000,0.078644,3,0
1700000,0.001899,43.892094,-0.041616,0.005455,26.087872,0.031514,-0.000464,0.044311,1.574162,-0.077040,-0.001425,0.012695,0.000349,-0.011404,-0.000015,0.000848,-0.001968,-0.061234,-0.038782,0.211892,0.211845,0.150351,0.340738,0.000000,0.000000,0.000000,0.000000,0.000000,0.000000,0.000000,0.000000,0.000000,0.000000,0.000000,0.000000,0.059113,3,0
1710000,0.001884,44.153660,-0.042073,0.005312,26.093599,0.030741,-0.000478,0.044542,1.574190,-0.077130,-0.001434,0.013026,0.000354,-0.011451,-0.000015,0.000206,-0.001953,0.017933,-0.030784,0.212100,0.212052,0.150089,0.339746,0.000000,0.000000,0.000000,0.000000,0.000000,0.000000,0.000000,0.000000,0.000000,0.000000,0.000000,0.000000,0.017394,3,0
1720000,0.001869,44.411636,-0.040698,0.005254,26.092493,0.032537,-0.000484,0.044149,1.574198,-0.076720,-0.001444,0.012588,0.000359,-0.011235,-0.000014,0.001436,-0.001938,-0.084660,0.041748,0.212308,0.212258,0.149831,0.338782,0.000000,0.000000,0.000000,0.000000,0.000000,0.000000,0.000000,0.000000,0.000000,0.000000,0.000000,0.000000,0.081675,3,0
