time_us,pos_x,pos_y,pos_z,vel_x,vel_y,vel_z,roll,pitch,yaw,bias_ax,bias_ay,bias_az,bias_gx,bias_gy,bias_gz,nis,innov_x,innov_y,innov_z,cov_pos_x,cov_pos_y,cov_pos_z,cov_yaw,des_speed,des_heading,des_climb,pid_speed,pid_yaw,pid_alt,speed_meas,yaw_meas,climb_meas,fwd_accel,yaw_rate,vert_accel,drift_m,nav_mode,mission_state
0,0.000003,0.149998,-0.000000,0.000432,24.999699,-0.000094,-0.000001,-0.000024,1.570799,0.000000,0.000000,0.000000,0.000000,0.000000,0.000000,0.006250,-0.000004,-0.249999,0.000001,2.400038,2.400038,3.600017,1.000518,0.000000,0.000000,0.000000,0.000000,0.000000,0.000000,0.000000,0.000000,0.000000,0.000000,0.000000,0.000000,0.149998,1,0
10000,0.000008,0.331144,0.003304,0.000911,24.999353,-0.000329,0.000005,-0.000037,1.570799,0.000001,-0.000000,-0.000000,0.000000,0.000000,0.000000,0.006920,-0.000012,-0.240965,0.008820,1.714420,1.714420,2.250079,1.001073,0.000000,0.000000,0.000000,0.000000,0.000000,0.000000,0.000000,0.000000,0.000000,0.000000,0.000000,0.000000,0.172112,3,0
20000,0.000017,0.562431,0.001486,0.001351,24.999228,-0.000648,-0.000002,-0.000057,1.570797,0.000001,-0.000000,0.000000,-0.000000,0.000000,0.000000,0.000924,-0.000022,-0.084165,-0.006640,1.333616,1.333616,1.636554,1.001655,0.000000,0.000000,0.000000,0.000000,0.000000,0.000000,0.000000,0.000000,0.000000,0.000000,0.000000,0.000000,0.065458,3,0
30000,0.000029,0.794818,0.000871,0.001814,24.998823,-0.000880,-0.000002,-0.000073,1.570809,0.000003,-0.000000,0.000000,0.000000,0.000000,0.000000,0.001278,-0.000035,-0.096782,-0.002832,1.091392,1.091392,1.286065,1.002257,0.000000,0.000000,0.000000,0.000000,0.000000,0.000000,0.000000,0.000000,0.000000,0.000000,0.000000,0.000000,0.079177,3,0
40000,0.000043,1.030854,0.005070,0.002230,24.998421,-0.001094,-0.000015,-0.000083,1.570814,0.000006,-0.000000,-0.000001,0.000000,0.000000,0.000000,0.001236,-0.000051,-0.090619,0.023854,0.923811,0.923811,1.059385,1.002869,0.000000,0.000000,0.000000,0.000000,0.000000,0.000000,0.000000,0.000000,0.000000,0.000000,0.000000,0.000000,0.076666,3,0
50000,0.000061,1.279693,0.001174,0.002718,24.998495,-0.001434,-0.000015,-0.000105,1.570822,0.000006,-0.000000,0.000000,0.000000,0.000000,0.000000,0.000105,-0.000070,-0.008589,-0.025864,0.801036,0.801036,0.900822,1.003484,0.000000,0.000000,0.000000,0.000000,0.000000,0.000000,0.000000,0.000000,0.000000,0.000000,0.000000,0.000000,0.007443,3,0
60000,0.000080,1.518080,0.000638,0.003013,24.997982,-0.001625,-0.000012,-0.000115,1.570833,0.000012,-0.000000,0.000001,0.000000,0.000000,0.000000,0.001426,-0.000091,-0.098397,-0.003985,0.707270,0.707270,0.783741,1.004094,0.000000,0.000000,0.000000,0.000000,0.000000,0.000000,0.000000,0.000000,0.000000,0.000000,0.000000,0.000000,0.086798,3,0
70000,0.000103,1.761887,0.004814,0.003467,24.997541,-0.001788,-0.000016,-0.000138,1.570831,0.000017,-0.000000,-0.000002,0.000000,0.000000,0.000000,0.000704,-0.000115,-0.058473,0.036290,0.633370,0.633370,0.693801,1.004688,0.000000,0.000000,0.000000,0.000000,0.000000,0.000000,0.000000,0.000000,0.000000,0.000000,0.000000,0.000000,0.052300,3,0
80000,0.000128,2.005769,0.006527,0.003906,24.996992,-0.001700,-0.000011,-0.000146,1.570838,0.000023,-0.000000,-0.000004,0.000000,0.000000,0.000000,0.000654,-0.000142,-0.063729,0.016687,0.573673,0.573673,0.622594,1.005260,0.000000,0.000000,0.000000,0.000000,0.000000,0.000000,0.000000,0.000000,0.000000,0.000000,0.000000,0.000000,0.057635,3,0
90000,0.000156,2.253177,0.009346,0.004275,24.996725,-0.001595,-0.000014,-0.000154,1.570838,0.000027,-0.000000,-0.000007,0.000000,0.000000,0.000000,0.000268,-0.000171,-0.029300,0.030133,0.524488,0.524488,0.564865,1.005801,0.000000,0.000000,0.000000,0.000000,0.000000,0.000000,0.000000,0.000000,0.000000,0.000000,0.000000,0.000000,0.026739,3,0
100000,0.000187,2.506476,0.012028,0.004744,24.997129,-0.001574,-0.000012,-0.000170,1.570848,0.000021,-0.000000,-0.000012,0.000000,0.000000,0.000000,0.000412,-0.000204,0.041357,0.031332,0.483303,0.483303,0.517162,1.006301,0.000000,0.000000,0.000000,0.000000,0.000000,0.000000,0.000000,0.000000,0.000000,0.000000,0.000000,0.000000,0.038026,3,0
110000,0.000221,2.758435,0.008152,0.005180,24.997381,-0.002200,-0.000013,-0.000188,1.570848,0.000016,-0.000000,-0.000003,0.000000,0.000000,0.000000,0.000470,-0.000239,0.026601,-0.048517,0.448353,0.448353,0.477121,1.006754,0.000000,0.000000,0.000000,0.000000,0.000000,0.000000,0.000000,0.000000,0.000000,0.000000,0.000000,0.000000,0.024614,3,0
120000,0.000258,3.012100,0.009618,0.005591,24.998001,-0.001998,-0.000020,-0.000204,1.570850,0.000004,-0.000000,-0.000008,0.000000,-0.000000,-0.000000,0.000497,-0.000277,0.052944,0.020150,0.418358,0.418358,0.443071,1.007150,0.000000,0.000000,0.000000,0.000000,0.000000,0.000000,0.000000,0.000000,0.000000,0.000000,0.000000,0.000000,0.049253,3,0
130000,0.000297,3.263254,0.013111,0.005949,24.998255,-0.001644,-0.000030,-0.000209,1.570848,-0.000001,-0.000000,-0.000020,0.000000,-0.000000,-0.000000,0.000453,-0.000317,0.017941,0.050965,0.392369,0.392369,0.413797,1.007481,0.000000,0.000000,0.000000,0.000000,0.000000,0.000000,0.000000,0.000000,0.000000,0.000000,0.000000,0.000000,0.016770,3,0
140000,0.000338,3.512341,0.011798,0.006405,24.998152,-0.002227,-0.000044,-0.000227,1.570853,0.000004,-0.000000,-0.000015,0.000000,-0.000000,-0.000000,0.000095,-0.000361,-0.014548,-0.019968,0.369666,0.369666,0.388393,1.007739,0.000000,0.000000,0.000000,0.000000,0.000000,0.000000,0.000000,0.000000,0.000000,0.000000,0.000000,0.000000,0.013656,3,0
150000,0.000382,3.763179,0.014024,0.006762,24.998461,-0.001929,-0.000052,-0.000234,1.570847,-0.000001,-0.000001,-0.000027,0.000000,-0.000000,-0.000000,0.000247,-0.000406,0.014670,0.036871,0.349695,0.349695,0.366172,1.007915,0.000000,0.000000,0.000000,0.000000,0.000000,0.000000,0.000000,0.000000,0.000000,0.000000,0.000000,0.000000,0.013821,3,0
160000,0.000428,4.015494,0.012624,0.007083,24.999001,-0.002371,-0.000058,-0.000241,1.570850,-0.000017,-0.000001,-0.000018,0.000000,-0.000001,-0.000000,0.000369,-0.000453,0.042136,-0.023886,0.332020,0.332020,0.346600,1.008002,0.000000,0.000000,0.000000,0.000000,0.000000,0.000000,0.000000,0.000000,0.000000,0.000000,0.000000,0.000000,0.039807,3,0
170000,0.000477,4.268027,0.014310,0.007466,24.999718,-0.002221,-0.000064,-0.000248,1.570861,-0.000038,-0.000001,-0.000031,0.000000,-0.000001,-0.000000,0.000521,-0.000503,0.048241,0.031199,0.316297,0.316297,0.329260,1.007991,0.000000,0.000000,0.000000,0.000000,0.000000,0.000000,0.000000,0.000000,0.000000,0.000000,0.000000,0.000000,0.045700,3,0
180000,0.000527,4.522754,0.015826,0.007863,25.001314,-0.001984,-0.000072,-0.000250,1.570859,-0.000083,-0.000001,-0.000045,0.000000,-0.000002,-0.000000,0.001532,-0.000555,0.093884,0.029456,0.302246,0.302246,0.313817,1.007875,0.000000,0.000000,0.000000,0.000000,0.000000,0.000000,0.000000,0.000000,0.000000,0.000000,0.000000,0.000000,0.089157,3,0
190000,0.000581,4.772679,0.016743,0.008272,25.001335,-0.001820,-0.000069,-0.000272,1.570856,-0.000082,-0.000001,-0.000054,0.000000,-0.000002,-0.000000,0.000056,-0.000610,-0.001828,0.018771,0.289641,0.289641,0.300003,1.007645,0.000000,0.000000,0.000000,0.000000,0.000000,0.000000,0.000000,0.000000,0.000000,0.000000,0.000000,0.000000,0.001834,3,0
200000,0.000636,5.024847,0.016025,0.008601,25.002251,-0.002378,-0.000082,-0.000276,1.570862,-0.000109,-0.000002,-0.000046,0.000000,-0.000003,-0.000000,0.000376,-0.000667,0.046430,-0.014544,0.278295,0.278295,0.287598,1.007295,0.000000,0.000000,0.000000,0.000000,0.000000,0.000000,0.000000,0.000000,0.000000,0.000000,0.000000,0.000000,0.044281,3,0
210000,0.000694,5.277223,0.016086,0.009021,25.003233,-0.002643,-0.000081,-0.000279,1.570869,-0.000142,-0.000002,-0.000047,0.000000,-0.000004,-0.000000,0.000443,-0.000726,0.052680,0.001914,0.268053,0.268054,0.276421,1.006816,0.000000,0.000000,0.000000,0.000000,0.000000,0.000000,0.000000,0.000000,0.000000,0.000000,0.000000,0.000000,0.050331,3,0
220000,0.000754,5.531503,0.015317,0.009381,25.005226,-0.003296,-0.000086,-0.000273,1.570866,-0.000211,-0.000003,-0.000036,0.000000,-0.000006,-0.000000,0.001591,-0.000788,0.098478,-0.016647,0.258787,0.258787,0.266321,1.006202,0.000000,0.000000,0.000000,0.000000,0.000000,0.000000,0.000000,0.000000,0.000000,0.000000,0.000000,0.000000,0.094233,3,0
230000,0.000815,5.786667,0.013659,0.009661,25.007820,-0.004202,-0.000095,-0.000249,1.570860,-0.000305,-0.000004,-0.000007,0.000000,-0.000009,-0.000000,0.002625,-0.000851,0.122482,-0.037873,0.250385,0.250385,0.257172,1.005446,0.000000,0.000000,0.000000,0.000000,0.000000,0.000000,0.000000,0.000000,0.000000,0.000000,0.000000,0.000000,0.117374,3,0
240000,0.000878,6.041832,0.014631,0.009962,25.010603,-0.003758,-0.000109,-0.000229,1.570871,-0.000408,-0.000004,-0.000027,0.000000,-0.000013,-0.000000,0.002623,-0.000915,0.125718,0.024462,0.242755,0.242755,0.248866,1.004541,0.000000,0.000000,0.000000,0.000000,0.000000,0.000000,0.000000,0.000000,0.000000,0.000000,0.000000,0.000000,0.120635,3,0
250000,0.000942,6.294662,0.013977,0.010295,25.012104,-0.004196,-0.000108,-0.000222,1.570875,-0.000470,-0.000005,-0.000014,0.000000,-0.000015,-0.000000,0.000807,-0.000981,0.069315,-0.015318,0.235818,0.235818,0.241314,1.003481,0.000000,0.000000,0.000000,0.000000,0.000000,0.000000,0.000000,0.000000,0.000000,0.000000,0.000000,0.000000,0.066598,3,0
260000,0.001009,6.549169,0.015445,0.010600,25.014845,-0.003639,-0.000107,-0.000193,1.570872,-0.000580,-0.000006,-0.000050,0.000000,-0.000019,-0.000000,0.002348,-0.001049,0.114654,0.038729,0.229504,0.229504,0.234436,1.002258,0.000000,0.000000,0.000000,0.000000,0.000000,0.000000,0.000000,0.000000,0.000000,0.000000,0.000000,0.000000,0.110273,3,0
270000,0.001077,6.805962,0.015596,0.010998,25.019131,-0.003600,-0.000109,-0.000152,1.570867,-0.000764,-0.000007,-0.000055,0.000000,-0.000026,-0.000000,0.005098,-0.001119,0.178183,0.004955,0.223754,0.223754,0.228165,1.000869,0.000000,0.000000,0.000000,0.000000,0.000000,0.000000,0.000000,0.000000,0.000000,0.000000,0.000000,0.000000,0.171541,3,0
280000,0.001147,7.061254,0.015727,0.011288,25.022743,-0.003515,-0.000107,-0.000117,1.570871,-0.000918,-0.000009,-0.000060,0.000000,-0.000032,-0.000000,0.003152,-0.001190,0.140013,0.004514,0.218516,0.218516,0.222443,0.999307,0.000000,0.000000,0.000000,0.000000,0.000000,0.000000,0.000000,0.000000,0.000000,0.000000,0.000000,0.000000,0.134919,3,0
290000,0.001218,7.318704,0.014994,0.011573,25.028063,-0.004176,-0.000107,-0.000058,1.570869,-0.001158,-0.000010,-0.000038,0.000000,-0.000042,-0.000000,0.006667,-0.001263,0.202749,-0.019225,0.213744,0.213744,0.217219,0.997567,0.000000,0.000000,0.000000,0.000000,0.000000,0.000000,0.000000,0.000000,0.000000,0.000000,0.000000,0.000000,0.195530,3,0
300000,0.001291,7.571930,0.016263,0.011941,25.030300,-0.003438,-0.000119,-0.000039,1.570876,-0.001264,-0.000012,-0.000084,0.000000,-0.000046,-0.000000,0.001367,-0.001338,0.084398,0.037049,0.209398,0.209398,0.212446,0.995645,0.000000,0.000000,0.000000,0.000000,0.000000,0.000000,0.000000,0.000000,0.000000,0.000000,0.000000,0.000000,0.081463,3,0
310000,0.001366,7.827343,0.017394,0.012324,25.034430,-0.002803,-0.000121,0.000020,1.570877,-0.001463,-0.000014,-0.000128,0.000001,-0.000055,-0.000000,0.003767,-0.001415,0.149212,0.033693,0.205443,0.205443,0.208087,0.993536,0.000000,0.000000,0.000000,0.000000,0.000000,0.000000,0.000000,0.000000,0.000000,0.000000,0.000000,0.000000,0.144110,3,0
320000,0.001443,8.080131,0.015557,0.012685,25.036459,-0.004372,-0.000119,0.000034,1.570877,-0.001566,-0.000016,-0.000054,0.000001,-0.000060,-0.000000,0.001306,-0.001494,0.072670,-0.053144,0.201847,0.201847,0.204105,0.991237,0.000000,0.000000,0.000000,0.000000,0.000000,0.000000,0.000000,0.000000,0.000000,0.000000,0.000000,0.000000,0.070241,3,0
330000,0.001523,8.335718,0.014220,0.013094,25.041143,-0.005695,-0.000116,0.000101,1.570875,-0.001802,-0.000018,0.000004,0.000001,-0.000071,-0.000000,0.004254,-0.001575,0.157802,-0.038639,0.198581,0.198581,0.200469,0.988743,0.000000,0.000000,0.000000,0.000000,0.000000,0.000000,0.000000,0.000000,0.000000,0.000000,0.000000,0.000000,0.152587,3,0
340000,0.001604,8.592662,0.014708,0.013484,25.047287,-0.005581,-0.000115,0.000189,1.570884,-0.002119,-0.000021,-0.000023,0.000001,-0.000087,-0.000000,0.006517,-0.001658,0.200351,0.016700,0.195621,0.195621,0.197151,0.986053,0.000000,0.000000,0.000000,0.000000,0.000000,0.000000,0.000000,0.000000,0.000000,0.000000,0.000000,0.000000,0.193826,3,0
350000,0.001687,8.845149,0.014064,0.013838,25.049343,-0.006255,-0.000120,0.000216,1.570884,-0.002223,-0.000024,0.000007,0.000001,-0.000092,-0.000000,0.000686,-0.001743,0.062619,-0.018133,0.192943,0.192943,0.194125,0.983164,0.000000,0.000000,0.000000,0.000000,0.000000,0.000000,0.000000,0.000000,0.000000,0.000000,0.000000,0.000000,0.060629,3,0
360000,0.001770,9.099713,0.012773,0.014069,25.053501,-0.007541,-0.000126,0.000283,1.570882,-0.002448,-0.000027,0.000075,0.000001,-0.000103,-0.000000,0.002890,-0.001828,0.128175,-0.038445,0.190526,0.190526,0.191370,0.980073,0.000000,0.000000,0.000000,0.000000,0.000000,0.000000,0.000000,0.000000,0.000000,0.000000,0.000000,0.000000,0.124117,3,0
370000,0.001854,9.356264,0.011202,0.014346,25.059746,-0.009036,-0.000129,0.000376,1.570880,-0.002802,-0.000030,0.000162,0.000001,-0.000122,-0.000000,0.006293,-0.001914,0.191631,-0.047492,0.188352,0.188352,0.188863,0.976779,0.000000,0.000000,0.000000,0.000000,0.000000,0.000000,0.000000,0.000000,0.000000,0.000000,0.000000,0.000000,0.185625,3,0
380000,0.001939,9.609166,0.009725,0.014679,25.062233,-0.010647,-0.000137,0.000412,1.570884,-0.002945,-0.000034,0.000247,0.000001,-0.000130,-0.000001,0.001209,-0.002002,0.074170,-0.044523,0.186403,0.186403,0.186586,0.973282,0.000000,0.000000,0.000000,0.000000,0.000000,0.000000,0.000000,0.000000,0.000000,0.000000,0.000000,0.000000,0.071892,3,0
390000,0.002025,9.864689,0.008954,0.014906,25.067795,-0.011386,-0.000145,0.000506,1.570884,-0.003267,-0.000038,0.000291,0.000002,-0.000148,-0.000001,0.004169,-0.002089,0.159184,-0.021593,0.184664,0.184664,0.184522,0.969581,0.000000,0.000000,0.000000,0.000000,0.000000,0.000000,0.000000,0.000000,0.000000,0.000000,0.000000,0.000000,0.154298,3,0
400000,0.002111,10.122133,0.008383,0.015227,25.075628,-0.011977,-0.000149,0.000654,1.570880,-0.003736,-0.000043,0.000323,0.000002,-0.000176,-0.000001,0.007977,-0.002178,0.221668,-0.014971,0.183119,0.183119,0.182656,0.965675,0.000000,0.000000,0.000000,0.000000,0.000000,0.000000,0.000000,0.000000,0.000000,0.000000,0.000000,0.000000,0.214913,3,0
410000,0.002198,10.379633,0.009247,0.015443,25.083647,-0.011064,-0.000155,0.000795,1.570895,-0.004228,-0.000048,0.000251,0.000002,-0.000205,-0.000001,0.008179,-0.002267,0.222572,0.032649,0.181756,0.181756,0.180971,0.961566,0.000000,0.000000,0.000000,0.000000,0.000000,0.000000,0.000000,0.000000,0.000000,0.000000,0.000000,0.000000,0.215841,3,0
420000,0.002285,10.635998,0.010450,0.015750,25.090551,-0.009616,-0.000169,0.000915,1.570895,-0.004651,-0.000053,0.000150,0.000003,-0.000231,-0.000001,0.005766,-0.002356,0.183660,0.043933,0.180562,0.180562,0.179456,0.957255,0.000000,0.000000,0.000000,0.000000,0.000000,0.000000,0.000000,0.000000,0.000000,0.000000,0.000000,0.000000,0.178148,3,0
430000,0.002374,10.893649,0.011074,0.016062,25.099117,-0.009118,-0.000166,0.001077,1.570898,-0.005192,-0.000059,0.000091,0.000003,-0.000265,-0.000001,0.008312,-0.002447,0.225410,0.024381,0.179525,0.179525,0.178097,0.952743,0.000000,0.000000,0.000000,0.000000,0.000000,0.000000,0.000000,0.000000,0.000000,0.000000,0.000000,0.000000,0.218678,3,0
440000,0.002463,11.149006,0.010689,0.016354,25.104900,-0.009719,-0.000167,0.001187,1.570912,-0.005558,-0.000066,0.000116,0.000003,-0.000288,-0.000001,0.003491,-0.002538,0.146583,-0.009886,0.178634,0.178635,0.176883,0.948033,0.000000,0.000000,0.000000,0.000000,0.000000,0.000000,0.000000,0.000000,0.000000,0.000000,0.000000,0.000000,0.142240,3,0
450000,0.002552,11.404490,0.011431,0.016668,25.110832,-0.009096,-0.000175,0.001299,1.570921,-0.005945,-0.000072,0.000042,0.000004,-0.000314,-0.000001,0.003754,-0.002630,0.149594,0.028766,0.177880,0.177881,0.175803,0.943126,0.000000,0.000000,0.000000,0.000000,0.000000,0.000000,0.000000,0.000000,0.000000,0.000000,0.000000,0.000000,0.145182,3,0
460000,0.002642,11.658932,0.012169,0.016963,25.115513,-0.008268,-0.000185,0.001389,1.570933,-0.006248,-0.000080,-0.000035,0.000004,-0.000334,-0.000001,0.002188,-0.002723,0.112717,0.028533,0.177253,0.177254,0.174847,0.938027,0.000000,0.000000,0.000000,0.000000,0.000000,0.000000,0.000000,0.000000,0.000000,0.000000,0.000000,0.000000,0.109418,3,0
470000,0.002734,11.915281,0.013295,0.017298,25.122782,-0.007067,-0.000193,0.001549,1.570937,-0.006739,-0.000087,-0.000152,0.000005,-0.000368,-0.000001,0.005311,-0.002817,0.176291,0.041767,0.176744,0.176745,0.174006,0.932739,0.000000,0.000000,0.000000,0.000000,0.000000,0.000000,0.000000,0.000000,0.000000,0.000000,0.000000,0.000000,0.171121,3,0
480000,0.002824,12.173505,0.013569,0.017497,25.132757,-0.006688,-0.000198,0.001766,1.570943,-0.007424,-0.000096,-0.000186,0.000006,-0.000417,-0.000002,0.009183,-0.002910,0.237932,0.011964,0.176345,0.176345,0.173271,0.927266,0.000000,0.000000,0.000000,0.000000,0.000000,0.000000,0.000000,0.000000,0.000000,0.000000,0.000000,0.000000,0.230956,3,0
490000,0.002914,12.430069,0.013416,0.017659,25.140388,-0.006829,-0.000203,0.001945,1.570946,-0.007955,-0.000105,-0.000177,0.000006,-0.000455,-0.000002,0.005152,-0.003002,0.178399,-0.002991,0.176048,0.176048,0.172634,0.921612,0.000000,0.000000,0.000000,0.000000,0.000000,0.000000,0.000000,0.000000,0.000000,0.000000,0.000000,0.000000,0.173189,3,0
500000,0.003004,12.686173,0.014421,0.017987,25.147436,-0.005512,-0.000203,0.002103,1.570954,-0.008448,-0.000114,-0.000293,0.000007,-0.000492,-0.000002,0.004386,-0.003095,0.160304,0.037443,0.175845,0.175845,0.172087,0.915783,0.000000,0.000000,0.000000,0.000000,0.000000,0.000000,0.000000,0.000000,0.000000,0.000000,0.000000,0.000000,0.155635,3,0
510000,0.003095,12.942411,0.013782,0.018269,25.154697,-0.006508,-0.000201,0.002263,1.570968,-0.008964,-0.000124,-0.000228,0.000008,-0.000531,-0.000002,0.004344,-0.003188,0.162555,-0.020322,0.175729,0.175729,0.171622,0.909784,0.000000,0.000000,0.000000,0.000000,0.000000,0.000000,0.000000,0.000000,0.000000,0.000000,0.000000,0.000000,0.157824,3,0
520000,0.003185,13.201694,0.013500,0.018508,25.166601,-0.006941,-0.000214,0.002563,1.570968,-0.009827,-0.000135,-0.000203,0.000009,-0.000598,-0.000002,0.011292,-0.003282,0.264064,-0.007558,0.175694,0.175695,0.171234,0.903620,0.000000,0.000000,0.000000,0.000000,0.000000,0.000000,0.000000,0.000000,0.000000,0.000000,0.000000,0.000000,0.256351,3,0
530000,0.003276,13.461069,0.014756,0.018786,25.178528,-0.005516,-0.000213,0.002859,1.570980,-0.010713,-0.000146,-0.000361,0.000009,-0.000668,-0.000003,0.011553,-0.003375,0.263088,0.046676,0.175734,0.175734,0.170914,0.897298,0.000000,0.000000,0.000000,0.000000,0.000000,0.000000,0.000000,0.000000,0.000000,0.000000,0.000000,0.000000,0.255404,3,0
540000,0.003365,13.716460,0.013419,0.018954,25.184523,-0.007304,-0.000214,0.002993,1.570984,-0.011138,-0.000158,-0.000204,0.000010,-0.000702,-0.000003,0.002773,-0.003467,0.122867,-0.045070,0.175842,0.175842,0.170658,0.890824,0.000000,0.000000,0.000000,0.000000,0.000000,0.000000,0.000000,0.000000,0.000000,0.000000,0.000000,0.000000,0.119313,3,0
550000,0.003455,13.972001,0.013406,0.019215,25.190676,-0.007388,-0.000213,0.003136,1.570996,-0.011586,-0.000171,-0.000212,0.000011,-0.000739,-0.000003,0.002565,-0.003559,0.125842,0.002177,0.176012,0.176013,0.170460,0.884205,0.000000,0.000000,0.000000,0.000000,0.000000,0.000000,0.000000,0.000000,0.000000,0.000000,0.000000,0.000000,0.122199,3,0
560000,0.003543,14.228276,0.013551,0.019340,25.198021,-0.007226,-0.000213,0.003331,1.571004,-0.012128,-0.000184,-0.000241,0.000013,-0.000785,-0.000003,0.003581,-0.003650,0.148543,0.007791,0.176240,0.176240,0.170314,0.877448,0.000000,0.000000,0.000000,0.000000,0.000000,0.000000,0.000000,0.000000,0.000000,0.000000,0.000000,0.000000,0.144224,3,0
570000,0.003629,14.485278,0.012094,0.019448,25.206459,-0.009479,-0.000213,0.003547,1.571006,-0.012767,-0.000198,-0.000056,0.000014,-0.000839,-0.000003,0.005089,-0.003739,0.170499,-0.048730,0.176520,0.176520,0.170214,0.870560,0.000000,0.000000,0.000000,0.000000,0.000000,0.000000,0.000000,0.000000,0.000000,0.000000,0.000000,0.000000,0.165522,3,0
580000,0.003714,14.742999,0.010938,0.019572,25.216032,-0.011208,-0.000221,0.003805,1.571018,-0.013504,-0.000213,0.000090,0.000015,-0.000904,-0.000004,0.006173,-0.003827,0.191717,-0.037321,0.176847,0.176848,0.170157,0.863548,0.000000,0.000000,0.000000,0.000000,0.000000,0.000000,0.000000,0.000000,0.000000,0.000000,0.000000,0.000000,0.186104,3,0
590000,0.003797,15.000845,0.012116,0.019712,25.225655,-0.009640,-0.000221,0.004063,1.571024,-0.014260,-0.000228,-0.000093,0.000016,-0.000971,-0.000004,0.006322,-0.003913,0.192328,0.045590,0.177217,0.177218,0.170138,0.856421,0.000000,0.000000,0.000000,0.000000,0.000000,0.000000,0.000000,0.000000,0.000000,0.000000,0.000000,0.000000,0.186686,3,0
600000,0.003881,15.259404,0.011077,0.019984,25.236553,-0.011297,-0.000237,0.004360,1.571037,-0.015116,-0.000244,0.000043,0.000018,-0.001049,-0.000004,0.007496,-0.003999,0.212689,-0.033117,0.177626,0.177626,0.170152,0.849186,0.000000,0.000000,0.000000,0.000000,0.000000,0.000000,0.000000,0.000000,0.000000,0.000000,0.000000,0.000000,0.206430,3,0
610000,0.003964,15.519851,0.010119,0.020237,25.250416,-0.012578,-0.000240,0.004758,1.571051,-0.016237,-0.000261,0.000168,0.000019,-0.001153,-0.000005,0.012118,-0.004085,0.272084,-0.029782,0.178068,0.178069,0.170195,0.841851,0.000000,0.000000,0.000000,0.000000,0.000000,0.000000,0.000000,0.000000,0.000000,0.000000,0.000000,0.000000,0.264039,3,0
620000,0.004046,15.780393,0.010766,0.020375,25.264244,-0.011714,-0.000254,0.005166,1.571051,-0.017372,-0.000278,0.000050,0.000021,-0.001261,-0.000005,0.011906,-0.004170,0.269925,0.027329,0.178541,0.178542,0.170264,0.834424,0.000000,0.000000,0.000000,0.000000,0.000000,0.000000,0.000000,0.000000,0.000000,0.000000,0.000000,0.000000,0.261925,3,0
630000,0.004126,16.036285,0.011911,0.020523,25.270325,-0.010015,-0.000272,0.005336,1.571059,-0.017838,-0.000297,-0.000146,0.000023,-0.001306,-0.000005,0.002233,-0.004253,0.108637,0.044542,0.179041,0.179041,0.170355,0.826913,0.000000,0.000000,0.000000,0.000000,0.000000,0.000000,0.000000,0.000000,0.000000,0.000000,0.000000,0.000000,0.105475,3,0
640000,0.004205,16.292915,0.010731,0.020686,25.277561,-0.011659,-0.000286,0.005546,1.571064,-0.018413,-0.000316,0.000025,0.000025,-0.001362,-0.000005,0.003011,-0.004335,0.130989,-0.037990,0.179563,0.179564,0.170465,0.819327,0.000000,0.000000,0.000000,0.000000,0.000000,0.000000,0.000000,0.000000,0.000000,0.000000,0.000000,0.000000,0.127139,3,0
650000,0.004282,16.552666,0.010822,0.020725,25.290009,-0.011545,-0.000304,0.005936,1.571069,-0.019450,-0.000335,-0.000009,0.000027,-0.001466,-0.000006,0.008721,-0.004415,0.232107,0.007354,0.180106,0.180106,0.170591,0.811672,0.000000,0.000000,0.000000,0.000000,0.000000,0.000000,0.000000,0.000000,0.000000,0.000000,0.000000,0.000000,0.225180,3,0
660000,0.004358,16.811321,0.010525,0.020929,25.300467,-0.011968,-0.000310,0.006257,1.571070,-0.020319,-0.000356,0.000020,0.000029,-0.001554,-0.000006,0.005901,-0.004494,0.190901,-0.006312,0.180665,0.180665,0.170729,0.803959,0.000000,0.000000,0.000000,0.000000,0.000000,0.000000,0.000000,0.000000,0.000000,0.000000,0.000000,0.000000,0.185203,3,0
670000,0.004433,17.071293,0.010751,0.021033,25.313158,-0.011822,-0.000324,0.006667,1.571075,-0.021387,-0.000377,-0.000039,0.000031,-0.001665,-0.000007,0.008602,-0.004571,0.230322,0.012297,0.181238,0.181238,0.170877,0.796194,0.000000,0.000000,0.000000,0.000000,0.000000,0.000000,0.000000,0.000000,0.000000,0.000000,0.000000,0.000000,0.223408,3,0
680000,0.004507,17.330158,0.010848,0.021222,25.323862,-0.011590,-0.000328,0.007007,1.571076,-0.022278,-0.000399,-0.000077,0.000033,-0.001759,-0.000007,0.005779,-0.004648,0.188890,0.007572,0.181822,0.181822,0.171033,0.788386,0.000000,0.000000,0.000000,0.000000,0.000000,0.000000,0.000000,0.000000,0.000000,0.000000,0.000000,0.000000,0.183222,3,0
690000,0.004579,17.588528,0.010913,0.021361,25.333523,-0.011440,-0.000335,0.007316,1.571079,-0.023086,-0.000421,-0.000109,0.000036,-0.001846,-0.000007,0.004597,-0.004723,0.168467,0.006395,0.182414,0.182415,0.171193,0.780542,0.000000,0.000000,0.000000,0.000000,0.000000,0.000000,0.000000,0.000000,0.000000,0.000000,0.000000,0.000000,0.163410,3,0
700000,0.004650,17.847616,0.011355,0.021467,25.344358,-0.010702,-0.000350,0.007669,1.571093,-0.024004,-0.000444,-0.000208,0.000038,-0.001947,-0.000008,0.005795,-0.004796,0.188305,0.019554,0.183013,0.183014,0.171357,0.772670,0.000000,0.000000,0.000000,0.000000,0.000000,0.000000,0.000000,0.000000,0.000000,0.000000,0.000000,0.000000,0.182621,3,0
710000,0.004718,18.105593,0.010867,0.021471,25.353130,-0.011278,-0.000373,0.007968,1.571093,-0.024737,-0.000468,-0.000140,0.000041,-0.002028,-0.000008,0.003561,-0.004867,0.147774,-0.013322,0.183616,0.183616,0.171522,0.764778,0.000000,0.000000,0.000000,0.000000,0.000000,0.000000,0.000000,0.000000,0.000000,0.000000,0.000000,0.000000,0.143329,3,0
720000,0.004786,18.362463,0.009974,0.021644,25.359867,-0.012582,-0.000383,0.008190,1.571089,-0.025282,-0.000493,0.000002,0.000044,-0.002090,-0.000008,0.002021,-0.004937,0.108377,-0.027218,0.184220,0.184221,0.171685,0.756874,0.000000,0.000000,0.000000,0.000000,0.000000,0.000000,0.000000,0.000000,0.000000,0.000000,0.000000,0.000000,0.105158,3,0
730000,0.004851,18.621296,0.010020,0.021656,25.370102,-0.012652,-0.000396,0.008539,1.571088,-0.026147,-0.000519,-0.000031,0.000047,-0.002190,-0.000009,0.004651,-0.005005,0.169502,0.006141,0.184825,0.184826,0.171846,0.748965,0.000000,0.000000,0.000000,0.000000,0.000000,0.000000,0.000000,0.000000,0.000000,0.000000,0.000000,0.000000,0.164352,3,0
740000,0.004914,18.881458,0.010669,0.021681,25.382469,-0.011704,-0.000404,0.008967,1.571091,-0.027227,-0.000545,-0.000179,0.000050,-0.002316,-0.000009,0.007162,-0.005071,0.208752,0.027141,0.185428,0.185428,0.172003,0.741057,0.000000,0.000000,0.000000,0.000000,0.000000,0.000000,0.000000,0.000000,0.000000,0.000000,0.000000,0.000000,0.202361,3,0
750000,0.004974,19.141708,0.011244,0.021666,25.394800,-0.011027,-0.000420,0.009413,1.571099,-0.028312,-0.000572,-0.000314,0.000053,-0.002446,-0.000010,0.007012,-0.005133,0.206890,0.024254,0.186027,0.186028,0.172155,0.733159,0.000000,0.000000,0.000000,0.000000,0.000000,0.000000,0.000000,0.000000,0.000000,0.000000,0.000000,0.000000,0.200537,3,0
760000,0.005033,19.402660,0.010858,0.021822,25.408144,-0.011757,-0.000427,0.009909,1.571115,-0.029506,-0.000599,-0.000262,0.000056,-0.002591,-0.000010,0.008181,-0.005195,0.224823,-0.009456,0.186622,0.186623,0.172299,0.725276,0.000000,0.000000,0.000000,0.000000,0.000000,0.000000,0.000000,0.000000,0.000000,0.000000,0.000000,0.000000,0.217889,3,0
770000,0.005091,19.663685,0.011756,0.021875,25.421480,-0.010605,-0.000444,0.010407,1.571131,-0.030701,-0.000627,-0.000465,0.000060,-0.002738,-0.000011,0.008178,-0.005255,0.222162,0.035517,0.187211,0.187211,0.172435,0.717415,0.000000,0.000000,0.000000,0.000000,0.000000,0.000000,0.000000,0.000000,0.000000,0.000000,0.000000,0.000000,0.215291,3,0
780000,0.005145,19.924158,0.013013,0.021827,25.433781,-0.008604,-0.000470,0.010870,1.571146,-0.031788,-0.000656,-0.000739,0.000064,-0.002874,-0.000011,0.006798,-0.005312,0.199551,0.047419,0.187792,0.187793,0.172563,0.709583,0.000000,0.000000,0.000000,0.000000,0.000000,0.000000,0.000000,0.000000,0.000000,0.000000,0.000000,0.000000,0.193374,3,0
790000,0.005198,20.182833,0.013507,0.021863,25.442686,-0.008127,-0.000493,0.011193,1.571160,-0.032546,-0.000685,-0.000858,0.000067,-0.002971,-0.000012,0.003134,-0.005367,0.137745,0.020300,0.188365,0.188366,0.172680,0.701785,0.000000,0.000000,0.000000,0.000000,0.000000,0.000000,0.000000,0.000000,0.000000,0.000000,0.000000,0.000000,0.133522,3,0
800000,0.005249,20.444729,0.013206,0.021838,25.457138,-0.008772,-0.000508,0.011752,1.571164,-0.033865,-0.000715,-0.000816,0.000071,-0.003142,-0.000012,0.009065,-0.005419,0.236799,-0.007452,0.188929,0.188930,0.172786,0.694027,0.000000,0.000000,0.000000,0.000000,0.000000,0.000000,0.000000,0.000000,0.000000,0.000000,0.000000,0.000000,0.229403,3,0
810000,0.005298,20.704166,0.013436,0.021887,25.467113,-0.008324,-0.000521,0.012132,1.571169,-0.034730,-0.000746,-0.000883,0.000075,-0.003256,-0.000013,0.003836,-0.005471,0.153667,0.011045,0.189483,0.189483,0.172881,0.686315,0.000000,0.000000,0.000000,0.000000,0.000000,0.000000,0.000000,0.000000,0.000000,0.000000,0.000000,0.000000,0.148909,3,0
820000,0.005344,20.961798,0.013742,0.021823,25.473902,-0.007907,-0.000545,0.012366,1.571182,-0.035258,-0.000777,-0.000967,0.000080,-0.003327,-0.000013,0.001428,-0.005519,0.092918,0.013588,0.190025,0.190026,0.172964,0.678654,0.000000,0.000000,0.000000,0.000000,0.000000,0.000000,0.000000,0.000000,0.000000,0.000000,0.000000,0.000000,0.090134,3,0
830000,0.005389,21.222683,0.014084,0.021927,25.486303,-0.007448,-0.000556,0.012852,1.571198,-0.036366,-0.000809,-0.001059,0.000084,-0.003478,-0.000014,0.006054,-0.005566,0.193041,0.014698,0.190557,0.190557,0.173035,0.671049,0.000000,0.000000,0.000000,0.000000,0.000000,0.000000,0.000000,0.000000,0.000000,0.000000,0.000000,0.000000,0.186988,3,0
840000,0.005433,21.484894,0.013484,0.021859,25.500881,-0.008263,-0.000584,0.013443,1.571201,-0.037701,-0.000842,-0.000948,0.000088,-0.003662,-0.000014,0.008610,-0.005611,0.230215,-0.018136,0.191076,0.191077,0.173092,0.663504,0.000000,0.000000,0.000000,0.000000,0.000000,0.000000,0.000000,0.000000,0.000000,0.000000,0.000000,0.000000,0.222949,3,0
850000,0.005474,21.743971,0.014731,0.021886,25.509699,-0.006396,-0.000600,0.013791,1.571207,-0.038442,-0.000874,-0.001241,0.000093,-0.003767,-0.000015,0.002947,-0.005655,0.126888,0.046121,0.191583,0.191583,0.173135,0.656025,0.000000,0.000000,0.000000,0.000000,0.000000,0.000000,0.000000,0.000000,0.000000,0.000000,0.000000,0.000000,0.122959,3,0
860000,0.005514,22.004396,0.015995,0.021979,25.520880,-0.004568,-0.000624,0.014246,1.571214,-0.039420,-0.000908,-0.001537,0.000098,-0.003906,-0.000015,0.004790,-0.005697,0.165905,0.046098,0.192077,0.192078,0.173165,0.648615,0.000000,0.000000,0.000000,0.000000,0.000000,0.000000,0.000000,0.000000,0.000000,0.000000,0.000000,0.000000,0.160690,3,0
870000,0.005553,22.262964,0.016436,0.022076,25.528505,-0.004146,-0.000637,0.014545,1.571228,-0.040039,-0.000942,-0.001649,0.000103,-0.003996,-0.000016,0.001802,-0.005738,0.104158,0.017000,0.192558,0.192559,0.173181,0.641278,0.000000,0.000000,0.000000,0.000000,0.000000,0.000000,0.000000,0.000000,0.000000,0.000000,0.000000,0.000000,0.100970,3,0
880000,0.005591,22.520973,0.015924,0.021979,25.535172,-0.004846,-0.000648,0.014793,1.571224,-0.040543,-0.000976,-0.001543,0.000108,-0.004070,-0.000016,0.001188,-0.005776,0.084059,-0.016252,0.193026,0.193027,0.173183,0.634018,0.000000,0.000000,0.000000,0.000000,0.000000,0.000000,0.000000,0.000000,0.000000,0.000000,0.000000,0.000000,0.081546,3,0
890000,0.005626,22.780348,0.016602,0.022016,25.544125,-0.003910,-0.000677,0.015156,1.571221,-0.041293,-0.001011,-0.001712,0.000113,-0.004182,-0.000017,0.002595,-0.005814,0.124166,0.025257,0.193481,0.193481,0.173171,0.626838,0.000000,0.000000,0.000000,0.000000,0.000000,0.000000,0.000000,0.000000,0.000000,0.000000,0.000000,0.000000,0.120295,3,0
900000,0.005661,23.042358,0.015480,0.021956,25.557596,-0.005767,-0.000697,0.015742,1.571227,-0.042525,-0.001047,-0.001465,0.000119,-0.004370,-0.000017,0.006854,-0.005849,0.202644,-0.037372,0.193922,0.193922,0.173144,0.619742,0.000000,0.000000,0.000000,0.000000,0.000000,0.000000,0.000000,0.000000,0.000000,0.000000,0.000000,0.000000,0.196176,3,0
910000,0.005693,23.301823,0.014710,0.021912,25.566381,-0.007038,-0.000726,0.016098,1.571240,-0.043256,-0.001083,-0.001300,0.000124,-0.004483,-0.000018,0.002403,-0.005883,0.119408,-0.024574,0.194349,0.194350,0.173103,0.612732,0.000000,0.000000,0.000000,0.000000,0.000000,0.000000,0.000000,0.000000,0.000000,0.000000,0.000000,0.000000,0.115680,3,0
920000,0.005723,23.563284,0.014729,0.021884,25.578684,-0.007271,-0.000755,0.016631,1.571251,-0.044353,-0.001119,-0.001326,0.000130,-0.004655,-0.000018,0.005112,-0.005915,0.177917,0.003326,0.194763,0.194764,0.173048,0.605812,0.000000,0.000000,0.000000,0.000000,0.000000,0.000000,0.000000,0.000000,0.000000,0.000000,0.000000,0.000000,0.172237,3,0
930000,0.005753,23.824131,0.013438,0.021905,25.589615,-0.009196,-0.000779,0.017105,1.571257,-0.045313,-0.001156,-0.001038,0.000136,-0.004809,-0.000019,0.004161,-0.005946,0.154882,-0.042127,0.195164,0.195164,0.172979,0.598983,0.000000,0.000000,0.000000,0.000000,0.000000,0.000000,0.000000,0.000000,0.000000,0.000000,0.000000,0.000000,0.149954,3,0
940000,0.005780,24.087606,0.013217,0.021892,25.605055,-0.009781,-0.000795,0.017821,1.571258,-0.046759,-0.001193,-0.001012,0.000142,-0.005043,-0.000020,0.008677,-0.005975,0.231865,-0.004226,0.195552,0.195552,0.172896,0.592248,0.000000,0.000000,0.000000,0.000000,0.000000,0.000000,0.000000,0.000000,0.000000,0.000000,0.000000,0.000000,0.224382,3,0
950000,0.005807,24.346537,0.012074,0.021843,25.612358,-0.011301,-0.000822,0.018123,1.571253,-0.047308,-0.001231,-0.000759,0.000148,-0.005133,-0.000020,0.001453,-0.006002,0.087509,-0.036239,0.195927,0.195927,0.172800,0.585608,0.000000,0.000000,0.000000,0.000000,0.000000,0.000000,0.000000,0.000000,0.000000,0.000000,0.000000,0.000000,0.084851,3,0
960000,0.005831,24.606176,0.011664,0.021736,25.620749,-0.011993,-0.000842,0.018486,1.571252,-0.047981,-0.001269,-0.000689,0.000154,-0.005245,-0.000021,0.001862,-0.006028,0.106810,-0.010172,0.196289,0.196289,0.172690,0.579066,0.000000,0.000000,0.000000,0.000000,0.000000,0.000000,0.000000,0.000000,0.000000,0.000000,0.000000,0.000000,0.103480,3,0
970000,0.005853,24.867817,0.012497,0.021733,25.632547,-0.010786,-0.000862,0.019029,1.571265,-0.049026,-0.001307,-0.000931,0.000161,-0.005422,-0.000021,0.004582,-0.006051,0.165150,0.033281,0.196638,0.196638,0.172566,0.572623,0.000000,0.000000,0.000000,0.000000,0.000000,0.000000,0.000000,0.000000,0.000000,0.000000,0.000000,0.000000,0.159846,3,0
980000,0.005874,25.130785,0.012198,0.021772,25.646544,-0.011354,-0.000892,0.019700,1.571276,-0.050308,-0.001345,-0.000889,0.000167,-0.005643,-0.000022,0.006562,-0.006074,0.201572,-0.006440,0.196976,0.196975,0.172430,0.566281,0.000000,0.000000,0.000000,0.000000,0.000000,0.000000,0.000000,0.000000,0.000000,0.000000,0.000000,0.000000,0.195042,3,0
990000,0.005895,25.391136,0.011086,0.021644,25.655874,-0.012914,-0.000907,0.020105,1.571279,-0.051059,-0.001384,-0.000638,0.000174,-0.005774,-0.000023,0.002421,-0.006094,0.117374,-0.034642,0.197301,0.197301,0.172281,0.560041,0.000000,0.000000,0.000000,0.000000,0.000000,0.000000,0.000000,0.000000,0.000000,0.000000,0.000000,0.000000,0.113667,3,0
1000000,0.005913,25.649557,0.009974,0.021535,25.661585,-0.014527,-0.000929,0.020321,1.571290,-0.051417,-0.001423,-0.000388,0.000181,-0.005838,-0.000023,0.000695,-0.006113,0.055719,-0.034131,0.197615,0.197615,0.172120,0.553903,0.000000,0.000000,0.000000,0.000000,0.000000,0.000000,0.000000,0.000000,0.000000,0.000000,0.000000,0.000000,0.054206,3,0
1010000,0.005927,25.908033,0.011012,0.021366,25.667311,-0.013214,-0.000958,0.020545,1.571285,-0.051774,-0.001463,-0.000698,0.000188,-0.005902,-0.000023,0.000783,-0.006130,0.055666,0.041438,0.197918,0.197918,0.171946,0.547869,0.000000,0.000000,0.000000,0.000000,0.000000,0.000000,0.000000,0.000000,0.000000,0.000000,0.000000,0.000000,0.054156,3,0
1020000,0.005940,26.171822,0.011130,0.021244,25.682323,-0.013185,-0.000975,0.021299,1.571295,-0.053160,-0.001502,-0.000771,0.000195,-0.006155,-0.000024,0.007440,-0.006143,0.214588,0.009031,0.198211,0.198210,0.171761,0.541938,0.000000,0.000000,0.000000,0.000000,0.000000,0.000000,0.000000,0.000000,0.000000,0.000000,0.000000,0.000000,0.207584,3,0
1030000,0.005951,26.432959,0.010319,0.021105,25.692598,-0.014447,-0.001001,0.021775,1.571303,-0.054001,-0.001542,-0.000597,0.000202,-0.006312,-0.000025,0.002801,-0.006155,0.129560,-0.023536,0.198493,0.198492,0.171565,0.536113,0.000000,0.000000,0.000000,0.000000,0.000000,0.000000,0.000000,0.000000,0.000000,0.000000,0.000000,0.000000,0.125416,3,0
1040000,0.005961,26.691477,0.010535,0.021091,25.698109,-0.014307,-0.001036,0.021982,1.571306,-0.054307,-0.001582,-0.000696,0.000210,-0.006369,-0.000025,0.000392,-0.006166,0.047230,0.012804,0.198765,0.198764,0.171357,0.530393,0.000000,0.000000,0.000000,0.000000,0.000000,0.000000,0.000000,0.000000,0.000000,0.000000,0.000000,0.000000,0.046053,3,0
1050000,0.005970,26.950708,0.009632,0.020913,25.704786,-0.015611,-0.001059,0.022253,1.571309,-0.054745,-0.001622,-0.000494,0.000218,-0.006453,-0.000026,0.000842,-0.006174,0.066959,-0.026498,0.199027,0.199026,0.171139,0.524779,0.000000,0.000000,0.000000,0.000000,0.000000,0.000000,0.000000,0.000000,0.000000,0.000000,0.000000,0.000000,0.065012,3,0
1060000,0.005978,27.211302,0.008549,0.020924,25.713760,-0.017161,-0.001084,0.022667,1.571308,-0.055437,-0.001663,-0.000247,0.000225,-0.006588,-0.000026,0.001981,-0.006183,0.105844,-0.032362,0.199281,0.199279,0.170911,0.519269,0.000000,0.000000,0.000000,0.000000,0.000000,0.000000,0.000000,0.000000,0.000000,0.000000,0.000000,0.000000,0.102502,3,0
1070000,0.005984,27.474556,0.009307,0.020912,25.727345,-0.016150,-0.001116,0.023362,1.571309,-0.056636,-0.001703,-0.000511,0.000233,-0.006823,-0.000027,0.005585,-0.006190,0.183105,0.032996,0.199526,0.199524,0.170673,0.513865,0.000000,0.000000,0.000000,0.000000,0.000000,0.000000,0.000000,0.000000,0.000000,0.000000,0.000000,0.000000,0.177118,3,0
1080000,0.005988,27.735142,0.009948,0.020722,25.736063,-0.015287,-0.001139,0.023759,1.571312,-0.057282,-0.001743,-0.000738,0.000242,-0.006952,-0.000027,0.001704,-0.006195,0.098623,0.028441,0.199763,0.199761,0.170426,0.508567,0.000000,0.000000,0.000000,0.000000,0.000000,0.000000,0.000000,0.000000,0.000000,0.000000,0.000000,0.000000,0.095529,3,0
1090000,0.005992,27.995083,0.008696,0.020607,25.743395,-0.016911,-0.001162,0.024084,1.571322,-0.057786,-0.001784,-0.000435,0.000250,-0.007055,-0.000028,0.001190,-0.006198,0.076498,-0.038619,0.199992,0.199990,0.170170,0.503372,0.000000,0.000000,0.000000,0.000000,0.000000,0.000000,0.000000,0.000000,0.000000,0.000000,0.000000,0.000000,0.074188,3,0
1100000,0.005993,28.258364,0.008748,0.020452,25.756683,-0.016694,-0.001200,0.024767,1.571331,-0.058934,-0.001825,-0.000506,0.000258,-0.007291,-0.000029,0.004911,-0.006200,0.174303,0.008044,0.200215,0.200212,0.169905,0.498283,0.000000,0.000000,0.000000,0.000000,0.000000,0.000000,0.000000,0.000000,0.000000,0.000000,0.000000,0.000000,0.168594,3,0
1110000,0.005994,28.518297,0.007545,0.020347,25.763847,-0.018443,-0.001230,0.025081,1.571337,-0.059396,-0.001866,-0.000216,0.000266,-0.007388,-0.000029,0.001009,-0.006200,0.069920,-0.036435,0.200430,0.200427,0.169633,0.493297,0.000000,0.000000,0.000000,0.000000,0.000000,0.000000,0.000000,0.000000,0.000000,0.000000,0.000000,0.000000,0.067848,3,0
1120000,0.005992,28.778917,0.007168,0.020167,25.772083,-0.018950,-0.001250,0.025457,1.571347,-0.059979,-0.001906,-0.000166,0.000275,-0.007511,-0.000030,0.001267,-0.006199,0.088219,-0.006629,0.200639,0.200636,0.169352,0.488414,0.000000,0.000000,0.000000,0.000000,0.000000,0.000000,0.000000,0.000000,0.000000,0.000000,0.000000,0.000000,0.085478,3,0
1130000,0.005988,29.038879,0.007688,0.020059,25.779037,-0.018348,-0.001282,0.025773,1.571354,-0.060415,-0.001947,-0.000376,0.000284,-0.007605,-0.000030,0.000814,-0.006196,0.066065,0.025400,0.200843,0.200839,0.169064,0.483635,0.000000,0.000000,0.000000,0.000000,0.000000,0.000000,0.000000,0.000000,0.000000,0.000000,0.000000,0.000000,0.064134,3,0
1140000,0.005984,29.298193,0.008491,0.020024,25.784834,-0.017239,-0.001319,0.025995,1.571355,-0.060708,-0.001988,-0.000667,0.000293,-0.007668,-0.000030,0.000527,-0.006192,0.044579,0.035212,0.201041,0.201037,0.168769,0.478957,0.000000,0.000000,0.000000,0.000000,0.000000,0.000000,0.000000,0.000000,0.000000,0.000000,0.000000,0.000000,0.043501,3,0
1150000,0.005980,29.556873,0.007015,0.019913,25.789467,-0.019410,-0.001356,0.026147,1.571355,-0.060867,-0.002029,-0.000286,0.000302,-0.007704,-0.000031,0.000443,-0.006187,0.023754,-0.046225,0.201234,0.201229,0.168468,0.474380,0.000000,0.000000,0.000000,0.000000,0.000000,0.000000,0.000000,0.000000,0.000000,0.000000,0.000000,0.000000,0.023721,3,0
1160000,0.005975,29.820261,0.006004,0.019836,25.802280,-0.020797,-0.001389,0.026844,1.571361,-0.061944,-0.002070,-0.000055,0.000311,-0.007946,-0.000031,0.004399,-0.006182,0.162605,-0.028788,0.201422,0.201417,0.168160,0.469903,0.000000,0.000000,0.000000,0.000000,0.000000,0.000000,0.000000,0.000000,0.000000,0.000000,0.000000,0.000000,0.157258,3,0
1170000,0.005969,30.082941,0.005301,0.019795,25.813656,-0.021889,-0.001421,0.027441,1.571373,-0.062856,-0.002111,0.000083,0.000320,-0.008154,-0.000032,0.003106,-0.006177,0.137638,-0.017287,0.201606,0.201601,0.167847,0.465526,0.000000,0.000000,0.000000,0.000000,0.000000,0.000000,0.000000,0.000000,0.000000,0.000000,0.000000,0.000000,0.133147,3,0
1180000,0.005961,30.343586,0.005742,0.019625,25.821354,-0.021373,-0.001450,0.027806,1.571370,-0.063342,-0.002151,-0.000122,0.000330,-0.008266,-0.000033,0.000972,-0.006169,0.073633,0.023869,0.201786,0.201781,0.167528,0.461247,0.000000,0.000000,0.000000,0.000000,0.000000,0.000000,0.000000,0.000000,0.000000,0.000000,0.000000,0.000000,0.071407,3,0
1190000,0.005953,30.602896,0.005342,0.019514,25.826565,-0.021736,-0.001475,0.027999,1.571379,-0.063551,-0.002192,-0.000068,0.000339,-0.008316,-0.000033,0.000174,-0.006160,0.031578,-0.006558,0.201963,0.201958,0.167205,0.457064,0.000000,0.000000,0.000000,0.000000,0.000000,0.000000,0.000000,0.000000,0.000000,0.000000,0.000000,0.000000,0.031091,3,0
1200000,0.005943,30.866243,0.005886,0.019393,25.838812,-0.021122,-0.001507,0.028675,1.571383,-0.064541,-0.002232,-0.000314,0.000349,-0.008551,-0.000034,0.003751,-0.006150,0.149916,0.027780,0.202137,0.202131,0.166876,0.452978,0.000000,0.000000,0.000000,0.000000,0.000000,0.000000,0.000000,0.000000,0.000000,0.000000,0.000000,0.000000,0.144989,3,0
1210000,0.005932,31.128883,0.004655,0.019225,25.849661,-0.022586,-0.001545,0.029255,1.571384,-0.065369,-0.002273,-0.000009,0.000358,-0.008751,-0.000035,0.002737,-0.006139,0.124990,-0.036430,0.202309,0.202302,0.166544,0.448986,0.000000,0.000000,0.000000,0.000000,0.000000,0.000000,0.000000,0.000000,0.000000,0.000000,0.000000,0.000000,0.120919,3,0
1220000,0.005920,31.390146,0.004767,0.019073,25.858074,-0.022565,-0.001570,0.029668,1.571386,-0.065902,-0.002313,-0.000122,0.000368,-0.008882,-0.000035,0.001086,-0.006127,0.080910,0.012545,0.202478,0.202471,0.166208,0.445089,0.000000,0.000000,0.000000,0.000000,0.000000,0.000000,0.000000,0.000000,0.000000,0.000000,0.000000,0.000000,0.078404,3,0
1230000,0.005906,31.650724,0.005613,0.019017,25.865116,-0.021441,-0.001602,0.029990,1.571399,-0.066284,-0.002353,-0.000464,0.000379,-0.008976,-0.000036,0.000796,-0.006113,0.058107,0.038995,0.202645,0.202638,0.165868,0.441283,0.000000,0.000000,0.000000,0.000000,0.000000,0.000000,0.000000,0.000000,0.000000,0.000000,0.000000,0.000000,0.056456,3,0
1240000,0.005891,31.911301,0.005600,0.018774,25.872040,-0.021448,-0.001639,0.030308,1.571400,-0.066652,-0.002393,-0.000534,0.000389,-0.009069,-0.000036,0.000518,-0.006098,0.055885,0.007510,0.202811,0.202803,0.165524,0.437568,0.000000,0.000000,0.000000,0.000000,0.000000,0.000000,0.000000,0.000000,0.000000,0.000000,0.000000,0.000000,0.054317,3,0
1250000,0.005874,32.173885,0.006267,0.018558,25.882397,-0.020773,-0.001669,0.030865,1.571403,-0.067395,-0.002432,-0.000827,0.000399,-0.009258,-0.000037,0.002244,-0.006080,0.113304,0.032479,0.202975,0.202967,0.165178,0.433943,0.000000,0.000000,0.000000,0.000000,0.000000,0.000000,0.000000,0.000000,0.000000,0.000000,0.000000,0.000000,0.109632,3,0
1260000,0.005855,32.435089,0.006962,0.018370,25.890348,-0.019830,-0.001706,0.031244,1.571416,-0.067849,-0.002471,-0.001124,0.000410,-0.009376,-0.000037,0.000956,-0.006061,0.069283,0.033100,0.203139,0.203130,0.164830,0.430407,0.000000,0.000000,0.000000,0.000000,0.000000,0.000000,0.000000,0.000000,0.000000,0.000000,0.000000,0.000000,0.067196,3,0
1270000,0.005836,32.697624,0.007655,0.018234,25.900541,-0.018831,-0.001730,0.031775,1.571413,-0.068543,-0.002510,-0.001424,0.000420,-0.009558,-0.000038,0.001996,-0.006041,0.106182,0.032848,0.203302,0.203292,0.164479,0.426958,0.000000,0.000000,0.000000,0.000000,0.000000,0.000000,0.000000,0.000000,0.000000,0.000000,0.000000,0.000000,0.102755,3,0
1280000,0.005818,32.959454,0.006817,0.018166,25.909410,-0.019990,-0.001771,0.032222,1.571414,-0.069081,-0.002550,-0.001221,0.000430,-0.009702,-0.000038,0.001180,-0.006021,0.082092,-0.023388,0.203464,0.203454,0.164126,0.423594,0.000000,0.000000,0.000000,0.000000,0.000000,0.000000,0.000000,0.000000,0.000000,0.000000,0.000000,0.000000,0.079521,3,0
1290000,0.005798,33.219906,0.006087,0.018017,25.915579,-0.020934,-0.001804,0.032478,1.571417,-0.069335,-0.002589,-0.001051,0.000441,-0.009771,-0.000039,0.000309,-0.006001,0.038841,-0.019230,0.203626,0.203616,0.163772,0.420315,0.000000,0.000000,0.000000,0.000000,0.000000,0.000000,0.000000,0.000000,0.000000,0.000000,0.000000,0.000000,0.037967,3,0
1300000,0.005776,33.482372,0.006795,0.017866,25.925352,-0.020190,-0.001840,0.032988,1.571433,-0.069961,-0.002628,-0.001368,0.000452,-0.009942,-0.000039,0.001690,-0.005980,0.096386,0.034124,0.203789,0.203777,0.163416,0.417118,0.000000,0.000000,0.000000,0.000000,0.000000,0.000000,0.000000,0.000000,0.000000,0.000000,0.000000,0.000000,0.093296,3,0
1310000,0.005754,33.744122,0.007954,0.017726,25.933723,-0.018884,-0.001869,0.033393,1.571445,-0.070428,-0.002665,-0.001833,0.000463,-0.010072,-0.000040,0.001262,-0.005957,0.072372,0.050483,0.203951,0.203939,0.163059,0.414003,0.000000,0.000000,0.000000,0.000000,0.000000,0.000000,0.000000,0.000000,0.000000,0.000000,0.000000,0.000000,0.070152,3,0
1320000,0.005731,34.005169,0.007297,0.017522,25.940783,-0.019573,-0.001913,0.033696,1.571442,-0.070746,-0.002704,-0.001681,0.000474,-0.010162,-0.000040,0.000441,-0.005932,0.049088,-0.017091,0.204114,0.204102,0.162701,0.410968,0.000000,0.000000,0.000000,0.000000,0.000000,0.000000,0.000000,0.000000,0.000000,0.000000,0.000000,0.000000,0.047762,3,0
1330000,0.005706,34.268223,0.008219,0.017378,25.951321,-0.018376,-0.001944,0.034269,1.571441,-0.071428,-0.002741,-0.002074,0.000485,-0.010357,-0.000041,0.002099,-0.005908,0.106030,0.041766,0.204278,0.204265,0.162343,0.408011,0.000000,0.000000,0.000000,0.000000,0.000000,0.000000,0.000000,0.000000,0.000000,0.000000,0.000000,0.000000,0.102583,3,0
1340000,0.005680,34.527164,0.008477,0.017112,25.954306,-0.018065,-0.001989,0.034275,1.571442,-0.071312,-0.002779,-0.002224,0.000496,-0.010323,-0.000041,0.000101,-0.005881,-0.017982,0.016375,0.204443,0.204429,0.161984,0.405131,0.000000,0.000000,0.000000,0.000000,0.000000,0.000000,0.000000,0.000000,0.000000,0.000000,0.000000,0.000000,0.018274,3,0
1350000,0.005653,34.788822,0.009438,0.017019,25.962059,-0.016875,-0.002022,0.034643,1.571454,-0.071701,-0.002816,-0.002627,0.000507,-0.010436,-0.000042,0.000900,-0.005854,0.060993,0.042690,0.204609,0.204594,0.161626,0.402326,0.000000,0.000000,0.000000,0.000000,0.000000,0.000000,0.000000,0.000000,0.000000,0.000000,0.000000,0.000000,0.059189,3,0
1360000,0.005626,35.050449,0.010123,0.016847,25.969629,-0.016266,-0.002055,0.034997,1.571461,-0.072068,-0.002852,-0.002933,0.000518,-0.010546,-0.000042,0.000709,-0.005825,0.057682,0.032159,0.204776,0.204761,0.161267,0.399595,0.000000,0.000000,0.000000,0.000000,0.000000,0.000000,0.000000,0.000000,0.000000,0.000000,0.000000,0.000000,0.056001,3,0
1370000,0.005598,35.309330,0.010526,0.016736,25.972240,-0.015758,-0.002086,0.034961,1.571470,-0.071907,-0.002889,-0.003128,0.000530,-0.010496,-0.000042,0.000179,-0.005797,-0.025112,0.021044,0.204945,0.204928,0.160909,0.396937,0.000000,0.000000,0.000000,0.000000,0.000000,0.000000,0.000000,0.000000,0.000000,0.000000,0.000000,0.000000,0.024892,3,0
1380000,0.005570,35.571617,0.010058,0.016532,25.980885,-0.016304,-0.002121,0.035404,1.571478,-0.072375,-0.002925,-0.003029,0.000541,-0.010641,-0.000043,0.000903,-0.005767,0.073807,-0.011246,0.205115,0.205097,0.160552,0.394350,0.000000,0.000000,0.000000,0.000000,0.000000,0.000000,0.000000,0.000000,0.000000,0.000000,0.000000,0.000000,0.071499,3,0
1390000,0.005540,35.833176,0.010328,0.016361,25.988125,-0.016176,-0.002164,0.035731,1.571477,-0.072689,-0.002961,-0.003192,0.000552,-0.010739,-0.000043,0.000452,-0.005737,0.049976,0.016578,0.205286,0.205268,0.160195,0.391832,0.000000,0.000000,0.000000,0.000000,0.000000,0.000000,0.000000,0.000000,0.000000,0.000000,0.000000,0.000000,0.048584,3,0
1400000,0.005511,36.096752,0.008926,0.016146,25.998943,-0.018202,-0.002204,0.036355,1.571487,-0.073359,-0.002998,-0.002765,0.000563,-0.010953,-0.000044,0.002169,-0.005705,0.106403,-0.045897,0.205459,0.205440,0.159840,0.389383,0.000000,0.000000,0.000000,0.000000,0.000000,0.000000,0.000000,0.000000,0.000000,0.000000,0.000000,0.000000,0.102900,3,0
1410000,0.005479,36.357525,0.008867,0.015918,26.004671,-0.018355,-0.002233,0.036558,1.571491,-0.073494,-0.003033,-0.002814,0.000575,-0.010996,-0.000044,0.000084,-0.005674,0.021633,0.004827,0.205634,0.205614,0.159486,0.387002,0.000000,0.000000,0.000000,0.000000,0.000000,0.000000,0.000000,0.000000,0.000000,0.000000,0.000000,0.000000,0.021600,3,0
1420000,0.005446,36.620319,0.008867,0.015748,26.013927,-0.018598,-0.002274,0.037043,1.571491,-0.073984,-0.003068,-0.002895,0.000586,-0.011156,-0.000045,0.001015,-0.005640,0.078865,0.007492,0.205811,0.205790,0.159133,0.384686,0.000000,0.000000,0.000000,0.000000,0.000000,0.000000,0.000000,0.000000,0.000000,0.000000,0.000000,0.000000,0.076355,3,0
1430000,0.005414,36.881695,0.008004,0.015590,26.020462,-0.019863,-0.002316,0.037309,1.571490,-0.074200,-0.003103,-0.002655,0.000598,-0.011228,-0.000045,0.000302,-0.005606,0.034645,-0.025269,0.205989,0.205968,0.158782,0.382433,0.000000,0.000000,0.000000,0.000000,0.000000,0.000000,0.000000,0.000000,0.000000,0.000000,0.000000,0.000000,0.033886,3,0
1440000,0.005379,37.144390,0.009175,0.015430,26.029224,-0.018459,-0.002352,0.037760,1.571494,-0.074637,-0.003136,-0.003173,0.000609,-0.011373,-0.000046,0.001270,-0.005572,0.071388,0.052353,0.206170,0.206147,0.158432,0.380243,0.000000,0.000000,0.000000,0.000000,0.000000,0.000000,0.000000,0.000000,0.000000,0.000000,0.000000,0.000000,0.069153,3,0
1450000,0.005344,37.402927,0.009804,0.015233,26.030544,-0.017817,-0.002382,0.037588,1.571490,-0.074316,-0.003169,-0.003466,0.000621,-0.011263,-0.000045,0.000597,-0.005535,-0.052246,0.030707,0.206352,0.206328,0.158085,0.378114,0.000000,0.000000,0.000000,0.000000,0.000000,0.000000,0.000000,0.000000,0.000000,0.000000,0.000000,0.000000,0.050728,3,0
1460000,0.005307,37.664204,0.010916,0.015049,26.036613,-0.016575,-0.002418,0.037822,1.571486,-0.074478,-0.003202,-0.003955,0.000633,-0.011318,-0.000046,0.000519,-0.005498,0.027149,0.049359,0.206536,0.206511,0.157739,0.376045,0.000000,0.000000,0.000000,0.000000,0.000000,0.000000,0.000000,0.000000,0.000000,0.000000,0.000000,0.000000,0.026754,3,0
1470000,0.005271,37.922707,0.011202,0.014891,26.037561,-0.016314,-0.002460,0.037630,1.571481,-0.074143,-0.003235,-0.004115,0.000645,-0.011199,-0.000045,0.000543,-0.005459,-0.055279,0.017009,0.206722,0.206696,0.157396,0.374033,0.000000,0.000000,0.000000,0.000000,0.000000,0.000000,0.000000,0.000000,0.000000,0.000000,0.000000,0.000000,0.053631,3,0
1480000,0.005235,38.181908,0.010064,0.014699,26.039751,-0.017752,-0.002503,0.037555,1.571486,-0.073932,-0.003268,-0.003740,0.000656,-0.011125,-0.000045,0.000434,-0.005421,-0.035484,-0.037332,0.206910,0.206883,0.157055,0.372078,0.000000,0.000000,0.000000,0.000000,0.000000,0.000000,0.000000,0.000000,0.000000,0.000000,0.000000,0.000000,0.034665,3,0
1490000,0.005197,38.445210,0.010386,0.014485,26.049324,-0.017451,-0.002550,0.038079,1.571500,-0.074427,-0.003300,-0.003948,0.000668,-0.011304,-0.000046,0.001176,-0.005383,0.082993,0.019706,0.207100,0.207072,0.156717,0.370179,0.000000,0.000000,0.000000,0.000000,0.000000,0.000000,0.000000,0.000000,0.000000,0.000000,0.000000,0.000000,0.080300,3,0
1500000,0.005159,38.703644,0.009457,0.014243,26.050022,-0.018565,-0.002583,0.037856,1.571500,-0.074065,-0.003332,-0.003647,0.000679,-0.011172,-0.000045,0.000745,-0.005343,-0.061134,-0.029215,0.207292,0.207263,0.156381,0.368334,0.000000,0.000000,0.000000,0.000000,0.000000,0.000000,0.000000,0.000000,0.000000,0.000000,0.000000,0.000000,0.059254,3,0
1510000,0.005119,38.966194,0.009479,0.014073,26.058077,-0.018450,-0.002625,0.038260,1.571504,-0.074407,-0.003363,-0.003740,0.000691,-0.011299,-0.000046,0.000560,-0.005303,0.058125,0.008391,0.207486,0.207455,0.156049,0.366542,0.000000,0.000000,0.000000,0.000000,0.000000,0.000000,0.000000,0.000000,0.000000,0.000000,0.000000,0.000000,0.056351,3,0
1520000,0.005078,39.227306,0.009313,0.013766,26.063433,-0.018777,-0.002669,0.038439,1.571516,-0.074490,-0.003394,-0.003751,0.000703,-0.011330,-0.000046,0.000037,-0.005260,0.014164,0.000919,0.207681,0.207650,0.155718,0.364801,0.000000,0.000000,0.000000,0.000000,0.000000,0.000000,0.000000,0.000000,0.000000,0.000000,0.000000,0.000000,0.014588,3,0
1530000,0.005037,39.490448,0.009047,0.013610,26.072472,-0.019249,-0.002710,0.038920,1.571512,-0.074903,-0.003424,-0.003737,0.000714,-0.011489,-0.000047,0.000818,-0.005218,0.071056,-0.002389,0.207879,0.207846,0.155391,0.363111,0.000000,0.000000,0.000000,0.000000,0.000000,0.000000,0.000000,0.000000,0.000000,0.000000,0.000000,0.000000,0.068781,3,0
1540000,0.004994,39.749378,0.008950,0.013318,26.073656,-0.019454,-0.002756,0.038737,1.571516,-0.074597,-0.003454,-0.003764,0.000726,-0.011370,-0.000046,0.000459,-0.005173,-0.053020,0.003447,0.208078,0.208044,0.155067,0.361470,0.000000,0.000000,0.000000,0.000000,0.000000,0.000000,0.000000,0.000000,0.000000,0.000000,0.000000,0.000000,0.051425,3,0
1550000,0.004950,40.008305,0.008651,0.013115,26.074841,-0.019978,-0.002788,0.038537,1.571514,-0.074291,-0.003483,-0.003712,0.000738,-0.011249,-0.000046,0.000468,-0.005128,-0.053543,-0.004267,0.208278,0.208243,0.154747,0.359876,0.000000,0.000000,0.000000,0.000000,0.000000,0.000000,0.000000,0.000000,0.000000,0.000000,0.000000,0.000000,0.051922,3,0
1560000,0.004906,40.265835,0.008916,0.012964,26.073380,-0.019706,-0.002835,0.038122,1.571524,-0.073757,-0.003512,-0.003876,0.000749,-0.011034,-0.000045,0.001469,-0.005083,-0.093807,0.017480,0.208480,0.208444,0.154429,0.358329,0.000000,0.000000,0.000000,0.000000,0.000000,0.000000,0.000000,0.000000,0.000000,0.000000,0.000000,0.000000,0.090678,3,0
1570000,0.004862,40.527538,0.008007,0.012723,26.079556,-0.020696,-0.002883,0.038359,1.571535,-0.073907,-0.003541,-0.003597,0.000761,-0.011096,-0.000046,0.000239,-0.005037,0.026375,-0.027474,0.208684,0.208646,0.154115,0.356826,0.000000,0.000000,0.000000,0.000000,0.000000,0.000000,0.000000,0.000000,0.000000,0.000000,0.000000,0.000000,0.025912,3,0
1580000,0.004817,40.786419,0.007114,0.012459,26.080456,-0.021839,-0.002917,0.038147,1.571544,-0.073593,-0.003570,-0.003307,0.000772,-0.010967,-0.000045,0.000637,-0.004990,-0.056480,-0.027100,0.208888,0.208849,0.153804,0.355367,0.000000,0.000000,0.000000,0.000000,0.000000,0.000000,0.000000,0.000000,0.000000,0.000000,0.000000,0.000000,0.054732,3,0
1590000,0.004771,41.048748,0.006705,0.012281,26.087776,-0.022345,-0.002951,0.038486,1.571558,-0.073828,-0.003597,-0.003241,0.000784,-0.011066,-0.000046,0.000302,-0.004943,0.042450,-0.007001,0.209094,0.209054,0.153497,0.353952,0.000000,0.000000,0.000000,0.000000,0.000000,0.000000,0.000000,0.000000,0.000000,0.000000,0.000000,0.000000,0.041247,3,0
1600000,0.004722,41.306149,0.007508,0.011929,26.085867,-0.021163,-0.002987,0.038013,1.571554,-0.073274,-0.003623,-0.003635,0.000796,-0.010828,-0.000045,0.001886,-0.004893,-0.100677,0.039409,0.209301,0.209260,0.153193,0.352577,0.000000,0.000000,0.000000,0.000000,0.000000,0.000000,0.000000,0.000000,0.000000,0.000000,0.000000,0.000000,0.097271,3,0
1610000,0.004672,41.567730,0.008057,0.011703,26.091505,-0.020527,-0.003021,0.038222,1.571559,-0.073379,-0.003649,-0.003954,0.000807,-0.010872,-0.000045,0.000213,-0.004842,0.019642,0.030103,0.209509,0.209466,0.152893,0.351242,0.000000,0.000000,0.000000,0.000000,0.000000,0.000000,0.000000,0.000000,0.000000,0.000000,0.000000,0.000000,0.019530,3,0
1620000,0.004623,41.827877,0.007450,0.011532,26.094568,-0.021113,-0.003068,0.038188,1.571556,-0.073254,-0.003675,-0.003782,0.000818,-0.010818,-0.000045,0.000133,-0.004790,-0.023327,-0.015945,0.209718,0.209674,0.152596,0.349947,0.000000,0.000000,0.000000,0.000000,0.000000,0.000000,0.000000,0.000000,0.000000,0.000000,0.000000,0.000000,0.022984,3,0
1630000,0.004573,42.087288,0.007937,0.011358,26.096151,-0.020511,-0.003108,0.038024,1.571568,-0.073013,-0.003700,-0.004061,0.000830,-0.010709,-0.000045,0.000449,-0.004740,-0.044960,0.027190,0.209928,0.209882,0.152304,0.348689,0.000000,0.000000,0.000000,0.000000,0.000000,0.000000,0.000000,0.000000,0.000000,0.000000,0.000000,0.000000,0.043621,3,0
1640000,0.004523,42.345280,0.008986,0.011156,26.095140,-0.019027,-0.003146,0.037605,1.571575,-0.072558,-0.003724,-0.004561,0.000842,-0.010499,-0.000044,0.001571,-0.004688,-0.085716,0.048734,0.210138,0.210091,0.152015,0.347469,0.000000,0.000000,0.000000,0.000000,0.000000,0.000000,0.000000,0.000000,0.000000,0.000000,0.000000,0.000000,0.082826,3,0
1650000,0.004473,42.605385,0.008155,0.010919,26.098019,-0.020178,-0.003184,0.037549,1.571574,-0.072424,-0.003749,-0.004285,0.000853,-0.010439,-0.000044,0.000214,-0.004635,-0.025639,-0.025412,0.210349,0.210301,0.151730,0.346284,0.000000,0.000000,0.000000,0.000000,0.000000,0.000000,0.000000,0.000000,0.000000,0.000000,0.000000,0.000000,0.025147,3,0
1660000,0.004421,42.864052,0.008162,0.010611,26.098173,-0.020027,-0.003232,0.037243,1.571578,-0.072076,-0.003773,-0.004353,0.000864,-0.010275,-0.000043,0.000737,-0.004582,-0.067104,0.007656,0.210560,0.210510,0.151448,0.345134,0.000000,0.000000,0.000000,0.000000,0.000000,0.000000,0.000000,0.000000,0.000000,0.000000,0.000000,0.000000,0.064898,3,0
1670000,0.004369,43.125504,0.007942,0.010419,26.103380,-0.020210,-0.003269,0.037407,1.571590,-0.072139,-0.003796,-0.004350,0.000875,-0.010305,-0.000044,0.000027,-0.004528,0.012173,-0.000582,0.210771,0.210720,0.151171,0.344016,0.000000,0.000000,0.000000,0.000000,0.000000,0.000000,0.000000,0.000000,0.000000,0.000000,0.000000,0.000000,0.012532,3,0
1680000,0.004316,43.386196,0.008488,0.010165,26.107059,-0.019448,-0.003302,0.037427,1.571600,-0.072083,-0.003818,-0.004667,0.000886,-0.010277,-0.000044,0.000165,-0.004474,-0.010788,0.029677,0.210982,0.210930,0.150897,0.342931,0.000000,0.000000,0.000000,0.000000,0.000000,0.000000,0.000000,0.000000,0.000000,0.000000,0.000000,0.000000,0.011262,3,0
1690000,0.004261,43.645451,0.008337,0.009815,26.108040,-0.019439,-0.003351,0.037203,1.571608,-0.071818,-0.003840,-0.004669,0.000897,-0.010146,-0.000043,0.000452,-0.004417,-0.052849,0.001200,0.211194,0.211140,0.150628,0.341877,0.000000,0.000000,0.000000,0.000000,0.000000,0.000000,0.000000,0.000000,0.000000,0.000000,0.000000,0.000000,0.051165,3,0
1700000,0.004206,43.903984,0.008119,0.009576,26.107573,-0.019619,-0.003394,0.036850,1.571612,-0.071453,-0.003862,-0.004635,0.000908,-0.009964,-0.000043,0.000874,-0.004360,-0.073563,-0.001648,0.211405,0.211349,0.150362,0.340853,0.000000,0.000000,0.000000,0.000000,0.000000,0.000000,0.000000,0.000000,0.000000,0.000000,0.000000,0.000000,0.071097,3,0
1710000,0.004149,44.166004,0.008525,0.009259,26.113535,-0.019026,-0.003441,0.037084,1.571618,-0.071578,-0.003882,-0.004906,0.000919,-0.010026,-0.000043,0.000206,-0.004302,0.025726,0.024389,0.211615,0.211558,0.150101,0.339858,0.000000,0.000000,0.000000,0.000000,0.000000,0.000000,0.000000,0.000000,0.000000,0.000000,0.000000,0.000000,0.025170,3,0
