time_us,pos_x,pos_y,pos_z,vel_x,vel_y,vel_z,roll,pitch,yaw,bias_ax,bias_ay,bias_az,bias_gx,bias_gy,bias_gz,nis,innov_x,innov_y,innov_z,cov_pos_x,cov_pos_y,cov_pos_z,cov_yaw,des_speed,des_heading,des_climb,pid_speed,pid_yaw,pid_alt,speed_meas,yaw_meas,climb_meas,fwd_accel,yaw_rate,vert_accel,drift_m,nav_mode,mission_state
0,0.000003,0.149998,-0.000003,0.000570,24.999685,-0.000711,-0.000001,-0.000020,1.570807,0.000000,0.000000,0.000000,0.000000,0.000000,0.000000,0.006250,-0.000006,-0.249999,0.000007,2.400038,2.400038,3.600017,1.000518,0.000000,0.000000,0.000000,0.000000,0.000000,0.000000,0.000000,0.000000,0.000000,0.000000,0.000000,0.000000,0.149998,1,0
10000,0.000011,0.359542,0.011898,0.001200,24.999193,-0.001267,0.000006,-0.000041,1.570831,0.000000,-0.000000,-0.000000,0.000000,0.000000,0.000000,0.002491,-0.000015,-0.141567,0.031770,1.714420,1.714420,2.250079,1.001073,0.000000,0.000000,0.000000,0.000000,0.000000,0.000000,0.000000,0.000000,0.000000,0.000000,0.000000,0.000000,0.101116,3,0
20000,0.000023,0.615444,0.033505,0.001823,24.999222,-0.001919,0.000005,-0.000055,1.570841,0.000000,-0.000000,-0.000001,0.000000,-0.000000,-0.000000,0.000854,-0.000029,0.026592,0.079295,1.333616,1.333616,1.636554,1.001655,0.000000,0.000000,0.000000,0.000000,0.000000,0.000000,0.000000,0.000000,0.000000,0.000000,0.000000,0.000000,0.020681,3,0
30000,0.000039,0.856267,0.027897,0.002470,24.998913,-0.002760,0.000016,-0.000072,1.570848,0.000001,-0.000000,-0.000000,0.000000,0.000000,0.000000,0.000435,-0.000047,-0.050399,-0.026041,1.091392,1.091392,1.286065,1.002257,0.000000,0.000000,0.000000,0.000000,0.000000,0.000000,0.000000,0.000000,0.000000,0.000000,0.000000,0.000000,0.041232,3,0
40000,0.000058,1.107327,0.039547,0.002952,24.998730,-0.003347,0.000015,-0.000079,1.570863,0.000001,-0.000000,-0.000002,0.000000,0.000000,0.000000,0.000608,-0.000068,0.006965,0.066189,0.923811,0.923811,1.059385,1.002869,0.000000,0.000000,0.000000,0.000000,0.000000,0.000000,0.000000,0.000000,0.000000,0.000000,0.000000,0.000000,0.005893,3,0
50000,0.000081,1.345957,0.042940,0.003577,24.998222,-0.003770,0.000015,-0.000092,1.570876,0.000005,-0.000000,-0.000003,0.000000,0.000000,0.000000,0.001119,-0.000094,-0.085063,0.022856,0.801036,0.801036,0.900822,1.003484,0.000000,0.000000,0.000000,0.000000,0.000000,0.000000,0.000000,0.000000,0.000000,0.000000,0.000000,0.000000,0.073707,3,0
60000,0.000108,1.590588,0.042016,0.004182,24.997711,-0.004468,0.000030,-0.000099,1.570900,0.000007,-0.000000,-0.000003,0.000000,0.000000,0.000000,0.000309,-0.000123,-0.045382,-0.006733,0.707270,0.707270,0.783741,1.004094,0.000000,0.000000,0.000000,0.000000,0.000000,0.000000,0.000000,0.000000,0.000000,0.000000,0.000000,0.000000,0.040032,3,0
70000,0.000139,1.843526,0.044885,0.004724,24.997847,-0.004957,0.000041,-0.000106,1.570919,0.000005,-0.000000,-0.000005,0.000000,0.000000,0.000000,0.000211,-0.000156,0.028054,0.025247,0.633370,0.633370,0.693801,1.004688,0.000000,0.000000,0.000000,0.000000,0.000000,0.000000,0.000000,0.000000,0.000000,0.000000,0.000000,0.000000,0.025093,3,0
80000,0.000175,2.096710,0.040157,0.005380,24.998039,-0.006176,0.000042,-0.000112,1.570927,0.000002,-0.000000,-0.000000,0.000000,-0.000000,-0.000000,0.000472,-0.000193,0.033541,-0.044997,0.573673,0.573673,0.622594,1.005260,0.000000,0.000000,0.000000,0.000000,0.000000,0.000000,0.000000,0.000000,0.000000,0.000000,0.000000,0.000000,0.030334,3,0
90000,0.000213,2.350080,0.037964,0.005853,24.998295,-0.006940,0.000045,-0.000130,1.570944,-0.000003,-0.000000,0.000003,0.000000,-0.000000,-0.000000,0.000306,-0.000233,0.038780,-0.022573,0.524488,0.524488,0.564865,1.005801,0.000000,0.000000,0.000000,0.000000,0.000000,0.000000,0.000000,0.000000,0.000000,0.000000,0.000000,0.000000,0.035391,3,0
100000,0.000254,2.598789,0.040711,0.006374,24.998064,-0.007259,0.000046,-0.000147,1.570950,-0.000001,-0.000000,-0.000002,0.000000,-0.000000,-0.000000,0.000202,-0.000277,-0.015803,0.032746,0.483303,0.483303,0.517162,1.006301,0.000000,0.000000,0.000000,0.000000,0.000000,0.000000,0.000000,0.000000,0.000000,0.000000,0.000000,0.000000,0.014532,3,0
110000,0.000300,2.852770,0.040735,0.006958,24.998440,-0.008087,0.000046,-0.000166,1.570970,-0.000011,-0.000000,-0.000003,0.000000,-0.000000,-0.000000,0.000443,-0.000324,0.053554,0.001322,0.448353,0.448353,0.477121,1.006754,0.000000,0.000000,0.000000,0.000000,0.000000,0.000000,0.000000,0.000000,0.000000,0.000000,0.000000,0.000000,0.049553,3,0
120000,0.000349,3.099866,0.041697,0.007529,24.997885,-0.008539,0.000050,-0.000192,1.570993,-0.000002,-0.000000,-0.000006,0.000000,-0.000000,-0.000000,0.000297,-0.000375,-0.041400,0.014200,0.418358,0.418358,0.443071,1.007150,0.000000,0.000000,0.000000,0.000000,0.000000,0.000000,0.000000,0.000000,0.000000,0.000000,0.000000,0.000000,0.038515,3,0
130000,0.000402,3.353077,0.041150,0.008115,24.998249,-0.009258,0.000066,-0.000197,1.571007,-0.000014,-0.000000,-0.000004,0.000000,-0.000000,-0.000000,0.000388,-0.000430,0.049452,-0.006603,0.392369,0.392369,0.413797,1.007481,0.000000,0.000000,0.000000,0.000000,0.000000,0.000000,0.000000,0.000000,0.000000,0.000000,0.000000,0.000000,0.046220,3,0
140000,0.000459,3.611325,0.044066,0.008701,24.999842,-0.009451,0.000081,-0.000193,1.571023,-0.000054,-0.000001,-0.000017,0.000000,-0.000001,-0.000000,0.003154,-0.000489,0.134179,0.046605,0.369666,0.369666,0.388393,1.007739,0.000000,0.000000,0.000000,0.000000,0.000000,0.000000,0.000000,0.000000,0.000000,0.000000,0.000000,0.000000,0.125913,3,0
150000,0.000519,3.864517,0.046194,0.009265,25.000465,-0.009613,0.000085,-0.000209,1.571038,-0.000072,-0.000001,-0.000029,0.000000,-0.000001,-0.000000,0.000680,-0.000552,0.054825,0.036512,0.349694,0.349695,0.366172,1.007915,0.000000,0.000000,0.000000,0.000000,0.000000,0.000000,0.000000,0.000000,0.000000,0.000000,0.000000,0.000000,0.051632,3,0
160000,0.000584,4.115643,0.047738,0.009860,25.000628,-0.010075,0.000096,-0.000229,1.571055,-0.000080,-0.000001,-0.000040,0.000000,-0.000002,-0.000000,0.000193,-0.000618,0.020295,0.028537,0.332020,0.332020,0.346600,1.008002,0.000000,0.000000,0.000000,0.000000,0.000000,0.000000,0.000000,0.000000,0.000000,0.000000,0.000000,0.000000,0.019181,3,0
170000,0.000652,4.372342,0.050350,0.010419,25.002394,-0.010057,0.000104,-0.000216,1.571081,-0.000134,-0.000001,-0.000061,0.000000,-0.000003,-0.000000,0.002933,-0.000688,0.126988,0.049576,0.316296,0.316296,0.329260,1.007991,0.000000,0.000000,0.000000,0.000000,0.000000,0.000000,0.000000,0.000000,0.000000,0.000000,0.000000,0.000000,0.120295,3,0
180000,0.000723,4.628847,0.052399,0.010931,25.004292,-0.009944,0.000105,-0.000212,1.571108,-0.000196,-0.000002,-0.000080,0.000000,-0.000004,-0.000000,0.002890,-0.000761,0.128697,0.041203,0.302245,0.302245,0.313817,1.007875,0.000000,0.000000,0.000000,0.000000,0.000000,0.000000,0.000000,0.000000,0.000000,0.000000,0.000000,0.000000,0.122216,3,0
190000,0.000798,4.880394,0.050960,0.011578,25.004602,-0.011113,0.000103,-0.000228,1.571129,-0.000212,-0.000002,-0.000066,0.000000,-0.000005,-0.000000,0.000267,-0.000839,0.031205,-0.026646,0.289640,0.289640,0.300003,1.007645,0.000000,0.000000,0.000000,0.000000,0.000000,0.000000,0.000000,0.000000,0.000000,0.000000,0.000000,0.000000,0.029710,3,0
200000,0.000876,5.135893,0.049760,0.012035,25.006674,-0.012237,0.000102,-0.000217,1.571146,-0.000281,-0.000003,-0.000053,0.000000,-0.000007,-0.000000,0.002279,-0.000919,0.117595,-0.022578,0.278294,0.278294,0.287598,1.007295,0.000000,0.000000,0.000000,0.000000,0.000000,0.000000,0.000000,0.000000,0.000000,0.000000,0.000000,0.000000,0.112144,3,0
210000,0.000958,5.390454,0.050043,0.012626,25.008463,-0.012657,0.000102,-0.000212,1.571170,-0.000345,-0.000003,-0.000059,0.000000,-0.000009,-0.000000,0.001625,-0.001003,0.100622,0.008941,0.268052,0.268052,0.276421,1.006817,0.000000,0.000000,0.000000,0.000000,0.000000,0.000000,0.000000,0.000000,0.000000,0.000000,0.000000,0.000000,0.096132,3,0
220000,0.001043,5.642470,0.050279,0.013200,25.009142,-0.013137,0.000106,-0.000222,1.571181,-0.000376,-0.000004,-0.000064,0.000000,-0.000010,-0.000000,0.000332,-0.001090,0.044834,0.008312,0.258785,0.258785,0.266321,1.006203,0.000000,0.000000,0.000000,0.000000,0.000000,0.000000,0.000000,0.000000,0.000000,0.000000,0.000000,0.000000,0.042913,3,0
230000,0.001131,5.894698,0.049828,0.013716,25.010067,-0.014006,0.000122,-0.000219,1.571200,-0.000415,-0.000005,-0.000059,0.000000,-0.000011,-0.000000,0.000428,-0.001181,0.051236,-0.007287,0.250383,0.250383,0.257172,1.005447,0.000000,0.000000,0.000000,0.000000,0.000000,0.000000,0.000000,0.000000,0.000000,0.000000,0.000000,0.000000,0.049111,3,0
240000,0.001223,6.147121,0.049823,0.014288,25.011246,-0.014767,0.000129,-0.000210,1.571217,-0.000463,-0.000006,-0.000062,0.000000,-0.000012,-0.000000,0.000530,-0.001275,0.057424,0.003447,0.242752,0.242752,0.248866,1.004542,0.000000,0.000000,0.000000,0.000000,0.000000,0.000000,0.000000,0.000000,0.000000,0.000000,0.000000,0.000000,0.055114,3,0
250000,0.001317,6.399725,0.048162,0.014764,25.012548,-0.016274,0.000135,-0.000204,1.571229,-0.000519,-0.000007,-0.000029,0.000000,-0.000014,-0.000000,0.000869,-0.001371,0.063415,-0.037456,0.235814,0.235814,0.241314,1.003481,0.000000,0.000000,0.000000,0.000000,0.000000,0.000000,0.000000,0.000000,0.000000,0.000000,0.000000,0.000000,0.060937,3,0
260000,0.001414,6.656298,0.049552,0.015253,25.016300,-0.015966,0.000136,-0.000172,1.571253,-0.000681,-0.000008,-0.000067,0.000000,-0.000020,-0.000000,0.004813,-0.001470,0.168620,0.039884,0.229500,0.229500,0.234436,1.002259,0.000000,0.000000,0.000000,0.000000,0.000000,0.000000,0.000000,0.000000,0.000000,0.000000,0.000000,0.000000,0.162177,3,0
270000,0.001513,6.909110,0.049106,0.015732,25.017931,-0.016781,0.000145,-0.000155,1.571268,-0.000755,-0.000010,-0.000059,0.000000,-0.000023,-0.000000,0.000819,-0.001571,0.071040,-0.007359,0.223749,0.223749,0.228165,1.000870,0.000000,0.000000,0.000000,0.000000,0.000000,0.000000,0.000000,0.000000,0.000000,0.000000,0.000000,0.000000,0.068407,3,0
280000,0.001614,7.161354,0.047720,0.016194,25.019138,-0.018472,0.000161,-0.000152,1.571280,-0.000817,-0.000012,-0.000024,0.000000,-0.000026,-0.000000,0.000688,-0.001675,0.056760,-0.032603,0.218510,0.218510,0.222443,0.999308,0.000000,0.000000,0.000000,0.000000,0.000000,0.000000,0.000000,0.000000,0.000000,0.000000,0.000000,0.000000,0.054717,3,0
290000,0.001717,7.413785,0.049317,0.016622,25.020542,-0.017811,0.000175,-0.000150,1.571301,-0.000891,-0.000014,-0.000081,0.000000,-0.000029,-0.000000,0.001028,-0.001781,0.062930,0.049357,0.213738,0.213738,0.217219,0.997569,0.000000,0.000000,0.000000,0.000000,0.000000,0.000000,0.000000,0.000000,0.000000,0.000000,0.000000,0.000000,0.060713,3,0
300000,0.001824,7.670556,0.047752,0.017202,25.025450,-0.019575,0.000174,-0.000092,1.571326,-0.001128,-0.000016,-0.000033,0.000001,-0.000039,-0.000000,0.005941,-0.001890,0.188183,-0.038949,0.209391,0.209391,0.212446,0.995647,0.000000,0.000000,0.000000,0.000000,0.000000,0.000000,0.000000,0.000000,0.000000,0.000000,0.000000,0.000000,0.181625,3,0
310000,0.001934,7.923223,0.046591,0.017784,25.027197,-0.021054,0.000183,-0.000071,1.571349,-0.001222,-0.000019,0.000004,0.000001,-0.000043,-0.000000,0.000924,-0.002002,0.070516,-0.027597,0.205435,0.205435,0.208087,0.993538,0.000000,0.000000,0.000000,0.000000,0.000000,0.000000,0.000000,0.000000,0.000000,0.000000,0.000000,0.000000,0.068129,3,0
320000,0.002046,8.176727,0.045249,0.018303,25.029764,-0.022696,0.000197,-0.000035,1.571372,-0.001358,-0.000022,0.000050,0.000001,-0.000049,-0.000000,0.001665,-0.002117,0.096136,-0.033059,0.201838,0.201838,0.204105,0.991239,0.000000,0.000000,0.000000,0.000000,0.000000,0.000000,0.000000,0.000000,0.000000,0.000000,0.000000,0.000000,0.092925,3,0
330000,0.002162,8.429710,0.044560,0.018886,25.032124,-0.023708,0.000211,-0.000010,1.571390,-0.001480,-0.000025,0.000071,0.000001,-0.000055,-0.000000,0.001092,-0.002236,0.081151,-0.013629,0.198572,0.198572,0.200469,0.988745,0.000000,0.000000,0.000000,0.000000,0.000000,0.000000,0.000000,0.000000,0.000000,0.000000,0.000000,0.000000,0.078495,3,0
340000,0.002279,8.682206,0.045543,0.019371,25.034113,-0.023412,0.000212,0.000005,1.571403,-0.001585,-0.000029,0.000012,0.000001,-0.000060,-0.000000,0.000943,-0.002356,0.066691,0.037370,0.195610,0.195610,0.197151,0.986055,0.000000,0.000000,0.000000,0.000000,0.000000,0.000000,0.000000,0.000000,0.000000,0.000000,0.000000,0.000000,0.064557,3,0
350000,0.002399,8.938076,0.044709,0.019818,25.039312,-0.024850,0.000220,0.000087,1.571418,-0.001872,-0.000033,0.000042,0.000001,-0.000074,-0.000000,0.004827,-0.002478,0.171998,-0.018280,0.192931,0.192931,0.194125,0.983166,0.000000,0.000000,0.000000,0.000000,0.000000,0.000000,0.000000,0.000000,0.000000,0.000000,0.000000,0.000000,0.166485,3,0
360000,0.002520,9.192115,0.045374,0.020354,25.042850,-0.024885,0.000222,0.000142,1.571431,-0.002074,-0.000038,-0.000008,0.000002,-0.000085,-0.000000,0.002265,-0.002603,0.114865,0.028945,0.190513,0.190513,0.191370,0.980075,0.000000,0.000000,0.000000,0.000000,0.000000,0.000000,0.000000,0.000000,0.000000,0.000000,0.000000,0.000000,0.111247,3,0
370000,0.002643,9.450029,0.045348,0.020750,25.050556,-0.025269,0.000236,0.000272,1.571452,-0.002513,-0.000043,-0.000021,0.000002,-0.000108,-0.000001,0.009192,-0.002729,0.238489,0.007245,0.188337,0.188337,0.188863,0.976781,0.000000,0.000000,0.000000,0.000000,0.000000,0.000000,0.000000,0.000000,0.000000,0.000000,0.000000,0.000000,0.231018,3,0
380000,0.002767,9.707955,0.044651,0.021201,25.058371,-0.026385,0.000238,0.000409,1.571469,-0.002975,-0.000048,0.000006,0.000002,-0.000133,-0.000001,0.009252,-0.002856,0.238925,-0.014066,0.186387,0.186387,0.186586,0.973284,0.000000,0.000000,0.000000,0.000000,0.000000,0.000000,0.000000,0.000000,0.000000,0.000000,0.000000,0.000000,0.231519,3,0
390000,0.002893,9.961011,0.044379,0.021606,25.061134,-0.027276,0.000253,0.000457,1.571482,-0.003138,-0.000054,0.000006,0.000002,-0.000142,-0.000001,0.001043,-0.002984,0.080314,0.000026,0.184646,0.184646,0.184522,0.969583,0.000000,0.000000,0.000000,0.000000,0.000000,0.000000,0.000000,0.000000,0.000000,0.000000,0.000000,0.000000,0.077895,3,0
400000,0.003019,10.217875,0.044418,0.022073,25.068167,-0.027500,0.000259,0.000584,1.571506,-0.003572,-0.000060,-0.000016,0.000003,-0.000167,-0.000001,0.006805,-0.003114,0.204931,0.010413,0.183099,0.183099,0.182656,0.965677,0.000000,0.000000,0.000000,0.000000,0.000000,0.000000,0.000000,0.000000,0.000000,0.000000,0.000000,0.000000,0.198700,3,0
410000,0.003147,10.473002,0.043267,0.022491,25.073353,-0.029355,0.000269,0.000687,1.571528,-0.003896,-0.000067,0.000047,0.000003,-0.000187,-0.000001,0.003617,-0.003245,0.146785,-0.028715,0.181734,0.181734,0.180971,0.961569,0.000000,0.000000,0.000000,0.000000,0.000000,0.000000,0.000000,0.000000,0.000000,0.000000,0.000000,0.000000,0.142374,3,0
420000,0.003275,10.729445,0.042698,0.022858,25.080189,-0.030260,0.000279,0.000814,1.571541,-0.004333,-0.000075,0.000068,0.000004,-0.000213,-0.000001,0.005838,-0.003377,0.189791,-0.009015,0.180538,0.180538,0.179456,0.957258,0.000000,0.000000,0.000000,0.000000,0.000000,0.000000,0.000000,0.000000,0.000000,0.000000,0.000000,0.000000,0.184109,3,0
430000,0.003404,10.985387,0.042697,0.023241,25.086552,-0.030435,0.000278,0.000944,1.571562,-0.004745,-0.000083,0.000043,0.000004,-0.000239,-0.000001,0.004793,-0.003509,0.171825,0.010307,0.179499,0.179499,0.178097,0.952746,0.000000,0.000000,0.000000,0.000000,0.000000,0.000000,0.000000,0.000000,0.000000,0.000000,0.000000,0.000000,0.166720,3,0
440000,0.003535,11.239073,0.043499,0.023778,25.090151,-0.029693,0.000272,0.001011,1.571589,-0.004982,-0.000092,-0.000051,0.000005,-0.000254,-0.000001,0.001684,-0.003643,0.094729,0.037740,0.178606,0.178606,0.176883,0.948035,0.000000,0.000000,0.000000,0.000000,0.000000,0.000000,0.000000,0.000000,0.000000,0.000000,0.000000,0.000000,0.091977,3,0
450000,0.003666,11.493512,0.042201,0.024125,25.094891,-0.031674,0.000267,0.001112,1.571607,-0.005291,-0.000102,0.000037,0.000005,-0.000274,-0.000002,0.002490,-0.003777,0.119311,-0.033894,0.177850,0.177850,0.175803,0.943129,0.000000,0.000000,0.000000,0.000000,0.000000,0.000000,0.000000,0.000000,0.000000,0.000000,0.000000,0.000000,0.115833,3,0
460000,0.003796,11.748102,0.043264,0.024458,25.099823,-0.030562,0.000272,0.001209,1.571629,-0.005622,-0.000113,-0.000091,0.000006,-0.000297,-0.000002,0.002825,-0.003912,0.123251,0.047545,0.177220,0.177221,0.174847,0.938030,0.000000,0.000000,0.000000,0.000000,0.000000,0.000000,0.000000,0.000000,0.000000,0.000000,0.000000,0.000000,0.119671,3,0
470000,0.003927,12.006940,0.042687,0.024806,25.110495,-0.031537,0.000278,0.001445,1.571658,-0.006363,-0.000124,-0.000065,0.000007,-0.000348,-0.000002,0.011478,-0.004046,0.266191,-0.009146,0.176709,0.176709,0.174006,0.932742,0.000000,0.000000,0.000000,0.000000,0.000000,0.000000,0.000000,0.000000,0.000000,0.000000,0.000000,0.000000,0.258381,3,0
480000,0.004057,12.264100,0.041456,0.025134,25.119047,-0.033454,0.000278,0.001627,1.571670,-0.006956,-0.000135,0.000026,0.000008,-0.000390,-0.000002,0.007030,-0.004180,0.206034,-0.031444,0.176307,0.176307,0.173271,0.927269,0.000000,0.000000,0.000000,0.000000,0.000000,0.000000,0.000000,0.000000,0.000000,0.000000,0.000000,0.000000,0.200021,3,0
490000,0.004188,12.519621,0.040211,0.025540,25.125340,-0.035409,0.000281,0.001762,1.571690,-0.007396,-0.000148,0.000120,0.000009,-0.000421,-0.000002,0.003686,-0.004314,0.147577,-0.031387,0.176007,0.176007,0.172634,0.921615,0.000000,0.000000,0.000000,0.000000,0.000000,0.000000,0.000000,0.000000,0.000000,0.000000,0.000000,0.000000,0.143310,3,0
500000,0.004319,12.778777,0.039807,0.026020,25.136818,-0.036355,0.000286,0.002031,1.571711,-0.008225,-0.000162,0.000124,0.000010,-0.000482,-0.000003,0.011771,-0.004450,0.269694,-0.001426,0.175801,0.175801,0.172087,0.915786,0.000000,0.000000,0.000000,0.000000,0.000000,0.000000,0.000000,0.000000,0.000000,0.000000,0.000000,0.000000,0.261828,3,0
510000,0.004452,13.036856,0.039630,0.026456,25.146858,-0.036883,0.000287,0.002263,1.571737,-0.008952,-0.000176,0.000103,0.000011,-0.000537,-0.000003,0.008502,-0.004586,0.229090,0.006772,0.175682,0.175683,0.171622,0.909787,0.000000,0.000000,0.000000,0.000000,0.000000,0.000000,0.000000,0.000000,0.000000,0.000000,0.000000,0.000000,0.222426,3,0
520000,0.004583,13.293294,0.040845,0.026795,25.154425,-0.035369,0.000293,0.002453,1.571756,-0.009507,-0.000191,-0.000081,0.000012,-0.000580,-0.000003,0.005165,-0.004722,0.169700,0.055704,0.175644,0.175645,0.171234,0.903624,0.000000,0.000000,0.000000,0.000000,0.000000,0.000000,0.000000,0.000000,0.000000,0.000000,0.000000,0.000000,0.164796,3,0
530000,0.004715,13.548120,0.042007,0.027185,25.159657,-0.033902,0.000286,0.002571,1.571765,-0.009884,-0.000207,-0.000262,0.000013,-0.000609,-0.000003,0.002494,-0.004857,0.111974,0.053423,0.175681,0.175681,0.170914,0.897302,0.000000,0.000000,0.000000,0.000000,0.000000,0.000000,0.000000,0.000000,0.000000,0.000000,0.000000,0.000000,0.108797,3,0
540000,0.004846,13.806016,0.042024,0.027522,25.169598,-0.034204,0.000294,0.002815,1.571786,-0.010628,-0.000224,-0.000307,0.000015,-0.000669,-0.000004,0.007503,-0.004992,0.214915,0.012786,0.175785,0.175786,0.170658,0.890828,0.000000,0.000000,0.000000,0.000000,0.000000,0.000000,0.000000,0.000000,0.000000,0.000000,0.000000,0.000000,0.208675,3,0
550000,0.004976,14.063447,0.041753,0.027830,25.178751,-0.034627,0.000302,0.003043,1.571808,-0.011323,-0.000242,-0.000316,0.000016,-0.000726,-0.000004,0.006187,-0.005126,0.195469,0.002694,0.175952,0.175953,0.170460,0.884209,0.000000,0.000000,0.000000,0.000000,0.000000,0.000000,0.000000,0.000000,0.000000,0.000000,0.000000,0.000000,0.189802,3,0
560000,0.005105,14.318669,0.040230,0.028113,25.184422,-0.036792,0.000311,0.003192,1.571824,-0.011750,-0.000261,-0.000164,0.000018,-0.000762,-0.000004,0.002490,-0.005260,0.116855,-0.041292,0.176177,0.176178,0.170314,0.877452,0.000000,0.000000,0.000000,0.000000,0.000000,0.000000,0.000000,0.000000,0.000000,0.000000,0.000000,0.000000,0.113538,3,0
570000,0.005234,14.578723,0.039174,0.028457,25.197712,-0.038302,0.000316,0.003553,1.571857,-0.012796,-0.000281,-0.000072,0.000019,-0.000851,-0.000005,0.012693,-0.005393,0.279033,-0.024066,0.176453,0.176454,0.170214,0.870564,0.000000,0.000000,0.000000,0.000000,0.000000,0.000000,0.000000,0.000000,0.000000,0.000000,0.000000,0.000000,0.270877,3,0
580000,0.005362,14.837116,0.038426,0.028791,25.208342,-0.039725,0.000310,0.003838,1.571873,-0.013632,-0.000302,-0.000024,0.000021,-0.000924,-0.000005,0.007692,-0.005525,0.217636,-0.012555,0.176777,0.176778,0.170157,0.863552,0.000000,0.000000,0.000000,0.000000,0.000000,0.000000,0.000000,0.000000,0.000000,0.000000,0.000000,0.000000,0.211292,3,0
590000,0.005489,15.096800,0.039651,0.029174,25.220884,-0.038007,0.000301,0.004200,1.571887,-0.014645,-0.000324,-0.000253,0.000023,-0.001014,-0.000006,0.011248,-0.005656,0.257320,0.057397,0.177144,0.177144,0.170138,0.856425,0.000000,0.000000,0.000000,0.000000,0.000000,0.000000,0.000000,0.000000,0.000000,0.000000,0.000000,0.000000,0.249784,3,0
600000,0.005615,15.354822,0.039011,0.029440,25.230801,-0.039277,0.000296,0.004483,1.571917,-0.015435,-0.000347,-0.000217,0.000025,-0.001085,-0.000006,0.006250,-0.005786,0.196299,-0.008833,0.177548,0.177549,0.170152,0.849190,0.000000,0.000000,0.000000,0.000000,0.000000,0.000000,0.000000,0.000000,0.000000,0.000000,0.000000,0.000000,0.190573,3,0
610000,0.005740,15.613556,0.038846,0.029796,25.241699,-0.039609,0.000286,0.004807,1.571934,-0.016326,-0.000371,-0.000252,0.000028,-0.001168,-0.000007,0.007596,-0.005916,0.216484,0.008223,0.177987,0.177988,0.170195,0.841855,0.000000,0.000000,0.000000,0.000000,0.000000,0.000000,0.000000,0.000000,0.000000,0.000000,0.000000,0.000000,0.210140,3,0
620000,0.005864,15.870631,0.038066,0.029996,25.249931,-0.040867,0.000294,0.005043,1.571952,-0.016985,-0.000396,-0.000195,0.000030,-0.001230,-0.000007,0.003991,-0.006043,0.156427,-0.013267,0.178456,0.178457,0.170265,0.834428,0.000000,0.000000,0.000000,0.000000,0.000000,0.000000,0.000000,0.000000,0.000000,0.000000,0.000000,0.000000,0.151888,3,0
630000,0.005985,16.131395,0.038408,0.030292,25.264101,-0.040627,0.000282,0.005479,1.571982,-0.018174,-0.000422,-0.000312,0.000033,-0.001344,-0.000008,0.012526,-0.006170,0.276972,0.026731,0.178952,0.178953,0.170356,0.826917,0.000000,0.000000,0.000000,0.000000,0.000000,0.000000,0.000000,0.000000,0.000000,0.000000,0.000000,0.000000,0.268778,3,0
640000,0.006106,16.390469,0.037336,0.030512,25.275507,-0.042400,0.000277,0.005826,1.571996,-0.019116,-0.000449,-0.000209,0.000035,-0.001436,-0.000008,0.007557,-0.006294,0.214853,-0.023172,0.179470,0.179471,0.170465,0.819331,0.000000,0.000000,0.000000,0.000000,0.000000,0.000000,0.000000,0.000000,0.000000,0.000000,0.000000,0.000000,0.208517,3,0
650000,0.006224,16.650249,0.038263,0.030852,25.287918,-0.041122,0.000274,0.006221,1.572027,-0.020162,-0.000477,-0.000428,0.000038,-0.001540,-0.000009,0.009226,-0.006417,0.233971,0.047782,0.180009,0.180010,0.170591,0.811677,0.000000,0.000000,0.000000,0.000000,0.000000,0.000000,0.000000,0.000000,0.000000,0.000000,0.000000,0.000000,0.227037,3,0
660000,0.006341,16.910730,0.037681,0.031007,25.301430,-0.041933,0.000264,0.006648,1.572057,-0.021311,-0.000507,-0.000401,0.000041,-0.001656,-0.000009,0.010308,-0.006538,0.252369,-0.005809,0.180564,0.180565,0.170729,0.803963,0.000000,0.000000,0.000000,0.000000,0.000000,0.000000,0.000000,0.000000,0.000000,0.000000,0.000000,0.000000,0.244856,3,0
670000,0.006456,17.168304,0.037627,0.031277,25.309902,-0.042145,0.000264,0.006919,1.572071,-0.022011,-0.000537,-0.000464,0.000044,-0.001728,-0.000010,0.003710,-0.006657,0.150784,0.013076,0.181132,0.181133,0.170877,0.796198,0.000000,0.000000,0.000000,0.000000,0.000000,0.000000,0.000000,0.000000,0.000000,0.000000,0.000000,0.000000,0.146373,3,0
680000,0.006570,17.425999,0.037331,0.031534,25.318428,-0.042512,0.000257,0.007190,1.572098,-0.022726,-0.000569,-0.000487,0.000048,-0.001804,-0.000010,0.003723,-0.006775,0.151552,0.004603,0.181712,0.181713,0.171033,0.788390,0.000000,0.000000,0.000000,0.000000,0.000000,0.000000,0.000000,0.000000,0.000000,0.000000,0.000000,0.000000,0.147110,3,0
690000,0.006681,17.682606,0.036506,0.031721,25.324997,-0.043837,0.000260,0.007408,1.572115,-0.023266,-0.000602,-0.000418,0.000051,-0.001861,-0.000011,0.002082,-0.006891,0.112440,-0.013776,0.182300,0.182302,0.171194,0.780546,0.000000,0.000000,0.000000,0.000000,0.000000,0.000000,0.000000,0.000000,0.000000,0.000000,0.000000,0.000000,0.109229,3,0
700000,0.006792,17.940557,0.036561,0.032028,25.333937,-0.043790,0.000250,0.007712,1.572131,-0.024017,-0.000636,-0.000507,0.000055,-0.001943,-0.000011,0.003887,-0.007005,0.153948,0.017514,0.182895,0.182896,0.171357,0.772674,0.000000,0.000000,0.000000,0.000000,0.000000,0.000000,0.000000,0.000000,0.000000,0.000000,0.000000,0.000000,0.149410,3,0
710000,0.006899,18.198627,0.037784,0.032234,25.342993,-0.041936,0.000241,0.008017,1.572155,-0.024781,-0.000670,-0.000808,0.000059,-0.002028,-0.000011,0.004407,-0.007118,0.154333,0.058328,0.183493,0.183495,0.171522,0.764782,0.000000,0.000000,0.000000,0.000000,0.000000,0.000000,0.000000,0.000000,0.000000,0.000000,0.000000,0.000000,0.149771,3,0
720000,0.007006,18.460470,0.037765,0.032422,25.358454,-0.042055,0.000226,0.008553,1.572190,-0.026159,-0.000706,-0.000883,0.000063,-0.002183,-0.000012,0.012159,-0.007227,0.273872,0.014219,0.184094,0.184095,0.171686,0.756878,0.000000,0.000000,0.000000,0.000000,0.000000,0.000000,0.000000,0.000000,0.000000,0.000000,0.000000,0.000000,0.265561,3,0
730000,0.007109,18.722383,0.038046,0.032613,25.373793,-0.041640,0.000219,0.009109,1.572221,-0.027539,-0.000743,-0.001016,0.000067,-0.002341,-0.000013,0.011910,-0.007336,0.270302,0.024707,0.184694,0.184695,0.171847,0.748969,0.000000,0.000000,0.000000,0.000000,0.000000,0.000000,0.000000,0.000000,0.000000,0.000000,0.000000,0.000000,0.262078,3,0
740000,0.007211,18.984369,0.038211,0.032733,25.389175,-0.041432,0.000210,0.009656,1.572245,-0.028920,-0.000781,-0.001128,0.000072,-0.002502,-0.000014,0.011562,-0.007441,0.266657,0.020521,0.185292,0.185294,0.172003,0.741061,0.000000,0.000000,0.000000,0.000000,0.000000,0.000000,0.000000,0.000000,0.000000,0.000000,0.000000,0.000000,0.258522,3,0
750000,0.007309,19.241491,0.037641,0.032816,25.395817,-0.042266,0.000209,0.009888,1.572267,-0.029465,-0.000820,-0.001100,0.000076,-0.002567,-0.000015,0.001757,-0.007543,0.103912,-0.005219,0.185888,0.185889,0.172155,0.733162,0.000000,0.000000,0.000000,0.000000,0.000000,0.000000,0.000000,0.000000,0.000000,0.000000,0.000000,0.000000,0.100958,3,0
760000,0.007405,19.500584,0.038767,0.033003,25.405962,-0.040820,0.000197,0.010243,1.572289,-0.030341,-0.000860,-0.001403,0.000081,-0.002673,-0.000015,0.004871,-0.007644,0.164785,0.054247,0.186478,0.186480,0.172299,0.725280,0.000000,0.000000,0.000000,0.000000,0.000000,0.000000,0.000000,0.000000,0.000000,0.000000,0.000000,0.000000,0.159836,3,0
770000,0.007499,19.758530,0.037438,0.033073,25.413988,-0.042904,0.000177,0.010535,1.572306,-0.031010,-0.000901,-0.001224,0.000086,-0.002755,-0.000016,0.002667,-0.007740,0.124260,-0.031799,0.187063,0.187064,0.172436,0.717419,0.000000,0.000000,0.000000,0.000000,0.000000,0.000000,0.000000,0.000000,0.000000,0.000000,0.000000,0.000000,0.120619,3,0
780000,0.007589,20.019068,0.038413,0.033115,25.426373,-0.041347,0.000158,0.010993,1.572340,-0.032122,-0.000943,-0.001507,0.000092,-0.002893,-0.000016,0.007129,-0.007835,0.204176,0.049009,0.187640,0.187641,0.172563,0.709586,0.000000,0.000000,0.000000,0.000000,0.000000,0.000000,0.000000,0.000000,0.000000,0.000000,0.000000,0.000000,0.197936,3,0
790000,0.007677,20.278431,0.038585,0.033279,25.436581,-0.041178,0.000144,0.011382,1.572372,-0.033016,-0.000986,-0.001628,0.000097,-0.003007,-0.000017,0.004325,-0.007926,0.162182,0.020582,0.188209,0.188210,0.172680,0.701788,0.000000,0.000000,0.000000,0.000000,0.000000,0.000000,0.000000,0.000000,0.000000,0.000000,0.000000,0.000000,0.157282,3,0
800000,0.007762,20.540380,0.039712,0.033351,25.451071,-0.039617,0.000131,0.011944,1.572402,-0.034356,-0.001030,-0.001948,0.000103,-0.003180,-0.000018,0.009826,-0.008015,0.240660,0.053699,0.188768,0.188770,0.172787,0.694030,0.000000,0.000000,0.000000,0.000000,0.000000,0.000000,0.000000,0.000000,0.000000,0.000000,0.000000,0.000000,0.233217,3,0
810000,0.007846,20.798618,0.040120,0.033492,25.458897,-0.039307,0.000118,0.012248,1.572419,-0.035019,-0.001075,-0.002118,0.000109,-0.003267,-0.000019,0.002376,-0.008102,0.117714,0.028212,0.189318,0.189319,0.172882,0.686318,0.000000,0.000000,0.000000,0.000000,0.000000,0.000000,0.000000,0.000000,0.000000,0.000000,0.000000,0.000000,0.114270,3,0
820000,0.007926,21.058836,0.040329,0.033552,25.470076,-0.039036,0.000114,0.012698,1.572438,-0.036029,-0.001121,-0.002248,0.000116,-0.003401,-0.000019,0.005166,-0.008186,0.177462,0.021110,0.189856,0.189858,0.172965,0.678657,0.000000,0.000000,0.000000,0.000000,0.000000,0.000000,0.000000,0.000000,0.000000,0.000000,0.000000,0.000000,0.172029,3,0
830000,0.008005,21.321014,0.041391,0.033707,25.484632,-0.037746,0.000110,0.013292,1.572473,-0.037380,-0.001168,-0.002562,0.000122,-0.003584,-0.000020,0.009354,-0.008268,0.235193,0.050691,0.190384,0.190385,0.173035,0.671051,0.000000,0.000000,0.000000,0.000000,0.000000,0.000000,0.000000,0.000000,0.000000,0.000000,0.000000,0.000000,0.227870,3,0
840000,0.008083,21.580706,0.039994,0.033818,25.494749,-0.040084,0.000096,0.013682,1.572490,-0.038260,-0.001216,-0.002345,0.000129,-0.003705,-0.000021,0.003927,-0.008348,0.151779,-0.035046,0.190899,0.190901,0.173092,0.663507,0.000000,0.000000,0.000000,0.000000,0.000000,0.000000,0.000000,0.000000,0.000000,0.000000,0.000000,0.000000,0.147172,3,0
850000,0.008158,21.841103,0.039474,0.033904,25.505941,-0.041115,0.000077,0.014142,1.572509,-0.039257,-0.001265,-0.002322,0.000135,-0.003844,-0.000022,0.004693,-0.008426,0.170290,-0.003808,0.191402,0.191403,0.173136,0.656027,0.000000,0.000000,0.000000,0.000000,0.000000,0.000000,0.000000,0.000000,0.000000,0.000000,0.000000,0.000000,0.165060,3,0
860000,0.008230,22.100286,0.039591,0.034012,25.514715,-0.040894,0.000059,0.014489,1.572521,-0.040015,-0.001314,-0.002442,0.000143,-0.003952,-0.000022,0.002729,-0.008503,0.128450,0.018487,0.191892,0.191893,0.173166,0.648617,0.000000,0.000000,0.000000,0.000000,0.000000,0.000000,0.000000,0.000000,0.000000,0.000000,0.000000,0.000000,0.124614,3,0
870000,0.008301,22.361452,0.040705,0.034144,25.526911,-0.039387,0.000039,0.015005,1.572550,-0.041128,-0.001364,-0.002787,0.000150,-0.004113,-0.000023,0.006123,-0.008577,0.187241,0.053031,0.192368,0.192370,0.173181,0.641280,0.000000,0.000000,0.000000,0.000000,0.000000,0.000000,0.000000,0.000000,0.000000,0.000000,0.000000,0.000000,0.181428,3,0
880000,0.008371,22.619469,0.039656,0.034261,25.533386,-0.041151,0.000032,0.015265,1.572570,-0.041638,-0.001416,-0.002641,0.000158,-0.004188,-0.000024,0.001258,-0.008648,0.084986,-0.022381,0.192832,0.192834,0.173183,0.634019,0.000000,0.000000,0.000000,0.000000,0.000000,0.000000,0.000000,0.000000,0.000000,0.000000,0.000000,0.000000,0.082679,3,0
890000,0.008437,22.880772,0.039884,0.034241,25.545660,-0.040968,0.000013,0.015797,1.572603,-0.042754,-0.001468,-0.002792,0.000166,-0.004354,-0.000025,0.005598,-0.008718,0.184721,0.022435,0.193282,0.193284,0.173171,0.626840,0.000000,0.000000,0.000000,0.000000,0.000000,0.000000,0.000000,0.000000,0.000000,0.000000,0.000000,0.000000,0.178969,3,0
900000,0.008500,23.140829,0.040091,0.034234,25.555525,-0.040792,0.000001,0.016208,1.572627,-0.043618,-0.001521,-0.002939,0.000174,-0.004484,-0.000025,0.003339,-0.008784,0.141966,0.021651,0.193719,0.193721,0.173144,0.619743,0.000000,0.000000,0.000000,0.000000,0.000000,0.000000,0.000000,0.000000,0.000000,0.000000,0.000000,0.000000,0.137645,3,0
910000,0.008561,23.399652,0.040170,0.034224,25.563110,-0.040730,-0.000026,0.016516,1.572649,-0.044234,-0.001574,-0.003056,0.000182,-0.004579,-0.000026,0.001688,-0.008847,0.100477,0.017125,0.194143,0.194144,0.173104,0.612733,0.000000,0.000000,0.000000,0.000000,0.000000,0.000000,0.000000,0.000000,0.000000,0.000000,0.000000,0.000000,0.097603,3,0
920000,0.008618,23.659189,0.040570,0.034199,25.571791,-0.040206,-0.000052,0.016879,1.572679,-0.044973,-0.001629,-0.003250,0.000191,-0.004694,-0.000027,0.002459,-0.008908,0.119881,0.028241,0.194553,0.194554,0.173049,0.605812,0.000000,0.000000,0.000000,0.000000,0.000000,0.000000,0.000000,0.000000,0.000000,0.000000,0.000000,0.000000,0.116313,3,0
930000,0.008675,23.919430,0.039425,0.034278,25.581604,-0.042168,-0.000071,0.017311,1.572695,-0.045833,-0.001684,-0.003077,0.000199,-0.004831,-0.000027,0.003214,-0.008966,0.138563,-0.025445,0.194950,0.194951,0.172980,0.598982,0.000000,0.000000,0.000000,0.000000,0.000000,0.000000,0.000000,0.000000,0.000000,0.000000,0.000000,0.000000,0.134340,3,0
940000,0.008729,24.177774,0.038560,0.034220,25.588049,-0.043325,-0.000095,0.017572,1.572715,-0.046314,-0.001740,-0.002972,0.000208,-0.004908,-0.000028,0.001007,-0.009023,0.077013,-0.015162,0.195334,0.195335,0.172897,0.592247,0.000000,0.000000,0.000000,0.000000,0.000000,0.000000,0.000000,0.000000,0.000000,0.000000,0.000000,0.000000,0.075015,3,0
950000,0.008780,24.441376,0.038410,0.034198,25.603611,-0.043827,-0.000112,0.018300,1.572742,-0.047795,-0.001796,-0.003049,0.000217,-0.005150,-0.000029,0.009015,-0.009077,0.236061,0.010224,0.195704,0.195706,0.172800,0.585607,0.000000,0.000000,0.000000,0.000000,0.000000,0.000000,0.000000,0.000000,0.000000,0.000000,0.000000,0.000000,0.228530,3,0
960000,0.008828,24.702375,0.037984,0.034098,25.614498,-0.044466,-0.000134,0.018782,1.572757,-0.048749,-0.001852,-0.003056,0.000227,-0.005309,-0.000030,0.003700,-0.009127,0.151213,0.000687,0.196063,0.196064,0.172690,0.579064,0.000000,0.000000,0.000000,0.000000,0.000000,0.000000,0.000000,0.000000,0.000000,0.000000,0.000000,0.000000,0.146537,3,0
970000,0.008873,24.962755,0.038963,0.034064,25.624138,-0.043363,-0.000153,0.019215,1.572786,-0.049564,-0.001910,-0.003416,0.000237,-0.005446,-0.000031,0.003084,-0.009174,0.128649,0.049869,0.196408,0.196410,0.172567,0.572621,0.000000,0.000000,0.000000,0.000000,0.000000,0.000000,0.000000,0.000000,0.000000,0.000000,0.000000,0.000000,0.124753,3,0
980000,0.008916,25.221867,0.039044,0.034038,25.631294,-0.043317,-0.000180,0.019521,1.572811,-0.050116,-0.001968,-0.003550,0.000247,-0.005540,-0.000032,0.001283,-0.009218,0.086843,0.018179,0.196742,0.196743,0.172430,0.566279,0.000000,0.000000,0.000000,0.000000,0.000000,0.000000,0.000000,0.000000,0.000000,0.000000,0.000000,0.000000,0.084468,3,0
990000,0.008958,25.483643,0.038029,0.034064,25.643126,-0.044772,-0.000205,0.020088,1.572842,-0.051176,-0.002026,-0.003407,0.000257,-0.005724,-0.000033,0.004499,-0.009262,0.165598,-0.019961,0.197064,0.197065,0.172281,0.560038,0.000000,0.000000,0.000000,0.000000,0.000000,0.000000,0.000000,0.000000,0.000000,0.000000,0.000000,0.000000,0.160408,3,0
1000000,0.008998,25.745430,0.038128,0.034126,25.654770,-0.044827,-0.000225,0.020635,1.572866,-0.052217,-0.002085,-0.003554,0.000268,-0.005908,-0.000034,0.004312,-0.009305,0.162130,0.019412,0.197374,0.197375,0.172120,0.553899,0.000000,0.000000,0.000000,0.000000,0.000000,0.000000,0.000000,0.000000,0.000000,0.000000,0.000000,0.000000,0.157055,3,0
1010000,0.009037,26.005264,0.037660,0.034174,25.662943,-0.045713,-0.000253,0.020989,1.572881,-0.052855,-0.002145,-0.003554,0.000278,-0.006022,-0.000034,0.001594,-0.009345,0.099014,-0.000351,0.197674,0.197675,0.171946,0.547865,0.000000,0.000000,0.000000,0.000000,0.000000,0.000000,0.000000,0.000000,0.000000,0.000000,0.000000,0.000000,0.096178,3,0
1020000,0.009076,26.266447,0.036443,0.034197,25.673311,-0.047589,-0.000274,0.021484,1.572906,-0.053744,-0.002205,-0.003361,0.000289,-0.006184,-0.000035,0.003163,-0.009385,0.137283,-0.026182,0.197962,0.197963,0.171761,0.541934,0.000000,0.000000,0.000000,0.000000,0.000000,0.000000,0.000000,0.000000,0.000000,0.000000,0.000000,0.000000,0.133063,3,0
1030000,0.009110,26.528305,0.036811,0.034105,25.684820,-0.047003,-0.000305,0.022034,1.572922,-0.054745,-0.002265,-0.003591,0.000301,-0.006368,-0.000036,0.003995,-0.009422,0.154297,0.029817,0.198241,0.198241,0.171565,0.536109,0.000000,0.000000,0.000000,0.000000,0.000000,0.000000,0.000000,0.000000,0.000000,0.000000,0.000000,0.000000,0.149476,3,0
1040000,0.009142,26.791481,0.037001,0.033997,25.698378,-0.046955,-0.000337,0.022728,1.572947,-0.055985,-0.002325,-0.003775,0.000312,-0.006600,-0.000038,0.005953,-0.009456,0.190512,0.023546,0.198509,0.198510,0.171358,0.530388,0.000000,0.000000,0.000000,0.000000,0.000000,0.000000,0.000000,0.000000,0.000000,0.000000,0.000000,0.000000,0.184437,3,0
1050000,0.009173,27.053982,0.036711,0.033961,25.710590,-0.047571,-0.000366,0.023338,1.572967,-0.057067,-0.002386,-0.003832,0.000324,-0.006806,-0.000039,0.004449,-0.009487,0.165745,0.006717,0.198769,0.198769,0.171140,0.524773,0.000000,0.000000,0.000000,0.000000,0.000000,0.000000,0.000000,0.000000,0.000000,0.000000,0.000000,0.000000,0.160516,3,0
1060000,0.009201,27.313177,0.036540,0.033901,25.716885,-0.047788,-0.000393,0.023597,1.572984,-0.057474,-0.002448,-0.003918,0.000336,-0.006884,-0.000039,0.000657,-0.009517,0.062153,0.010961,0.199019,0.199019,0.170911,0.519262,0.000000,0.000000,0.000000,0.000000,0.000000,0.000000,0.000000,0.000000,0.000000,0.000000,0.000000,0.000000,0.060791,3,0
1070000,0.009227,27.573730,0.036240,0.033752,25.725550,-0.048414,-0.000430,0.024012,1.573000,-0.058137,-0.002510,-0.003973,0.000348,-0.007014,-0.000040,0.001668,-0.009545,0.101078,0.006639,0.199261,0.199261,0.170674,0.513858,0.000000,0.000000,0.000000,0.000000,0.000000,0.000000,0.000000,0.000000,0.000000,0.000000,0.000000,0.000000,0.098156,3,0
1080000,0.009250,27.832317,0.036654,0.033658,25.730713,-0.047760,-0.000467,0.024200,1.573025,-0.058394,-0.002573,-0.004224,0.000361,-0.007065,-0.000040,0.000427,-0.009570,0.039227,0.031830,0.199494,0.199494,0.170426,0.508559,0.000000,0.000000,0.000000,0.000000,0.000000,0.000000,0.000000,0.000000,0.000000,0.000000,0.000000,0.000000,0.039036,3,0
1090000,0.009273,28.091612,0.036547,0.033648,25.736881,-0.047931,-0.000498,0.024468,1.573046,-0.058782,-0.002635,-0.004332,0.000374,-0.007143,-0.000041,0.000603,-0.009593,0.058893,0.013378,0.199721,0.199720,0.170170,0.503364,0.000000,0.000000,0.000000,0.000000,0.000000,0.000000,0.000000,0.000000,0.000000,0.000000,0.000000,0.000000,0.057683,3,0
1100000,0.009295,28.355577,0.035052,0.033573,25.751240,-0.049878,-0.000528,0.025241,1.573078,-0.060083,-0.002698,-0.004057,0.000386,-0.007410,-0.000042,0.006479,-0.009614,0.197117,-0.035494,0.199940,0.199939,0.169905,0.498273,0.000000,0.000000,0.000000,0.000000,0.000000,0.000000,0.000000,0.000000,0.000000,0.000000,0.000000,0.000000,0.190775,3,0
1110000,0.009314,28.619505,0.034905,0.033513,25.765396,-0.050196,-0.000566,0.025994,1.573111,-0.061348,-0.002760,-0.004168,0.000399,-0.007672,-0.000044,0.005946,-0.009636,0.191431,0.012912,0.200152,0.200152,0.169633,0.493287,0.000000,0.000000,0.000000,0.000000,0.000000,0.000000,0.000000,0.000000,0.000000,0.000000,0.000000,0.000000,0.185279,3,0
1120000,0.009332,28.878746,0.034957,0.033512,25.771214,-0.050150,-0.000588,0.026234,1.573138,-0.061656,-0.002824,-0.004330,0.000413,-0.007737,-0.000044,0.000430,-0.009655,0.046635,0.019921,0.200358,0.200358,0.169352,0.488405,0.000000,0.000000,0.000000,0.000000,0.000000,0.000000,0.000000,0.000000,0.000000,0.000000,0.000000,0.000000,0.046034,3,0
1130000,0.009349,29.140011,0.034345,0.033488,25.780432,-0.050928,-0.000614,0.026688,1.573169,-0.062354,-0.002887,-0.004306,0.000426,-0.007886,-0.000045,0.001807,-0.009672,0.105398,-0.003570,0.200559,0.200558,0.169064,0.483624,0.000000,0.000000,0.000000,0.000000,0.000000,0.000000,0.000000,0.000000,0.000000,0.000000,0.000000,0.000000,0.102303,3,0
1140000,0.009364,29.398615,0.033558,0.033359,25.784847,-0.052091,-0.000638,0.026839,1.573194,-0.062506,-0.002951,-0.004228,0.000440,-0.007919,-0.000045,0.000115,-0.009688,0.022949,-0.009573,0.200754,0.200753,0.168769,0.478946,0.000000,0.000000,0.000000,0.000000,0.000000,0.000000,0.000000,0.000000,0.000000,0.000000,0.000000,0.000000,0.024076,3,0
1150000,0.009376,29.659920,0.033303,0.033151,25.794039,-0.052585,-0.000668,0.027300,1.573216,-0.063184,-0.003015,-0.004314,0.000454,-0.008068,-0.000046,0.001715,-0.009702,0.102242,0.009896,0.200944,0.200943,0.168468,0.474369,0.000000,0.000000,0.000000,0.000000,0.000000,0.000000,0.000000,0.000000,0.000000,0.000000,0.000000,0.000000,0.099262,3,0
1160000,0.009388,29.918554,0.031897,0.033102,25.798292,-0.054582,-0.000697,0.027441,1.573228,-0.063316,-0.003079,-0.004057,0.000468,-0.008098,-0.000047,0.000235,-0.009713,0.019756,-0.031090,0.201130,0.201128,0.168160,0.469891,0.000000,0.000000,0.000000,0.000000,0.000000,0.000000,0.000000,0.000000,0.000000,0.000000,0.000000,0.000000,0.021276,3,0
1170000,0.009395,30.177887,0.033220,0.032918,25.803768,-0.052782,-0.000739,0.027657,1.573256,-0.063575,-0.003143,-0.004620,0.000484,-0.008156,-0.000047,0.000994,-0.009723,0.039385,0.067098,0.201311,0.201309,0.167847,0.465513,0.000000,0.000000,0.000000,0.000000,0.000000,0.000000,0.000000,0.000000,0.000000,0.000000,0.000000,0.000000,0.039209,3,0
1180000,0.009403,30.441254,0.032276,0.032886,25.816242,-0.054021,-0.000780,0.028345,1.573290,-0.064622,-0.003206,-0.004506,0.000498,-0.008397,-0.000048,0.004054,-0.009730,0.157696,-0.014436,0.201489,0.201487,0.167528,0.461233,0.000000,0.000000,0.000000,0.000000,0.000000,0.000000,0.000000,0.000000,0.000000,0.000000,0.000000,0.000000,0.152689,3,0
1190000,0.009407,30.703241,0.033258,0.032693,25.826162,-0.052632,-0.000825,0.028863,1.573314,-0.065368,-0.003270,-0.004979,0.000513,-0.008570,-0.000049,0.002558,-0.009736,0.112871,0.055032,0.201664,0.201661,0.167205,0.457050,0.000000,0.000000,0.000000,0.000000,0.000000,0.000000,0.000000,0.000000,0.000000,0.000000,0.000000,0.000000,0.109484,3,0
1200000,0.009412,30.962538,0.031821,0.032548,25.831341,-0.054694,-0.000862,0.029065,1.573330,-0.065566,-0.003334,-0.004704,0.000528,-0.008617,-0.000050,0.000327,-0.009738,0.029694,-0.032380,0.201836,0.201832,0.166876,0.452964,0.000000,0.000000,0.000000,0.000000,0.000000,0.000000,0.000000,0.000000,0.000000,0.000000,0.000000,0.000000,0.030196,3,0
1210000,0.009413,31.223190,0.032046,0.032459,25.838781,-0.054432,-0.000893,0.029413,1.573349,-0.066019,-0.003398,-0.004950,0.000544,-0.008726,-0.000050,0.000900,-0.009742,0.068529,0.028166,0.202005,0.202001,0.166544,0.448972,0.000000,0.000000,0.000000,0.000000,0.000000,0.000000,0.000000,0.000000,0.000000,0.000000,0.000000,0.000000,0.066889,3,0
1220000,0.009412,31.483171,0.033267,0.032393,25.844990,-0.052903,-0.000926,0.029684,1.573375,-0.066323,-0.003461,-0.005506,0.000560,-0.008799,-0.000051,0.001027,-0.009743,0.046349,0.064099,0.202172,0.202168,0.166207,0.445073,0.000000,0.000000,0.000000,0.000000,0.000000,0.000000,0.000000,0.000000,0.000000,0.000000,0.000000,0.000000,0.045769,3,0
1230000,0.009414,31.747189,0.031956,0.032294,25.858259,-0.054708,-0.000958,0.030430,1.573397,-0.067409,-0.003525,-0.005275,0.000576,-0.009067,-0.000052,0.004471,-0.009741,0.164001,-0.027676,0.202337,0.202332,0.165867,0.441267,0.000000,0.000000,0.000000,0.000000,0.000000,0.000000,0.000000,0.000000,0.000000,0.000000,0.000000,0.000000,0.158749,3,0
1240000,0.009412,32.006451,0.032114,0.032193,25.862875,-0.054710,-0.001002,0.030585,1.573406,-0.067534,-0.003589,-0.005503,0.000592,-0.009098,-0.000053,0.000183,-0.009741,0.019127,0.025908,0.202500,0.202496,0.165524,0.437552,0.000000,0.000000,0.000000,0.000000,0.000000,0.000000,0.000000,0.000000,0.000000,0.000000,0.000000,0.000000,0.020741,3,0
1250000,0.009408,32.266399,0.032107,0.031997,25.868742,-0.054564,-0.001043,0.030815,1.573421,-0.067785,-0.003652,-0.005680,0.000608,-0.009162,-0.000053,0.000314,-0.009737,0.038128,0.019906,0.202663,0.202657,0.165178,0.433927,0.000000,0.000000,0.000000,0.000000,0.000000,0.000000,0.000000,0.000000,0.000000,0.000000,0.000000,0.000000,0.038025,3,0
1260000,0.009403,32.525017,0.030849,0.031774,25.872143,-0.056069,-0.001088,0.030879,1.573429,-0.067765,-0.003717,-0.005452,0.000625,-0.009157,-0.000053,0.000124,-0.009731,-0.003220,-0.025736,0.202824,0.202818,0.164829,0.430389,0.000000,0.000000,0.000000,0.000000,0.000000,0.000000,0.000000,0.000000,0.000000,0.000000,0.000000,0.000000,0.009905,3,0
1270000,0.009394,32.783657,0.031499,0.031527,25.875460,-0.055134,-0.001125,0.030933,1.573452,-0.067740,-0.003780,-0.005846,0.000642,-0.009150,-0.000053,0.000336,-0.009724,-0.003441,0.044359,0.202985,0.202979,0.164478,0.426939,0.000000,0.000000,0.000000,0.000000,0.000000,0.000000,0.000000,0.000000,0.000000,0.000000,0.000000,0.000000,0.009964,3,0
1280000,0.009382,33.043663,0.032513,0.031327,25.881235,-0.053707,-0.001166,0.031160,1.573465,-0.067974,-0.003843,-0.006363,0.000659,-0.009211,-0.000053,0.000761,-0.009713,0.036072,0.057528,0.203146,0.203139,0.164125,0.423574,0.000000,0.000000,0.000000,0.000000,0.000000,0.000000,0.000000,0.000000,0.000000,0.000000,0.000000,0.000000,0.036095,3,0
1290000,0.009371,33.307049,0.032154,0.031206,25.892891,-0.054112,-0.001197,0.031818,1.573498,-0.068849,-0.003905,-0.006437,0.000676,-0.009447,-0.000055,0.002907,-0.009700,0.133823,0.007076,0.203306,0.203299,0.163771,0.420293,0.000000,0.000000,0.000000,0.000000,0.000000,0.000000,0.000000,0.000000,0.000000,0.000000,0.000000,0.000000,0.129627,3,0
1300000,0.009356,33.571049,0.033006,0.030941,25.905548,-0.052975,-0.001247,0.032564,1.573518,-0.069817,-0.003966,-0.006917,0.000694,-0.009710,-0.000056,0.004007,-0.009686,0.148628,0.051762,0.203467,0.203459,0.163415,0.417095,0.000000,0.000000,0.000000,0.000000,0.000000,0.000000,0.000000,0.000000,0.000000,0.000000,0.000000,0.000000,0.143897,3,0
1310000,0.009341,33.834995,0.032314,0.030772,25.917959,-0.054113,-0.001284,0.033288,1.573540,-0.070747,-0.004028,-0.006881,0.000711,-0.009968,-0.000058,0.003309,-0.009669,0.142925,-0.005230,0.203628,0.203620,0.163058,0.413979,0.000000,0.000000,0.000000,0.000000,0.000000,0.000000,0.000000,0.000000,0.000000,0.000000,0.000000,0.000000,0.138389,3,0
1320000,0.009324,34.098873,0.032543,0.030639,25.930052,-0.053744,-0.001322,0.033986,1.573563,-0.071637,-0.004089,-0.007157,0.000729,-0.010218,-0.000059,0.003186,-0.009653,0.137283,0.029029,0.203790,0.203781,0.162700,0.410942,0.000000,0.000000,0.000000,0.000000,0.000000,0.000000,0.000000,0.000000,0.000000,0.000000,0.000000,0.000000,0.132949,3,0
1330000,0.009307,34.361336,0.032701,0.030502,25.939440,-0.053569,-0.001360,0.034503,1.573593,-0.072231,-0.004150,-0.007406,0.000747,-0.010387,-0.000060,0.001488,-0.009635,0.091949,0.026220,0.203953,0.203943,0.162342,0.407984,0.000000,0.000000,0.000000,0.000000,0.000000,0.000000,0.000000,0.000000,0.000000,0.000000,0.000000,0.000000,0.089311,3,0
1340000,0.009289,34.621052,0.032243,0.030363,25.943918,-0.054103,-0.001399,0.034635,1.573613,-0.072284,-0.004212,-0.007436,0.000765,-0.010402,-0.000061,0.000028,-0.009616,0.008301,0.003152,0.204117,0.204106,0.161983,0.405103,0.000000,0.000000,0.000000,0.000000,0.000000,0.000000,0.000000,0.000000,0.000000,0.000000,0.000000,0.000000,0.012271,3,0
1350000,0.009270,34.884830,0.031628,0.030197,25.955471,-0.054891,-0.001448,0.035313,1.573638,-0.073096,-0.004273,-0.007428,0.000782,-0.010640,-0.000062,0.002581,-0.009597,0.126240,-0.002078,0.204281,0.204271,0.161625,0.402297,0.000000,0.000000,0.000000,0.000000,0.000000,0.000000,0.000000,0.000000,0.000000,0.000000,0.000000,0.000000,0.122292,3,0
1360000,0.009250,35.145832,0.030495,0.029944,25.961994,-0.056507,-0.001483,0.035610,1.573655,-0.073361,-0.004334,-0.007233,0.000800,-0.010720,-0.000063,0.000362,-0.009575,0.041256,-0.021268,0.204448,0.204436,0.161266,0.399566,0.000000,0.000000,0.000000,0.000000,0.000000,0.000000,0.000000,0.000000,0.000000,0.000000,0.000000,0.000000,0.040908,3,0
1370000,0.009226,35.408836,0.031285,0.029789,25.971964,-0.055690,-0.001520,0.036164,1.573669,-0.073986,-0.004393,-0.007723,0.000819,-0.010907,-0.000064,0.001994,-0.009554,0.098255,0.051165,0.204615,0.204603,0.160908,0.396907,0.000000,0.000000,0.000000,0.000000,0.000000,0.000000,0.000000,0.000000,0.000000,0.000000,0.000000,0.000000,0.095357,3,0
1380000,0.009202,35.669075,0.031281,0.029644,25.977043,-0.055867,-0.001564,0.036327,1.573690,-0.074074,-0.004453,-0.007923,0.000838,-0.010934,-0.000064,0.000118,-0.009528,0.014057,0.021055,0.204784,0.204771,0.160551,0.394320,0.000000,0.000000,0.000000,0.000000,0.000000,0.000000,0.000000,0.000000,0.000000,0.000000,0.000000,0.000000,0.016404,3,0
1390000,0.009176,35.932014,0.031705,0.029414,25.986765,-0.055505,-0.001604,0.036872,1.573707,-0.074653,-0.004512,-0.008288,0.000857,-0.011113,-0.000065,0.001596,-0.009502,0.091709,0.037476,0.204955,0.204941,0.160194,0.391802,0.000000,0.000000,0.000000,0.000000,0.000000,0.000000,0.000000,0.000000,0.000000,0.000000,0.000000,0.000000,0.089055,3,0
1400000,0.009149,36.194225,0.030813,0.029126,25.995123,-0.056587,-0.001651,0.037305,1.573725,-0.075077,-0.004571,-0.008179,0.000875,-0.011247,-0.000066,0.000766,-0.009473,0.067219,-0.012171,0.205127,0.205112,0.159839,0.389352,0.000000,0.000000,0.000000,0.000000,0.000000,0.000000,0.000000,0.000000,0.000000,0.000000,0.000000,0.000000,0.065560,3,0
1410000,0.009117,36.453659,0.032017,0.028815,25.998365,-0.055294,-0.001710,0.037317,1.573745,-0.074972,-0.004629,-0.008818,0.000895,-0.011212,-0.000066,0.000782,-0.009443,-0.016167,0.066874,0.205301,0.205286,0.159485,0.386970,0.000000,0.000000,0.000000,0.000000,0.000000,0.000000,0.000000,0.000000,0.000000,0.000000,0.000000,0.000000,0.018074,3,0
1420000,0.009084,36.713768,0.032751,0.028515,26.002800,-0.054508,-0.001763,0.037434,1.573755,-0.074986,-0.004687,-0.009289,0.000915,-0.011215,-0.000066,0.000402,-0.009408,0.002674,0.048811,0.205477,0.205461,0.159132,0.384652,0.000000,0.000000,0.000000,0.000000,0.000000,0.000000,0.000000,0.000000,0.000000,0.000000,0.000000,0.000000,0.009446,3,0
1430000,0.009051,36.972511,0.032003,0.028199,26.004707,-0.055335,-0.001813,0.037340,1.573774,-0.074746,-0.004746,-0.009210,0.000934,-0.011136,-0.000066,0.000266,-0.009372,-0.038815,-0.007631,0.205655,0.205638,0.158780,0.382399,0.000000,0.000000,0.000000,0.000000,0.000000,0.000000,0.000000,0.000000,0.000000,0.000000,0.000000,0.000000,0.038564,3,0
1440000,0.009017,37.232620,0.031520,0.028031,26.009106,-0.055878,-0.001871,0.037440,1.573791,-0.074749,-0.004803,-0.009238,0.000953,-0.011137,-0.000066,0.000015,-0.009337,0.000607,0.002873,0.205835,0.205816,0.158431,0.380208,0.000000,0.000000,0.000000,0.000000,0.000000,0.000000,0.000000,0.000000,0.000000,0.000000,0.000000,0.000000,0.009036,3,0
1450000,0.008979,37.496124,0.031276,0.027678,26.019367,-0.056289,-0.001923,0.038032,1.573807,-0.075353,-0.004859,-0.009374,0.000972,-0.011342,-0.000067,0.001595,-0.009299,0.098278,0.012741,0.206016,0.205997,0.158083,0.378078,0.000000,0.000000,0.000000,0.000000,0.000000,0.000000,0.000000,0.000000,0.000000,0.000000,0.000000,0.000000,0.095330,3,0
1460000,0.008942,37.756828,0.030708,0.027484,26.024523,-0.057195,-0.001979,0.038193,1.573817,-0.075436,-0.004916,-0.009378,0.000992,-0.011370,-0.000067,0.000043,-0.009260,0.013577,0.000207,0.206200,0.206180,0.157738,0.376007,0.000000,0.000000,0.000000,0.000000,0.000000,0.000000,0.000000,0.000000,0.000000,0.000000,0.000000,0.000000,0.015870,3,0
1470000,0.008901,38.018864,0.031115,0.027243,26.032124,-0.056667,-0.002037,0.038547,1.573835,-0.075743,-0.004970,-0.009757,0.001012,-0.011477,-0.000068,0.000664,-0.009220,0.051006,0.037791,0.206386,0.206365,0.157395,0.373996,0.000000,0.000000,0.000000,0.000000,0.000000,0.000000,0.000000,0.000000,0.000000,0.000000,0.000000,0.000000,0.050057,3,0
1480000,0.008861,38.281544,0.030163,0.026951,26.040779,-0.057980,-0.002091,0.039000,1.573864,-0.076150,-0.005025,-0.009626,0.001031,-0.011621,-0.000069,0.000772,-0.009176,0.067204,-0.014045,0.206574,0.206552,0.157054,0.372042,0.000000,0.000000,0.000000,0.000000,0.000000,0.000000,0.000000,0.000000,0.000000,0.000000,0.000000,0.000000,0.065490,3,0
1490000,0.008817,38.541416,0.030689,0.026671,26.044119,-0.057422,-0.002153,0.039010,1.573872,-0.076048,-0.005079,-0.010048,0.001051,-0.011583,-0.000069,0.000352,-0.009133,-0.016655,0.042559,0.206764,0.206741,0.156715,0.370142,0.000000,0.000000,0.000000,0.000000,0.000000,0.000000,0.000000,0.000000,0.000000,0.000000,0.000000,0.000000,0.018334,3,0
1500000,0.008774,38.800598,0.029307,0.026363,26.046223,-0.059178,-0.002211,0.038921,1.573883,-0.075823,-0.005135,-0.009733,0.001071,-0.011502,-0.000068,0.000401,-0.009086,-0.038013,-0.030955,0.206956,0.206931,0.156380,0.368297,0.000000,0.000000,0.000000,0.000000,0.000000,0.000000,0.000000,0.000000,0.000000,0.000000,0.000000,0.000000,0.037743,3,0
1510000,0.008728,39.060448,0.029159,0.026104,26.049534,-0.059411,-0.002262,0.038914,1.573897,-0.075710,-0.005188,-0.009903,0.001091,-0.011460,-0.000068,0.000119,-0.009041,-0.018913,0.017245,0.207149,0.207124,0.156047,0.366505,0.000000,0.000000,0.000000,0.000000,0.000000,0.000000,0.000000,0.000000,0.000000,0.000000,0.000000,0.000000,0.020236,3,0
1520000,0.008680,39.319592,0.029429,0.025898,26.051470,-0.059021,-0.002321,0.038793,1.573909,-0.075472,-0.005241,-0.010233,0.001111,-0.011369,-0.000068,0.000454,-0.008992,-0.040249,0.033293,0.207345,0.207318,0.155717,0.364765,0.000000,0.000000,0.000000,0.000000,0.000000,0.000000,0.000000,0.000000,0.000000,0.000000,0.000000,0.000000,0.039811,3,0
1530000,0.008632,39.582855,0.029084,0.025628,26.060822,-0.059459,-0.002380,0.039321,1.573938,-0.075928,-0.005292,-0.010348,0.001131,-0.011543,-0.000069,0.001016,-0.008942,0.078285,0.010227,0.207542,0.207514,0.155390,0.363074,0.000000,0.000000,0.000000,0.000000,0.000000,0.000000,0.000000,0.000000,0.000000,0.000000,0.000000,0.000000,0.076072,3,0
1540000,0.008584,39.845360,0.028396,0.025369,26.068726,-0.060385,-0.002440,0.039705,1.573948,-0.076239,-0.005343,-0.010326,0.001151,-0.011663,-0.000070,0.000474,-0.008892,0.053474,-0.002981,0.207741,0.207712,0.155066,0.361433,0.000000,0.000000,0.000000,0.000000,0.000000,0.000000,0.000000,0.000000,0.000000,0.000000,0.000000,0.000000,0.052333,3,0
1550000,0.008532,40.104351,0.028862,0.025042,26.070089,-0.059841,-0.002496,0.039537,1.573968,-0.075948,-0.005393,-0.010742,0.001171,-0.011547,-0.000069,0.000695,-0.008840,-0.050079,0.041463,0.207941,0.207912,0.154745,0.359839,0.000000,0.000000,0.000000,0.000000,0.000000,0.000000,0.000000,0.000000,0.000000,0.000000,0.000000,0.000000,0.049083,3,0
1560000,0.008481,40.366100,0.027695,0.024731,26.076412,-0.061133,-0.002539,0.039791,1.573984,-0.076114,-0.005443,-0.010524,0.001191,-0.011614,-0.000070,0.000223,-0.008784,0.028862,-0.021671,0.208144,0.208113,0.154427,0.358292,0.000000,0.000000,0.000000,0.000000,0.000000,0.000000,0.000000,0.000000,0.000000,0.000000,0.000000,0.000000,0.029121,3,0
1570000,0.008425,40.627789,0.027964,0.024337,26.082508,-0.060990,-0.002586,0.040033,1.574004,-0.076257,-0.005492,-0.010887,0.001211,-0.011671,-0.000070,0.000313,-0.008730,0.025475,0.034789,0.208347,0.208315,0.154113,0.356789,0.000000,0.000000,0.000000,0.000000,0.000000,0.000000,0.000000,0.000000,0.000000,0.000000,0.000000,0.000000,0.026000,3,0
1580000,0.008369,40.888046,0.027747,0.024026,26.085957,-0.061397,-0.002647,0.040043,1.574026,-0.076157,-0.005540,-0.011044,0.001232,-0.011629,-0.000070,0.000101,-0.008671,-0.017609,0.015518,0.208552,0.208519,0.153802,0.355331,0.000000,0.000000,0.000000,0.000000,0.000000,0.000000,0.000000,0.000000,0.000000,0.000000,0.000000,0.000000,0.018943,3,0
1590000,0.008310,41.147575,0.028153,0.023733,26.088070,-0.060840,-0.002695,0.039925,1.574041,-0.075936,-0.005587,-0.011452,0.001252,-0.011535,-0.000069,0.000519,-0.008611,-0.039352,0.039847,0.208758,0.208724,0.153495,0.353916,0.000000,0.000000,0.000000,0.000000,0.000000,0.000000,0.000000,0.000000,0.000000,0.000000,0.000000,0.000000,0.038874,3,0
1600000,0.008252,41.409168,0.027501,0.023420,26.093811,-0.061663,-0.002744,0.040144,1.574050,-0.076042,-0.005635,-0.011442,0.001272,-0.011580,-0.000070,0.000071,-0.008550,0.019161,-0.001310,0.208966,0.208930,0.153191,0.352541,0.000000,0.000000,0.000000,0.000000,0.000000,0.000000,0.000000,0.000000,0.000000,0.000000,0.000000,0.000000,0.020251,3,0
1610000,0.008191,41.672085,0.027626,0.023137,26.101948,-0.061493,-0.002799,0.040561,1.574075,-0.076345,-0.005679,-0.011764,0.001292,-0.011709,-0.000071,0.000655,-0.008489,0.055695,0.029815,0.209174,0.209137,0.152891,0.351208,0.000000,0.000000,0.000000,0.000000,0.000000,0.000000,0.000000,0.000000,0.000000,0.000000,0.000000,0.000000,0.054381,3,0
1620000,0.008130,41.930080,0.027146,0.022724,26.100859,-0.061837,-0.002846,0.040153,1.574098,-0.075868,-0.005726,-0.011798,0.001313,-0.011501,-0.000070,0.001262,-0.008424,-0.088032,0.004808,0.209383,0.209345,0.152594,0.349913,0.000000,0.000000,0.000000,0.000000,0.000000,0.000000,0.000000,0.000000,0.000000,0.000000,0.000000,0.000000,0.085349,3,0
1630000,0.008068,42.190163,0.025917,0.022403,26.103699,-0.063338,-0.002898,0.040102,1.574115,-0.075719,-0.005772,-0.011539,0.001332,-0.011436,-0.000069,0.000231,-0.008359,-0.027954,-0.024007,0.209593,0.209553,0.152301,0.348656,0.000000,0.000000,0.000000,0.000000,0.000000,0.000000,0.000000,0.000000,0.000000,0.000000,0.000000,0.000000,0.028162,3,0
1640000,0.008002,42.447422,0.026188,0.021976,26.101110,-0.063039,-0.002959,0.039577,1.574133,-0.075137,-0.005816,-0.011891,0.001353,-0.011171,-0.000068,0.002127,-0.008294,-0.109154,0.035080,0.209804,0.209763,0.152012,0.347435,0.000000,0.000000,0.000000,0.000000,0.000000,0.000000,0.000000,0.000000,0.000000,0.000000,0.000000,0.000000,0.105635,3,0
1650000,0.007933,42.708858,0.027067,0.021629,26.106325,-0.062141,-0.003019,0.039741,1.574157,-0.075193,-0.005858,-0.012533,0.001374,-0.011195,-0.000068,0.000619,-0.008224,0.011314,0.060124,0.210015,0.209972,0.151727,0.346251,0.000000,0.000000,0.000000,0.000000,0.000000,0.000000,0.000000,0.000000,0.000000,0.000000,0.000000,0.000000,0.013508,3,0
1660000,0.007865,42.970257,0.026344,0.021266,26.111372,-0.062874,-0.003070,0.039887,1.574180,-0.075236,-0.005900,-0.012495,0.001393,-0.011215,-0.000068,0.000024,-0.008151,0.008251,-0.003723,0.210226,0.210182,0.151446,0.345100,0.000000,0.000000,0.000000,0.000000,0.000000,0.000000,0.000000,0.000000,0.000000,0.000000,0.000000,0.000000,0.011191,3,0
1670000,0.007797,43.229511,0.025255,0.020852,26.112352,-0.064225,-0.003124,0.039677,1.574188,-0.074957,-0.005943,-0.012286,0.001413,-0.011084,-0.000068,0.000542,-0.008079,-0.054409,-0.018463,0.210438,0.210392,0.151168,0.343983,0.000000,0.000000,0.000000,0.000000,0.000000,0.000000,0.000000,0.000000,0.000000,0.000000,0.000000,0.000000,0.053081,3,0
1680000,0.007727,43.492229,0.024524,0.020591,26.119812,-0.065134,-0.003175,0.040030,1.574201,-0.075182,-0.005983,-0.012264,0.001432,-0.011192,-0.000069,0.000325,-0.008008,0.044147,-0.002821,0.210650,0.210603,0.150895,0.342900,0.000000,0.000000,0.000000,0.000000,0.000000,0.000000,0.000000,0.000000,0.000000,0.000000,0.000000,0.000000,0.043294,3,0
1690000,0.007655,43.749279,0.024090,0.020224,26.116554,-0.065432,-0.003223,0.039423,1.574221,-0.074580,-0.006025,-0.012323,0.001452,-0.010898,-0.000067,0.002307,-0.007934,-0.119251,0.007752,0.210861,0.210812,0.150625,0.341847,0.000000,0.000000,0.000000,0.000000,0.000000,0.000000,0.000000,0.000000,0.000000,0.000000,0.000000,0.000000,0.115313,3,0
1700000,0.007580,44.008430,0.024686,0.019862,26.117168,-0.064614,-0.003287,0.039160,1.574231,-0.074287,-0.006063,-0.012848,0.001473,-0.010750,-0.000066,0.000953,-0.007859,-0.058205,0.049554,0.211072,0.211022,0.150360,0.340824,0.000000,0.000000,0.000000,0.000000,0.000000,0.000000,0.000000,0.000000,0.000000,0.000000,0.000000,0.000000,0.056654,3,0
1710000,0.007505,44.268963,0.024701,0.019461,26.120352,-0.064349,-0.003336,0.039136,1.574244,-0.074192,-0.006101,-0.013132,0.001492,-0.010700,-0.000066,0.000183,-0.007780,-0.019176,0.026451,0.211283,0.211231,0.150098,0.339831,0.000000,0.000000,0.000000,0.000000,0.000000,0.000000,0.000000,0.000000,0.000000,0.000000,0.000000,0.000000,0.019958,3,0
