time_us,pos_x,pos_y,pos_z,vel_x,vel_y,vel_z,roll,pitch,yaw,bias_ax,bias_ay,bias_az,bias_gx,bias_gy,bias_gz,nis,innov_x,innov_y,innov_z,cov_pos_x,cov_pos_y,cov_pos_z,cov_yaw,des_speed,des_heading,des_climb,pid_speed,pid_yaw,pid_alt,speed_meas,yaw_meas,climb_meas,fwd_accel,yaw_rate,vert_accel,drift_m,nav_mode,mission_state
0,0.000001,0.150001,0.000002,0.000153,25.000107,0.000504,0.000030,0.000006,1.570823,0.000000,0.000000,0.000000,0.000000,0.000000,0.000000,0.006250,-0.000002,-0.250004,-0.000005,2.400038,2.400038,3.600017,1.000518,0.000000,0.000000,0.000000,0.000000,0.000000,0.000000,0.000000,0.000000,0.000000,0.000000,0.000000,0.000000,0.150001,1,0
10000,0.000003,0.319790,-0.026579,0.000276,24.999884,0.000773,0.000065,0.000011,1.570849,0.000001,-0.000000,0.000000,0.000000,0.000000,0.000000,0.009906,-0.000004,-0.280731,-0.070903,1.714420,1.714420,2.250079,1.001073,0.000000,0.000000,0.000000,0.000000,0.000000,0.000000,0.000000,0.000000,0.000000,0.000000,0.000000,0.000000,0.200516,3,0
20000,0.000006,0.549188,-0.034378,0.000476,24.999989,0.000916,0.000099,0.000020,1.570874,0.000002,-0.000000,0.000000,-0.000000,0.000000,0.000000,0.001213,-0.000007,-0.092698,-0.028630,1.333616,1.333616,1.636554,1.001655,0.000000,0.000000,0.000000,0.000000,0.000000,0.000000,0.000000,0.000000,0.000000,0.000000,0.000000,0.000000,0.072094,3,0
30000,0.000010,0.783994,-0.039450,0.000633,25.000118,0.001281,0.000123,0.000031,1.570894,0.000003,-0.000000,0.000001,-0.000000,0.000000,0.000000,0.001026,-0.000012,-0.083551,-0.023724,1.091392,1.091392,1.286065,1.002257,0.000000,0.000000,0.000000,0.000000,0.000000,0.000000,0.000000,0.000000,0.000000,0.000000,0.000000,0.000000,0.068353,3,0
40000,0.000014,1.027832,-0.039295,0.000724,25.000273,0.001815,0.000164,0.000037,1.570917,0.000004,-0.000000,0.000001,0.000000,0.000000,0.000000,0.000226,-0.000017,-0.040053,0.000770,0.923811,0.923811,1.059385,1.002869,0.000000,0.000000,0.000000,0.000000,0.000000,0.000000,0.000000,0.000000,0.000000,0.000000,0.000000,0.000000,0.033886,3,0
50000,0.000019,1.277094,-0.045226,0.000801,25.000746,0.002189,0.000205,0.000041,1.570944,0.000005,-0.000000,0.000002,-0.000000,0.000000,0.000000,0.000227,-0.000022,-0.005589,-0.039663,0.801036,0.801036,0.900822,1.003484,0.000000,0.000000,0.000000,0.000000,0.000000,0.000000,0.000000,0.000000,0.000000,0.000000,0.000000,0.000000,0.004843,3,0
60000,0.000025,1.515809,-0.043008,0.000848,25.000519,0.002678,0.000238,0.000050,1.570956,0.000010,-0.000000,0.000001,0.000000,0.000000,0.000000,0.001391,-0.000028,-0.095823,0.016786,0.707270,0.707270,0.783741,1.004094,0.000000,0.000000,0.000000,0.000000,0.000000,0.000000,0.000000,0.000000,0.000000,0.000000,0.000000,0.000000,0.084527,3,0
70000,0.000031,1.768277,-0.046317,0.000963,25.001097,0.002940,0.000262,0.000060,1.570977,0.000008,-0.000000,0.000004,0.000000,0.000000,0.000000,0.000204,-0.000034,0.023284,-0.028888,0.633370,0.633370,0.693801,1.004688,0.000000,0.000000,0.000000,0.000000,0.000000,0.000000,0.000000,0.000000,0.000000,0.000000,0.000000,0.000000,0.020826,3,0
80000,0.000038,2.017286,-0.047677,0.001161,25.001419,0.003340,0.000292,0.000069,1.571005,0.000009,-0.000000,0.000005,0.000000,0.000000,0.000000,0.000044,-0.000042,-0.010521,-0.013439,0.573673,0.573673,0.622594,1.005260,0.000000,0.000000,0.000000,0.000000,0.000000,0.000000,0.000000,0.000000,0.000000,0.000000,0.000000,0.000000,0.009515,3,0
90000,0.000046,2.270684,-0.047328,0.001200,25.002234,0.003955,0.000319,0.000091,1.571018,0.000005,-0.000000,0.000005,0.000000,-0.000000,0.000000,0.000229,-0.000050,0.038650,0.003298,0.524488,0.524488,0.564865,1.005801,0.000000,0.000000,0.000000,0.000000,0.000000,0.000000,0.000000,0.000000,0.000000,0.000000,0.000000,0.000000,0.035271,3,0
100000,0.000054,2.516221,-0.041956,0.001277,25.002092,0.004793,0.000349,0.000101,1.571039,0.000013,-0.000000,-0.000005,0.000000,0.000000,0.000000,0.001058,-0.000059,-0.055724,0.061823,0.483304,0.483304,0.517162,1.006301,0.000000,0.000000,0.000000,0.000000,0.000000,0.000000,0.000000,0.000000,0.000000,0.000000,0.000000,0.000000,0.051235,3,0
110000,0.000063,2.761560,-0.037391,0.001430,25.001846,0.005909,0.000376,0.000112,1.571057,0.000025,-0.000000,-0.000015,0.000000,0.000000,0.000000,0.001100,-0.000068,-0.062713,0.056733,0.448354,0.448354,0.477121,1.006754,0.000000,0.000000,0.000000,0.000000,0.000000,0.000000,0.000000,0.000000,0.000000,0.000000,0.000000,0.000000,0.058027,3,0
120000,0.000074,3.015052,-0.036015,0.001614,25.002785,0.006417,0.000409,0.000135,1.571071,0.000014,-0.000000,-0.000019,0.000000,0.000000,0.000000,0.000433,-0.000079,0.049771,0.017797,0.418359,0.418359,0.443071,1.007150,0.000000,0.000000,0.000000,0.000000,0.000000,0.000000,0.000000,0.000000,0.000000,0.000000,0.000000,0.000000,0.046301,3,0
130000,0.000086,3.263460,-0.037012,0.001793,25.002810,0.006808,0.000431,0.000146,1.571088,0.000020,-0.000000,-0.000015,0.000000,0.000000,0.000000,0.000133,-0.000092,-0.024820,-0.015465,0.392369,0.392369,0.413797,1.007481,0.000000,0.000000,0.000000,0.000000,0.000000,0.000000,0.000000,0.000000,0.000000,0.000000,0.000000,0.000000,0.023197,3,0
140000,0.000099,3.512581,-0.037635,0.001983,25.003080,0.007166,0.000461,0.000159,1.571100,0.000025,-0.000000,-0.000012,0.000000,0.000000,0.000000,0.000052,-0.000106,-0.014803,-0.010762,0.369667,0.369667,0.388393,1.007739,0.000000,0.000000,0.000000,0.000000,0.000000,0.000000,0.000000,0.000000,0.000000,0.000000,0.000000,0.000000,0.013892,3,0
150000,0.000113,3.762295,-0.039605,0.002099,25.003363,0.007176,0.000494,0.000178,1.571112,0.000027,-0.000000,-0.000001,0.000000,0.000000,0.000000,0.000181,-0.000120,-0.005500,-0.033515,0.349696,0.349696,0.366172,1.007915,0.000000,0.000000,0.000000,0.000000,0.000000,0.000000,0.000000,0.000000,0.000000,0.000000,0.000000,0.000000,0.005181,3,0
160000,0.000128,4.014710,-0.039068,0.002237,25.004469,0.007788,0.000524,0.000186,1.571138,0.000010,-0.000000,-0.000004,0.000000,-0.000000,-0.000000,0.000301,-0.000135,0.042966,0.007958,0.332021,0.332021,0.346600,1.008002,0.000000,0.000000,0.000000,0.000000,0.000000,0.000000,0.000000,0.000000,0.000000,0.000000,0.000000,0.000000,0.040589,3,0
170000,0.000144,4.264197,-0.039819,0.002444,25.004810,0.008094,0.000555,0.000203,1.571156,0.000015,-0.000000,0.000003,0.000000,0.000000,0.000000,0.000054,-0.000152,-0.010672,-0.015203,0.316298,0.316298,0.329260,1.007991,0.000000,0.000000,0.000000,0.000000,0.000000,0.000000,0.000000,0.000000,0.000000,0.000000,0.000000,0.000000,0.010110,3,0
180000,0.000163,4.513162,-0.040456,0.002694,25.004982,0.008433,0.000593,0.000220,1.571183,0.000025,-0.000000,0.000009,0.000000,0.000000,0.000000,0.000104,-0.000171,-0.021616,-0.013831,0.302247,0.302247,0.313817,1.007875,0.000000,0.000000,0.000000,0.000000,0.000000,0.000000,0.000000,0.000000,0.000000,0.000000,0.000000,0.000000,0.020527,3,0
190000,0.000182,4.762630,-0.042275,0.002804,25.005285,0.008174,0.000624,0.000231,1.571199,0.000031,-0.000000,0.000029,0.000000,0.000001,0.000000,0.000254,-0.000191,-0.012156,-0.038139,0.289642,0.289642,0.300003,1.007645,0.000000,0.000000,0.000000,0.000000,0.000000,0.000000,0.000000,0.000000,0.000000,0.000000,0.000000,0.000000,0.011570,3,0
200000,0.000201,5.014382,-0.040853,0.002922,25.006325,0.009219,0.000661,0.000252,1.571214,0.000010,-0.000001,0.000013,0.000000,-0.000000,-0.000000,0.000335,-0.000211,0.036559,0.027849,0.278297,0.278297,0.287598,1.007295,0.000000,0.000000,0.000000,0.000000,0.000000,0.000000,0.000000,0.000000,0.000000,0.000000,0.000000,0.000000,0.034864,3,0
210000,0.000221,5.266380,-0.039365,0.003002,25.007505,0.010213,0.000690,0.000266,1.571225,-0.000018,-0.000001,-0.000006,0.000000,-0.000001,-0.000000,0.000443,-0.000231,0.043222,0.030205,0.268056,0.268056,0.276421,1.006816,0.000000,0.000000,0.000000,0.000000,0.000000,0.000000,0.000000,0.000000,0.000000,0.000000,0.000000,0.000000,0.041291,3,0
220000,0.000241,5.522029,-0.037230,0.003138,25.010489,0.011623,0.000731,0.000315,1.571252,-0.000108,-0.000001,-0.000038,0.000000,-0.000004,-0.000000,0.002992,-0.000252,0.129153,0.045674,0.258789,0.258789,0.266321,1.006202,0.000000,0.000000,0.000000,0.000000,0.000000,0.000000,0.000000,0.000000,0.000000,0.000000,0.000000,0.000000,0.123583,3,0
230000,0.000264,5.774324,-0.034684,0.003362,25.011963,0.012961,0.000754,0.000342,1.571268,-0.000148,-0.000001,-0.000080,0.000000,-0.000005,-0.000000,0.000950,-0.000275,0.052384,0.056634,0.250388,0.250388,0.257172,1.005446,0.000000,0.000000,0.000000,0.000000,0.000000,0.000000,0.000000,0.000000,0.000000,0.000000,0.000000,0.000000,0.050199,3,0
240000,0.000286,6.030033,-0.036413,0.003462,25.015387,0.012423,0.000786,0.000393,1.571285,-0.000262,-0.000001,-0.000044,0.000000,-0.000009,-0.000000,0.003369,-0.000298,0.138016,-0.044917,0.242759,0.242759,0.248866,1.004541,0.000000,0.000000,0.000000,0.000000,0.000000,0.000000,0.000000,0.000000,0.000000,0.000000,0.000000,0.000000,0.132432,3,0
250000,0.000309,6.285721,-0.035830,0.003588,25.019068,0.012917,0.000823,0.000440,1.571305,-0.000387,-0.000002,-0.000054,0.000000,-0.000013,-0.000000,0.003190,-0.000322,0.140698,0.011351,0.235822,0.235822,0.241314,1.003481,0.000000,0.000000,0.000000,0.000000,0.000000,0.000000,0.000000,0.000000,0.000000,0.000000,0.000000,0.000000,0.135169,3,0
260000,0.000334,6.539881,-0.034333,0.003790,25.021902,0.014233,0.000846,0.000476,1.571322,-0.000487,-0.000002,-0.000087,0.000000,-0.000017,-0.000000,0.001917,-0.000347,0.103642,0.034877,0.229509,0.229509,0.234436,1.002258,0.000000,0.000000,0.000000,0.000000,0.000000,0.000000,0.000000,0.000000,0.000000,0.000000,0.000000,0.000000,0.099678,3,0
270000,0.000360,6.795610,-0.035819,0.003976,25.025948,0.013808,0.000879,0.000532,1.571339,-0.000639,-0.000002,-0.000043,0.000000,-0.000023,-0.000000,0.003794,-0.000374,0.147637,-0.042982,0.223760,0.223760,0.228165,1.000869,0.000000,0.000000,0.000000,0.000000,0.000000,0.000000,0.000000,0.000000,0.000000,0.000000,0.000000,0.000000,0.142132,3,0
280000,0.000387,7.047728,-0.037120,0.004168,25.027649,0.013388,0.000917,0.000556,1.571359,-0.000695,-0.000003,-0.000000,0.000000,-0.000025,-0.000000,0.000659,-0.000402,0.050899,-0.038941,0.218523,0.218523,0.222443,0.999307,0.000000,0.000000,0.000000,0.000000,0.000000,0.000000,0.000000,0.000000,0.000000,0.000000,0.000000,0.000000,0.049047,3,0
290000,0.000416,7.304296,-0.036067,0.004400,25.032787,0.014406,0.000941,0.000639,1.571382,-0.000903,-0.000003,-0.000030,0.000000,-0.000034,-0.000000,0.005108,-0.000431,0.176463,0.025295,0.213752,0.213752,0.217219,0.997567,0.000000,0.000000,0.000000,0.000000,0.000000,0.000000,0.000000,0.000000,0.000000,0.000000,0.000000,0.000000,0.170177,3,0
300000,0.000445,7.557382,-0.035010,0.004536,25.035376,0.015652,0.000976,0.000691,1.571403,-0.001002,-0.000004,-0.000062,0.000000,-0.000038,-0.000000,0.001106,-0.000461,0.078875,0.025590,0.209407,0.209407,0.212446,0.995645,0.000000,0.000000,0.000000,0.000000,0.000000,0.000000,0.000000,0.000000,0.000000,0.000000,0.000000,0.000000,0.076124,3,0
310000,0.000476,7.811984,-0.036159,0.004747,25.039204,0.014931,0.001004,0.000765,1.571424,-0.001167,-0.000004,-0.000012,0.000000,-0.000045,-0.000000,0.002701,-0.000493,0.123948,-0.037695,0.205453,0.205453,0.208087,0.993536,0.000000,0.000000,0.000000,0.000000,0.000000,0.000000,0.000000,0.000000,0.000000,0.000000,0.000000,0.000000,0.119704,3,0
320000,0.000508,8.068016,-0.036698,0.004967,25.044437,0.014687,0.001034,0.000864,1.571444,-0.001405,-0.000005,0.000017,0.000000,-0.000056,-0.000000,0.004585,-0.000526,0.167491,-0.020316,0.201859,0.201859,0.204105,0.991237,0.000000,0.000000,0.000000,0.000000,0.000000,0.000000,0.000000,0.000000,0.000000,0.000000,0.000000,0.000000,0.161857,3,0
330000,0.000542,8.323428,-0.035804,0.005241,25.049297,0.015686,0.001060,0.000945,1.571469,-0.001629,-0.000006,-0.000016,0.000000,-0.000067,-0.000000,0.003703,-0.000561,0.149954,0.022239,0.198594,0.198594,0.200469,0.988743,0.000000,0.000000,0.000000,0.000000,0.000000,0.000000,0.000000,0.000000,0.000000,0.000000,0.000000,0.000000,0.144992,3,0
340000,0.000577,8.577616,-0.034791,0.005420,25.053192,0.016730,0.001100,0.001019,1.571482,-0.001808,-0.000007,-0.000057,0.000000,-0.000076,-0.000000,0.002173,-0.000597,0.113160,0.025946,0.195636,0.195636,0.197151,0.986053,0.000000,0.000000,0.000000,0.000000,0.000000,0.000000,0.000000,0.000000,0.000000,0.000000,0.000000,0.000000,0.109472,3,0
350000,0.000614,8.830009,-0.036057,0.005668,25.055513,0.015994,0.001131,0.001061,1.571494,-0.001905,-0.000008,0.000016,0.000000,-0.000081,-0.000000,0.000856,-0.000634,0.057723,-0.044464,0.192959,0.192959,0.194125,0.983164,0.000000,0.000000,0.000000,0.000000,0.000000,0.000000,0.000000,0.000000,0.000000,0.000000,0.000000,0.000000,0.055870,3,0
360000,0.000651,9.087645,-0.035150,0.005891,25.063139,0.016984,0.001169,0.001193,1.571516,-0.002295,-0.000009,-0.000024,0.000000,-0.000101,-0.000000,0.008096,-0.000673,0.222763,0.023334,0.190544,0.190544,0.191370,0.980073,0.000000,0.000000,0.000000,0.000000,0.000000,0.000000,0.000000,0.000000,0.000000,0.000000,0.000000,0.000000,0.215690,3,0
370000,0.000690,9.341553,-0.034818,0.006105,25.067070,0.017586,0.001200,0.001269,1.571536,-0.002488,-0.000010,-0.000034,0.000000,-0.000111,-0.000000,0.001757,-0.000713,0.104203,0.005026,0.188372,0.188372,0.188863,0.976779,0.000000,0.000000,0.000000,0.000000,0.000000,0.000000,0.000000,0.000000,0.000000,0.000000,0.000000,0.000000,0.100934,3,0
380000,0.000730,9.598694,-0.033801,0.006284,25.074545,0.018730,0.001230,0.001405,1.571559,-0.002890,-0.000011,-0.000086,0.000001,-0.000134,-0.000000,0.007109,-0.000753,0.208076,0.026952,0.186425,0.186425,0.186586,0.973282,0.000000,0.000000,0.000000,0.000000,0.000000,0.000000,0.000000,0.000000,0.000000,0.000000,0.000000,0.000000,0.201613,3,0
390000,0.000770,9.856501,-0.034128,0.006422,25.083052,0.018486,0.001256,0.001565,1.571573,-0.003354,-0.000013,-0.000052,0.000001,-0.000160,-0.000000,0.008529,-0.000794,0.229164,-0.016811,0.184688,0.184688,0.184522,0.969581,0.000000,0.000000,0.000000,0.000000,0.000000,0.000000,0.000000,0.000000,0.000000,0.000000,0.000000,0.000000,0.222111,3,0
400000,0.000810,10.111921,-0.032626,0.006569,25.088888,0.020419,0.001285,0.001675,1.571587,-0.003672,-0.000015,-0.000143,0.000001,-0.000179,-0.000000,0.003945,-0.000836,0.150184,0.043106,0.183146,0.183145,0.182656,0.965675,0.000000,0.000000,0.000000,0.000000,0.000000,0.000000,0.000000,0.000000,0.000000,0.000000,0.000000,0.000000,0.145602,3,0
410000,0.000851,10.369262,-0.032670,0.006673,25.097103,0.020520,0.001309,0.001837,1.571598,-0.004142,-0.000016,-0.000125,0.000001,-0.000207,-0.000000,0.007328,-0.000877,0.212768,-0.008361,0.181785,0.181785,0.180971,0.961567,0.000000,0.000000,0.000000,0.000000,0.000000,0.000000,0.000000,0.000000,0.000000,0.000000,0.000000,0.000000,0.206323,3,0
420000,0.000892,10.625477,-0.031086,0.006841,25.104164,0.022318,0.001334,0.001980,1.571622,-0.004543,-0.000018,-0.000230,0.000001,-0.000232,-0.000000,0.005237,-0.000920,0.174012,0.046010,0.180593,0.180593,0.179456,0.957255,0.000000,0.000000,0.000000,0.000000,0.000000,0.000000,0.000000,0.000000,0.000000,0.000000,0.000000,0.000000,0.168777,3,0
430000,0.000933,10.880606,-0.030950,0.006958,25.109837,0.022685,0.001359,0.002095,1.571646,-0.004870,-0.000021,-0.000223,0.000001,-0.000252,-0.000000,0.003010,-0.000962,0.136395,-0.003078,0.179558,0.179558,0.178097,0.952744,0.000000,0.000000,0.000000,0.000000,0.000000,0.000000,0.000000,0.000000,0.000000,0.000000,0.000000,0.000000,0.132317,3,0
440000,0.000975,11.134686,-0.030428,0.007124,25.114389,0.023249,0.001398,0.002189,1.571672,-0.005119,-0.000023,-0.000248,0.000001,-0.000268,-0.000000,0.001629,-0.001005,0.099876,0.009952,0.178671,0.178671,0.176883,0.948033,0.000000,0.000000,0.000000,0.000000,0.000000,0.000000,0.000000,0.000000,0.000000,0.000000,0.000000,0.000000,0.096907,3,0
450000,0.001017,11.392464,-0.029270,0.007302,25.123831,0.024948,0.001432,0.002390,1.571690,-0.005698,-0.000025,-0.000330,0.000001,-0.000307,-0.000000,0.008235,-0.001048,0.223450,0.031398,0.177919,0.177919,0.175803,0.943127,0.000000,0.000000,0.000000,0.000000,0.000000,0.000000,0.000000,0.000000,0.000000,0.000000,0.000000,0.000000,0.216826,3,0
460000,0.001059,11.646804,-0.029052,0.007423,25.128647,0.025162,0.001471,0.002501,1.571708,-0.005979,-0.000028,-0.000326,0.000002,-0.000326,-0.000000,0.001774,-0.001092,0.104731,-0.001176,0.177295,0.177295,0.174847,0.938028,0.000000,0.000000,0.000000,0.000000,0.000000,0.000000,0.000000,0.000000,0.000000,0.000000,0.000000,0.000000,0.101641,3,0
470000,0.001103,11.901887,-0.030066,0.007630,25.134443,0.023843,0.001500,0.002643,1.571735,-0.006337,-0.000031,-0.000205,0.000002,-0.000351,-0.000000,0.002986,-0.001136,0.128649,-0.043697,0.176790,0.176789,0.174006,0.932740,0.000000,0.000000,0.000000,0.000000,0.000000,0.000000,0.000000,0.000000,0.000000,0.000000,0.000000,0.000000,0.124863,3,0
480000,0.001147,12.160039,-0.030968,0.007843,25.144650,0.022721,0.001541,0.002884,1.571759,-0.007003,-0.000034,-0.000091,0.000002,-0.000398,-0.000001,0.008910,-0.001182,0.231327,-0.039591,0.176394,0.176393,0.173271,0.927267,0.000000,0.000000,0.000000,0.000000,0.000000,0.000000,0.000000,0.000000,0.000000,0.000000,0.000000,0.000000,0.224529,3,0
490000,0.001193,12.415370,-0.031146,0.008122,25.150850,0.022561,0.001576,0.003037,1.571784,-0.007397,-0.000038,-0.000048,0.000002,-0.000427,-0.000001,0.002856,-0.001229,0.132104,-0.014214,0.176099,0.176099,0.172634,0.921613,0.000000,0.000000,0.000000,0.000000,0.000000,0.000000,0.000000,0.000000,0.000000,0.000000,0.000000,0.000000,0.128232,3,0
500000,0.001239,12.670266,-0.030266,0.008338,25.156559,0.023695,0.001599,0.003172,1.571814,-0.007751,-0.000042,-0.000119,0.000003,-0.000453,-0.000001,0.002233,-0.001277,0.115255,0.022732,0.175900,0.175900,0.172087,0.915784,0.000000,0.000000,0.000000,0.000000,0.000000,0.000000,0.000000,0.000000,0.000000,0.000000,0.000000,0.000000,0.111883,3,0
510000,0.001286,12.925900,-0.030921,0.008496,25.163240,0.022998,0.001621,0.003351,1.571843,-0.008191,-0.000046,-0.000019,0.000003,-0.000487,-0.000001,0.003267,-0.001325,0.138610,-0.031330,0.175788,0.175788,0.171622,0.909785,0.000000,0.000000,0.000000,0.000000,0.000000,0.000000,0.000000,0.000000,0.000000,0.000000,0.000000,0.000000,0.134555,3,0
520000,0.001333,13.184592,-0.030011,0.008644,25.174608,0.024364,0.001651,0.003635,1.571871,-0.008978,-0.000050,-0.000097,0.000003,-0.000548,-0.000001,0.009467,-0.001373,0.240727,0.023708,0.175757,0.175756,0.171234,0.903622,0.000000,0.000000,0.000000,0.000000,0.000000,0.000000,0.000000,0.000000,0.000000,0.000000,0.000000,0.000000,0.233680,3,0
530000,0.001381,13.439895,-0.030686,0.008938,25.180859,0.023436,0.001673,0.003787,1.571894,-0.009385,-0.000054,0.000012,0.000004,-0.000581,-0.000001,0.002541,-0.001423,0.121074,-0.032358,0.175800,0.175800,0.170914,0.897300,0.000000,0.000000,0.000000,0.000000,0.000000,0.000000,0.000000,0.000000,0.000000,0.000000,0.000000,0.000000,0.117534,3,0
540000,0.001430,13.694768,-0.030237,0.009168,25.186331,0.024281,0.001697,0.003925,1.571916,-0.009746,-0.000059,-0.000014,0.000004,-0.000610,-0.000001,0.001768,-0.001473,0.104257,0.007362,0.175912,0.175911,0.170658,0.890826,0.000000,0.000000,0.000000,0.000000,0.000000,0.000000,0.000000,0.000000,0.000000,0.000000,0.000000,0.000000,0.101210,3,0
550000,0.001480,13.949802,-0.029889,0.009369,25.192112,0.024632,0.001737,0.004083,1.571941,-0.010129,-0.000065,-0.000027,0.000004,-0.000642,-0.000001,0.001881,-0.001525,0.107754,0.003638,0.176086,0.176086,0.170460,0.884207,0.000000,0.000000,0.000000,0.000000,0.000000,0.000000,0.000000,0.000000,0.000000,0.000000,0.000000,0.000000,0.104602,3,0
560000,0.001531,14.209086,-0.029732,0.009647,25.204542,0.024704,0.001769,0.004420,1.571964,-0.011043,-0.000070,-0.000016,0.000005,-0.000719,-0.000001,0.010132,-0.001577,0.250239,-0.003164,0.176318,0.176318,0.170314,0.877451,0.000000,0.000000,0.000000,0.000000,0.000000,0.000000,0.000000,0.000000,0.000000,0.000000,0.000000,0.000000,0.242890,3,0
570000,0.001582,14.467308,-0.029124,0.009863,25.215307,0.025526,0.001807,0.004718,1.571995,-0.011828,-0.000076,-0.000065,0.000005,-0.000787,-0.000001,0.007126,-0.001630,0.209498,0.012656,0.176602,0.176602,0.170214,0.870563,0.000000,0.000000,0.000000,0.000000,0.000000,0.000000,0.000000,0.000000,0.000000,0.000000,0.000000,0.000000,0.203338,3,0
580000,0.001634,14.725065,-0.028603,0.010029,25.225288,0.026130,0.001845,0.005008,1.572013,-0.012557,-0.000082,-0.000101,0.000006,-0.000851,-0.000001,0.005836,-0.001683,0.189715,0.009315,0.176934,0.176933,0.170157,0.863552,0.000000,0.000000,0.000000,0.000000,0.000000,0.000000,0.000000,0.000000,0.000000,0.000000,0.000000,0.000000,0.184128,3,0
590000,0.001685,14.982364,-0.028039,0.010203,25.234467,0.026950,0.001865,0.005263,1.572033,-0.013227,-0.000088,-0.000144,0.000007,-0.000911,-0.000001,0.004715,-0.001736,0.170406,0.010567,0.177308,0.177308,0.170138,0.856425,0.000000,0.000000,0.000000,0.000000,0.000000,0.000000,0.000000,0.000000,0.000000,0.000000,0.000000,0.000000,0.165380,3,0
600000,0.001737,15.239798,-0.028488,0.010437,25.243797,0.026223,0.001885,0.005530,1.572049,-0.013917,-0.000095,-0.000041,0.000007,-0.000974,-0.000001,0.004859,-0.001790,0.171441,-0.025425,0.177721,0.177720,0.170152,0.849191,0.000000,0.000000,0.000000,0.000000,0.000000,0.000000,0.000000,0.000000,0.000000,0.000000,0.000000,0.000000,0.166372,3,0
610000,0.001789,15.499725,-0.029605,0.010559,25.257198,0.024767,0.001919,0.005927,1.572067,-0.014953,-0.000102,0.000163,0.000008,-0.001071,-0.000002,0.010643,-0.001844,0.251855,-0.048743,0.178168,0.178167,0.170195,0.841856,0.000000,0.000000,0.000000,0.000000,0.000000,0.000000,0.000000,0.000000,0.000000,0.000000,0.000000,0.000000,0.244383,3,0
620000,0.001842,15.756800,-0.028821,0.010819,25.265774,0.025901,0.001938,0.006188,1.572078,-0.015588,-0.000110,0.000082,0.000009,-0.001132,-0.000002,0.003736,-0.001898,0.150824,0.018804,0.178645,0.178644,0.170264,0.834430,0.000000,0.000000,0.000000,0.000000,0.000000,0.000000,0.000000,0.000000,0.000000,0.000000,0.000000,0.000000,0.146344,3,0
630000,0.001895,16.015791,-0.028084,0.011034,25.277536,0.027108,0.001962,0.006558,1.572090,-0.016497,-0.000118,0.000007,0.000009,-0.001220,-0.000002,0.007294,-0.001953,0.211725,0.016707,0.179149,0.179148,0.170356,0.826919,0.000000,0.000000,0.000000,0.000000,0.000000,0.000000,0.000000,0.000000,0.000000,0.000000,0.000000,0.000000,0.205413,3,0
640000,0.001948,16.272516,-0.029252,0.011195,25.285254,0.025508,0.001994,0.006807,1.572103,-0.017073,-0.000126,0.000235,0.000010,-0.001277,-0.000002,0.003215,-0.002008,0.131529,-0.050792,0.179676,0.179676,0.170465,0.819333,0.000000,0.000000,0.000000,0.000000,0.000000,0.000000,0.000000,0.000000,0.000000,0.000000,0.000000,0.000000,0.127605,3,0
650000,0.002000,16.528784,-0.027619,0.011356,25.292294,0.028127,0.002029,0.007027,1.572131,-0.017579,-0.000135,0.000013,0.000011,-0.001328,-0.000002,0.002453,-0.002062,0.113272,0.048293,0.180223,0.180223,0.170591,0.811680,0.000000,0.000000,0.000000,0.000000,0.000000,0.000000,0.000000,0.000000,0.000000,0.000000,0.000000,0.000000,0.109887,3,0
660000,0.002053,16.788189,-0.026326,0.011619,25.304430,0.030166,0.002053,0.007432,1.572152,-0.018556,-0.000145,-0.000154,0.000012,-0.001428,-0.000002,0.007659,-0.002117,0.214754,0.035428,0.180787,0.180786,0.170729,0.803966,0.000000,0.000000,0.000000,0.000000,0.000000,0.000000,0.000000,0.000000,0.000000,0.000000,0.000000,0.000000,0.208295,3,0
670000,0.002108,17.044701,-0.026100,0.011883,25.311695,0.030609,0.002074,0.007651,1.572164,-0.019086,-0.000154,-0.000141,0.000013,-0.001483,-0.000002,0.002112,-0.002173,0.114258,-0.002840,0.181365,0.181364,0.170877,0.796202,0.000000,0.000000,0.000000,0.000000,0.000000,0.000000,0.000000,0.000000,0.000000,0.000000,0.000000,0.000000,0.110824,3,0
680000,0.002162,17.306173,-0.024795,0.012104,25.327200,0.032454,0.002099,0.008167,1.572185,-0.020383,-0.000164,-0.000313,0.000014,-0.001621,-0.000002,0.012433,-0.002230,0.275131,0.035029,0.181954,0.181953,0.171033,0.788394,0.000000,0.000000,0.000000,0.000000,0.000000,0.000000,0.000000,0.000000,0.000000,0.000000,0.000000,0.000000,0.266797,3,0
690000,0.002216,17.565918,-0.023957,0.012275,25.339760,0.033761,0.002124,0.008587,1.572208,-0.021401,-0.000175,-0.000404,0.000015,-0.001731,-0.000003,0.007335,-0.002286,0.212292,0.017877,0.182551,0.182550,0.171194,0.780551,0.000000,0.000000,0.000000,0.000000,0.000000,0.000000,0.000000,0.000000,0.000000,0.000000,0.000000,0.000000,0.205845,3,0
700000,0.002270,17.822733,-0.024390,0.012374,25.347078,0.033176,0.002161,0.008834,1.572219,-0.021945,-0.000186,-0.000267,0.000017,-0.001791,-0.000003,0.002127,-0.002341,0.111452,-0.027143,0.183155,0.183154,0.171357,0.772680,0.000000,0.000000,0.000000,0.000000,0.000000,0.000000,0.000000,0.000000,0.000000,0.000000,0.000000,0.000000,0.108073,3,0
710000,0.002323,18.082722,-0.023064,0.012515,25.359743,0.035132,0.002193,0.009283,1.572249,-0.022996,-0.000197,-0.000447,0.000018,-0.001909,-0.000003,0.007483,-0.002396,0.212385,0.034672,0.183763,0.183762,0.171522,0.764789,0.000000,0.000000,0.000000,0.000000,0.000000,0.000000,0.000000,0.000000,0.000000,0.000000,0.000000,0.000000,0.205894,3,0
720000,0.002376,18.340975,-0.021753,0.012699,25.369255,0.037089,0.002229,0.009619,1.572267,-0.023755,-0.000209,-0.000623,0.000019,-0.001995,-0.000003,0.003868,-0.002451,0.151058,0.033438,0.184372,0.184371,0.171685,0.756886,0.000000,0.000000,0.000000,0.000000,0.000000,0.000000,0.000000,0.000000,0.000000,0.000000,0.000000,0.000000,0.146437,3,0
730000,0.002428,18.603022,-0.022970,0.012840,25.385401,0.034953,0.002254,0.010204,1.572282,-0.025135,-0.000221,-0.000330,0.000021,-0.002155,-0.000003,0.012309,-0.002505,0.270407,-0.055437,0.184982,0.184981,0.171847,0.748978,0.000000,0.000000,0.000000,0.000000,0.000000,0.000000,0.000000,0.000000,0.000000,0.000000,0.000000,0.000000,0.262081,3,0
740000,0.002480,18.864525,-0.023166,0.012970,25.400284,0.034425,0.002285,0.010753,1.572302,-0.026411,-0.000233,-0.000230,0.000022,-0.002306,-0.000004,0.009893,-0.002560,0.246746,-0.018994,0.185590,0.185589,0.172003,0.741072,0.000000,0.000000,0.000000,0.000000,0.000000,0.000000,0.000000,0.000000,0.000000,0.000000,0.000000,0.000000,0.239126,3,0
750000,0.002532,19.126101,-0.021709,0.013108,25.415140,0.036610,0.002315,0.011308,1.572317,-0.027687,-0.000246,-0.000445,0.000024,-0.002459,-0.000004,0.009820,-0.002613,0.243521,0.038687,0.186195,0.186193,0.172155,0.733174,0.000000,0.000000,0.000000,0.000000,0.000000,0.000000,0.000000,0.000000,0.000000,0.000000,0.000000,0.000000,0.235977,3,0
760000,0.002583,19.385891,-0.021142,0.013341,25.426836,0.037255,0.002339,0.011730,1.572348,-0.028646,-0.000260,-0.000486,0.000025,-0.002576,-0.000004,0.005275,-0.002667,0.180584,0.006988,0.186794,0.186793,0.172299,0.725292,0.000000,0.000000,0.000000,0.000000,0.000000,0.000000,0.000000,0.000000,0.000000,0.000000,0.000000,0.000000,0.174982,3,0
770000,0.002634,19.647633,-0.019727,0.013420,25.441647,0.039296,0.002366,0.012296,1.572377,-0.029929,-0.000274,-0.000694,0.000027,-0.002735,-0.000004,0.009416,-0.002719,0.238739,0.036208,0.187388,0.187387,0.172436,0.717433,0.000000,0.000000,0.000000,0.000000,0.000000,0.000000,0.000000,0.000000,0.000000,0.000000,0.000000,0.000000,0.231298,3,0
780000,0.002684,19.905703,-0.019023,0.013538,25.449965,0.040263,0.002401,0.012603,1.572398,-0.030561,-0.000289,-0.000757,0.000029,-0.002815,-0.000004,0.002192,-0.002771,0.115999,0.010704,0.187975,0.187973,0.172563,0.709602,0.000000,0.000000,0.000000,0.000000,0.000000,0.000000,0.000000,0.000000,0.000000,0.000000,0.000000,0.000000,0.112398,3,0
790000,0.002734,20.166376,-0.018492,0.013708,25.462797,0.040895,0.002421,0.013090,1.572416,-0.031638,-0.000303,-0.000785,0.000031,-0.002953,-0.000005,0.006192,-0.002823,0.195787,0.004420,0.188553,0.188551,0.172680,0.701805,0.000000,0.000000,0.000000,0.000000,0.000000,0.000000,0.000000,0.000000,0.000000,0.000000,0.000000,0.000000,0.189654,3,0
800000,0.002783,20.427746,-0.017135,0.013788,25.476580,0.042657,0.002442,0.013621,1.572436,-0.032825,-0.000319,-0.000982,0.000033,-0.003108,-0.000005,0.007520,-0.002873,0.213291,0.032915,0.189122,0.189120,0.172787,0.694048,0.000000,0.000000,0.000000,0.000000,0.000000,0.000000,0.000000,0.000000,0.000000,0.000000,0.000000,0.000000,0.206588,3,0
810000,0.002832,20.689177,-0.015854,0.014045,25.490297,0.044420,0.002469,0.014167,1.572467,-0.034007,-0.000335,-0.001163,0.000035,-0.003264,-0.000005,0.007275,-0.002925,0.210211,0.029600,0.189681,0.189679,0.172882,0.686338,0.000000,0.000000,0.000000,0.000000,0.000000,0.000000,0.000000,0.000000,0.000000,0.000000,0.000000,0.000000,0.203585,3,0
820000,0.002882,20.951296,-0.015863,0.014293,25.505123,0.044119,0.002498,0.014755,1.572488,-0.035296,-0.000350,-0.001071,0.000037,-0.003438,-0.000006,0.008353,-0.002977,0.226944,-0.015681,0.190229,0.190227,0.172965,0.678678,0.000000,0.000000,0.000000,0.000000,0.000000,0.000000,0.000000,0.000000,0.000000,0.000000,0.000000,0.000000,0.219768,3,0
830000,0.002933,21.213463,-0.016668,0.014450,25.519781,0.042696,0.002517,0.015355,1.572514,-0.036576,-0.000367,-0.000808,0.000040,-0.003614,-0.000006,0.008336,-0.003029,0.223103,-0.043218,0.190765,0.190763,0.173035,0.671074,0.000000,0.000000,0.000000,0.000000,0.000000,0.000000,0.000000,0.000000,0.000000,0.000000,0.000000,0.000000,0.216029,3,0
840000,0.002982,21.473770,-0.015394,0.014579,25.531065,0.044250,0.002549,0.015807,1.572530,-0.037500,-0.000384,-0.000994,0.000042,-0.003742,-0.000006,0.004250,-0.003080,0.159578,0.029372,0.191289,0.191287,0.173092,0.663531,0.000000,0.000000,0.000000,0.000000,0.000000,0.000000,0.000000,0.000000,0.000000,0.000000,0.000000,0.000000,0.154520,3,0
850000,0.003032,21.731602,-0.015449,0.014822,25.537870,0.044012,0.002581,0.016054,1.572546,-0.037956,-0.000402,-0.000885,0.000045,-0.003807,-0.000006,0.001034,-0.003132,0.078066,-0.017353,0.191801,0.191799,0.173136,0.656053,0.000000,0.000000,0.000000,0.000000,0.000000,0.000000,0.000000,0.000000,0.000000,0.000000,0.000000,0.000000,0.075630,3,0
860000,0.003081,21.991436,-0.016652,0.014901,25.548120,0.041891,0.002603,0.016471,1.572577,-0.038772,-0.000420,-0.000524,0.000047,-0.003925,-0.000006,0.003609,-0.003182,0.138229,-0.056925,0.192300,0.192298,0.173166,0.648645,0.000000,0.000000,0.000000,0.000000,0.000000,0.000000,0.000000,0.000000,0.000000,0.000000,0.000000,0.000000,0.133834,3,0
870000,0.003130,22.252611,-0.015793,0.015149,25.560472,0.042943,0.002630,0.016984,1.572609,-0.039820,-0.000438,-0.000626,0.000050,-0.004078,-0.000007,0.005063,-0.003234,0.176476,0.015253,0.192786,0.192784,0.173182,0.641310,0.000000,0.000000,0.000000,0.000000,0.000000,0.000000,0.000000,0.000000,0.000000,0.000000,0.000000,0.000000,0.170834,3,0
880000,0.003180,22.513834,-0.016692,0.015310,25.572874,0.041449,0.002659,0.017504,1.572641,-0.040859,-0.000457,-0.000328,0.000053,-0.004232,-0.000007,0.005206,-0.003285,0.173601,-0.046045,0.193259,0.193256,0.173184,0.634052,0.000000,0.000000,0.000000,0.000000,0.000000,0.000000,0.000000,0.000000,0.000000,0.000000,0.000000,0.000000,0.168039,3,0
890000,0.003228,22.773815,-0.016926,0.015383,25.582840,0.040983,0.002679,0.017925,1.572672,-0.041649,-0.000476,-0.000181,0.000056,-0.004351,-0.000007,0.002848,-0.003335,0.130922,-0.022529,0.193718,0.193715,0.173171,0.626874,0.000000,0.000000,0.000000,0.000000,0.000000,0.000000,0.000000,0.000000,0.000000,0.000000,0.000000,0.000000,0.126737,3,0
900000,0.003275,23.034494,-0.016481,0.015539,25.593918,0.041251,0.002700,0.018390,1.572685,-0.042555,-0.000496,-0.000193,0.000059,-0.004490,-0.000007,0.003590,-0.003385,0.149147,0.001268,0.194164,0.194161,0.173145,0.619779,0.000000,0.000000,0.000000,0.000000,0.000000,0.000000,0.000000,0.000000,0.000000,0.000000,0.000000,0.000000,0.144359,3,0
910000,0.003323,23.292643,-0.017536,0.015692,25.600353,0.039530,0.002721,0.018635,1.572711,-0.042967,-0.000516,0.000150,0.000062,-0.004555,-0.000008,0.001151,-0.003434,0.067266,-0.050932,0.194596,0.194593,0.173104,0.612772,0.000000,0.000000,0.000000,0.000000,0.000000,0.000000,0.000000,0.000000,0.000000,0.000000,0.000000,0.000000,0.065167,3,0
920000,0.003370,23.552158,-0.018821,0.015784,25.609091,0.037481,0.002753,0.019003,1.572739,-0.043628,-0.000537,0.000546,0.000065,-0.004660,-0.000008,0.002406,-0.003483,0.107239,-0.058286,0.195015,0.195012,0.173049,0.605853,0.000000,0.000000,0.000000,0.000000,0.000000,0.000000,0.000000,0.000000,0.000000,0.000000,0.000000,0.000000,0.103807,3,0
930000,0.003416,23.811083,-0.018012,0.015877,25.616859,0.038521,0.002783,0.019309,1.572759,-0.044161,-0.000558,0.000440,0.000068,-0.004745,-0.000008,0.001236,-0.003531,0.086180,0.014992,0.195420,0.195417,0.172980,0.599026,0.000000,0.000000,0.000000,0.000000,0.000000,0.000000,0.000000,0.000000,0.000000,0.000000,0.000000,0.000000,0.083444,3,0
940000,0.003462,24.070074,-0.018562,0.016003,25.624563,0.037673,0.002797,0.019621,1.572775,-0.044695,-0.000580,0.000664,0.000072,-0.004832,-0.000008,0.001355,-0.003578,0.085604,-0.032510,0.195813,0.195809,0.172898,0.592293,0.000000,0.000000,0.000000,0.000000,0.000000,0.000000,0.000000,0.000000,0.000000,0.000000,0.000000,0.000000,0.082882,3,0
950000,0.003507,24.332376,-0.018407,0.016195,25.638006,0.037527,0.002811,0.020230,1.572792,-0.045849,-0.000602,0.000712,0.000076,-0.005023,-0.000008,0.005491,-0.003626,0.184357,-0.007557,0.196192,0.196188,0.172801,0.585656,0.000000,0.000000,0.000000,0.000000,0.000000,0.000000,0.000000,0.000000,0.000000,0.000000,0.000000,0.000000,0.178362,3,0
960000,0.003552,24.594044,-0.019434,0.016278,25.650223,0.036046,0.002833,0.020774,1.572817,-0.046859,-0.000623,0.001054,0.000079,-0.005193,-0.000009,0.004537,-0.003672,0.160465,-0.048722,0.196558,0.196554,0.172691,0.579116,0.000000,0.000000,0.000000,0.000000,0.000000,0.000000,0.000000,0.000000,0.000000,0.000000,0.000000,0.000000,0.155247,3,0
970000,0.003597,24.853123,-0.020379,0.016410,25.657598,0.034697,0.002854,0.021076,1.572844,-0.047351,-0.000646,0.001378,0.000083,-0.005278,-0.000009,0.001307,-0.003718,0.077585,-0.045472,0.196912,0.196908,0.172568,0.572676,0.000000,0.000000,0.000000,0.000000,0.000000,0.000000,0.000000,0.000000,0.000000,0.000000,0.000000,0.000000,0.075123,3,0
980000,0.003641,25.116831,-0.021128,0.016527,25.673008,0.033313,0.002877,0.021806,1.572868,-0.048723,-0.000669,0.001645,0.000087,-0.005516,-0.000009,0.007756,-0.003764,0.216011,-0.037911,0.197254,0.197250,0.172431,0.566335,0.000000,0.000000,0.000000,0.000000,0.000000,0.000000,0.000000,0.000000,0.000000,0.000000,0.000000,0.000000,0.208940,3,0
990000,0.003684,25.376598,-0.021565,0.016656,25.681255,0.032361,0.002901,0.022170,1.572893,-0.049306,-0.000692,0.001837,0.000091,-0.005619,-0.000010,0.001462,-0.003810,0.091301,-0.026730,0.197584,0.197579,0.172282,0.560097,0.000000,0.000000,0.000000,0.000000,0.000000,0.000000,0.000000,0.000000,0.000000,0.000000,0.000000,0.000000,0.088370,3,0
1000000,0.003728,25.637062,-0.021804,0.016819,25.690754,0.031700,0.002918,0.022594,1.572907,-0.050010,-0.000716,0.001977,0.000095,-0.005744,-0.000010,0.002005,-0.003855,0.109753,-0.019495,0.197902,0.197897,0.172121,0.553962,0.000000,0.000000,0.000000,0.000000,0.000000,0.000000,0.000000,0.000000,0.000000,0.000000,0.000000,0.000000,0.106198,3,0
1010000,0.003771,25.897556,-0.021517,0.016997,25.700169,0.031820,0.002946,0.023008,1.572924,-0.050701,-0.000740,0.001980,0.000100,-0.005870,-0.000010,0.001869,-0.003900,0.107622,-0.000943,0.198209,0.198204,0.171948,0.547931,0.000000,0.000000,0.000000,0.000000,0.000000,0.000000,0.000000,0.000000,0.000000,0.000000,0.000000,0.000000,0.104135,3,0
1020000,0.003814,26.160711,-0.021511,0.017048,25.714130,0.031664,0.002971,0.023680,1.572944,-0.051895,-0.000765,0.002053,0.000104,-0.006090,-0.000011,0.005535,-0.003944,0.184975,-0.010713,0.198506,0.198500,0.171763,0.542004,0.000000,0.000000,0.000000,0.000000,0.000000,0.000000,0.000000,0.000000,0.000000,0.000000,0.000000,0.000000,0.178895,3,0
1030000,0.003856,26.423857,-0.022856,0.017137,25.727995,0.029455,0.002995,0.024353,1.572968,-0.053061,-0.000789,0.002483,0.000109,-0.006308,-0.000011,0.005772,-0.003987,0.180103,-0.057880,0.198792,0.198785,0.171567,0.536181,0.000000,0.000000,0.000000,0.000000,0.000000,0.000000,0.000000,0.000000,0.000000,0.000000,0.000000,0.000000,0.174176,3,0
1040000,0.003898,26.683685,-0.022156,0.017335,25.735798,0.030372,0.003006,0.024684,1.572998,-0.053553,-0.000815,0.002372,0.000114,-0.006401,-0.000011,0.000963,-0.004031,0.075853,0.014218,0.199067,0.199061,0.171359,0.530464,0.000000,0.000000,0.000000,0.000000,0.000000,0.000000,0.000000,0.000000,0.000000,0.000000,0.000000,0.000000,0.073441,3,0
1050000,0.003938,26.944208,-0.020775,0.017390,25.744770,0.032344,0.003021,0.025070,1.573015,-0.054165,-0.000841,0.002078,0.000119,-0.006519,-0.000012,0.001665,-0.004074,0.094248,0.037738,0.199334,0.199327,0.171142,0.524853,0.000000,0.000000,0.000000,0.000000,0.000000,0.000000,0.000000,0.000000,0.000000,0.000000,0.000000,0.000000,0.091203,3,0
1060000,0.003980,27.205416,-0.022021,0.017611,25.754667,0.030315,0.003045,0.025545,1.573047,-0.054897,-0.000867,0.002498,0.000124,-0.006662,-0.000012,0.002510,-0.004117,0.111940,-0.054948,0.199591,0.199584,0.170914,0.519346,0.000000,0.000000,0.000000,0.000000,0.000000,0.000000,0.000000,0.000000,0.000000,0.000000,0.000000,0.000000,0.108287,3,0
1070000,0.004023,27.466631,-0.022490,0.017818,25.764584,0.029708,0.003071,0.026009,1.573061,-0.055611,-0.000893,0.002704,0.000129,-0.006804,-0.000012,0.002038,-0.004161,0.109060,-0.027095,0.199840,0.199832,0.170676,0.513945,0.000000,0.000000,0.000000,0.000000,0.000000,0.000000,0.000000,0.000000,0.000000,0.000000,0.000000,0.000000,0.105503,3,0
1080000,0.004065,27.729841,-0.022557,0.018016,25.777802,0.029359,0.003098,0.026673,1.573085,-0.056697,-0.000919,0.002795,0.000134,-0.007023,-0.000013,0.004457,-0.004205,0.165808,-0.012534,0.200081,0.200073,0.170429,0.508649,0.000000,0.000000,0.000000,0.000000,0.000000,0.000000,0.000000,0.000000,0.000000,0.000000,0.000000,0.000000,0.160330,3,0
1090000,0.004106,27.991697,-0.021100,0.018131,25.788532,0.031226,0.003107,0.027195,1.573104,-0.057491,-0.000947,0.002463,0.000140,-0.007184,-0.000013,0.002641,-0.004249,0.121132,0.041162,0.200313,0.200305,0.170173,0.503459,0.000000,0.000000,0.000000,0.000000,0.000000,0.000000,0.000000,0.000000,0.000000,0.000000,0.000000,0.000000,0.117162,3,0
1100000,0.004147,28.252884,-0.020221,0.018198,25.797897,0.032123,0.003121,0.027625,1.573129,-0.058132,-0.000974,0.002297,0.000146,-0.007317,-0.000013,0.001607,-0.004291,0.097715,0.020176,0.200539,0.200530,0.169908,0.498372,0.000000,0.000000,0.000000,0.000000,0.000000,0.000000,0.000000,0.000000,0.000000,0.000000,0.000000,0.000000,0.094541,3,0
1110000,0.004188,28.516071,-0.020922,0.018269,25.810678,0.030945,0.003142,0.028274,1.573156,-0.059150,-0.001001,0.002576,0.000152,-0.007531,-0.000014,0.004057,-0.004333,0.154495,-0.035890,0.200758,0.200748,0.169635,0.493390,0.000000,0.000000,0.000000,0.000000,0.000000,0.000000,0.000000,0.000000,0.000000,0.000000,0.000000,0.000000,0.149383,3,0
1120000,0.004228,28.778561,-0.020359,0.018391,25.822117,0.031397,0.003154,0.028841,1.573188,-0.060004,-0.001029,0.002494,0.000158,-0.007713,-0.000014,0.002728,-0.004374,0.129728,0.009237,0.200970,0.200960,0.169355,0.488511,0.000000,0.000000,0.000000,0.000000,0.000000,0.000000,0.000000,0.000000,0.000000,0.000000,0.000000,0.000000,0.125455,3,0
1130000,0.004267,29.040361,-0.019284,0.018537,25.832188,0.032826,0.003168,0.029316,1.573205,-0.060700,-0.001058,0.002267,0.000164,-0.007864,-0.000014,0.001921,-0.004416,0.105673,0.027116,0.201177,0.201166,0.169067,0.483736,0.000000,0.000000,0.000000,0.000000,0.000000,0.000000,0.000000,0.000000,0.000000,0.000000,0.000000,0.000000,0.102220,3,0
1140000,0.004307,29.302153,-0.019358,0.018681,25.842125,0.032627,0.003175,0.029797,1.573225,-0.061375,-0.001086,0.002377,0.000170,-0.008012,-0.000015,0.001718,-0.004457,0.102196,-0.014173,0.201378,0.201367,0.168773,0.479062,0.000000,0.000000,0.000000,0.000000,0.000000,0.000000,0.000000,0.000000,0.000000,0.000000,0.000000,0.000000,0.098858,3,0
1150000,0.004348,29.560591,-0.019009,0.018875,25.846096,0.032864,0.003178,0.029883,1.573236,-0.061370,-0.001116,0.002371,0.000177,-0.008011,-0.000015,0.000003,-0.004499,-0.000664,0.000724,0.201573,0.201562,0.168471,0.474489,0.000000,0.000000,0.000000,0.000000,0.000000,0.000000,0.000000,0.000000,0.000000,0.000000,0.000000,0.000000,0.004395,3,0
1160000,0.004387,29.823076,-0.018292,0.018998,25.857010,0.033753,0.003202,0.030431,1.573255,-0.062152,-0.001145,0.002247,0.000184,-0.008188,-0.000015,0.002299,-0.004540,0.118557,0.014046,0.201765,0.201753,0.168164,0.470017,0.000000,0.000000,0.000000,0.000000,0.000000,0.000000,0.000000,0.000000,0.000000,0.000000,0.000000,0.000000,0.114655,3,0
1170000,0.004426,30.082190,-0.017042,0.019047,25.862019,0.035439,0.003219,0.030581,1.573267,-0.062250,-0.001176,0.001974,0.000191,-0.008210,-0.000015,0.000211,-0.004581,0.014992,0.032496,0.201952,0.201939,0.167851,0.465644,0.000000,0.000000,0.000000,0.000000,0.000000,0.000000,0.000000,0.000000,0.000000,0.000000,0.000000,0.000000,0.015151,3,0
1180000,0.004464,30.341328,-0.015854,0.019198,25.866938,0.036654,0.003226,0.030740,1.573283,-0.062343,-0.001206,0.001722,0.000198,-0.008231,-0.000015,0.000180,-0.004621,0.014254,0.029824,0.202135,0.202122,0.167532,0.461369,0.000000,0.000000,0.000000,0.000000,0.000000,0.000000,0.000000,0.000000,0.000000,0.000000,0.000000,0.000000,0.014482,3,0
1190000,0.004503,30.600491,-0.014524,0.019301,25.871838,0.038040,0.003233,0.030880,1.573307,-0.062431,-0.001237,0.001428,0.000205,-0.008251,-0.000016,0.000227,-0.004660,0.013493,0.034587,0.202315,0.202301,0.167209,0.457192,0.000000,0.000000,0.000000,0.000000,0.000000,0.000000,0.000000,0.000000,0.000000,0.000000,0.000000,0.000000,0.013796,3,0
1200000,0.004541,30.862366,-0.014819,0.019416,25.881470,0.037290,0.003246,0.031359,1.573324,-0.063040,-0.001267,0.001626,0.000212,-0.008397,-0.000016,0.001467,-0.004700,0.092222,-0.024041,0.202492,0.202477,0.166881,0.453110,0.000000,0.000000,0.000000,0.000000,0.000000,0.000000,0.000000,0.000000,0.000000,0.000000,0.000000,0.000000,0.089223,3,0
1210000,0.004580,31.124220,-0.015222,0.019528,25.890909,0.036732,0.003251,0.031828,1.573341,-0.063625,-0.001298,0.001858,0.000220,-0.008540,-0.000016,0.001395,-0.004739,0.088676,-0.027838,0.202666,0.202651,0.166549,0.449123,0.000000,0.000000,0.000000,0.000000,0.000000,0.000000,0.000000,0.000000,0.000000,0.000000,0.000000,0.000000,0.085800,3,0
1220000,0.004618,31.385384,-0.016385,0.019638,25.899099,0.035201,0.003263,0.032207,1.573361,-0.064057,-0.001328,0.002330,0.000227,-0.008648,-0.000017,0.001184,-0.004779,0.065275,-0.055206,0.202838,0.202822,0.166212,0.445230,0.000000,0.000000,0.000000,0.000000,0.000000,0.000000,0.000000,0.000000,0.000000,0.000000,0.000000,0.000000,0.063232,3,0
1230000,0.004657,31.646536,-0.017559,0.019759,25.906986,0.033441,0.003268,0.032567,1.573388,-0.064470,-0.001359,0.002803,0.000235,-0.008752,-0.000017,0.001123,-0.004819,0.062454,-0.055050,0.203008,0.202991,0.165873,0.441428,0.000000,0.000000,0.000000,0.000000,0.000000,0.000000,0.000000,0.000000,0.000000,0.000000,0.000000,0.000000,0.060515,3,0
1240000,0.004694,31.909685,-0.016826,0.019910,25.918377,0.034115,0.003274,0.033176,1.573408,-0.065252,-0.001390,0.002663,0.000243,-0.008951,-0.000017,0.002331,-0.004859,0.119286,0.014811,0.203176,0.203159,0.165530,0.437718,0.000000,0.000000,0.000000,0.000000,0.000000,0.000000,0.000000,0.000000,0.000000,0.000000,0.000000,0.000000,0.115343,3,0
1250000,0.004732,32.173466,-0.017316,0.020045,25.930702,0.033381,0.003288,0.033852,1.573431,-0.066134,-0.001420,0.002913,0.000251,-0.009179,-0.000018,0.003054,-0.004897,0.134331,-0.029836,0.203343,0.203325,0.165184,0.434097,0.000000,0.000000,0.000000,0.000000,0.000000,0.000000,0.000000,0.000000,0.000000,0.000000,0.000000,0.000000,0.129862,3,0
1260000,0.004768,32.432468,-0.017308,0.020093,25.934429,0.033073,0.003294,0.033906,1.573460,-0.066067,-0.001453,0.003020,0.000259,-0.009162,-0.000018,0.000044,-0.004936,-0.010303,-0.011953,0.203509,0.203490,0.164835,0.430565,0.000000,0.000000,0.000000,0.000000,0.000000,0.000000,0.000000,0.000000,0.000000,0.000000,0.000000,0.000000,0.011039,3,0
1270000,0.004804,32.691483,-0.016143,0.020210,25.938223,0.034565,0.003305,0.033966,1.573473,-0.065994,-0.001485,0.002752,0.000268,-0.009141,-0.000018,0.000171,-0.004973,-0.010918,0.030224,0.203674,0.203654,0.164485,0.427121,0.000000,0.000000,0.000000,0.000000,0.000000,0.000000,0.000000,0.000000,0.000000,0.000000,0.000000,0.000000,0.011587,3,0
1280000,0.004840,32.953217,-0.015697,0.020294,25.946795,0.034798,0.003313,0.034378,1.573488,-0.066437,-0.001518,0.002711,0.000277,-0.009260,-0.000018,0.000750,-0.005010,0.067970,0.003928,0.203839,0.203818,0.164132,0.423762,0.000000,0.000000,0.000000,0.000000,0.000000,0.000000,0.000000,0.000000,0.000000,0.000000,0.000000,0.000000,0.065841,3,0
1290000,0.004876,33.216286,-0.017024,0.020403,25.957590,0.032993,0.003314,0.034948,1.573519,-0.067118,-0.001549,0.003249,0.000285,-0.009448,-0.000019,0.002360,-0.005047,0.104332,-0.061037,0.204004,0.203982,0.163778,0.420487,0.000000,0.000000,0.000000,0.000000,0.000000,0.000000,0.000000,0.000000,0.000000,0.000000,0.000000,0.000000,0.100895,3,0
1300000,0.004912,33.476589,-0.016545,0.020533,25.963236,0.033300,0.003315,0.035134,1.573549,-0.067248,-0.001582,0.003198,0.000294,-0.009484,-0.000019,0.000074,-0.005085,0.020065,0.005489,0.204168,0.204145,0.163422,0.417294,0.000000,0.000000,0.000000,0.000000,0.000000,0.000000,0.000000,0.000000,0.000000,0.000000,0.000000,0.000000,0.019995,3,0
1310000,0.004948,33.736889,-0.017001,0.020681,25.968882,0.032439,0.003325,0.035322,1.573578,-0.067366,-0.001614,0.003459,0.000303,-0.009518,-0.000019,0.000193,-0.005121,0.018135,-0.028985,0.204333,0.204309,0.163066,0.414183,0.000000,0.000000,0.000000,0.000000,0.000000,0.000000,0.000000,0.000000,0.000000,0.000000,0.000000,0.000000,0.018199,3,0
1320000,0.004982,33.999886,-0.016624,0.020708,25.979223,0.032764,0.003338,0.035866,1.573596,-0.067983,-0.001647,0.003428,0.000313,-0.009694,-0.000020,0.001480,-0.005158,0.095715,0.002285,0.204498,0.204473,0.162708,0.411152,0.000000,0.000000,0.000000,0.000000,0.000000,0.000000,0.000000,0.000000,0.000000,0.000000,0.000000,0.000000,0.092587,3,0
1330000,0.005015,34.263504,-0.015522,0.020775,25.990656,0.033916,0.003348,0.036481,1.573613,-0.068695,-0.001679,0.003148,0.000322,-0.009898,-0.000020,0.002122,-0.005193,0.110924,0.029073,0.204664,0.204638,0.162350,0.408200,0.000000,0.000000,0.000000,0.000000,0.000000,0.000000,0.000000,0.000000,0.000000,0.000000,0.000000,0.000000,0.107261,3,0
1340000,0.005048,34.527058,-0.014316,0.020917,26.001711,0.035148,0.003361,0.037077,1.573635,-0.069370,-0.001712,0.002835,0.000332,-0.010095,-0.000021,0.001972,-0.005227,0.105614,0.032570,0.204830,0.204803,0.161992,0.405325,0.000000,0.000000,0.000000,0.000000,0.000000,0.000000,0.000000,0.000000,0.000000,0.000000,0.000000,0.000000,0.102137,3,0
1350000,0.005081,34.785797,-0.014024,0.020969,26.004084,0.035439,0.003365,0.037017,1.573658,-0.069122,-0.001746,0.002863,0.000342,-0.010022,-0.000021,0.000248,-0.005261,-0.038776,-0.002532,0.204998,0.204970,0.161634,0.402525,0.000000,0.000000,0.000000,0.000000,0.000000,0.000000,0.000000,0.000000,0.000000,0.000000,0.000000,0.000000,0.037796,3,0
1360000,0.005115,35.046597,-0.015080,0.021021,26.010172,0.034017,0.003377,0.037222,1.573675,-0.069255,-0.001779,0.003351,0.000352,-0.010064,-0.000021,0.000519,-0.005295,0.020519,-0.052481,0.205167,0.205138,0.161276,0.399800,0.000000,0.000000,0.000000,0.000000,0.000000,0.000000,0.000000,0.000000,0.000000,0.000000,0.000000,0.000000,0.020459,3,0
1370000,0.005148,35.305328,-0.016136,0.021084,26.012346,0.032384,0.003374,0.037139,1.573694,-0.068994,-0.001813,0.003848,0.000362,-0.009986,-0.000021,0.000727,-0.005329,-0.041546,-0.052333,0.205337,0.205307,0.160918,0.397146,0.000000,0.000000,0.000000,0.000000,0.000000,0.000000,0.000000,0.000000,0.000000,0.000000,0.000000,0.000000,0.040459,3,0
1380000,0.005178,35.568825,-0.014996,0.021143,26.023008,0.033712,0.003384,0.037708,1.573710,-0.069607,-0.001846,0.003544,0.000372,-0.010175,-0.000021,0.001683,-0.005363,0.097275,0.030898,0.205508,0.205477,0.160561,0.394563,0.000000,0.000000,0.000000,0.000000,0.000000,0.000000,0.000000,0.000000,0.000000,0.000000,0.000000,0.000000,0.094091,3,0
1390000,0.005209,35.828178,-0.015884,0.021124,26.026150,0.032631,0.003389,0.037686,1.573723,-0.069438,-0.001880,0.003986,0.000383,-0.010123,-0.000021,0.000470,-0.005393,-0.027172,-0.046207,0.205681,0.205649,0.160205,0.392051,0.000000,0.000000,0.000000,0.000000,0.000000,0.000000,0.000000,0.000000,0.000000,0.000000,0.000000,0.000000,0.026761,3,0
1400000,0.005238,36.086842,-0.015412,0.021241,26.028053,0.033041,0.003385,0.037567,1.573746,-0.069138,-0.001914,0.003944,0.000394,-0.010027,-0.000021,0.000380,-0.005425,-0.048012,0.005084,0.205856,0.205822,0.159850,0.389607,0.000000,0.000000,0.000000,0.000000,0.000000,0.000000,0.000000,0.000000,0.000000,0.000000,0.000000,0.000000,0.046659,3,0
1410000,0.005270,36.350300,-0.016708,0.021395,26.038437,0.031291,0.003399,0.038136,1.573770,-0.069706,-0.001946,0.004514,0.000404,-0.010214,-0.000022,0.001932,-0.005456,0.090885,-0.060702,0.206032,0.205997,0.159496,0.387229,0.000000,0.000000,0.000000,0.000000,0.000000,0.000000,0.000000,0.000000,0.000000,0.000000,0.000000,0.000000,0.087911,3,0
1420000,0.005300,36.608212,-0.016123,0.021509,26.038694,0.031962,0.003403,0.037894,1.573795,-0.069252,-0.001981,0.004431,0.000416,-0.010064,-0.000021,0.000884,-0.005488,-0.073284,0.009649,0.206210,0.206174,0.159143,0.384916,0.000000,0.000000,0.000000,0.000000,0.000000,0.000000,0.000000,0.000000,0.000000,0.000000,0.000000,0.000000,0.070961,3,0
1430000,0.005330,36.868195,-0.015795,0.021647,26.042679,0.032087,0.003397,0.037936,1.573814,-0.069171,-0.002015,0.004432,0.000427,-0.010037,-0.000021,0.000033,-0.005519,-0.013134,0.000168,0.206390,0.206352,0.158792,0.382667,0.000000,0.000000,0.000000,0.000000,0.000000,0.000000,0.000000,0.000000,0.000000,0.000000,0.000000,0.000000,0.013758,3,0
1440000,0.005360,37.126114,-0.015871,0.021738,26.043011,0.032015,0.003399,0.037666,1.573837,-0.068716,-0.002050,0.004596,0.000439,-0.009884,-0.000021,0.000935,-0.005550,-0.074371,-0.015673,0.206572,0.206533,0.158443,0.380481,0.000000,0.000000,0.000000,0.000000,0.000000,0.000000,0.000000,0.000000,0.000000,0.000000,0.000000,0.000000,0.072015,3,0
1450000,0.005389,37.384045,-0.015152,0.021817,26.043165,0.032831,0.003399,0.037404,1.573864,-0.068266,-0.002085,0.004466,0.000451,-0.009728,-0.000021,0.000917,-0.005581,-0.073864,0.014479,0.206755,0.206715,0.158096,0.378355,0.000000,0.000000,0.000000,0.000000,0.000000,0.000000,0.000000,0.000000,0.000000,0.000000,0.000000,0.000000,0.071519,3,0
1460000,0.005420,37.642689,-0.016063,0.021968,26.044558,0.031709,0.003403,0.037253,1.573891,-0.067944,-0.002119,0.004943,0.000462,-0.009618,-0.000021,0.000834,-0.005612,-0.053493,-0.047663,0.206940,0.206899,0.157751,0.376288,0.000000,0.000000,0.000000,0.000000,0.000000,0.000000,0.000000,0.000000,0.000000,0.000000,0.000000,0.000000,0.051942,3,0
1470000,0.005448,37.904076,-0.015920,0.021997,26.051004,0.031792,0.003410,0.037497,1.573913,-0.068100,-0.002153,0.005003,0.000474,-0.009673,-0.000021,0.000119,-0.005643,0.025791,-0.006571,0.207128,0.207085,0.157408,0.374280,0.000000,0.000000,0.000000,0.000000,0.000000,0.000000,0.000000,0.000000,0.000000,0.000000,0.000000,0.000000,0.025488,3,0
1480000,0.005478,38.166801,-0.016606,0.022100,26.059797,0.030638,0.003415,0.037947,1.573930,-0.068475,-0.002186,0.005369,0.000486,-0.009810,-0.000022,0.000867,-0.005673,0.062523,-0.037914,0.207317,0.207273,0.157068,0.372330,0.000000,0.000000,0.000000,0.000000,0.000000,0.000000,0.000000,0.000000,0.000000,0.000000,0.000000,0.000000,0.060604,3,0
1490000,0.005506,38.426720,-0.017595,0.022066,26.063244,0.029373,0.003421,0.037953,1.573944,-0.068350,-0.002219,0.005870,0.000498,-0.009767,-0.000022,0.000483,-0.005702,-0.021381,-0.049885,0.207508,0.207462,0.156730,0.370433,0.000000,0.000000,0.000000,0.000000,0.000000,0.000000,0.000000,0.000000,0.000000,0.000000,0.000000,0.000000,0.021374,3,0
1500000,0.005533,38.686615,-0.018065,0.022020,26.066603,0.028727,0.003421,0.037940,1.573971,-0.068217,-0.002253,0.006170,0.000510,-0.009719,-0.000022,0.000232,-0.005730,-0.022907,-0.029609,0.207701,0.207654,0.156394,0.368590,0.000000,0.000000,0.000000,0.000000,0.000000,0.000000,0.000000,0.000000,0.000000,0.000000,0.000000,0.000000,0.022803,3,0
1510000,0.005556,38.945789,-0.017279,0.021970,26.068544,0.029514,0.003417,0.037819,1.573981,-0.067956,-0.002287,0.005990,0.000523,-0.009620,-0.000021,0.000378,-0.005756,-0.044289,0.018733,0.207895,0.207847,0.156062,0.366800,0.000000,0.000000,0.000000,0.000000,0.000000,0.000000,0.000000,0.000000,0.000000,0.000000,0.000000,0.000000,0.043111,3,0
1520000,0.005580,39.205650,-0.016705,0.022096,26.071732,0.030157,0.003404,0.037794,1.573995,-0.067809,-0.002321,0.005889,0.000536,-0.009563,-0.000021,0.000125,-0.005781,-0.025181,0.010439,0.208092,0.208042,0.155732,0.365062,0.000000,0.000000,0.000000,0.000000,0.000000,0.000000,0.000000,0.000000,0.000000,0.000000,0.000000,0.000000,0.024939,3,0
1530000,0.005603,39.468933,-0.015759,0.022154,26.081038,0.031156,0.003400,0.038289,1.574023,-0.068229,-0.002354,0.005618,0.000549,-0.009725,-0.000022,0.000962,-0.005805,0.072750,0.025382,0.208290,0.208238,0.155405,0.363373,0.000000,0.000000,0.000000,0.000000,0.000000,0.000000,0.000000,0.000000,0.000000,0.000000,0.000000,0.000000,0.070456,3,0
1540000,0.005625,39.731461,-0.015674,0.022110,26.088951,0.030905,0.003387,0.038651,1.574053,-0.068504,-0.002387,0.005694,0.000562,-0.009833,-0.000022,0.000386,-0.005828,0.047916,-0.008324,0.208489,0.208436,0.155082,0.361735,0.000000,0.000000,0.000000,0.000000,0.000000,0.000000,0.000000,0.000000,0.000000,0.000000,0.000000,0.000000,0.046590,3,0
1550000,0.005648,39.993244,-0.016737,0.022135,26.095484,0.029628,0.003386,0.038906,1.574082,-0.068642,-0.002420,0.006234,0.000575,-0.009891,-0.000023,0.000556,-0.005850,0.023857,-0.053157,0.208690,0.208635,0.154761,0.360144,0.000000,0.000000,0.000000,0.000000,0.000000,0.000000,0.000000,0.000000,0.000000,0.000000,0.000000,0.000000,0.023697,3,0
1560000,0.005671,40.253590,-0.017567,0.022227,26.099260,0.028485,0.003378,0.038918,1.574093,-0.068535,-0.002453,0.006690,0.000588,-0.009850,-0.000023,0.000380,-0.005874,-0.019321,-0.044031,0.208892,0.208836,0.154444,0.358600,0.000000,0.000000,0.000000,0.000000,0.000000,0.000000,0.000000,0.000000,0.000000,0.000000,0.000000,0.000000,0.019504,3,0
1570000,0.005693,40.513203,-0.018060,0.022243,26.101545,0.027719,0.003380,0.038809,1.574112,-0.068305,-0.002486,0.007015,0.000602,-0.009758,-0.000023,0.000431,-0.005897,-0.041157,-0.030707,0.209096,0.209039,0.154130,0.357100,0.000000,0.000000,0.000000,0.000000,0.000000,0.000000,0.000000,0.000000,0.000000,0.000000,0.000000,0.000000,0.040136,3,0
1580000,0.005713,40.772793,-0.018086,0.022279,26.103682,0.027726,0.003364,0.038686,1.574122,-0.068071,-0.002519,0.007153,0.000615,-0.009661,-0.000023,0.000319,-0.005919,-0.042366,-0.012416,0.209301,0.209242,0.153820,0.355643,0.000000,0.000000,0.000000,0.000000,0.000000,0.000000,0.000000,0.000000,0.000000,0.000000,0.000000,0.000000,0.041291,3,0
1590000,0.005732,41.034431,-0.016929,0.022346,26.109591,0.028922,0.003358,0.038872,1.574153,-0.068158,-0.002552,0.006791,0.000629,-0.009695,-0.000023,0.000241,-0.005941,0.016083,0.034503,0.209507,0.209446,0.153513,0.354230,0.000000,0.000000,0.000000,0.000000,0.000000,0.000000,0.000000,0.000000,0.000000,0.000000,0.000000,0.000000,0.016554,3,0
1600000,0.005752,41.296028,-0.017340,0.022306,26.115290,0.028403,0.003342,0.039067,1.574180,-0.068229,-0.002584,0.007075,0.000643,-0.009728,-0.000023,0.000154,-0.005959,0.012814,-0.027429,0.209714,0.209652,0.153209,0.352857,0.000000,0.000000,0.000000,0.000000,0.000000,0.000000,0.000000,0.000000,0.000000,0.000000,0.000000,0.000000,0.013632,3,0
1610000,0.005770,41.558266,-0.017492,0.022291,26.122128,0.028168,0.003336,0.039340,1.574205,-0.068389,-0.002616,0.007246,0.000657,-0.009799,-0.000024,0.000192,-0.005978,0.029461,-0.016947,0.209922,0.209858,0.152909,0.351525,0.000000,0.000000,0.000000,0.000000,0.000000,0.000000,0.000000,0.000000,0.000000,0.000000,0.000000,0.000000,0.029007,3,0
1620000,0.005788,41.816265,-0.017968,0.022354,26.121075,0.027673,0.003329,0.038925,1.574216,-0.067888,-0.002649,0.007593,0.000671,-0.009578,-0.000023,0.001573,-0.005997,-0.093693,-0.030948,0.210131,0.210065,0.152613,0.350232,0.000000,0.000000,0.000000,0.000000,0.000000,0.000000,0.000000,0.000000,0.000000,0.000000,0.000000,0.000000,0.090605,3,0
1630000,0.005808,42.073578,-0.019154,0.022457,26.118822,0.026354,0.003320,0.038396,1.574233,-0.067290,-0.002682,0.008244,0.000686,-0.009313,-0.000023,0.002631,-0.006016,-0.113132,-0.059031,0.210340,0.210273,0.152321,0.348978,0.000000,0.000000,0.000000,0.000000,0.000000,0.000000,0.000000,0.000000,0.000000,0.000000,0.000000,0.000000,0.109339,3,0
1640000,0.005826,42.335777,-0.019700,0.022507,26.125519,0.025501,0.003309,0.038659,1.574253,-0.067434,-0.002713,0.008574,0.000700,-0.009381,-0.000023,0.000287,-0.006037,0.027153,-0.031684,0.210550,0.210481,0.152032,0.347760,0.000000,0.000000,0.000000,0.000000,0.000000,0.000000,0.000000,0.000000,0.000000,0.000000,0.000000,0.000000,0.026832,3,0
1650000,0.005842,42.595806,-0.019428,0.022455,26.128078,0.025812,0.003298,0.038550,1.574280,-0.067245,-0.002745,0.008581,0.000714,-0.009293,-0.000023,0.000218,-0.006054,-0.036320,0.000144,0.210760,0.210690,0.151747,0.346577,0.000000,0.000000,0.000000,0.000000,0.000000,0.000000,0.000000,0.000000,0.000000,0.000000,0.000000,0.000000,0.035529,3,0
1660000,0.005858,42.853718,-0.020049,0.022496,26.126741,0.025205,0.003291,0.038092,1.574302,-0.066744,-0.002777,0.008992,0.000729,-0.009058,-0.000022,0.001750,-0.006070,-0.097588,-0.036150,0.210971,0.210899,0.151467,0.345429,0.000000,0.000000,0.000000,0.000000,0.000000,0.000000,0.000000,0.000000,0.000000,0.000000,0.000000,0.000000,0.094352,3,0
1670000,0.005872,43.116505,-0.019170,0.022490,26.134266,0.026265,0.003287,0.038430,1.574319,-0.066957,-0.002808,0.008710,0.000744,-0.009159,-0.000023,0.000395,-0.006087,0.042095,0.025249,0.211181,0.211108,0.151189,0.344313,0.000000,0.000000,0.000000,0.000000,0.000000,0.000000,0.000000,0.000000,0.000000,0.000000,0.000000,0.000000,0.041045,3,0
1680000,0.005884,43.378513,-0.018136,0.022417,26.140324,0.027221,0.003279,0.038631,1.574346,-0.067046,-0.002838,0.008373,0.000759,-0.009200,-0.000023,0.000212,-0.006100,0.017776,0.030877,0.211392,0.211316,0.150916,0.343231,0.000000,0.000000,0.000000,0.000000,0.000000,0.000000,0.000000,0.000000,0.000000,0.000000,0.000000,0.000000,0.018139,3,0
1690000,0.005898,43.636974,-0.018872,0.022411,26.139688,0.026450,0.003277,0.038239,1.574364,-0.066623,-0.002870,0.008843,0.000774,-0.008993,-0.000023,0.001454,-0.006112,-0.085258,-0.041409,0.211602,0.211525,0.150647,0.342179,0.000000,0.000000,0.000000,0.000000,0.000000,0.000000,0.000000,0.000000,0.000000,0.000000,0.000000,0.000000,0.082479,3,0
1700000,0.005911,43.895416,-0.019215,0.022341,26.139002,0.026095,0.003266,0.037837,1.574378,-0.066204,-0.002901,0.009142,0.000790,-0.008784,-0.000023,0.001281,-0.006126,-0.085289,-0.025424,0.211811,0.211733,0.150382,0.341158,0.000000,0.000000,0.000000,0.000000,0.000000,0.000000,0.000000,0.000000,0.000000,0.000000,0.000000,0.000000,0.082499,3,0
1710000,0.005921,44.155251,-0.019327,0.022289,26.140858,0.025806,0.003251,0.037662,1.574387,-0.065982,-0.002931,0.009323,0.000805,-0.008671,-0.000022,0.000379,-0.006137,-0.045540,-0.015552,0.212021,0.211941,0.150121,0.340165,0.000000,0.000000,0.000000,0.000000,0.000000,0.000000,0.000000,0.000000,0.000000,0.000000,0.000000,0.000000,0.044335,3,0
1720000,0.005932,44.412251,-0.020241,0.022220,26.137383,0.024871,0.003228,0.037012,1.574394,-0.065375,-0.002962,0.009891,0.000820,-0.008359,-0.000022,0.002965,-0.006147,-0.126480,-0.048763,0.212229,0.212147,0.149863,0.339201,0.000000,0.000000,0.000000,0.000000,0.000000,0.000000,0.000000,0.000000,0.000000,0.000000,0.000000,0.000000,0.122169,3,0
