time_us,pos_x,pos_y,pos_z,vel_x,vel_y,vel_z,roll,pitch,yaw,bias_ax,bias_ay,bias_az,bias_gx,bias_gy,bias_gz,nis,innov_x,innov_y,innov_z,cov_pos_x,cov_pos_y,cov_pos_z,cov_yaw,des_speed,des_heading,des_climb,pid_speed,pid_yaw,pid_alt,speed_meas,yaw_meas,climb_meas,fwd_accel,yaw_rate,vert_accel,drift_m,nav_mode,mission_state
0,-0.000001,0.150005,-0.000006,-0.000191,25.000765,-0.001551,0.000007,-0.000001,1.570783,0.000000,0.000000,0.000000,0.000000,0.000000,0.000000,0.006250,0.000002,-0.250010,0.000016,2.400038,2.400038,3.600017,1.000518,0.000000,0.000000,0.000000,0.000000,0.000000,0.000000,0.000000,0.000000,0.000000,0.000000,0.000000,0.000000,0.110247,1,0
10000,-0.000006,0.291400,-0.007458,-0.000766,25.000854,-0.002801,0.000002,-0.000010,1.570764,0.000001,0.000000,0.000000,0.000000,0.000000,0.000000,0.017244,0.000009,-0.380141,-0.019796,1.714420,1.714420,2.250079,1.001073,0.000000,0.000000,0.000000,0.000000,0.000000,0.000000,0.000000,0.000000,0.000000,0.000000,0.000000,0.000000,0.006784,3,0
20000,-0.000012,0.429915,-0.010855,-0.000938,25.000458,-0.004038,-0.000004,-0.000014,1.570737,0.000006,0.000000,0.000000,0.000000,0.000000,-0.000000,0.032639,0.000016,-0.501661,-0.012309,1.333616,1.333616,1.636554,1.001655,0.000000,0.000000,0.000000,0.000000,0.000000,0.000000,0.000000,0.000000,0.000000,0.000000,0.000000,0.000000,0.126695,3,0
30000,-0.000021,0.563482,0.002490,-0.001319,24.998997,-0.005236,-0.000005,-0.000023,1.570720,0.000017,0.000000,-0.000001,-0.000000,0.000000,-0.000000,0.056390,0.000025,-0.640170,0.062515,1.091392,1.091392,1.286065,1.002257,0.000000,0.000000,0.000000,0.000000,0.000000,0.000000,0.000000,0.000000,0.000000,0.000000,0.000000,0.000000,0.251554,3,0
40000,-0.000032,0.685169,0.014494,-0.001717,24.996033,-0.006437,-0.000003,-0.000032,1.570698,0.000041,0.000000,-0.000003,-0.000000,0.000000,-0.000000,0.098568,0.000038,-0.833359,0.068364,0.923811,0.923811,1.059385,1.002869,0.000000,0.000000,0.000000,0.000000,0.000000,0.000000,0.000000,0.000000,0.000000,0.000000,0.000000,0.000000,0.388293,3,0
50000,-0.000045,0.810293,0.023722,-0.002022,24.992044,-0.007464,-0.000000,-0.000048,1.570678,0.000081,0.000000,-0.000005,-0.000000,0.000000,-0.000000,0.126834,0.000052,-0.935139,0.061985,0.801036,0.801036,0.900822,1.003484,0.000000,0.000000,0.000000,0.000000,0.000000,0.000000,0.000000,0.000000,0.000000,0.000000,0.000000,0.000000,0.521595,3,0
60000,-0.000060,0.939929,0.021863,-0.002321,24.986330,-0.008850,-0.000003,-0.000065,1.570655,0.000142,0.000000,-0.000004,-0.000000,0.000001,-0.000000,0.153125,0.000069,-1.020461,-0.013566,0.707270,0.707270,0.783741,1.004094,0.000000,0.000000,0.000000,0.000000,0.000000,0.000000,0.000000,0.000000,0.000000,0.000000,0.000000,0.000000,0.650384,3,0
70000,-0.000077,1.074697,0.024435,-0.002611,24.979673,-0.010298,-0.000007,-0.000091,1.570635,0.000229,0.000000,-0.000006,-0.000000,0.000002,-0.000000,0.177325,0.000087,-1.090408,0.023150,0.633370,0.633370,0.693801,1.004688,0.000000,0.000000,0.000000,0.000000,0.000000,0.000000,0.000000,0.000000,0.000000,0.000000,0.000000,0.000000,0.774042,3,0
80000,-0.000096,1.199764,0.029203,-0.002896,24.970119,-0.011418,-0.000010,-0.000136,1.570618,0.000363,0.000000,-0.000011,-0.000000,0.000003,-0.000000,0.256882,0.000106,-1.304623,0.047081,0.573673,0.573673,0.622594,1.005260,0.000000,0.000000,0.000000,0.000000,0.000000,0.000000,0.000000,0.000000,0.000000,0.000000,0.000000,0.000000,0.907401,3,0
90000,-0.000118,1.345358,0.027351,-0.003268,24.960499,-0.012912,-0.000009,-0.000172,1.570601,0.000514,0.000000,-0.000009,-0.000000,0.000005,-0.000000,0.215815,0.000129,-1.191047,-0.018315,0.524487,0.524487,0.564865,1.005801,0.000000,0.000000,0.000000,0.000000,0.000000,0.000000,0.000000,0.000000,0.000000,0.000000,0.000000,0.000000,1.020233,3,0
100000,-0.000141,1.514533,0.029744,-0.003533,24.951712,-0.014246,-0.000014,-0.000224,1.570586,0.000670,0.000000,-0.000013,-0.000000,0.000007,-0.000000,0.152946,0.000153,-0.998604,0.029448,0.483303,0.483303,0.517162,1.006301,0.000000,0.000000,0.000000,0.000000,0.000000,0.000000,0.000000,0.000000,0.000000,0.000000,0.000000,0.000000,1.109484,3,0
110000,-0.000167,1.693145,0.026044,-0.003927,24.942928,-0.016267,-0.000015,-0.000281,1.570573,0.000847,0.000000,-0.000005,-0.000000,0.000009,-0.000000,0.139196,0.000180,-0.949026,-0.044546,0.448353,0.448353,0.477121,1.006754,0.000000,0.000000,0.000000,0.000000,0.000000,0.000000,0.000000,0.000000,0.000000,0.000000,0.000000,0.000000,1.189298,3,0
120000,-0.000196,1.879211,0.029533,-0.004455,24.933575,-0.017068,-0.000011,-0.000346,1.570554,0.001046,0.000000,-0.000016,-0.000000,0.000012,-0.000000,0.128458,0.000211,-0.908880,0.049635,0.418358,0.418358,0.443071,1.007150,0.000000,0.000000,0.000000,0.000000,0.000000,0.000000,0.000000,0.000000,0.000000,0.000000,0.000000,0.000000,1.261658,3,0
130000,-0.000229,2.077760,0.030943,-0.004909,24.925266,-0.018440,-0.000013,-0.000405,1.570542,0.001245,0.000000,-0.000021,-0.000000,0.000016,-0.000000,0.094074,0.000245,-0.776792,0.023157,0.392368,0.392368,0.413797,1.007482,0.000000,0.000000,0.000000,0.000000,0.000000,0.000000,0.000000,0.000000,0.000000,0.000000,0.000000,0.000000,1.321535,3,0
140000,-0.000266,2.285306,0.032310,-0.005351,24.917248,-0.019733,-0.000013,-0.000468,1.570526,0.001445,0.000000,-0.000028,-0.000000,0.000020,-0.000000,0.071788,0.000283,-0.677071,0.024219,0.369665,0.369665,0.388393,1.007740,0.000000,0.000000,0.000000,0.000000,0.000000,0.000000,0.000000,0.000000,0.000000,0.000000,0.000000,0.000000,1.372415,3,0
150000,-0.000302,2.494519,0.030074,-0.005514,24.908529,-0.021595,-0.000015,-0.000548,1.570516,0.001675,0.000001,-0.000017,-0.000000,0.000024,-0.000000,0.073979,0.000321,-0.685747,-0.033183,0.349694,0.349694,0.366172,1.007916,0.000000,0.000000,0.000000,0.000000,0.000000,0.000000,0.000000,0.000000,0.000000,0.000000,0.000000,0.000000,1.421627,3,0
160000,-0.000342,2.712794,0.031854,-0.005995,24.901112,-0.022774,-0.000033,-0.000619,1.570505,0.001887,0.000001,-0.000030,-0.000000,0.000029,-0.000000,0.049025,0.000362,-0.556932,0.034834,0.332019,0.332019,0.346600,1.008003,0.000000,0.000000,0.000000,0.000000,0.000000,0.000000,0.000000,0.000000,0.000000,0.000000,0.000000,0.000000,1.461778,3,0
170000,-0.000381,2.930382,0.032046,-0.006034,24.892553,-0.024087,-0.000027,-0.000701,1.570490,0.002142,0.000001,-0.000034,-0.000000,0.000035,-0.000000,0.056133,0.000402,-0.596222,0.007915,0.316295,0.316295,0.329260,1.007993,0.000000,0.000000,0.000000,0.000000,0.000000,0.000000,0.000000,0.000000,0.000000,0.000000,0.000000,0.000000,1.502616,3,0
180000,-0.000423,3.150344,0.030708,-0.006373,24.884125,-0.025901,-0.000021,-0.000791,1.570461,0.002416,0.000001,-0.000024,-0.000000,0.000041,-0.000000,0.052429,0.000445,-0.575180,-0.020699,0.302244,0.302244,0.313817,1.007877,0.000000,0.000000,0.000000,0.000000,0.000000,0.000000,0.000000,0.000000,0.000000,0.000000,0.000000,0.000000,1.541080,3,0
190000,-0.000468,3.374250,0.032311,-0.006893,24.876114,-0.026625,-0.000021,-0.000876,1.570446,0.002689,0.000001,-0.000044,-0.000000,0.000049,-0.000000,0.042580,0.000492,-0.516752,0.037509,0.289638,0.289638,0.300003,1.007647,0.000000,0.000000,0.000000,0.000000,0.000000,0.000000,0.000000,0.000000,0.000000,0.000000,0.000000,0.000000,1.575600,3,0
200000,-0.000515,3.600656,0.031881,-0.007190,24.868126,-0.028149,-0.000019,-0.000956,1.570420,0.002970,0.000002,-0.000042,-0.000000,0.000056,-0.000000,0.036949,0.000540,-0.482150,-0.003114,0.278291,0.278291,0.287598,1.007297,0.000000,0.000000,0.000000,0.000000,0.000000,0.000000,0.000000,0.000000,0.000000,0.000000,0.000000,0.000000,1.607620,3,0
210000,-0.000564,3.828353,0.029340,-0.007552,24.860180,-0.030525,-0.000020,-0.001047,1.570404,0.003271,0.000002,-0.000011,-0.000000,0.000065,-0.000000,0.035539,0.000590,-0.469932,-0.048717,0.268049,0.268049,0.276421,1.006819,0.000000,0.000000,0.000000,0.000000,0.000000,0.000000,0.000000,0.000000,0.000000,0.000000,0.000000,0.000000,1.638349,3,0
220000,-0.000614,4.058023,0.029570,-0.007698,24.852228,-0.031751,-0.000013,-0.001147,1.570386,0.003578,0.000003,-0.000020,-0.000000,0.000074,-0.000000,0.030776,0.000641,-0.439121,0.012383,0.258782,0.258781,0.266321,1.006205,0.000000,0.000000,0.000000,0.000000,0.000000,0.000000,0.000000,0.000000,0.000000,0.000000,0.000000,0.000000,1.667104,3,0
230000,-0.000664,4.292748,0.029414,-0.007962,24.845943,-0.033079,-0.000020,-0.001233,1.570375,0.003829,0.000003,-0.000023,-0.000000,0.000082,-0.000000,0.017476,0.000693,-0.330768,0.004103,0.250379,0.250379,0.257172,1.005449,0.000000,0.000000,0.000000,0.000000,0.000000,0.000000,0.000000,0.000000,0.000000,0.000000,0.000000,0.000000,1.690805,3,0
240000,-0.000719,4.529597,0.029796,-0.008455,24.840298,-0.034141,-0.000005,-0.001316,1.570364,0.004066,0.000004,-0.000037,-0.000000,0.000090,-0.000000,0.013233,0.000749,-0.287126,0.017524,0.242748,0.242748,0.248866,1.004544,0.000000,0.000000,0.000000,0.000000,0.000000,0.000000,0.000000,0.000000,0.000000,0.000000,0.000000,0.000000,1.712383,3,0
250000,-0.000773,4.765230,0.030820,-0.008540,24.833801,-0.034812,0.000001,-0.001417,1.570348,0.004356,0.000005,-0.000068,-0.000000,0.000100,-0.000000,0.017114,0.000804,-0.325130,0.034280,0.235809,0.235809,0.241314,1.003484,0.000000,0.000000,0.000000,0.000000,0.000000,0.000000,0.000000,0.000000,0.000000,0.000000,0.000000,0.000000,1.735176,3,0
260000,-0.000830,4.998971,0.030544,-0.008974,24.825508,-0.036302,-0.000001,-0.001524,1.570330,0.004723,0.000006,-0.000070,-0.000000,0.000114,-0.000000,0.023365,0.000863,-0.381787,0.002252,0.229494,0.229494,0.234436,1.002262,0.000000,0.000000,0.000000,0.000000,0.000000,0.000000,0.000000,0.000000,0.000000,0.000000,0.000000,0.000000,1.759861,3,0
270000,-0.000889,5.235403,0.030807,-0.009326,24.818602,-0.037269,0.000003,-0.001628,1.570313,0.005050,0.000007,-0.000087,-0.000000,0.000126,-0.000000,0.016196,0.000923,-0.317263,0.016804,0.223742,0.223742,0.228165,1.000873,0.000000,0.000000,0.000000,0.000000,0.000000,0.000000,0.000000,0.000000,0.000000,0.000000,0.000000,0.000000,1.781854,3,0
280000,-0.000950,5.472123,0.030810,-0.009646,24.811472,-0.038582,0.000008,-0.001734,1.570291,0.005398,0.000008,-0.000099,-0.000000,0.000140,-0.000000,0.015961,0.000985,-0.315079,0.010539,0.218503,0.218502,0.222443,0.999311,0.000000,0.000000,0.000000,0.000000,0.000000,0.000000,0.000000,0.000000,0.000000,0.000000,0.000000,0.000000,1.803561,3,0
290000,-0.001012,5.711214,0.030564,-0.009932,24.805716,-0.039858,0.000005,-0.001830,1.570271,0.005697,0.000009,-0.000104,-0.000000,0.000152,-0.000001,0.010336,0.001049,-0.253544,0.004249,0.213729,0.213729,0.217219,0.997571,0.000000,0.000000,0.000000,0.000000,0.000000,0.000000,0.000000,0.000000,0.000000,0.000000,0.000000,0.000000,1.822895,3,0
300000,-0.001076,5.950415,0.030384,-0.010252,24.799768,-0.041029,0.000010,-0.001931,1.570255,0.006016,0.000011,-0.000112,-0.000000,0.000165,-0.000001,0.010387,0.001115,-0.254031,0.006541,0.209381,0.209381,0.212446,0.995650,0.000000,0.000000,0.000000,0.000000,0.000000,0.000000,0.000000,0.000000,0.000000,0.000000,0.000000,0.000000,1.842120,3,0
310000,-0.001141,6.193106,0.028874,-0.010540,24.796299,-0.043192,0.000002,-0.002002,1.570253,0.006223,0.000012,-0.000071,-0.000000,0.000174,-0.000001,0.004037,0.001181,-0.155231,-0.031325,0.205424,0.205424,0.208087,0.993541,0.000000,0.000000,0.000000,0.000000,0.000000,0.000000,0.000000,0.000000,0.000000,0.000000,0.000000,0.000000,1.857856,3,0
320000,-0.001207,6.433712,0.027592,-0.010751,24.790901,-0.045301,-0.000005,-0.002100,1.570235,0.006533,0.000014,-0.000036,-0.000001,0.000188,-0.000001,0.007820,0.001249,-0.218976,-0.024547,0.201825,0.201825,0.204105,0.991242,0.000000,0.000000,0.000000,0.000000,0.000000,0.000000,0.000000,0.000000,0.000000,0.000000,0.000000,0.000000,1.875676,3,0
330000,-0.001274,6.674971,0.027140,-0.011005,24.785439,-0.046822,-0.000010,-0.002199,1.570215,0.006834,0.000016,-0.000037,-0.000001,0.000202,-0.000001,0.006517,0.001317,-0.201098,0.000472,0.198557,0.198557,0.200469,0.988748,0.000000,0.000000,0.000000,0.000000,0.000000,0.000000,0.000000,0.000000,0.000000,0.000000,0.000000,0.000000,1.892843,3,0
340000,-0.001341,6.918133,0.026260,-0.011197,24.781693,-0.048587,-0.000011,-0.002273,1.570200,0.007062,0.000018,-0.000018,-0.000001,0.000213,-0.000001,0.003373,0.001386,-0.144121,-0.012104,0.195594,0.195594,0.197151,0.986058,0.000000,0.000000,0.000000,0.000000,0.000000,0.000000,0.000000,0.000000,0.000000,0.000000,0.000000,0.000000,1.908106,3,0
350000,-0.001411,7.161177,0.026613,-0.011613,24.777925,-0.049140,-0.000010,-0.002357,1.570188,0.007310,0.000021,-0.000062,-0.000001,0.000226,-0.000001,0.003679,0.001458,-0.148701,0.026317,0.192913,0.192913,0.194125,0.983169,0.000000,0.000000,0.000000,0.000000,0.000000,0.000000,0.000000,0.000000,0.000000,0.000000,0.000000,0.000000,1.923488,3,0
360000,-0.001482,7.404099,0.027757,-0.011922,24.773689,-0.049089,-0.000004,-0.002451,1.570165,0.007579,0.000024,-0.000152,-0.000001,0.000240,-0.000001,0.004218,0.001530,-0.153158,0.051743,0.190493,0.190493,0.191370,0.980079,0.000000,0.000000,0.000000,0.000000,0.000000,0.000000,0.000000,0.000000,0.000000,0.000000,0.000000,0.000000,1.938992,3,0
370000,-0.001553,7.646275,0.027464,-0.012088,24.768417,-0.050529,-0.000012,-0.002560,1.570155,0.007906,0.000027,-0.000165,-0.000001,0.000257,-0.000001,0.005087,0.001603,-0.177369,0.006792,0.188315,0.188315,0.188863,0.976785,0.000000,0.000000,0.000000,0.000000,0.000000,0.000000,0.000000,0.000000,0.000000,0.000000,0.000000,0.000000,1.955243,3,0
380000,-0.001625,7.892049,0.026902,-0.012350,24.766922,-0.052007,-0.000001,-0.002604,1.570132,0.008025,0.000030,-0.000162,-0.000001,0.000263,-0.000001,0.000615,0.001677,-0.061671,-0.001387,0.186363,0.186362,0.186586,0.973288,0.000000,0.000000,0.000000,0.000000,0.000000,0.000000,0.000000,0.000000,0.000000,0.000000,0.000000,0.000000,1.967894,3,0
390000,-0.001696,8.138217,0.025690,-0.012470,24.765871,-0.054065,0.000006,-0.002635,1.570123,0.008125,0.000033,-0.000118,-0.000002,0.000269,-0.000001,0.000467,0.001750,-0.049006,-0.022043,0.184619,0.184619,0.184523,0.969587,0.000000,0.000000,0.000000,0.000000,0.000000,0.000000,0.000000,0.000000,0.000000,0.000000,0.000000,0.000000,1.980152,3,0
400000,-0.001769,8.383549,0.024667,-0.012813,24.763872,-0.055866,0.000012,-0.002691,1.570092,0.008286,0.000037,-0.000085,-0.000002,0.000278,-0.000001,0.000985,0.001825,-0.076495,-0.015436,0.183070,0.183070,0.182656,0.965682,0.000000,0.000000,0.000000,0.000000,0.000000,0.000000,0.000000,0.000000,0.000000,0.000000,0.000000,0.000000,1.993246,3,0
410000,-0.001843,8.626866,0.025255,-0.013079,24.759409,-0.056099,0.000022,-0.002802,1.570077,0.008602,0.000042,-0.000171,-0.000002,0.000297,-0.000001,0.003541,0.001901,-0.142897,0.038525,0.181703,0.181702,0.180971,0.961573,0.000000,0.000000,0.000000,0.000000,0.000000,0.000000,0.000000,0.000000,0.000000,0.000000,0.000000,0.000000,2.008354,3,0
420000,-0.001919,8.873613,0.024501,-0.013503,24.758915,-0.057875,0.000023,-0.002835,1.570059,0.008668,0.000046,-0.000157,-0.000002,0.000301,-0.000001,0.000136,0.001979,-0.028348,-0.005946,0.180504,0.180503,0.179456,0.957262,0.000000,0.000000,0.000000,0.000000,0.000000,0.000000,0.000000,0.000000,0.000000,0.000000,0.000000,0.000000,2.020034,3,0
430000,-0.001995,9.118924,0.022933,-0.013667,24.756456,-0.060667,0.000027,-0.002912,1.570045,0.008851,0.000051,-0.000079,-0.000003,0.000312,-0.000001,0.001116,0.002057,-0.076300,-0.032766,0.179462,0.179461,0.178097,0.952750,0.000000,0.000000,0.000000,0.000000,0.000000,0.000000,0.000000,0.000000,0.000000,0.000000,0.000000,0.000000,2.033149,3,0
440000,-0.002070,9.364025,0.021167,-0.013736,24.753994,-0.063479,0.000021,-0.002979,1.570030,0.009058,0.000057,0.000018,-0.000003,0.000325,-0.000001,0.001360,0.002134,-0.083042,-0.038824,0.178566,0.178565,0.176883,0.948040,0.000000,0.000000,0.000000,0.000000,0.000000,0.000000,0.000000,0.000000,0.000000,0.000000,0.000000,0.000000,2.046474,3,0
450000,-0.002145,9.613040,0.020270,-0.013971,24.756407,-0.065305,0.000019,-0.002943,1.570018,0.008929,0.000062,0.000040,-0.000003,0.000317,-0.000001,0.000410,0.002211,0.049583,-0.008449,0.177806,0.177805,0.175803,0.943134,0.000000,0.000000,0.000000,0.000000,0.000000,0.000000,0.000000,0.000000,0.000000,0.000000,0.000000,0.000000,2.055886,3,0
460000,-0.002222,9.861173,0.018851,-0.014382,24.757313,-0.067690,0.000024,-0.002928,1.570008,0.008878,0.000068,0.000109,-0.000004,0.000313,-0.000001,0.000168,0.002290,0.019216,-0.025757,0.177173,0.177172,0.174847,0.938034,0.000000,0.000000,0.000000,0.000000,0.000000,0.000000,0.000000,0.000000,0.000000,0.000000,0.000000,0.000000,2.066179,3,0
470000,-0.002300,10.107278,0.018350,-0.014640,24.755764,-0.069014,0.000022,-0.002976,1.570001,0.009017,0.000075,0.000091,-0.000004,0.000323,-0.000001,0.000413,0.002370,-0.050018,0.006578,0.176658,0.176657,0.174006,0.932746,0.000000,0.000000,0.000000,0.000000,0.000000,0.000000,0.000000,0.000000,0.000000,0.000000,0.000000,0.000000,2.078500,3,0
480000,-0.002377,10.353150,0.018050,-0.014812,24.753983,-0.070021,0.000030,-0.003046,1.569982,0.009183,0.000082,0.000050,-0.000005,0.000334,-0.000001,0.000569,0.002449,-0.057563,0.014048,0.176253,0.176252,0.173272,0.927274,0.000000,0.000000,0.000000,0.000000,0.000000,0.000000,0.000000,0.000000,0.000000,0.000000,0.000000,0.000000,2.091053,3,0
490000,-0.002453,10.602874,0.016783,-0.014938,24.757635,-0.072084,0.000030,-0.002986,1.569956,0.008962,0.000090,0.000108,-0.000005,0.000319,-0.000001,0.000954,0.002528,0.074283,-0.019233,0.175949,0.175947,0.172634,0.921620,0.000000,0.000000,0.000000,0.000000,0.000000,0.000000,0.000000,0.000000,0.000000,0.000000,0.000000,0.000000,2.099756,3,0
500000,-0.002544,10.875173,0.017359,-0.015133,24.758257,-0.072166,0.000018,-0.003002,1.569937,0.008966,0.000098,-0.000042,-0.000006,0.000319,-0.000001,0.000380,0.002621,-0.001449,0.048335,0.176230,0.176229,0.172525,0.916007,0.000000,0.000000,0.000000,0.000000,0.000000,0.000000,0.000000,0.000000,0.000000,0.000000,0.000000,0.000000,2.085883,3,0
510000,-0.002622,11.123036,0.016940,-0.015587,24.759094,-0.073474,0.000016,-0.002993,1.569926,0.008936,0.000106,-0.000078,-0.000006,0.000317,-0.000001,0.000036,0.002701,0.009433,0.011180,0.176100,0.176099,0.172053,0.909945,0.000000,0.000000,0.000000,0.000000,0.000000,0.000000,0.000000,0.000000,0.000000,0.000000,0.000000,0.000000,2.096445,3,0
520000,-0.002698,11.371220,0.017100,-0.015664,24.760511,-0.073613,0.000019,-0.002976,1.569903,0.008870,0.000116,-0.000183,-0.000007,0.000312,-0.000001,0.000229,0.002780,0.019986,0.031759,0.176050,0.176049,0.171656,0.903720,0.000000,0.000000,0.000000,0.000000,0.000000,0.000000,0.000000,0.000000,0.000000,0.000000,0.000000,0.000000,2.106687,3,0
530000,-0.002777,11.618551,0.015393,-0.016126,24.760708,-0.076427,0.000016,-0.002985,1.569887,0.008902,0.000125,-0.000069,-0.000008,0.000314,-0.000001,0.000198,0.002860,-0.009543,-0.033491,0.176074,0.176072,0.171328,0.897340,0.000000,0.000000,0.000000,0.000000,0.000000,0.000000,0.000000,0.000000,0.000000,0.000000,0.000000,0.000000,2.117782,3,0
540000,-0.002854,11.866791,0.015144,-0.016236,24.761925,-0.077093,0.000023,-0.002963,1.569867,0.008828,0.000135,-0.000134,-0.000009,0.000308,-0.000001,0.000132,0.002940,0.021430,0.018565,0.176165,0.176164,0.171064,0.890810,0.000000,0.000000,0.000000,0.000000,0.000000,0.000000,0.000000,0.000000,0.000000,0.000000,0.000000,0.000000,2.127969,3,0
550000,-0.002928,12.117682,0.013696,-0.016158,24.767553,-0.079640,0.000022,-0.002836,1.569852,0.008431,0.000146,-0.000050,-0.000010,0.000276,-0.000001,0.002086,0.003017,0.111117,-0.023174,0.176319,0.176318,0.170857,0.884137,0.000000,0.000000,0.000000,0.000000,0.000000,0.000000,0.000000,0.000000,0.000000,0.000000,0.000000,0.000000,2.135504,3,0
560000,-0.003002,12.367681,0.013250,-0.016305,24.771574,-0.080652,0.000021,-0.002737,1.569830,0.008141,0.000157,-0.000098,-0.000011,0.000252,-0.000001,0.001034,0.003093,0.078841,0.012869,0.176530,0.176528,0.170702,0.877328,0.000000,0.000000,0.000000,0.000000,0.000000,0.000000,0.000000,0.000000,0.000000,0.000000,0.000000,0.000000,2.143931,3,0
570000,-0.003075,12.617973,0.012020,-0.016493,24.776289,-0.082734,0.000035,-0.002613,1.569812,0.007813,0.000169,-0.000043,-0.000011,0.000224,-0.000001,0.001266,0.003168,0.087225,-0.014337,0.176792,0.176791,0.170593,0.870391,0.000000,0.000000,0.000000,0.000000,0.000000,0.000000,0.000000,0.000000,0.000000,0.000000,0.000000,0.000000,2.152064,3,0
580000,-0.003147,12.868557,0.010554,-0.016664,24.781532,-0.085087,0.000044,-0.002486,1.569783,0.007446,0.000181,0.000044,-0.000013,0.000192,-0.000001,0.001549,0.003243,0.095310,-0.021915,0.177102,0.177100,0.170527,0.863332,0.000000,0.000000,0.000000,0.000000,0.000000,0.000000,0.000000,0.000000,0.000000,0.000000,0.000000,0.000000,2.159906,3,0
590000,-0.003218,13.120013,0.009140,-0.016731,24.787708,-0.087268,0.000058,-0.002324,1.569760,0.006960,0.000194,0.000122,-0.000014,0.000149,-0.000000,0.002508,0.003316,0.122982,-0.019305,0.177453,0.177451,0.170499,0.856161,0.000000,0.000000,0.000000,0.000000,0.000000,0.000000,0.000000,0.000000,0.000000,0.000000,0.000000,0.000000,2.166875,3,0
600000,-0.003289,13.369980,0.007564,-0.016985,24.791714,-0.089833,0.000062,-0.002216,1.569737,0.006676,0.000208,0.000221,-0.000015,0.000124,-0.000000,0.000895,0.003390,0.070251,-0.024170,0.177843,0.177841,0.170503,0.848883,0.000000,0.000000,0.000000,0.000000,0.000000,0.000000,0.000000,0.000000,0.000000,0.000000,0.000000,0.000000,2.175334,3,0
610000,-0.003358,13.619060,0.007618,-0.017053,24.794226,-0.090008,0.000067,-0.002163,1.569721,0.006515,0.000222,0.000078,-0.000016,0.000109,-0.000000,0.000435,0.003461,0.038911,0.034083,0.178266,0.178264,0.170537,0.841509,0.000000,0.000000,0.000000,0.000000,0.000000,0.000000,0.000000,0.000000,0.000000,0.000000,0.000000,0.000000,2.184682,3,0
620000,-0.003428,13.870220,0.007943,-0.017367,24.800041,-0.089635,0.000070,-0.001998,1.569710,0.006059,0.000237,-0.000109,-0.000018,0.000066,-0.000000,0.002192,0.003534,0.107870,0.043632,0.178720,0.178718,0.170597,0.834044,0.000000,0.000000,0.000000,0.000000,0.000000,0.000000,0.000000,0.000000,0.000000,0.000000,0.000000,0.000000,2.191947,3,0
630000,-0.003495,14.122259,0.008551,-0.017299,24.807508,-0.088718,0.000071,-0.001782,1.569696,0.005477,0.000252,-0.000344,-0.000019,0.000011,0.000000,0.003408,0.003603,0.134954,0.053380,0.179200,0.179198,0.170678,0.826498,0.000000,0.000000,0.000000,0.000000,0.000000,0.000000,0.000000,0.000000,0.000000,0.000000,0.000000,0.000000,2.198333,3,0
640000,-0.003558,14.373976,0.007608,-0.017109,24.814188,-0.090322,0.000072,-0.001586,1.569669,0.004944,0.000268,-0.000337,-0.000021,-0.000041,0.000000,0.002385,0.003668,0.121389,-0.001381,0.179702,0.179700,0.170778,0.818878,0.000000,0.000000,0.000000,0.000000,0.000000,0.000000,0.000000,0.000000,0.000000,0.000000,0.000000,0.000000,2.205043,3,0
650000,-0.003620,14.624778,0.006475,-0.017139,24.819571,-0.092450,0.000083,-0.001443,1.569646,0.004548,0.000285,-0.000303,-0.000022,-0.000080,0.000000,0.001271,0.003732,0.088271,-0.007367,0.180224,0.180222,0.170894,0.811193,0.000000,0.000000,0.000000,0.000000,0.000000,0.000000,0.000000,0.000000,0.000000,0.000000,0.000000,0.000000,2.212667,3,0
660000,-0.003680,14.878264,0.007401,-0.017314,24.829300,-0.091267,0.000089,-0.001144,1.569624,0.003746,0.000301,-0.000610,-0.000024,-0.000160,0.000001,0.005668,0.003795,0.175358,0.065532,0.180763,0.180761,0.171022,0.803451,0.000000,0.000000,0.000000,0.000000,0.000000,0.000000,0.000000,0.000000,0.000000,0.000000,0.000000,0.000000,2.217606,3,0
670000,-0.003739,15.130809,0.007163,-0.017351,24.837200,-0.091610,0.000091,-0.000892,1.569610,0.003093,0.000319,-0.000725,-0.000026,-0.000227,0.000001,0.003285,0.003855,0.140444,0.024212,0.181316,0.181313,0.171161,0.795659,0.000000,0.000000,0.000000,0.000000,0.000000,0.000000,0.000000,0.000000,0.000000,0.000000,0.000000,0.000000,2.223488,3,0
680000,-0.003798,15.384222,0.007057,-0.017568,24.846319,-0.092007,0.000103,-0.000609,1.569592,0.002307,0.000337,-0.000865,-0.000028,-0.000309,0.000001,0.004599,0.003916,0.166125,0.028991,0.181879,0.181877,0.171307,0.787826,0.000000,0.000000,0.000000,0.000000,0.000000,0.000000,0.000000,0.000000,0.000000,0.000000,0.000000,0.000000,2.228502,3,0
690000,-0.003856,15.638500,0.006065,-0.017707,24.857161,-0.093513,0.000114,-0.000261,1.569568,0.001388,0.000356,-0.000855,-0.000030,-0.000407,0.000002,0.005894,0.003977,0.190924,-0.001910,0.182451,0.182448,0.171458,0.779960,0.000000,0.000000,0.000000,0.000000,0.000000,0.000000,0.000000,0.000000,0.000000,0.000000,0.000000,0.000000,2.232650,3,0
700000,-0.003911,15.889997,0.004849,-0.017661,24.863216,-0.095479,0.000119,-0.000080,1.569555,0.000921,0.000375,-0.000807,-0.000032,-0.000457,0.000002,0.001492,0.004034,0.095567,-0.009245,0.183029,0.183026,0.171612,0.772068,0.000000,0.000000,0.000000,0.000000,0.000000,0.000000,0.000000,0.000000,0.000000,0.000000,0.000000,0.000000,2.239578,3,0
710000,-0.003964,16.145424,0.004527,-0.017553,24.875858,-0.096077,0.000129,0.000348,1.569542,-0.000181,0.000395,-0.000923,-0.000034,-0.000578,0.000002,0.008029,0.004089,0.221710,0.022774,0.183611,0.183608,0.171767,0.764158,0.000000,0.000000,0.000000,0.000000,0.000000,0.000000,0.000000,0.000000,0.000000,0.000000,0.000000,0.000000,2.242578,3,0
720000,-0.004015,16.398037,0.004477,-0.017670,24.883505,-0.096334,0.000136,0.000589,1.569517,-0.000813,0.000416,-0.001093,-0.000037,-0.000649,0.000002,0.002705,0.004143,0.125187,0.032417,0.184195,0.184192,0.171921,0.756238,0.000000,0.000000,0.000000,0.000000,0.000000,0.000000,0.000000,0.000000,0.000000,0.000000,0.000000,0.000000,2.248390,3,0
730000,-0.004066,16.652750,0.002938,-0.017788,24.894556,-0.098645,0.000141,0.000970,1.569498,-0.001788,0.000437,-0.000988,-0.000039,-0.000760,0.000003,0.005930,0.004195,0.190561,-0.019466,0.184778,0.184776,0.172073,0.748314,0.000000,0.000000,0.000000,0.000000,0.000000,0.000000,0.000000,0.000000,0.000000,0.000000,0.000000,0.000000,2.252104,3,0
740000,-0.004118,16.906479,0.002563,-0.018117,24.904068,-0.099163,0.000149,0.001282,1.569480,-0.002589,0.000458,-0.001106,-0.000042,-0.000853,0.000003,0.003931,0.004250,0.154402,0.021911,0.185361,0.185358,0.172220,0.740394,0.000000,0.000000,0.000000,0.000000,0.000000,0.000000,0.000000,0.000000,0.000000,0.000000,0.000000,0.000000,2.256800,3,0
750000,-0.004169,17.162306,0.002593,-0.018202,24.916975,-0.098728,0.000144,0.001745,1.569466,-0.003739,0.000480,-0.001303,-0.000044,-0.000988,0.000004,0.007934,0.004303,0.218641,0.036067,0.185940,0.185937,0.172362,0.732484,0.000000,0.000000,0.000000,0.000000,0.000000,0.000000,0.000000,0.000000,0.000000,0.000000,0.000000,0.000000,2.259399,3,0
760000,-0.004220,17.418358,0.001075,-0.018416,24.929714,-0.101076,0.000154,0.002208,1.569448,-0.004917,0.000503,-0.001202,-0.000047,-0.001129,0.000004,0.007950,0.004355,0.221115,-0.017779,0.186514,0.186511,0.172498,0.724592,0.000000,0.000000,0.000000,0.000000,0.000000,0.000000,0.000000,0.000000,0.000000,0.000000,0.000000,0.000000,2.261774,3,0
770000,-0.004268,17.672150,-0.000050,-0.018259,24.938522,-0.102917,0.000164,0.002527,1.569431,-0.005693,0.000526,-0.001183,-0.000050,-0.001224,0.000004,0.003346,0.004405,0.143845,-0.003287,0.187083,0.187080,0.172625,0.716723,0.000000,0.000000,0.000000,0.000000,0.000000,0.000000,0.000000,0.000000,0.000000,0.000000,0.000000,0.000000,2.266407,3,0
780000,-0.004313,17.928675,-0.000717,-0.018228,24.952082,-0.103706,0.000175,0.003038,1.569413,-0.006937,0.000550,-0.001257,-0.000053,-0.001378,0.000005,0.008417,0.004452,0.227903,0.013169,0.187644,0.187641,0.172744,0.708884,0.000000,0.000000,0.000000,0.000000,0.000000,0.000000,0.000000,0.000000,0.000000,0.000000,0.000000,0.000000,2.268309,3,0
790000,-0.004357,18.182919,-0.001774,-0.018278,24.961716,-0.105274,0.000186,0.003389,1.569398,-0.007766,0.000574,-0.001256,-0.000056,-0.001482,0.000005,0.003643,0.004498,0.150152,-0.000046,0.188197,0.188194,0.172853,0.701081,0.000000,0.000000,0.000000,0.000000,0.000000,0.000000,0.000000,0.000000,0.000000,0.000000,0.000000,0.000000,2.272490,3,0
800000,-0.004401,18.439276,-0.002176,-0.018453,24.974756,-0.106148,0.000192,0.003876,1.569372,-0.008961,0.000599,-0.001394,-0.000059,-0.001635,0.000006,0.007476,0.004544,0.213875,0.023351,0.188741,0.188738,0.172951,0.693320,0.000000,0.000000,0.000000,0.000000,0.000000,0.000000,0.000000,0.000000,0.000000,0.000000,0.000000,0.000000,2.274559,3,0
810000,-0.004444,18.693962,-0.000966,-0.018614,24.984692,-0.104003,0.000193,0.004251,1.569349,-0.009843,0.000624,-0.001870,-0.000063,-0.001750,0.000006,0.004959,0.004590,0.156176,0.079327,0.189275,0.189272,0.173037,0.685606,0.000000,0.000000,0.000000,0.000000,0.000000,0.000000,0.000000,0.000000,0.000000,0.000000,0.000000,0.000000,2.278298,3,0
820000,-0.004488,18.952023,-0.002190,-0.018827,25.000387,-0.105735,0.000194,0.004887,1.569315,-0.011321,0.000649,-0.001834,-0.000066,-0.001945,0.000007,0.010853,0.004635,0.259211,-0.005685,0.189799,0.189796,0.173112,0.677943,0.000000,0.000000,0.000000,0.000000,0.000000,0.000000,0.000000,0.000000,0.000000,0.000000,0.000000,0.000000,2.278664,3,0
830000,-0.004531,19.206488,-0.001555,-0.018858,25.009893,-0.104553,0.000203,0.005234,1.569298,-0.012128,0.000676,-0.002198,-0.000070,-0.002053,0.000007,0.003740,0.004680,0.140141,0.059194,0.190311,0.190308,0.173175,0.670338,0.000000,0.000000,0.000000,0.000000,0.000000,0.000000,0.000000,0.000000,0.000000,0.000000,0.000000,0.000000,2.282626,3,0
840000,-0.004571,19.463713,-0.002591,-0.018776,25.023996,-0.105718,0.000207,0.005807,1.569275,-0.013427,0.000702,-0.002203,-0.000073,-0.002231,0.000008,0.008066,0.004721,0.223524,0.000909,0.190812,0.190809,0.173224,0.662795,0.000000,0.000000,0.000000,0.000000,0.000000,0.000000,0.000000,0.000000,0.000000,0.000000,0.000000,0.000000,2.283826,3,0
850000,-0.004610,19.723665,-0.002720,-0.018931,25.042688,-0.105811,0.000212,0.006590,1.569263,-0.015210,0.000729,-0.002410,-0.000077,-0.002478,0.000009,0.015100,0.004763,0.304098,0.032900,0.191301,0.191297,0.173260,0.655318,0.000000,0.000000,0.000000,0.000000,0.000000,0.000000,0.000000,0.000000,0.000000,0.000000,0.000000,0.000000,2.282300,3,0
860000,-0.004649,19.979958,-0.001923,-0.018955,25.054396,-0.104542,0.000230,0.007072,1.569241,-0.016294,0.000757,-0.002824,-0.000081,-0.002631,0.000009,0.006095,0.004803,0.183115,0.064874,0.191777,0.191773,0.173283,0.647911,0.000000,0.000000,0.000000,0.000000,0.000000,0.000000,0.000000,0.000000,0.000000,0.000000,0.000000,0.000000,2.284432,3,0
870000,-0.004686,20.239635,-0.003495,-0.018982,25.072090,-0.106827,0.000234,0.007840,1.569210,-0.017990,0.000784,-0.002710,-0.000085,-0.002874,0.000010,0.013113,0.004841,0.284523,-0.017471,0.192240,0.192237,0.173292,0.640578,0.000000,0.000000,0.000000,0.000000,0.000000,0.000000,0.000000,0.000000,0.000000,0.000000,0.000000,0.000000,2.283181,3,0
880000,-0.004720,20.498188,-0.002771,-0.018878,25.087624,-0.105738,0.000255,0.008505,1.569190,-0.019453,0.000813,-0.003120,-0.000090,-0.003086,0.000011,0.010194,0.004878,0.243334,0.062818,0.192691,0.192687,0.173287,0.633323,0.000000,0.000000,0.000000,0.000000,0.000000,0.000000,0.000000,0.000000,0.000000,0.000000,0.000000,0.000000,2.283056,3,0
890000,-0.004752,20.756268,-0.004112,-0.018705,25.102203,-0.107485,0.000278,0.009128,1.569168,-0.020804,0.000842,-0.003059,-0.000094,-0.003286,0.000012,0.008051,0.004910,0.223171,-0.009164,0.193128,0.193124,0.173268,0.626149,0.000000,0.000000,0.000000,0.000000,0.000000,0.000000,0.000000,0.000000,0.000000,0.000000,0.000000,0.000000,2.283403,3,0
900000,-0.004782,21.017082,-0.005245,-0.018696,25.121376,-0.108736,0.000295,0.009984,1.569136,-0.022651,0.000870,-0.003049,-0.000098,-0.003564,0.000012,0.014801,0.004942,0.302887,-0.001344,0.193553,0.193548,0.173235,0.619060,0.000000,0.000000,0.000000,0.000000,0.000000,0.000000,0.000000,0.000000,0.000000,0.000000,0.000000,0.000000,2.281013,3,0
910000,-0.004811,21.273523,-0.004393,-0.018759,25.132593,-0.107350,0.000315,0.010449,1.569107,-0.023642,0.000900,-0.003508,-0.000103,-0.003714,0.000013,0.004938,0.004973,0.161156,0.067849,0.193964,0.193959,0.173188,0.612057,0.000000,0.000000,0.000000,0.000000,0.000000,0.000000,0.000000,0.000000,0.000000,0.000000,0.000000,0.000000,2.282999,3,0
920000,-0.004840,21.531441,-0.005407,-0.018799,25.146267,-0.108583,0.000338,0.011051,1.569092,-0.024895,0.000930,-0.003526,-0.000108,-0.003908,0.000014,0.006637,0.005002,0.202784,0.002688,0.194362,0.194357,0.173127,0.605145,0.000000,0.000000,0.000000,0.000000,0.000000,0.000000,0.000000,0.000000,0.000000,0.000000,0.000000,0.000000,2.283506,3,0
930000,-0.004869,21.790163,-0.005067,-0.018993,25.161051,-0.107957,0.000352,0.011732,1.569069,-0.026282,0.000960,-0.003872,-0.000113,-0.004126,0.000014,0.008433,0.005033,0.223036,0.050161,0.194747,0.194743,0.173052,0.598324,0.000000,0.000000,0.000000,0.000000,0.000000,0.000000,0.000000,0.000000,0.000000,0.000000,0.000000,0.000000,2.283208,3,0
940000,-0.004895,22.050327,-0.003847,-0.018902,25.178381,-0.106285,0.000361,0.012529,1.569043,-0.027924,0.000990,-0.004434,-0.000118,-0.004388,0.000015,0.012154,0.005061,0.262346,0.080602,0.195120,0.195115,0.172963,0.591598,0.000000,0.000000,0.000000,0.000000,0.000000,0.000000,0.000000,0.000000,0.000000,0.000000,0.000000,0.000000,2.281471,3,0
950000,-0.004920,22.308027,-0.003654,-0.018837,25.191181,-0.105791,0.000372,0.013104,1.569025,-0.029062,0.001021,-0.004746,-0.000123,-0.004572,0.000016,0.005598,0.005086,0.180918,0.044236,0.195480,0.195475,0.172861,0.584968,0.000000,0.000000,0.000000,0.000000,0.000000,0.000000,0.000000,0.000000,0.000000,0.000000,0.000000,0.000000,2.282196,3,0
960000,-0.004944,22.567181,-0.002481,-0.018859,25.206087,-0.104052,0.000394,0.013804,1.569001,-0.030462,0.001052,-0.005302,-0.000129,-0.004802,0.000017,0.008890,0.005111,0.221277,0.078242,0.195827,0.195822,0.172746,0.578436,0.000000,0.000000,0.000000,0.000000,0.000000,0.000000,0.000000,0.000000,0.000000,0.000000,0.000000,0.000000,2.281471,3,0
970000,-0.004966,22.823872,-0.003033,-0.018775,25.216774,-0.104920,0.000413,0.014281,1.568970,-0.031357,0.001084,-0.005429,-0.000134,-0.004952,0.000017,0.003255,0.005134,0.140881,0.017682,0.196163,0.196158,0.172617,0.572004,0.000000,0.000000,0.000000,0.000000,0.000000,0.000000,0.000000,0.000000,0.000000,0.000000,0.000000,0.000000,2.283203,3,0
980000,-0.004985,23.085283,-0.001931,-0.018548,25.235285,-0.103470,0.000429,0.015187,1.568954,-0.033156,0.001116,-0.005978,-0.000140,-0.005256,0.000018,0.013722,0.005155,0.281662,0.075729,0.196486,0.196481,0.172476,0.565672,0.000000,0.000000,0.000000,0.000000,0.000000,0.000000,0.000000,0.000000,0.000000,0.000000,0.000000,0.000000,2.280220,3,0
990000,-0.005001,23.342886,-0.003532,-0.018316,25.247185,-0.105918,0.000449,0.015729,1.568935,-0.034176,0.001148,-0.005840,-0.000145,-0.005433,0.000019,0.004149,0.005171,0.159216,-0.018955,0.196798,0.196793,0.172323,0.559443,0.000000,0.000000,0.000000,0.000000,0.000000,0.000000,0.000000,0.000000,0.000000,0.000000,0.000000,0.000000,2.281044,3,0
1000000,-0.005016,23.602598,-0.003747,-0.018242,25.262722,-0.105959,0.000460,0.016473,1.568914,-0.035590,0.001180,-0.006063,-0.000151,-0.005680,0.000020,0.007921,0.005187,0.219555,0.030124,0.197099,0.197094,0.172157,0.553317,0.000000,0.000000,0.000000,0.000000,0.000000,0.000000,0.000000,0.000000,0.000000,0.000000,0.000000,0.000000,2.279756,3,0
1010000,-0.005027,23.863733,-0.002741,-0.017993,25.280382,-0.104584,0.000472,0.017350,1.568902,-0.037257,0.001212,-0.006607,-0.000157,-0.005975,0.000021,0.011584,0.005199,0.257872,0.072937,0.197390,0.197384,0.171979,0.547295,0.000000,0.000000,0.000000,0.000000,0.000000,0.000000,0.000000,0.000000,0.000000,0.000000,0.000000,0.000000,2.277048,3,0
1020000,-0.005037,24.124310,-0.001853,-0.017963,25.296936,-0.103261,0.000482,0.018165,1.568879,-0.038783,0.001244,-0.007121,-0.000163,-0.006249,0.000022,0.009670,0.005210,0.235106,0.068335,0.197670,0.197663,0.171790,0.541377,0.000000,0.000000,0.000000,0.000000,0.000000,0.000000,0.000000,0.000000,0.000000,0.000000,0.000000,0.000000,2.274896,3,0
1030000,-0.005044,24.383671,-0.000629,-0.017751,25.310808,-0.101689,0.000497,0.018852,1.568856,-0.040040,0.001277,-0.007724,-0.000170,-0.006478,0.000023,0.007039,0.005217,0.193035,0.079714,0.197940,0.197933,0.171589,0.535564,0.000000,0.000000,0.000000,0.000000,0.000000,0.000000,0.000000,0.000000,0.000000,0.000000,0.000000,0.000000,2.273962,3,0
1040000,-0.005049,24.642494,-0.002077,-0.017378,25.323799,-0.103519,0.000511,0.019490,1.568834,-0.041163,0.001310,-0.007616,-0.000176,-0.006687,0.000023,0.004810,0.005221,0.172077,-0.014416,0.198200,0.198193,0.171378,0.529856,0.000000,0.000000,0.000000,0.000000,0.000000,0.000000,0.000000,0.000000,0.000000,0.000000,0.000000,0.000000,2.273563,3,0
1050000,-0.005052,24.905384,-0.003609,-0.017290,25.343849,-0.105571,0.000528,0.020537,1.568810,-0.043066,0.001343,-0.007492,-0.000182,-0.007047,0.000025,0.013679,0.005224,0.290823,-0.016504,0.198451,0.198444,0.171157,0.524254,0.000000,0.000000,0.000000,0.000000,0.000000,0.000000,0.000000,0.000000,0.000000,0.000000,0.000000,0.000000,2.269100,3,0
1060000,-0.005058,25.165691,-0.002364,-0.017795,25.358734,-0.103891,0.000547,0.021298,1.568796,-0.044423,0.001376,-0.008126,-0.000189,-0.007305,0.000026,0.007965,0.005233,0.206646,0.081614,0.198694,0.198687,0.170925,0.518758,0.000000,0.000000,0.000000,0.000000,0.000000,0.000000,0.000000,0.000000,0.000000,0.000000,0.000000,0.000000,2.267218,3,0
1070000,-0.005063,25.428072,-0.002081,-0.017664,25.377522,-0.103472,0.000578,0.022269,1.568778,-0.046162,0.001408,-0.008499,-0.000196,-0.007643,0.000027,0.011620,0.005238,0.264246,0.047402,0.198929,0.198921,0.170684,0.513367,0.000000,0.000000,0.000000,0.000000,0.000000,0.000000,0.000000,0.000000,0.000000,0.000000,0.000000,0.000000,2.263266,3,0
1080000,-0.005066,25.687214,-0.002135,-0.017351,25.390251,-0.103498,0.000598,0.022893,1.568746,-0.047222,0.001442,-0.008778,-0.000202,-0.007851,0.000027,0.004368,0.005240,0.160709,0.035261,0.199156,0.199148,0.170434,0.508082,0.000000,0.000000,0.000000,0.000000,0.000000,0.000000,0.000000,0.000000,0.000000,0.000000,0.000000,0.000000,2.262547,3,0
1090000,-0.005067,25.949106,-0.003079,-0.017271,25.407824,-0.104833,0.000607,0.023800,1.568735,-0.048803,0.001475,-0.008815,-0.000209,-0.008167,0.000028,0.009240,0.005241,0.239380,0.004143,0.199375,0.199367,0.170175,0.502902,0.000000,0.000000,0.000000,0.000000,0.000000,0.000000,0.000000,0.000000,0.000000,0.000000,0.000000,0.000000,2.259083,3,0
1100000,-0.005066,26.209078,-0.003553,-0.017065,25.421839,-0.105704,0.000624,0.024507,1.568705,-0.049968,0.001508,-0.008987,-0.000216,-0.008404,0.000029,0.005074,0.005241,0.176098,0.021174,0.199588,0.199580,0.169907,0.497826,0.000000,0.000000,0.000000,0.000000,0.000000,0.000000,0.000000,0.000000,0.000000,0.000000,0.000000,0.000000,2.257536,3,0
1110000,-0.005065,26.471790,-0.004882,-0.017007,25.440454,-0.107478,0.000640,0.025503,1.568675,-0.051651,0.001541,-0.008922,-0.000223,-0.008751,0.000030,0.010405,0.005239,0.253929,-0.008650,0.199794,0.199785,0.169632,0.492855,0.000000,0.000000,0.000000,0.000000,0.000000,0.000000,0.000000,0.000000,0.000000,0.000000,0.000000,0.000000,2.253250,3,0
1120000,-0.005062,26.734545,-0.004382,-0.016954,25.458843,-0.106878,0.000663,0.026506,1.568650,-0.053306,0.001574,-0.009386,-0.000230,-0.009096,0.000032,0.010553,0.005237,0.249458,0.056804,0.199995,0.199985,0.169349,0.487987,0.000000,0.000000,0.000000,0.000000,0.000000,0.000000,0.000000,0.000000,0.000000,0.000000,0.000000,0.000000,2.248920,3,0
1130000,-0.005059,26.994026,-0.004661,-0.016968,25.471289,-0.107173,0.000682,0.027124,1.568631,-0.054273,0.001608,-0.009624,-0.000238,-0.009300,0.000032,0.003552,0.005234,0.145548,0.028822,0.200189,0.200180,0.169058,0.483222,0.000000,0.000000,0.000000,0.000000,0.000000,0.000000,0.000000,0.000000,0.000000,0.000000,0.000000,0.000000,2.247866,3,0
1140000,-0.005057,27.254929,-0.005964,-0.016929,25.486164,-0.108958,0.000687,0.027898,1.568615,-0.055497,0.001642,-0.009569,-0.000245,-0.009564,0.000033,0.005475,0.005232,0.184124,-0.007332,0.200379,0.200369,0.168761,0.478560,0.000000,0.000000,0.000000,0.000000,0.000000,0.000000,0.000000,0.000000,0.000000,0.000000,0.000000,0.000000,2.245388,3,0
1150000,-0.005052,27.513237,-0.005287,-0.016799,25.496368,-0.108085,0.000705,0.028376,1.568596,-0.056176,0.001675,-0.010097,-0.000253,-0.009711,0.000034,0.002337,0.005228,0.101980,0.063675,0.200564,0.200553,0.168458,0.473999,0.000000,0.000000,0.000000,0.000000,0.000000,0.000000,0.000000,0.000000,0.000000,0.000000,0.000000,0.000000,2.245506,3,0
1160000,-0.005045,27.773642,-0.004228,-0.016576,25.509815,-0.106734,0.000726,0.029084,1.568581,-0.057252,0.001708,-0.010744,-0.000261,-0.009947,0.000035,0.005180,0.005221,0.161636,0.077240,0.200745,0.200734,0.168148,0.469537,0.000000,0.000000,0.000000,0.000000,0.000000,0.000000,0.000000,0.000000,0.000000,0.000000,0.000000,0.000000,2.243526,3,0
1170000,-0.005036,28.034121,-0.003500,-0.016412,25.523521,-0.105729,0.000739,0.029810,1.568568,-0.058314,0.001742,-0.011293,-0.000269,-0.010185,0.000035,0.004789,0.005212,0.159519,0.065044,0.200922,0.200910,0.167833,0.465175,0.000000,0.000000,0.000000,0.000000,0.000000,0.000000,0.000000,0.000000,0.000000,0.000000,0.000000,0.000000,2.241474,3,0
1180000,-0.005027,28.296663,-0.002788,-0.016314,25.540298,-0.104807,0.000754,0.030760,1.568544,-0.059758,0.001774,-0.011842,-0.000276,-0.010513,0.000037,0.008260,0.005203,0.216970,0.064423,0.201095,0.201083,0.167513,0.460910,0.000000,0.000000,0.000000,0.000000,0.000000,0.000000,0.000000,0.000000,0.000000,0.000000,0.000000,0.000000,2.237360,3,0
1190000,-0.005017,28.557907,-0.002135,-0.016260,25.554983,-0.104049,0.000787,0.031549,1.568519,-0.060909,0.001807,-0.012374,-0.000285,-0.010778,0.000037,0.005444,0.005193,0.172924,0.061994,0.201266,0.201253,0.167188,0.456744,0.000000,0.000000,0.000000,0.000000,0.000000,0.000000,0.000000,0.000000,0.000000,0.000000,0.000000,0.000000,2.234539,3,0
1200000,-0.005009,28.819870,-0.001827,-0.016335,25.570667,-0.103647,0.000809,0.032411,1.568501,-0.062172,0.001840,-0.012803,-0.000293,-0.011073,0.000038,0.006206,0.005184,0.189837,0.049476,0.201433,0.201420,0.166858,0.452674,0.000000,0.000000,0.000000,0.000000,0.000000,0.000000,0.000000,0.000000,0.000000,0.000000,0.000000,0.000000,2.231005,3,0
1210000,-0.005002,29.082544,-0.002562,-0.016384,25.587568,-0.104765,0.000828,0.033344,1.568468,-0.063541,0.001873,-0.012913,-0.000301,-0.011399,0.000040,0.006864,0.005176,0.206018,0.011967,0.201599,0.201584,0.166524,0.448700,0.000000,0.000000,0.000000,0.000000,0.000000,0.000000,0.000000,0.000000,0.000000,0.000000,0.000000,0.000000,2.226755,3,0
1220000,-0.004990,29.344574,-0.001912,-0.015990,25.603045,-0.104084,0.000850,0.034185,1.568463,-0.064748,0.001905,-0.013460,-0.000309,-0.011689,0.000041,0.005954,0.005165,0.181721,0.062366,0.201762,0.201747,0.166186,0.444818,0.000000,0.000000,0.000000,0.000000,0.000000,0.000000,0.000000,0.000000,0.000000,0.000000,0.000000,0.000000,2.223152,3,0
1230000,-0.004979,29.605303,-0.001826,-0.016059,25.616367,-0.104000,0.000867,0.034868,1.568437,-0.065666,0.001938,-0.013828,-0.000317,-0.011912,0.000041,0.003362,0.005153,0.138203,0.041654,0.201924,0.201908,0.165845,0.441032,0.000000,0.000000,0.000000,0.000000,0.000000,0.000000,0.000000,0.000000,0.000000,0.000000,0.000000,0.000000,2.220848,3,0
1240000,-0.004967,29.869431,-0.001241,-0.015942,25.635256,-0.103578,0.000884,0.035965,1.568413,-0.067224,0.001970,-0.014365,-0.000326,-0.012298,0.000043,0.009499,0.005142,0.235163,0.060246,0.202085,0.202068,0.165501,0.437335,0.000000,0.000000,0.000000,0.000000,0.000000,0.000000,0.000000,0.000000,0.000000,0.000000,0.000000,0.000000,2.215147,3,0
1250000,-0.004955,30.133558,-0.000673,-0.015876,25.654039,-0.103155,0.000913,0.037052,1.568391,-0.068742,0.002002,-0.014901,-0.000334,-0.012679,0.000044,0.009046,0.005129,0.229269,0.059597,0.202244,0.202226,0.165154,0.433728,0.000000,0.000000,0.000000,0.000000,0.000000,0.000000,0.000000,0.000000,0.000000,0.000000,0.000000,0.000000,2.209442,3,0
1260000,-0.004941,30.394999,0.000161,-0.015719,25.667891,-0.102501,0.000927,0.037788,1.568364,-0.069693,0.002034,-0.015519,-0.000343,-0.012921,0.000045,0.004110,0.005115,0.143866,0.069026,0.202403,0.202384,0.164805,0.430211,0.000000,0.000000,0.000000,0.000000,0.000000,0.000000,0.000000,0.000000,0.000000,0.000000,0.000000,0.000000,2.206432,3,0
1270000,-0.004926,30.655804,0.000921,-0.015471,25.680531,-0.101720,0.000942,0.038431,1.568334,-0.070490,0.002066,-0.016113,-0.000352,-0.013125,0.000046,0.003063,0.005099,0.120831,0.066077,0.202561,0.202541,0.164453,0.426781,0.000000,0.000000,0.000000,0.000000,0.000000,0.000000,0.000000,0.000000,0.000000,0.000000,0.000000,0.000000,2.204050,3,0
1280000,-0.004909,30.919340,0.000770,-0.015226,25.697445,-0.102258,0.000967,0.039416,1.568307,-0.071792,0.002097,-0.016420,-0.000361,-0.013467,0.000047,0.006484,0.005081,0.197844,0.032997,0.202719,0.202698,0.164099,0.423435,0.000000,0.000000,0.000000,0.000000,0.000000,0.000000,0.000000,0.000000,0.000000,0.000000,0.000000,0.000000,2.198940,3,0
1290000,-0.004891,31.179522,-0.000709,-0.015022,25.708540,-0.104417,0.000986,0.039958,1.568297,-0.072404,0.002130,-0.016284,-0.000370,-0.013631,0.000047,0.001442,0.005062,0.093163,-0.015797,0.202877,0.202855,0.163744,0.420175,0.000000,0.000000,0.000000,0.000000,0.000000,0.000000,0.000000,0.000000,0.000000,0.000000,0.000000,0.000000,2.197185,3,0
1300000,-0.004873,31.443117,-0.002130,-0.014951,25.725554,-0.106550,0.001012,0.040933,1.568275,-0.073654,0.002162,-0.016183,-0.000378,-0.013971,0.000048,0.005885,0.005043,0.190693,-0.012500,0.203035,0.203012,0.163388,0.416998,0.000000,0.000000,0.000000,0.000000,0.000000,0.000000,0.000000,0.000000,0.000000,0.000000,0.000000,0.000000,2.192016,3,0
1310000,-0.004851,31.704000,-0.001020,-0.014715,25.737278,-0.105260,0.001038,0.041541,1.568262,-0.074346,0.002193,-0.016927,-0.000387,-0.014158,0.000049,0.002872,0.005023,0.105839,0.081016,0.203194,0.203170,0.163031,0.413901,0.000000,0.000000,0.000000,0.000000,0.000000,0.000000,0.000000,0.000000,0.000000,0.000000,0.000000,0.000000,2.189556,3,0
1320000,-0.004830,31.963579,-0.001538,-0.014568,25.746801,-0.106079,0.001059,0.041966,1.568237,-0.074760,0.002225,-0.017119,-0.000397,-0.014272,0.000050,0.000722,0.005000,0.063503,0.020517,0.203353,0.203328,0.162673,0.410886,0.000000,0.000000,0.000000,0.000000,0.000000,0.000000,0.000000,0.000000,0.000000,0.000000,0.000000,0.000000,2.188404,3,0
1330000,-0.004807,32.226585,-0.001909,-0.014363,25.762360,-0.106839,0.001085,0.042844,1.568208,-0.075811,0.002256,-0.017378,-0.000406,-0.014569,0.000051,0.004328,0.004977,0.161648,0.026805,0.203514,0.203488,0.162314,0.407950,0.000000,0.000000,0.000000,0.000000,0.000000,0.000000,0.000000,0.000000,0.000000,0.000000,0.000000,0.000000,2.183824,3,0
1340000,-0.004786,32.488243,-0.002831,-0.014400,25.775152,-0.108139,0.001108,0.043529,1.568190,-0.076570,0.002287,-0.017447,-0.000415,-0.014786,0.000051,0.002221,0.004954,0.117157,0.006501,0.203676,0.203648,0.161956,0.405090,0.000000,0.000000,0.000000,0.000000,0.000000,0.000000,0.000000,0.000000,0.000000,0.000000,0.000000,0.000000,2.180593,3,0
1350000,-0.004762,32.752609,-0.001763,-0.014189,25.792454,-0.107102,0.001139,0.044557,1.568165,-0.077818,0.002316,-0.018219,-0.000424,-0.015146,0.000053,0.007093,0.004931,0.193310,0.081302,0.203838,0.203809,0.161597,0.402305,0.000000,0.000000,0.000000,0.000000,0.000000,0.000000,0.000000,0.000000,0.000000,0.000000,0.000000,0.000000,2.174650,3,0
1360000,-0.004735,33.015598,-0.001470,-0.013800,25.807350,-0.106999,0.001166,0.045399,1.568139,-0.078767,0.002346,-0.018718,-0.000433,-0.015424,0.000054,0.003944,0.004903,0.147438,0.052084,0.204003,0.203972,0.161238,0.399596,0.000000,0.000000,0.000000,0.000000,0.000000,0.000000,0.000000,0.000000,0.000000,0.000000,0.000000,0.000000,2.170087,3,0
1370000,-0.004708,33.277916,-0.002757,-0.013559,25.820974,-0.108826,0.001187,0.046133,1.568122,-0.079555,0.002376,-0.018664,-0.000442,-0.015660,0.000054,0.002441,0.004873,0.122845,-0.006925,0.204168,0.204136,0.160880,0.396961,0.000000,0.000000,0.000000,0.000000,0.000000,0.000000,0.000000,0.000000,0.000000,0.000000,0.000000,0.000000,2.166196,3,0
1380000,-0.004679,33.538879,-0.003437,-0.013430,25.832167,-0.109725,0.001209,0.046663,1.568093,-0.080059,0.002406,-0.018825,-0.000452,-0.015813,0.000055,0.001053,0.004845,0.079056,0.016207,0.204336,0.204302,0.160523,0.394399,0.000000,0.000000,0.000000,0.000000,0.000000,0.000000,0.000000,0.000000,0.000000,0.000000,0.000000,0.000000,2.163659,3,0
1390000,-0.004649,33.798500,-0.002743,-0.013183,25.840351,-0.108988,0.001234,0.046991,1.568072,-0.080293,0.002435,-0.019473,-0.000462,-0.015882,0.000055,0.000967,0.004814,0.036655,0.067870,0.204505,0.204470,0.160167,0.391903,0.000000,0.000000,0.000000,0.000000,0.000000,0.000000,0.000000,0.000000,0.000000,0.000000,0.000000,0.000000,2.162465,3,0
1400000,-0.004618,34.057495,-0.004214,-0.012950,25.847401,-0.110903,0.001256,0.047219,1.568059,-0.080391,0.002466,-0.019343,-0.000471,-0.015913,0.000055,0.000073,0.004781,0.015499,-0.013698,0.204676,0.204639,0.159812,0.389477,0.000000,0.000000,0.000000,0.000000,0.000000,0.000000,0.000000,0.000000,0.000000,0.000000,0.000000,0.000000,2.161897,3,0
1410000,-0.004588,34.318565,-0.003832,-0.013029,25.858345,-0.110426,0.001280,0.047739,1.568048,-0.080860,0.002494,-0.019899,-0.000481,-0.016059,0.000056,0.001426,0.004752,0.074493,0.057067,0.204849,0.204811,0.159458,0.387119,0.000000,0.000000,0.000000,0.000000,0.000000,0.000000,0.000000,0.000000,0.000000,0.000000,0.000000,0.000000,2.159253,3,0
1420000,-0.004557,34.581005,-0.002874,-0.012948,25.871346,-0.109321,0.001304,0.048442,1.568035,-0.081560,0.002522,-0.020672,-0.000490,-0.016280,0.000057,0.003017,0.004721,0.111500,0.078979,0.205025,0.204984,0.159105,0.384826,0.000000,0.000000,0.000000,0.000000,0.000000,0.000000,0.000000,0.000000,0.000000,0.000000,0.000000,0.000000,2.155236,3,0
1430000,-0.004527,34.845482,-0.002390,-0.012826,25.888027,-0.108899,0.001325,0.049420,1.568004,-0.082602,0.002549,-0.021284,-0.000500,-0.016617,0.000058,0.005101,0.004689,0.166988,0.061203,0.205202,0.205159,0.158755,0.382598,0.000000,0.000000,0.000000,0.000000,0.000000,0.000000,0.000000,0.000000,0.000000,0.000000,0.000000,0.000000,2.149186,3,0
1440000,-0.004499,35.108566,-0.003042,-0.012913,25.902027,-0.109673,0.001365,0.050185,1.567983,-0.083354,0.002577,-0.021472,-0.000509,-0.016865,0.000059,0.002412,0.004659,0.121014,0.017834,0.205382,0.205337,0.158406,0.380434,0.000000,0.000000,0.000000,0.000000,0.000000,0.000000,0.000000,0.000000,0.000000,0.000000,0.000000,0.000000,2.144528,3,0
1450000,-0.004470,35.371620,-0.002498,-0.012855,25.915768,-0.109256,0.001388,0.050924,1.567962,-0.084072,0.002603,-0.022108,-0.000519,-0.017103,0.000060,0.002835,0.004630,0.116211,0.063656,0.205563,0.205517,0.158059,0.378331,0.000000,0.000000,0.000000,0.000000,0.000000,0.000000,0.000000,0.000000,0.000000,0.000000,0.000000,0.000000,2.139901,3,0
1460000,-0.004440,35.635338,-0.002293,-0.012575,25.930397,-0.109148,0.001418,0.051767,1.567947,-0.084879,0.002630,-0.022625,-0.000529,-0.017375,0.000061,0.003199,0.004599,0.131325,0.050831,0.205747,0.205698,0.157714,0.376287,0.000000,0.000000,0.000000,0.000000,0.000000,0.000000,0.000000,0.000000,0.000000,0.000000,0.000000,0.000000,2.134606,3,0
1470000,-0.004407,35.895603,-0.001609,-0.012264,25.938583,-0.108403,0.001443,0.052072,1.567942,-0.085041,0.002656,-0.023304,-0.000539,-0.017427,0.000061,0.000876,0.004566,0.026497,0.068424,0.205933,0.205882,0.157372,0.374301,0.000000,0.000000,0.000000,0.000000,0.000000,0.000000,0.000000,0.000000,0.000000,0.000000,0.000000,0.000000,2.132767,3,0
1480000,-0.004372,36.158615,-0.000860,-0.011938,25.951500,-0.108022,0.001476,0.052771,1.567924,-0.085673,0.002682,-0.024027,-0.000548,-0.017644,0.000062,0.002578,0.004530,0.104088,0.071512,0.206122,0.206068,0.157032,0.372371,0.000000,0.000000,0.000000,0.000000,0.000000,0.000000,0.000000,0.000000,0.000000,0.000000,0.000000,0.000000,2.128182,3,0
1490000,-0.004337,36.422287,-0.000908,-0.011772,25.965641,-0.108276,0.001487,0.053571,1.567897,-0.086393,0.002707,-0.024452,-0.000558,-0.017898,0.000063,0.002565,0.004493,0.119251,0.040980,0.206312,0.206256,0.156694,0.370500,0.000000,0.000000,0.000000,0.000000,0.000000,0.000000,0.000000,0.000000,0.000000,0.000000,0.000000,0.000000,2.122937,3,0
1500000,-0.004303,36.684555,-0.001098,-0.011651,25.977295,-0.108871,0.001510,0.054132,1.567878,-0.086838,0.002733,-0.024819,-0.000568,-0.018056,0.000063,0.001092,0.004457,0.074100,0.035519,0.206504,0.206446,0.156359,0.368685,0.000000,0.000000,0.000000,0.000000,0.000000,0.000000,0.000000,0.000000,0.000000,0.000000,0.000000,0.000000,2.119092,3,0
1510000,-0.004266,36.944061,-0.000793,-0.011447,25.983698,-0.108589,0.001533,0.054256,1.567861,-0.086782,0.002758,-0.025361,-0.000578,-0.018032,0.000063,0.000491,0.004420,-0.009373,0.054041,0.206698,0.206638,0.156027,0.366923,0.000000,0.000000,0.000000,0.000000,0.000000,0.000000,0.000000,0.000000,0.000000,0.000000,0.000000,0.000000,2.118016,3,0
1520000,-0.004233,37.207031,-0.001962,-0.011510,25.996378,-0.110418,0.001557,0.054910,1.567832,-0.087308,0.002783,-0.025357,-0.000587,-0.018228,0.000064,0.001275,0.004384,0.088879,-0.001802,0.206894,0.206832,0.155698,0.365213,0.000000,0.000000,0.000000,0.000000,0.000000,0.000000,0.000000,0.000000,0.000000,0.000000,0.000000,0.000000,2.113469,3,0
1530000,-0.004199,37.469280,-0.002748,-0.011350,26.007454,-0.111753,0.001574,0.055432,1.567819,-0.087686,0.002808,-0.025504,-0.000597,-0.018370,0.000065,0.000699,0.004349,0.064327,0.013507,0.207092,0.207027,0.155373,0.363553,0.000000,0.000000,0.000000,0.000000,0.000000,0.000000,0.000000,0.000000,0.000000,0.000000,0.000000,0.000000,2.109646,3,0
1540000,-0.004166,37.730827,-0.003804,-0.011328,26.017307,-0.113149,0.001602,0.055826,1.567797,-0.087922,0.002833,-0.025545,-0.000606,-0.018460,0.000065,0.000269,0.004315,0.040512,0.003330,0.207292,0.207224,0.155050,0.361945,0.000000,0.000000,0.000000,0.000000,0.000000,0.000000,0.000000,0.000000,0.000000,0.000000,0.000000,0.000000,2.106526,3,0
1550000,-0.004133,37.990292,-0.004263,-0.011320,26.022936,-0.113831,0.001639,0.055880,1.567787,-0.087793,0.002857,-0.025811,-0.000616,-0.018408,0.000065,0.000197,0.004281,-0.022339,0.026438,0.207494,0.207423,0.154730,0.360381,0.000000,0.000000,0.000000,0.000000,0.000000,0.000000,0.000000,0.000000,0.000000,0.000000,0.000000,0.000000,2.105488,3,0
1560000,-0.004109,38.275597,-0.004869,-0.011085,26.028988,-0.114592,0.001672,0.055917,1.567769,-0.087622,0.002882,-0.026068,-0.000626,-0.018339,0.000065,0.000249,0.004258,-0.029594,0.025454,0.208421,0.208347,0.154775,0.359279,0.000000,0.000000,0.000000,0.000000,0.000000,0.000000,0.000000,0.000000,0.000000,0.000000,0.000000,0.000000,2.078606,3,0
1570000,-0.004072,38.534885,-0.004671,-0.010806,26.034130,-0.114544,0.001692,0.055927,1.567756,-0.087448,0.002906,-0.026606,-0.000636,-0.018264,0.000065,0.000600,0.004220,-0.030499,0.052521,0.208602,0.208525,0.154452,0.357787,0.000000,0.000000,0.000000,0.000000,0.000000,0.000000,0.000000,0.000000,0.000000,0.000000,0.000000,0.000000,2.077744,3,0
1580000,-0.004036,38.792820,-0.005273,-0.010658,26.036919,-0.115180,0.001733,0.055713,1.567732,-0.087045,0.002930,-0.026810,-0.000646,-0.018098,0.000065,0.000889,0.004181,-0.071171,0.020937,0.208785,0.208705,0.154132,0.356341,0.000000,0.000000,0.000000,0.000000,0.000000,0.000000,0.000000,0.000000,0.000000,0.000000,0.000000,0.000000,2.078236,3,0
1590000,-0.004000,39.052189,-0.006792,-0.010542,26.042149,-0.116956,0.001765,0.055722,1.567712,-0.086871,0.002953,-0.026657,-0.000656,-0.018027,0.000064,0.000189,0.004144,-0.030949,-0.014146,0.208969,0.208886,0.153816,0.354938,0.000000,0.000000,0.000000,0.000000,0.000000,0.000000,0.000000,0.000000,0.000000,0.000000,0.000000,0.000000,2.077294,3,0
1600000,-0.003964,39.312252,-0.006849,-0.010627,26.048637,-0.116801,0.001788,0.055825,1.567697,-0.086804,0.002976,-0.027113,-0.000666,-0.017995,0.000065,0.000338,0.004109,-0.012066,0.043841,0.209156,0.209070,0.153504,0.353578,0.000000,0.000000,0.000000,0.000000,0.000000,0.000000,0.000000,0.000000,0.000000,0.000000,0.000000,0.000000,2.075657,3,0
1610000,-0.003927,39.575081,-0.006165,-0.010363,26.059992,-0.116010,0.001819,0.056365,1.567683,-0.087167,0.002996,-0.027903,-0.000676,-0.018144,0.000065,0.001583,0.004071,0.065746,0.073813,0.209344,0.209255,0.153196,0.352259,0.000000,0.000000,0.000000,0.000000,0.000000,0.000000,0.000000,0.000000,0.000000,0.000000,0.000000,0.000000,2.071251,3,0
1620000,-0.003889,39.833706,-0.005402,-0.010243,26.063557,-0.115159,0.001853,0.056207,1.567665,-0.086850,0.003018,-0.028687,-0.000686,-0.017999,0.000065,0.001467,0.004032,-0.058044,0.075397,0.209534,0.209442,0.152892,0.350980,0.000000,0.000000,0.000000,0.000000,0.000000,0.000000,0.000000,0.000000,0.000000,0.000000,0.000000,0.000000,2.071056,3,0
1630000,-0.003851,40.095139,-0.005138,-0.010009,26.071936,-0.114997,0.001881,0.056495,1.567644,-0.086966,0.003038,-0.029290,-0.000695,-0.018044,0.000065,0.000593,0.003992,0.021240,0.056472,0.209725,0.209630,0.152591,0.349736,0.000000,0.000000,0.000000,0.000000,0.000000,0.000000,0.000000,0.000000,0.000000,0.000000,0.000000,0.000000,2.068046,3,0
1640000,-0.003814,40.354477,-0.006064,-0.009863,26.076426,-0.116054,0.001902,0.056431,1.567624,-0.086743,0.003060,-0.029375,-0.000705,-0.017944,0.000065,0.000292,0.003952,-0.041489,0.008890,0.209918,0.209819,0.152295,0.348531,0.000000,0.000000,0.000000,0.000000,0.000000,0.000000,0.000000,0.000000,0.000000,0.000000,0.000000,0.000000,2.067135,3,0
1650000,-0.003775,40.615200,-0.005594,-0.009743,26.083435,-0.115570,0.001926,0.056581,1.567616,-0.086730,0.003079,-0.030067,-0.000715,-0.017931,0.000065,0.000687,0.003914,-0.002689,0.064880,0.210111,0.210009,0.152003,0.347364,0.000000,0.000000,0.000000,0.000000,0.000000,0.000000,0.000000,0.000000,0.000000,0.000000,0.000000,0.000000,2.064838,3,0
1660000,-0.003738,40.874538,-0.006871,-0.009576,26.087700,-0.117104,0.001952,0.056504,1.567599,-0.086494,0.003100,-0.030005,-0.000724,-0.017823,0.000065,0.000329,0.003874,-0.044811,-0.004780,0.210306,0.210200,0.151716,0.346230,0.000000,0.000000,0.000000,0.000000,0.000000,0.000000,0.000000,0.000000,0.000000,0.000000,0.000000,0.000000,2.063926,3,0
1670000,-0.003698,41.132484,-0.007663,-0.009262,26.089455,-0.117945,0.001969,0.056176,1.567585,-0.086049,0.003121,-0.030139,-0.000734,-0.017613,0.000065,0.001212,0.003833,-0.085526,0.014419,0.210501,0.210392,0.151432,0.345132,0.000000,0.000000,0.000000,0.000000,0.000000,0.000000,0.000000,0.000000,0.000000,0.000000,0.000000,0.000000,2.064403,3,0
1680000,-0.003658,41.393238,-0.007492,-0.009118,26.096224,-0.117696,0.001997,0.056310,1.567571,-0.086021,0.003139,-0.030722,-0.000744,-0.017594,0.000065,0.000482,0.003792,-0.005547,0.054057,0.210697,0.210585,0.151152,0.344065,0.000000,0.000000,0.000000,0.000000,0.000000,0.000000,0.000000,0.000000,0.000000,0.000000,0.000000,0.000000,2.062076,3,0
1690000,-0.003616,41.651169,-0.006623,-0.008915,26.097576,-0.116735,0.002022,0.055947,1.567555,-0.085577,0.003158,-0.031574,-0.000754,-0.017370,0.000064,0.002292,0.003749,-0.087456,0.080780,0.210893,0.210777,0.150877,0.343030,0.000000,0.000000,0.000000,0.000000,0.000000,0.000000,0.000000,0.000000,0.000000,0.000000,0.000000,0.000000,2.062572,3,0
1700000,-0.003573,41.912647,-0.007063,-0.008606,26.105770,-0.117092,0.002056,0.056184,1.567543,-0.085640,0.003176,-0.031900,-0.000763,-0.017398,0.000065,0.000170,0.003704,0.012413,0.029620,0.211089,0.210970,0.150606,0.342029,0.000000,0.000000,0.000000,0.000000,0.000000,0.000000,0.000000,0.000000,0.000000,0.000000,0.000000,0.000000,2.059520,3,0
1710000,-0.003528,42.175491,-0.007680,-0.008221,26.115931,-0.117981,0.002086,0.056638,1.567518,-0.085885,0.003193,-0.032169,-0.000772,-0.017517,0.000065,0.000478,0.003658,0.049046,0.023435,0.211286,0.211164,0.150339,0.341052,0.000000,0.000000,0.000000,0.000000,0.000000,0.000000,0.000000,0.000000,0.000000,0.000000,0.000000,0.000000,2.055099,3,0
