time_us,pos_x,pos_y,pos_z,vel_x,vel_y,vel_z,roll,pitch,yaw,bias_ax,bias_ay,bias_az,bias_gx,bias_gy,bias_gz,nis,innov_x,innov_y,innov_z,cov_pos_x,cov_pos_y,cov_pos_z,cov_yaw,des_speed,des_heading,des_climb,pid_speed,pid_yaw,pid_alt,speed_meas,yaw_meas,climb_meas,fwd_accel,yaw_rate,vert_accel,drift_m,nav_mode,mission_state
0,-0.000004,0.149999,-0.000001,-0.000597,24.999920,-0.000201,0.000011,0.000013,1.570812,0.000000,0.000000,0.000000,0.000000,0.000000,0.000000,0.006250,0.000006,-0.250002,0.000002,2.400038,2.400038,3.600017,1.000518,0.000000,0.000000,0.000000,0.000000,0.000000,0.000000,0.000000,0.000000,0.000000,0.000000,0.000000,0.000000,0.149999,1,0
10000,-0.000011,0.365228,0.006282,-0.001123,24.999922,-0.000494,0.000019,0.000008,1.570820,0.000000,0.000000,-0.000000,0.000000,0.000000,0.000000,0.001792,0.000015,-0.121696,0.016767,1.714420,1.714420,2.250079,1.001073,0.000000,0.000000,0.000000,0.000000,0.000000,0.000000,0.000000,0.000000,0.000000,0.000000,0.000000,0.000000,0.086923,3,0
20000,-0.000021,0.584526,0.009409,-0.001634,24.999754,-0.000749,0.000024,0.000013,1.570833,0.000002,0.000000,-0.000000,-0.000000,0.000000,-0.000000,0.002489,0.000027,-0.138135,0.011495,1.333616,1.333616,1.636554,1.001655,0.000000,0.000000,0.000000,0.000000,0.000000,0.000000,0.000000,0.000000,0.000000,0.000000,0.000000,0.000000,0.107432,3,0
30000,-0.000035,0.820132,-0.002928,-0.002167,24.999563,-0.001011,0.000019,0.000019,1.570833,0.000003,0.000000,0.000001,0.000000,0.000000,-0.000000,0.001287,0.000043,-0.079126,-0.057519,1.091392,1.091392,1.286065,1.002257,0.000000,0.000000,0.000000,0.000000,0.000000,0.000000,0.000000,0.000000,0.000000,0.000000,0.000000,0.000000,0.064733,3,0
40000,-0.000053,1.070642,-0.010640,-0.002746,24.999701,-0.001545,0.000021,0.000014,1.570852,0.000003,0.000000,0.000002,0.000000,0.000000,-0.000000,0.000262,0.000062,0.003333,-0.043602,0.923811,0.923811,1.059385,1.002869,0.000000,0.000000,0.000000,0.000000,0.000000,0.000000,0.000000,0.000000,0.000000,0.000000,0.000000,0.000000,0.002820,3,0
50000,-0.000074,1.308872,-0.018703,-0.003285,24.999321,-0.001873,0.000020,0.000022,1.570852,0.000007,0.000000,0.000004,0.000000,0.000000,-0.000000,0.001529,0.000086,-0.088147,-0.053597,0.801036,0.801036,0.900822,1.003484,0.000000,0.000000,0.000000,0.000000,0.000000,0.000000,0.000000,0.000000,0.000000,0.000000,0.000000,0.000000,0.076379,3,0
60000,-0.000099,1.564917,-0.025654,-0.003821,24.999830,-0.002522,0.000026,0.000030,1.570867,0.000004,0.000000,0.000007,0.000000,0.000000,-0.000000,0.000795,0.000112,0.051325,-0.053046,0.707270,0.707270,0.783741,1.004094,0.000000,0.000000,0.000000,0.000000,0.000000,0.000000,0.000000,0.000000,0.000000,0.000000,0.000000,0.000000,0.045275,3,0
70000,-0.000128,1.807996,-0.022106,-0.004398,24.999634,-0.002346,0.000023,0.000029,1.570877,0.000009,0.000000,0.000005,-0.000000,0.000000,-0.000000,0.000782,0.000143,-0.065573,0.030907,0.633370,0.633370,0.693801,1.004688,0.000000,0.000000,0.000000,0.000000,0.000000,0.000000,0.000000,0.000000,0.000000,0.000000,0.000000,0.000000,0.058651,3,0
80000,-0.000161,2.062695,-0.025016,-0.004997,25.000124,-0.002723,0.000024,0.000031,1.570889,0.000004,0.000000,0.000008,-0.000000,-0.000000,0.000000,0.000480,0.000178,0.049172,-0.027804,0.573673,0.573673,0.622594,1.005260,0.000000,0.000000,0.000000,0.000000,0.000000,0.000000,0.000000,0.000000,0.000000,0.000000,0.000000,0.000000,0.044471,3,0
90000,-0.000198,2.312109,-0.027431,-0.005545,25.000330,-0.003305,0.000028,0.000040,1.570905,0.000005,0.000000,0.000011,-0.000000,0.000000,-0.000000,0.000104,0.000216,-0.006744,-0.025318,0.524488,0.524488,0.564865,1.005801,0.000000,0.000000,0.000000,0.000000,0.000000,0.000000,0.000000,0.000000,0.000000,0.000000,0.000000,0.000000,0.006157,3,0
100000,-0.000238,2.568702,-0.025705,-0.006115,25.001314,-0.003458,0.000041,0.000046,1.570917,-0.000008,0.000000,0.000008,-0.000000,-0.000000,0.000000,0.001089,0.000259,0.081782,0.020447,0.483303,0.483303,0.517162,1.006301,0.000000,0.000000,0.000000,0.000000,0.000000,0.000000,0.000000,0.000000,0.000000,0.000000,0.000000,0.000000,0.075195,3,0
110000,-0.000282,2.821993,-0.024795,-0.006717,25.001966,-0.003634,0.000037,0.000045,1.570926,-0.000016,0.000000,0.000005,-0.000000,-0.000000,0.000000,0.000318,0.000305,0.043847,0.011918,0.448353,0.448353,0.477121,1.006754,0.000000,0.000000,0.000000,0.000000,0.000000,0.000000,0.000000,0.000000,0.000000,0.000000,0.000000,0.000000,0.040572,3,0
120000,-0.000330,3.072658,-0.022938,-0.007242,25.002317,-0.003500,0.000043,0.000050,1.570945,-0.000018,0.000000,-0.000000,-0.000000,-0.000000,0.000000,0.000115,0.000355,0.009217,0.025655,0.418358,0.418358,0.443071,1.007150,0.000000,0.000000,0.000000,0.000000,0.000000,0.000000,0.000000,0.000000,0.000000,0.000000,0.000000,0.000000,0.008581,3,0
130000,-0.000382,3.322493,-0.024725,-0.007857,25.002516,-0.003814,0.000044,0.000044,1.570949,-0.000018,0.000000,0.000006,-0.000000,-0.000000,0.000000,0.000101,0.000409,-0.002904,-0.025404,0.392369,0.392369,0.413797,1.007481,0.000000,0.000000,0.000000,0.000000,0.000000,0.000000,0.000000,0.000000,0.000000,0.000000,0.000000,0.000000,0.002741,3,0
140000,-0.000437,3.572870,-0.027657,-0.008410,25.002773,-0.004527,0.000049,0.000057,1.570951,-0.000019,0.000000,0.000019,-0.000000,-0.000000,0.000000,0.000316,0.000466,0.005685,-0.044675,0.369666,0.369666,0.388393,1.007739,0.000000,0.000000,0.000000,0.000000,0.000000,0.000000,0.000000,0.000000,0.000000,0.000000,0.000000,0.000000,0.005353,3,0
150000,-0.000496,3.827176,-0.026325,-0.008910,25.004009,-0.004258,0.000055,0.000067,1.570959,-0.000044,0.000001,0.000012,-0.000000,-0.000001,0.000000,0.000925,0.000527,0.073367,0.022569,0.349695,0.349695,0.366172,1.007915,0.000000,0.000000,0.000000,0.000000,0.000000,0.000000,0.000000,0.000000,0.000000,0.000000,0.000000,0.000000,0.069093,3,0
160000,-0.000557,4.084806,-0.025376,-0.009369,25.006310,-0.004430,0.000055,0.000095,1.570959,-0.000096,0.000001,0.000005,-0.000000,-0.000002,0.000000,0.003007,0.000590,0.137111,0.017244,0.332020,0.332020,0.346600,1.008002,0.000000,0.000000,0.000000,0.000000,0.000000,0.000000,0.000000,0.000000,0.000000,0.000000,0.000000,0.000000,0.129525,3,0
170000,-0.000622,4.341093,-0.023124,-0.009983,25.008387,-0.003856,0.000064,0.000105,1.570961,-0.000146,0.000001,-0.000012,-0.000000,-0.000003,0.000000,0.002474,0.000657,0.118006,0.041838,0.316297,0.316297,0.329260,1.007991,0.000000,0.000000,0.000000,0.000000,0.000000,0.000000,0.000000,0.000000,0.000000,0.000000,0.000000,0.000000,0.111787,3,0
180000,-0.000692,4.597229,-0.023626,-0.010582,25.010464,-0.004122,0.000066,0.000126,1.570976,-0.000204,0.000002,-0.000008,-0.000000,-0.000005,0.000000,0.002296,0.000728,0.120126,-0.008833,0.302246,0.302246,0.313817,1.007875,0.000000,0.000000,0.000000,0.000000,0.000000,0.000000,0.000000,0.000000,0.000000,0.000000,0.000000,0.000000,0.114077,3,0
190000,-0.000764,4.853243,-0.025784,-0.011055,25.012774,-0.005110,0.000069,0.000157,1.570980,-0.000268,0.000002,0.000014,-0.000000,-0.000006,0.000000,0.002659,0.000802,0.122394,-0.042278,0.289641,0.289641,0.300003,1.007645,0.000000,0.000000,0.000000,0.000000,0.000000,0.000000,0.000000,0.000000,0.000000,0.000000,0.000000,0.000000,0.116488,3,0
200000,-0.000839,5.107316,-0.023877,-0.011583,25.014509,-0.004799,0.000065,0.000175,1.570993,-0.000318,0.000002,-0.000010,-0.000000,-0.000008,0.000000,0.001415,0.000879,0.085024,0.040947,0.278295,0.278295,0.287598,1.007295,0.000000,0.000000,0.000000,0.000000,0.000000,0.000000,0.000000,0.000000,0.000000,0.000000,0.000000,0.000000,0.081085,3,0
210000,-0.000917,5.357903,-0.023730,-0.012120,25.014847,-0.004925,0.000064,0.000188,1.571007,-0.000324,0.000003,-0.000012,-0.000000,-0.000008,0.000000,0.000018,0.000960,0.009845,0.004271,0.268053,0.268054,0.276421,1.006816,0.000000,0.000000,0.000000,0.000000,0.000000,0.000000,0.000000,0.000000,0.000000,0.000000,0.000000,0.000000,0.009450,3,0
220000,-0.000999,5.613103,-0.024777,-0.012644,25.017385,-0.005716,0.000068,0.000221,1.571010,-0.000406,0.000004,0.000003,-0.000000,-0.000010,0.000000,0.002266,0.001044,0.117074,-0.022390,0.258787,0.258787,0.266321,1.006202,0.000000,0.000000,0.000000,0.000000,0.000000,0.000000,0.000000,0.000000,0.000000,0.000000,0.000000,0.000000,0.112029,3,0
230000,-0.001083,5.867469,-0.026363,-0.013108,25.019711,-0.006603,0.000067,0.000252,1.571017,-0.000482,0.000005,0.000030,-0.000000,-0.000013,0.000000,0.001813,0.001130,0.100396,-0.035639,0.250385,0.250385,0.257172,1.005446,0.000000,0.000000,0.000000,0.000000,0.000000,0.000000,0.000000,0.000000,0.000000,0.000000,0.000000,0.000000,0.096212,3,0
240000,-0.001170,6.125110,-0.027152,-0.013573,25.023821,-0.007303,0.000071,0.000295,1.571018,-0.000634,0.000006,0.000044,-0.000000,-0.000018,0.000000,0.005460,0.001219,0.183949,-0.017344,0.242755,0.242755,0.248866,1.004541,0.000000,0.000000,0.000000,0.000000,0.000000,0.000000,0.000000,0.000000,0.000000,0.000000,0.000000,0.000000,0.176511,3,0
250000,-0.001259,6.377922,-0.028182,-0.014071,25.025560,-0.007979,0.000079,0.000321,1.571033,-0.000693,0.000007,0.000065,-0.000000,-0.000020,0.000000,0.000776,0.001311,0.065418,-0.023744,0.235818,0.235818,0.241314,1.003481,0.000000,0.000000,0.000000,0.000000,0.000000,0.000000,0.000000,0.000000,0.000000,0.000000,0.000000,0.000000,0.062860,3,0
260000,-0.001352,6.631656,-0.026331,-0.014673,25.027880,-0.007004,0.000083,0.000341,1.571037,-0.000780,0.000008,0.000018,-0.000000,-0.000023,0.000000,0.001716,0.001406,0.090895,0.049444,0.229504,0.229504,0.234436,1.002259,0.000000,0.000000,0.000000,0.000000,0.000000,0.000000,0.000000,0.000000,0.000000,0.000000,0.000000,0.000000,0.087429,3,0
270000,-0.001448,6.888465,-0.025482,-0.015143,25.032280,-0.006758,0.000091,0.000398,1.571039,-0.000960,0.000010,-0.000007,-0.000000,-0.000030,0.000000,0.005013,0.001504,0.175079,0.024233,0.223754,0.223754,0.228165,1.000870,0.000000,0.000000,0.000000,0.000000,0.000000,0.000000,0.000000,0.000000,0.000000,0.000000,0.000000,0.000000,0.168556,3,0
280000,-0.001546,7.144501,-0.024296,-0.015630,25.036516,-0.006275,0.000103,0.000465,1.571055,-0.001133,0.000012,-0.000044,-0.000000,-0.000037,0.000000,0.004132,0.001605,0.156771,0.033918,0.218515,0.218516,0.222443,0.999308,0.000000,0.000000,0.000000,0.000000,0.000000,0.000000,0.000000,0.000000,0.000000,0.000000,0.000000,0.000000,0.151069,3,0
290000,-0.001648,7.398412,-0.023248,-0.016215,25.039337,-0.005690,0.000114,0.000508,1.571055,-0.001251,0.000014,-0.000080,-0.000000,-0.000042,0.000000,0.001743,0.001709,0.099483,0.030716,0.213744,0.213744,0.217219,0.997568,0.000000,0.000000,0.000000,0.000000,0.000000,0.000000,0.000000,0.000000,0.000000,0.000000,0.000000,0.000000,0.095953,3,0
300000,-0.001753,7.651049,-0.022515,-0.016775,25.041235,-0.005494,0.000111,0.000535,1.571060,-0.001331,0.000016,-0.000108,-0.000001,-0.000045,0.000000,0.000745,0.001816,0.064212,0.022416,0.209398,0.209398,0.212446,0.995646,0.000000,0.000000,0.000000,0.000000,0.000000,0.000000,0.000000,0.000000,0.000000,0.000000,0.000000,0.000000,0.061995,3,0
310000,-0.001861,7.904540,-0.022013,-0.017351,25.043875,-0.005414,0.000114,0.000580,1.571072,-0.001451,0.000019,-0.000129,-0.000001,-0.000051,0.000000,0.001342,0.001927,0.089862,0.016144,0.205443,0.205443,0.208087,0.993537,0.000000,0.000000,0.000000,0.000000,0.000000,0.000000,0.000000,0.000000,0.000000,0.000000,0.000000,0.000000,0.086805,3,0
320000,-0.001972,8.160175,-0.023884,-0.017933,25.048540,-0.007164,0.000123,0.000656,1.571078,-0.001670,0.000021,-0.000054,-0.000001,-0.000061,0.000000,0.004298,0.002041,0.154407,-0.053286,0.201847,0.201847,0.204105,0.991238,0.000000,0.000000,0.000000,0.000000,0.000000,0.000000,0.000000,0.000000,0.000000,0.000000,0.000000,0.000000,0.149225,3,0
330000,-0.002085,8.414549,-0.022446,-0.018363,25.052311,-0.006218,0.000121,0.000725,1.571095,-0.001846,0.000025,-0.000121,-0.000001,-0.000069,0.000000,0.002552,0.002156,0.117392,0.045258,0.198581,0.198581,0.200469,0.988744,0.000000,0.000000,0.000000,0.000000,0.000000,0.000000,0.000000,0.000000,0.000000,0.000000,0.000000,0.000000,0.113525,3,0
340000,-0.002200,8.667089,-0.021098,-0.018879,25.054480,-0.005325,0.000123,0.000754,1.571105,-0.001943,0.000028,-0.000189,-0.000001,-0.000074,0.000000,0.000914,0.002275,0.061769,0.043000,0.195621,0.195621,0.197151,0.986054,0.000000,0.000000,0.000000,0.000000,0.000000,0.000000,0.000000,0.000000,0.000000,0.000000,0.000000,0.000000,0.059796,3,0
350000,-0.002318,8.921090,-0.021809,-0.019412,25.058075,-0.006069,0.000122,0.000820,1.571112,-0.002123,0.000032,-0.000155,-0.000001,-0.000083,0.000000,0.001928,0.002395,0.107391,-0.020272,0.192942,0.192943,0.194125,0.983165,0.000000,0.000000,0.000000,0.000000,0.000000,0.000000,0.000000,0.000000,0.000000,0.000000,0.000000,0.000000,0.103964,3,0
360000,-0.002438,9.175855,-0.022832,-0.019895,25.062582,-0.007346,0.000134,0.000903,1.571128,-0.002354,0.000037,-0.000103,-0.000002,-0.000095,0.000001,0.002944,0.002518,0.131660,-0.030032,0.190526,0.190526,0.191370,0.980074,0.000000,0.000000,0.000000,0.000000,0.000000,0.000000,0.000000,0.000000,0.000000,0.000000,0.000000,0.000000,0.127502,3,0
370000,-0.002559,9.430731,-0.023228,-0.020312,25.067369,-0.007811,0.000138,0.000988,1.571127,-0.002603,0.000042,-0.000084,-0.000002,-0.000108,0.000001,0.002972,0.002642,0.135275,-0.010193,0.188351,0.188352,0.188863,0.976781,0.000000,0.000000,0.000000,0.000000,0.000000,0.000000,0.000000,0.000000,0.000000,0.000000,0.000000,0.000000,0.131053,3,0
380000,-0.002681,9.687572,-0.024095,-0.020715,25.074364,-0.008805,0.000149,0.001121,1.571133,-0.002987,0.000047,-0.000036,-0.000002,-0.000129,0.000001,0.006462,0.002767,0.198413,-0.025288,0.186402,0.186403,0.186586,0.973283,0.000000,0.000000,0.000000,0.000000,0.000000,0.000000,0.000000,0.000000,0.000000,0.000000,0.000000,0.000000,0.192267,3,0
390000,-0.002805,9.945086,-0.025827,-0.021141,25.082260,-0.010603,0.000163,0.001280,1.571149,-0.003432,0.000053,0.000072,-0.000002,-0.000154,0.000001,0.008267,0.002894,0.219807,-0.053419,0.184663,0.184663,0.184522,0.969582,0.000000,0.000000,0.000000,0.000000,0.000000,0.000000,0.000000,0.000000,0.000000,0.000000,0.000000,0.000000,0.213060,3,0
400000,-0.002929,10.202040,-0.025779,-0.021524,25.089714,-0.010858,0.000168,0.001425,1.571160,-0.003857,0.000059,0.000061,-0.000003,-0.000179,0.000001,0.006518,0.003021,0.200761,0.005200,0.183118,0.183119,0.182656,0.965677,0.000000,0.000000,0.000000,0.000000,0.000000,0.000000,0.000000,0.000000,0.000000,0.000000,0.000000,0.000000,0.194656,3,0
410000,-0.003055,10.455452,-0.026569,-0.022035,25.093075,-0.011863,0.000166,0.001495,1.571178,-0.004040,0.000066,0.000110,-0.000003,-0.000190,0.000001,0.001194,0.003150,0.082885,-0.022512,0.181755,0.181755,0.180971,0.961568,0.000000,0.000000,0.000000,0.000000,0.000000,0.000000,0.000000,0.000000,0.000000,0.000000,0.000000,0.000000,0.080432,3,0
420000,-0.003182,10.710826,-0.027417,-0.022453,25.098917,-0.012994,0.000168,0.001614,1.571178,-0.004380,0.000074,0.000166,-0.000004,-0.000211,0.000001,0.003614,0.003281,0.147501,-0.024258,0.180560,0.180561,0.179456,0.957257,0.000000,0.000000,0.000000,0.000000,0.000000,0.000000,0.000000,0.000000,0.000000,0.000000,0.000000,0.000000,0.143098,3,0
430000,-0.003310,10.966917,-0.028173,-0.022842,25.105728,-0.014110,0.000172,0.001757,1.571181,-0.004788,0.000082,0.000216,-0.000004,-0.000236,0.000001,0.004766,0.003412,0.170373,-0.020958,0.179523,0.179524,0.178097,0.952745,0.000000,0.000000,0.000000,0.000000,0.000000,0.000000,0.000000,0.000000,0.000000,0.000000,0.000000,0.000000,0.165309,3,0
440000,-0.003438,11.223709,-0.028496,-0.023214,25.113390,-0.014659,0.000184,0.001914,1.571179,-0.005269,0.000091,0.000231,-0.000005,-0.000267,0.000002,0.006001,0.003543,0.192520,-0.006052,0.178633,0.178633,0.176883,0.948035,0.000000,0.000000,0.000000,0.000000,0.000000,0.000000,0.000000,0.000000,0.000000,0.000000,0.000000,0.000000,0.186820,3,0
450000,-0.003567,11.481191,-0.029563,-0.023680,25.122189,-0.016168,0.000187,0.002103,1.571190,-0.005823,0.000101,0.000312,-0.000005,-0.000304,0.000002,0.007564,0.003676,0.213955,-0.031258,0.177878,0.177879,0.175803,0.943129,0.000000,0.000000,0.000000,0.000000,0.000000,0.000000,0.000000,0.000000,0.000000,0.000000,0.000000,0.000000,0.207643,3,0
460000,-0.003697,11.739938,-0.030529,-0.024111,25.132666,-0.017551,0.000203,0.002349,1.571203,-0.006507,0.000111,0.000386,-0.000006,-0.000350,0.000002,0.010606,0.003809,0.254570,-0.027474,0.177251,0.177251,0.174847,0.938030,0.000000,0.000000,0.000000,0.000000,0.000000,0.000000,0.000000,0.000000,0.000000,0.000000,0.000000,0.000000,0.247077,3,0
470000,-0.003828,11.994658,-0.030922,-0.024518,25.137835,-0.017930,0.000210,0.002473,1.571206,-0.006827,0.000122,0.000406,-0.000007,-0.000372,0.000002,0.002150,0.003944,0.114990,-0.007454,0.176742,0.176742,0.174006,0.932742,0.000000,0.000000,0.000000,0.000000,0.000000,0.000000,0.000000,0.000000,0.000000,0.000000,0.000000,0.000000,0.111668,3,0
480000,-0.003958,12.248943,-0.031643,-0.024844,25.142336,-0.018734,0.000219,0.002584,1.571222,-0.007111,0.000134,0.000460,-0.000008,-0.000392,0.000002,0.001637,0.004078,0.098766,-0.018700,0.176342,0.176343,0.173271,0.927269,0.000000,0.000000,0.000000,0.000000,0.000000,0.000000,0.000000,0.000000,0.000000,0.000000,0.000000,0.000000,0.095945,3,0
490000,-0.004088,12.505138,-0.030725,-0.025213,25.149536,-0.017398,0.000237,0.002754,1.571231,-0.007595,0.000147,0.000345,-0.000009,-0.000427,0.000002,0.004514,0.004212,0.162498,0.038452,0.176044,0.176045,0.172634,0.921616,0.000000,0.000000,0.000000,0.000000,0.000000,0.000000,0.000000,0.000000,0.000000,0.000000,0.000000,0.000000,0.157784,3,0
500000,-0.004218,12.761465,-0.029813,-0.025518,25.157028,-0.016035,0.000253,0.002943,1.571227,-0.008101,0.000160,0.000228,-0.000010,-0.000465,0.000003,0.004622,0.004345,0.164656,0.037884,0.175841,0.175842,0.172087,0.915787,0.000000,0.000000,0.000000,0.000000,0.000000,0.000000,0.000000,0.000000,0.000000,0.000000,0.000000,0.000000,0.159886,3,0
510000,-0.004348,13.017923,-0.030589,-0.025929,25.164820,-0.017215,0.000268,0.003132,1.571226,-0.008630,0.000174,0.000296,-0.000011,-0.000505,0.000003,0.004572,0.004479,0.166679,-0.021390,0.175725,0.175726,0.171622,0.909788,0.000000,0.000000,0.000000,0.000000,0.000000,0.000000,0.000000,0.000000,0.000000,0.000000,0.000000,0.000000,0.161856,3,0
520000,-0.004477,13.273931,-0.030913,-0.026273,25.171797,-0.017681,0.000270,0.003303,1.571224,-0.009116,0.000190,0.000313,-0.000012,-0.000542,0.000003,0.003585,0.004613,0.148691,-0.005198,0.175690,0.175691,0.171234,0.903624,0.000000,0.000000,0.000000,0.000000,0.000000,0.000000,0.000000,0.000000,0.000000,0.000000,0.000000,0.000000,0.144407,3,0
530000,-0.004606,13.532990,-0.030729,-0.026558,25.183506,-0.017526,0.000283,0.003610,1.571222,-0.009959,0.000206,0.000269,-0.000013,-0.000609,0.000004,0.010177,0.004745,0.250434,0.012777,0.175729,0.175730,0.170914,0.897302,0.000000,0.000000,0.000000,0.000000,0.000000,0.000000,0.000000,0.000000,0.000000,0.000000,0.000000,0.000000,0.243143,3,0
540000,-0.004734,13.789235,-0.032144,-0.026875,25.190910,-0.019644,0.000294,0.003802,1.571222,-0.010479,0.000223,0.000421,-0.000014,-0.000651,0.000004,0.003963,0.004877,0.150290,-0.043415,0.175837,0.175837,0.170658,0.890829,0.000000,0.000000,0.000000,0.000000,0.000000,0.000000,0.000000,0.000000,0.000000,0.000000,0.000000,0.000000,0.145962,3,0
550000,-0.004862,14.046205,-0.033184,-0.027242,25.199425,-0.021181,0.000297,0.004020,1.571218,-0.011092,0.000241,0.000527,-0.000016,-0.000701,0.000004,0.004947,0.005009,0.172275,-0.029529,0.176007,0.176008,0.170460,0.884210,0.000000,0.000000,0.000000,0.000000,0.000000,0.000000,0.000000,0.000000,0.000000,0.000000,0.000000,0.000000,0.167292,3,0
560000,-0.004989,14.301554,-0.032664,-0.027604,25.205303,-0.020294,0.000300,0.004175,1.571215,-0.011509,0.000260,0.000431,-0.000017,-0.000736,0.000004,0.002215,0.005141,0.114009,0.025832,0.176234,0.176235,0.170314,0.877453,0.000000,0.000000,0.000000,0.000000,0.000000,0.000000,0.000000,0.000000,0.000000,0.000000,0.000000,0.000000,0.110773,3,0
570000,-0.005115,14.561151,-0.031658,-0.027807,25.217936,-0.019008,0.000312,0.004528,1.571212,-0.012469,0.000279,0.000268,-0.000019,-0.000819,0.000005,0.010917,0.005270,0.256179,0.042782,0.176514,0.176515,0.170214,0.870565,0.000000,0.000000,0.000000,0.000000,0.000000,0.000000,0.000000,0.000000,0.000000,0.000000,0.000000,0.000000,0.248695,3,0
580000,-0.005238,14.820848,-0.032489,-0.027990,25.230583,-0.020309,0.000322,0.004887,1.571214,-0.013448,0.000300,0.000355,-0.000021,-0.000904,0.000005,0.010595,0.005397,0.254882,-0.022432,0.176841,0.176841,0.170157,0.863554,0.000000,0.000000,0.000000,0.000000,0.000000,0.000000,0.000000,0.000000,0.000000,0.000000,0.000000,0.000000,0.247425,3,0
590000,-0.005361,15.079475,-0.031531,-0.028320,25.241606,-0.018944,0.000329,0.005194,1.571223,-0.014288,0.000322,0.000190,-0.000023,-0.000979,0.000006,0.007666,0.005524,0.213723,0.041082,0.177210,0.177211,0.170138,0.856427,0.000000,0.000000,0.000000,0.000000,0.000000,0.000000,0.000000,0.000000,0.000000,0.000000,0.000000,0.000000,0.207480,3,0
600000,-0.005481,15.337041,-0.032854,-0.028478,25.250816,-0.020823,0.000333,0.005461,1.571226,-0.014988,0.000345,0.000353,-0.000025,-0.001043,0.000006,0.005140,0.005648,0.173656,-0.039870,0.177618,0.177619,0.170152,0.849193,0.000000,0.000000,0.000000,0.000000,0.000000,0.000000,0.000000,0.000000,0.000000,0.000000,0.000000,0.000000,0.168603,3,0
610000,-0.005599,15.597683,-0.032785,-0.028617,25.264917,-0.020832,0.000344,0.005883,1.571227,-0.016115,0.000369,0.000311,-0.000027,-0.001147,0.000007,0.012147,0.005770,0.273818,0.009953,0.178060,0.178061,0.170195,0.841858,0.000000,0.000000,0.000000,0.000000,0.000000,0.000000,0.000000,0.000000,0.000000,0.000000,0.000000,0.000000,0.265751,3,0
620000,-0.005715,15.854279,-0.032439,-0.028893,25.272398,-0.020381,0.000357,0.006105,1.571233,-0.016671,0.000394,0.000226,-0.000030,-0.001200,0.000007,0.002899,0.005891,0.132307,0.019657,0.178533,0.178533,0.170265,0.834431,0.000000,0.000000,0.000000,0.000000,0.000000,0.000000,0.000000,0.000000,0.000000,0.000000,0.000000,0.000000,0.128497,3,0
630000,-0.005830,16.111012,-0.032280,-0.029101,25.279921,-0.019985,0.000368,0.006341,1.571244,-0.017247,0.000420,0.000169,-0.000032,-0.001255,0.000007,0.002939,0.006009,0.134064,0.012851,0.179032,0.179032,0.170356,0.826921,0.000000,0.000000,0.000000,0.000000,0.000000,0.000000,0.000000,0.000000,0.000000,0.000000,0.000000,0.000000,0.130195,3,0
640000,-0.005943,16.368475,-0.033659,-0.029313,25.288586,-0.022141,0.000373,0.006620,1.571247,-0.017929,0.000447,0.000354,-0.000035,-0.001322,0.000008,0.004195,0.006126,0.155561,-0.041322,0.179554,0.179554,0.170465,0.819335,0.000000,0.000000,0.000000,0.000000,0.000000,0.000000,0.000000,0.000000,0.000000,0.000000,0.000000,0.000000,0.151023,3,0
650000,-0.006053,16.629646,-0.034193,-0.029440,25.303446,-0.022858,0.000387,0.007100,1.571237,-0.019161,0.000475,0.000403,-0.000038,-0.001446,0.000008,0.012314,0.006241,0.275707,-0.010866,0.180095,0.180096,0.170591,0.811681,0.000000,0.000000,0.000000,0.000000,0.000000,0.000000,0.000000,0.000000,0.000000,0.000000,0.000000,0.000000,0.267500,3,0
660000,-0.006162,16.886118,-0.035395,-0.029655,25.310324,-0.024449,0.000394,0.007316,1.571234,-0.019679,0.000504,0.000562,-0.000040,-0.001498,0.000009,0.002288,0.006353,0.113781,-0.034131,0.180654,0.180655,0.170729,0.803967,0.000000,0.000000,0.000000,0.000000,0.000000,0.000000,0.000000,0.000000,0.000000,0.000000,0.000000,0.000000,0.110527,3,0
670000,-0.006268,17.147530,-0.035537,-0.029807,25.325562,-0.024692,0.000406,0.007820,1.571224,-0.020953,0.000535,0.000543,-0.000044,-0.001630,0.000009,0.012206,0.006463,0.274698,0.003763,0.181226,0.181227,0.170877,0.796203,0.000000,0.000000,0.000000,0.000000,0.000000,0.000000,0.000000,0.000000,0.000000,0.000000,0.000000,0.000000,0.266475,3,0
680000,-0.006372,17.407219,-0.036143,-0.029916,25.337608,-0.025330,0.000425,0.008224,1.571227,-0.021953,0.000566,0.000602,-0.000047,-0.001736,0.000010,0.007291,0.006571,0.211924,-0.012507,0.181809,0.181810,0.171033,0.788394,0.000000,0.000000,0.000000,0.000000,0.000000,0.000000,0.000000,0.000000,0.000000,0.000000,0.000000,0.000000,0.205600,3,0
690000,-0.006473,17.664589,-0.036562,-0.030089,25.345547,-0.025963,0.000433,0.008476,1.571228,-0.022581,0.000598,0.000630,-0.000050,-0.001804,0.000010,0.002787,0.006676,0.131023,-0.005659,0.182401,0.182402,0.171194,0.780551,0.000000,0.000000,0.000000,0.000000,0.000000,0.000000,0.000000,0.000000,0.000000,0.000000,0.000000,0.000000,0.127206,3,0
700000,-0.006573,17.925720,-0.037007,-0.030303,25.359882,-0.026341,0.000443,0.008968,1.571232,-0.023807,0.000631,0.000661,-0.000054,-0.001938,0.000011,0.010216,0.006780,0.251272,-0.006403,0.182999,0.183000,0.171357,0.772680,0.000000,0.000000,0.000000,0.000000,0.000000,0.000000,0.000000,0.000000,0.000000,0.000000,0.000000,0.000000,0.243697,3,0
710000,-0.006670,18.186935,-0.038005,-0.030375,25.374361,-0.027526,0.000462,0.009468,1.571227,-0.025038,0.000666,0.000791,-0.000058,-0.002075,0.000012,0.010085,0.006880,0.248423,-0.025615,0.183601,0.183602,0.171522,0.764788,0.000000,0.000000,0.000000,0.000000,0.000000,0.000000,0.000000,0.000000,0.000000,0.000000,0.000000,0.000000,0.240912,3,0
720000,-0.006764,18.447008,-0.038343,-0.030433,25.386642,-0.028033,0.000472,0.009904,1.571228,-0.026072,0.000701,0.000800,-0.000062,-0.002192,0.000013,0.006846,0.006978,0.205730,-0.002003,0.184205,0.184206,0.171686,0.756885,0.000000,0.000000,0.000000,0.000000,0.000000,0.000000,0.000000,0.000000,0.000000,0.000000,0.000000,0.000000,0.199530,3,0
730000,-0.006855,18.705334,-0.037370,-0.030534,25.395767,-0.026406,0.000494,0.010220,1.571226,-0.026809,0.000737,0.000565,-0.000066,-0.002276,0.000013,0.003685,0.007073,0.144323,0.043888,0.184809,0.184810,0.171847,0.748976,0.000000,0.000000,0.000000,0.000000,0.000000,0.000000,0.000000,0.000000,0.000000,0.000000,0.000000,0.000000,0.140047,3,0
740000,-0.006944,18.964380,-0.037605,-0.030648,25.405935,-0.026583,0.000509,0.010592,1.571225,-0.027658,0.000775,0.000558,-0.000070,-0.002376,0.000014,0.004364,0.007165,0.164213,0.001145,0.185411,0.185412,0.172004,0.741069,0.000000,0.000000,0.000000,0.000000,0.000000,0.000000,0.000000,0.000000,0.000000,0.000000,0.000000,0.000000,0.159289,3,0
750000,-0.007030,19.222906,-0.038534,-0.030710,25.415184,-0.028003,0.000535,0.010920,1.571218,-0.028412,0.000813,0.000683,-0.000075,-0.002466,0.000014,0.003424,0.007255,0.143610,-0.022911,0.186010,0.186011,0.172155,0.733172,0.000000,0.000000,0.000000,0.000000,0.000000,0.000000,0.000000,0.000000,0.000000,0.000000,0.000000,0.000000,0.139336,3,0
760000,-0.007113,19.484625,-0.037068,-0.030848,25.429924,-0.025648,0.000564,0.011475,1.571226,-0.029702,0.000852,0.000340,-0.000080,-0.002622,0.000015,0.010131,0.007342,0.242811,0.060947,0.186604,0.186605,0.172299,0.725289,0.000000,0.000000,0.000000,0.000000,0.000000,0.000000,0.000000,0.000000,0.000000,0.000000,0.000000,0.000000,0.235368,3,0
770000,-0.007194,19.747026,-0.035823,-0.030929,25.445585,-0.023616,0.000591,0.012079,1.571234,-0.031096,0.000892,0.000041,-0.000085,-0.002794,0.000016,0.011306,0.007427,0.259251,0.052396,0.187192,0.187193,0.172436,0.717429,0.000000,0.000000,0.000000,0.000000,0.000000,0.000000,0.000000,0.000000,0.000000,0.000000,0.000000,0.000000,0.251266,3,0
780000,-0.007272,20.005129,-0.035361,-0.030917,25.453531,-0.022733,0.000608,0.012365,1.571232,-0.031727,0.000933,-0.000101,-0.000090,-0.002873,0.000017,0.002276,0.007507,0.115965,0.024367,0.187773,0.187774,0.172563,0.709597,0.000000,0.000000,0.000000,0.000000,0.000000,0.000000,0.000000,0.000000,0.000000,0.000000,0.000000,0.000000,0.112570,3,0
790000,-0.007347,20.265823,-0.035484,-0.030906,25.465897,-0.022651,0.000621,0.012832,1.571223,-0.032805,0.000976,-0.000125,-0.000095,-0.003010,0.000017,0.006196,0.007585,0.195724,0.003735,0.188346,0.188347,0.172680,0.701800,0.000000,0.000000,0.000000,0.000000,0.000000,0.000000,0.000000,0.000000,0.000000,0.000000,0.000000,0.000000,0.189723,3,0
800000,-0.007420,20.523458,-0.035804,-0.030947,25.472862,-0.023203,0.000639,0.013090,1.571228,-0.033328,0.001018,-0.000108,-0.000101,-0.003078,0.000018,0.001435,0.007661,0.093935,-0.003080,0.188909,0.188910,0.172787,0.694043,0.000000,0.000000,0.000000,0.000000,0.000000,0.000000,0.000000,0.000000,0.000000,0.000000,0.000000,0.000000,0.091279,3,0
810000,-0.007489,20.783703,-0.035125,-0.030944,25.484222,-0.022230,0.000671,0.013533,1.571236,-0.034309,0.001062,-0.000301,-0.000107,-0.003207,0.000018,0.005070,0.007733,0.174175,0.031822,0.189462,0.189463,0.172882,0.686331,0.000000,0.000000,0.000000,0.000000,0.000000,0.000000,0.000000,0.000000,0.000000,0.000000,0.000000,0.000000,0.168843,3,0
820000,-0.007556,21.044647,-0.035522,-0.030994,25.496685,-0.022931,0.000695,0.014024,1.571230,-0.035401,0.001107,-0.000268,-0.000113,-0.003353,0.000019,0.005972,0.007803,0.192120,-0.005817,0.190004,0.190005,0.172965,0.678671,0.000000,0.000000,0.000000,0.000000,0.000000,0.000000,0.000000,0.000000,0.000000,0.000000,0.000000,0.000000,0.186189,3,0
830000,-0.007622,21.307545,-0.036544,-0.031116,25.512573,-0.024464,0.000717,0.014661,1.571229,-0.036832,0.001152,-0.000103,-0.000119,-0.003548,0.000020,0.010145,0.007871,0.249111,-0.027274,0.190535,0.190536,0.173035,0.671066,0.000000,0.000000,0.000000,0.000000,0.000000,0.000000,0.000000,0.000000,0.000000,0.000000,0.000000,0.000000,0.241320,3,0
840000,-0.007685,21.569839,-0.035184,-0.031195,25.527054,-0.022203,0.000742,0.015252,1.571222,-0.038133,0.001199,-0.000454,-0.000125,-0.003728,0.000021,0.008654,0.007938,0.224604,0.055776,0.191054,0.191054,0.173092,0.663522,0.000000,0.000000,0.000000,0.000000,0.000000,0.000000,0.000000,0.000000,0.000000,0.000000,0.000000,0.000000,0.217589,3,0
850000,-0.007745,21.832172,-0.033934,-0.031230,25.541430,-0.020287,0.000771,0.015850,1.571218,-0.039422,0.001246,-0.000781,-0.000132,-0.003909,0.000022,0.008286,0.008001,0.220589,0.051209,0.191560,0.191561,0.173136,0.656044,0.000000,0.000000,0.000000,0.000000,0.000000,0.000000,0.000000,0.000000,0.000000,0.000000,0.000000,0.000000,0.213687,3,0
860000,-0.007804,22.094540,-0.034282,-0.031195,25.555712,-0.020910,0.000802,0.016440,1.571212,-0.040699,0.001294,-0.000754,-0.000139,-0.004091,0.000023,0.007579,0.008062,0.216536,-0.004767,0.192053,0.192054,0.173166,0.648634,0.000000,0.000000,0.000000,0.000000,0.000000,0.000000,0.000000,0.000000,0.000000,0.000000,0.000000,0.000000,0.209749,3,0
870000,-0.007859,22.355022,-0.034032,-0.031166,25.566578,-0.020541,0.000836,0.016887,1.571210,-0.041608,0.001342,-0.000861,-0.000146,-0.004223,0.000024,0.003820,0.008120,0.152815,0.016090,0.192534,0.192534,0.173182,0.641299,0.000000,0.000000,0.000000,0.000000,0.000000,0.000000,0.000000,0.000000,0.000000,0.000000,0.000000,0.000000,0.148120,3,0
880000,-0.007913,22.615557,-0.034951,-0.031237,25.577353,-0.021757,0.000859,0.017328,1.571208,-0.042511,0.001391,-0.000703,-0.000153,-0.004356,0.000025,0.003769,0.008176,0.150650,-0.024572,0.193001,0.193001,0.173184,0.634040,0.000000,0.000000,0.000000,0.000000,0.000000,0.000000,0.000000,0.000000,0.000000,0.000000,0.000000,0.000000,0.146018,3,0
890000,-0.007965,22.874216,-0.033948,-0.031273,25.584637,-0.020250,0.000891,0.017616,1.571222,-0.043047,0.001441,-0.000985,-0.000161,-0.004436,0.000025,0.001574,0.008231,0.088795,0.042419,0.193455,0.193455,0.173171,0.626861,0.000000,0.000000,0.000000,0.000000,0.000000,0.000000,0.000000,0.000000,0.000000,0.000000,0.000000,0.000000,0.086300,3,0
900000,-0.008014,23.136156,-0.034757,-0.031197,25.597597,-0.021250,0.000925,0.018184,1.571232,-0.044189,0.001492,-0.000849,-0.000169,-0.004610,0.000026,0.005775,0.008281,0.187883,-0.020852,0.193895,0.193895,0.173145,0.619765,0.000000,0.000000,0.000000,0.000000,0.000000,0.000000,0.000000,0.000000,0.000000,0.000000,0.000000,0.000000,0.181989,3,0
910000,-0.008060,23.398767,-0.035047,-0.031108,25.611687,-0.021525,0.000946,0.018800,1.571233,-0.045439,0.001543,-0.000836,-0.000176,-0.004802,0.000028,0.006731,0.008330,0.204117,-0.002503,0.194322,0.194322,0.173104,0.612757,0.000000,0.000000,0.000000,0.000000,0.000000,0.000000,0.000000,0.000000,0.000000,0.000000,0.000000,0.000000,0.197670,3,0
920000,-0.008104,23.660103,-0.034593,-0.031102,25.623325,-0.020957,0.000981,0.019298,1.571235,-0.046425,0.001595,-0.001000,-0.000185,-0.004957,0.000028,0.004230,0.008376,0.160032,0.023465,0.194736,0.194736,0.173049,0.605837,0.000000,0.000000,0.000000,0.000000,0.000000,0.000000,0.000000,0.000000,0.000000,0.000000,0.000000,0.000000,0.155050,3,0
930000,-0.008146,23.919531,-0.035748,-0.031139,25.631487,-0.022496,0.001007,0.019637,1.571230,-0.047029,0.001648,-0.000777,-0.000193,-0.005053,0.000029,0.001713,0.008420,0.097368,-0.032687,0.195136,0.195136,0.172980,0.599010,0.000000,0.000000,0.000000,0.000000,0.000000,0.000000,0.000000,0.000000,0.000000,0.000000,0.000000,0.000000,0.094552,3,0
940000,-0.008186,24.180304,-0.036139,-0.031063,25.641872,-0.023071,0.001028,0.020084,1.571241,-0.047877,0.001701,-0.000742,-0.000201,-0.005191,0.000030,0.003001,0.008462,0.136044,-0.005534,0.195523,0.195523,0.172897,0.592276,0.000000,0.000000,0.000000,0.000000,0.000000,0.000000,0.000000,0.000000,0.000000,0.000000,0.000000,0.000000,0.131865,3,0
950000,-0.008224,24.439163,-0.035959,-0.031070,25.648724,-0.022670,0.001065,0.020354,1.571243,-0.048340,0.001754,-0.000845,-0.000210,-0.005267,0.000030,0.000927,0.008502,0.073956,0.014383,0.195897,0.195897,0.172801,0.585637,0.000000,0.000000,0.000000,0.000000,0.000000,0.000000,0.000000,0.000000,0.000000,0.000000,0.000000,0.000000,0.072012,3,0
960000,-0.008259,24.701981,-0.036383,-0.030946,25.662518,-0.023157,0.001103,0.020994,1.571247,-0.049555,0.001808,-0.000803,-0.000219,-0.005469,0.000031,0.006007,0.008538,0.192728,-0.006610,0.196259,0.196258,0.172691,0.579097,0.000000,0.000000,0.000000,0.000000,0.000000,0.000000,0.000000,0.000000,0.000000,0.000000,0.000000,0.000000,0.186607,3,0
970000,-0.008293,24.960894,-0.037598,-0.030939,25.669218,-0.024833,0.001127,0.021272,1.571257,-0.049992,0.001863,-0.000561,-0.000228,-0.005543,0.000032,0.000965,0.008573,0.068922,-0.034038,0.196608,0.196607,0.172567,0.572655,0.000000,0.000000,0.000000,0.000000,0.000000,0.000000,0.000000,0.000000,0.000000,0.000000,0.000000,0.000000,0.067176,3,0
980000,-0.008325,25.221817,-0.037782,-0.030936,25.679457,-0.024916,0.001155,0.021731,1.571251,-0.050806,0.001918,-0.000582,-0.000238,-0.005683,0.000033,0.002654,0.008608,0.128002,0.002425,0.196945,0.196944,0.172431,0.566315,0.000000,0.000000,0.000000,0.000000,0.000000,0.000000,0.000000,0.000000,0.000000,0.000000,0.000000,0.000000,0.124080,3,0
990000,-0.008354,25.480801,-0.037315,-0.030830,25.685978,-0.024029,0.001182,0.022001,1.571262,-0.051226,0.001973,-0.000767,-0.000247,-0.005757,0.000033,0.000811,0.008638,0.065767,0.025042,0.197270,0.197269,0.172282,0.560076,0.000000,0.000000,0.000000,0.000000,0.000000,0.000000,0.000000,0.000000,0.000000,0.000000,0.000000,0.000000,0.064152,3,0
1000000,-0.008380,25.739836,-0.037327,-0.030706,25.692657,-0.024050,0.001210,0.022267,1.571270,-0.051644,0.002029,-0.000829,-0.000257,-0.005830,0.000033,0.000707,0.008666,0.065144,0.008126,0.197584,0.197583,0.172121,0.553939,0.000000,0.000000,0.000000,0.000000,0.000000,0.000000,0.000000,0.000000,0.000000,0.000000,0.000000,0.000000,0.063553,3,0
1010000,-0.008404,26.002851,-0.036968,-0.030572,25.706253,-0.023404,0.001243,0.022910,1.571275,-0.052826,0.002085,-0.000992,-0.000268,-0.006043,0.000035,0.005526,0.008691,0.183741,0.021196,0.197887,0.197885,0.171947,0.547907,0.000000,0.000000,0.000000,0.000000,0.000000,0.000000,0.000000,0.000000,0.000000,0.000000,0.000000,0.000000,0.177880,3,0
1020000,-0.008424,26.261915,-0.035772,-0.030434,25.712616,-0.021644,0.001284,0.023169,1.571288,-0.053211,0.002141,-0.001370,-0.000278,-0.006113,0.000035,0.000994,0.008713,0.059742,0.050089,0.198179,0.198177,0.171762,0.541978,0.000000,0.000000,0.000000,0.000000,0.000000,0.000000,0.000000,0.000000,0.000000,0.000000,0.000000,0.000000,0.058381,3,0
1030000,-0.008442,26.524311,-0.034968,-0.030284,25.724838,-0.020435,0.001323,0.023748,1.571283,-0.054237,0.002198,-0.001647,-0.000289,-0.006303,0.000036,0.004267,0.008732,0.158432,0.035970,0.198460,0.198459,0.171566,0.536155,0.000000,0.000000,0.000000,0.000000,0.000000,0.000000,0.000000,0.000000,0.000000,0.000000,0.000000,0.000000,0.153425,3,0
1040000,-0.008459,26.787357,-0.033867,-0.030246,25.738031,-0.019023,0.001365,0.024399,1.571288,-0.055369,0.002254,-0.002004,-0.000300,-0.006515,0.000037,0.005247,0.008750,0.174221,0.046053,0.198732,0.198730,0.171359,0.530436,0.000000,0.000000,0.000000,0.000000,0.000000,0.000000,0.000000,0.000000,0.000000,0.000000,0.000000,0.000000,0.168665,3,0
1050000,-0.008474,27.051050,-0.034616,-0.030054,25.752266,-0.020101,0.001407,0.025102,1.571296,-0.056604,0.002312,-0.001864,-0.000311,-0.006751,0.000039,0.005849,0.008765,0.189346,-0.019235,0.198995,0.198993,0.171141,0.524823,0.000000,0.000000,0.000000,0.000000,0.000000,0.000000,0.000000,0.000000,0.000000,0.000000,0.000000,0.000000,0.183261,3,0
1060000,-0.008487,27.314713,-0.033904,-0.029970,25.766171,-0.019167,0.001436,0.025799,1.571292,-0.057805,0.002370,-0.002123,-0.000322,-0.006984,0.000040,0.005634,0.008779,0.183937,0.032442,0.199249,0.199246,0.170913,0.519315,0.000000,0.000000,0.000000,0.000000,0.000000,0.000000,0.000000,0.000000,0.000000,0.000000,0.000000,0.000000,0.178032,3,0
1070000,-0.008498,27.576359,-0.032835,-0.029928,25.776409,-0.017653,0.001464,0.026286,1.571289,-0.058583,0.002427,-0.002475,-0.000334,-0.007136,0.000041,0.002613,0.008791,0.118925,0.044570,0.199494,0.199491,0.170675,0.513913,0.000000,0.000000,0.000000,0.000000,0.000000,0.000000,0.000000,0.000000,0.000000,0.000000,0.000000,0.000000,0.115287,3,0
1080000,-0.008508,27.836018,-0.032413,-0.029870,25.783081,-0.017040,0.001510,0.026553,1.571299,-0.058950,0.002485,-0.002644,-0.000346,-0.007209,0.000041,0.000590,0.008802,0.055964,0.021193,0.199731,0.199727,0.170428,0.508616,0.000000,0.000000,0.000000,0.000000,0.000000,0.000000,0.000000,0.000000,0.000000,0.000000,0.000000,0.000000,0.054767,3,0
1090000,-0.008517,28.097031,-0.033378,-0.029717,25.792048,-0.018473,0.001544,0.026959,1.571306,-0.059572,0.002543,-0.002429,-0.000357,-0.007336,0.000042,0.001573,0.008810,0.094419,-0.027715,0.199960,0.199956,0.170172,0.503425,0.000000,0.000000,0.000000,0.000000,0.000000,0.000000,0.000000,0.000000,0.000000,0.000000,0.000000,0.000000,0.091669,3,0
1100000,-0.008525,28.355394,-0.033590,-0.029668,25.796249,-0.018762,0.001590,0.027075,1.571316,-0.059652,0.002601,-0.002423,-0.000369,-0.007352,0.000042,0.000037,0.008819,0.012226,-0.000892,0.200182,0.200178,0.169907,0.498337,0.000000,0.000000,0.000000,0.000000,0.000000,0.000000,0.000000,0.000000,0.000000,0.000000,0.000000,0.000000,0.014572,3,0
1110000,-0.008531,28.617119,-0.033297,-0.029570,25.806248,-0.018552,0.001634,0.027560,1.571318,-0.060388,0.002660,-0.002568,-0.000381,-0.007506,0.000043,0.002069,0.008826,0.111643,0.017347,0.200398,0.200393,0.169634,0.493354,0.000000,0.000000,0.000000,0.000000,0.000000,0.000000,0.000000,0.000000,0.000000,0.000000,0.000000,0.000000,0.108253,3,0
1120000,-0.008534,28.877506,-0.033313,-0.029379,25.813839,-0.018618,0.001681,0.027896,1.571318,-0.060840,0.002718,-0.002622,-0.000394,-0.007601,0.000044,0.000774,0.008830,0.068485,0.006253,0.200607,0.200602,0.169354,0.488474,0.000000,0.000000,0.000000,0.000000,0.000000,0.000000,0.000000,0.000000,0.000000,0.000000,0.000000,0.000000,0.066744,3,0
1130000,-0.008536,29.137905,-0.034057,-0.029136,25.821184,-0.019708,0.001724,0.028230,1.571332,-0.061280,0.002777,-0.002466,-0.000406,-0.007696,0.000044,0.000786,0.008831,0.066448,-0.019570,0.200810,0.200805,0.169066,0.483696,0.000000,0.000000,0.000000,0.000000,0.000000,0.000000,0.000000,0.000000,0.000000,0.000000,0.000000,0.000000,0.064787,3,0
1140000,-0.008535,29.399641,-0.034282,-0.028980,25.830893,-0.019982,0.001774,0.028706,1.571344,-0.061969,0.002836,-0.002466,-0.000419,-0.007846,0.000045,0.001760,0.008831,0.104158,-0.000685,0.201008,0.201003,0.168771,0.479020,0.000000,0.000000,0.000000,0.000000,0.000000,0.000000,0.000000,0.000000,0.000000,0.000000,0.000000,0.000000,0.101031,3,0
1150000,-0.008530,29.663361,-0.033173,-0.028713,25.843855,-0.018519,0.001812,0.029400,1.571353,-0.063029,0.002894,-0.002864,-0.000432,-0.008080,0.000047,0.004514,0.008827,0.160387,0.047026,0.201201,0.201195,0.168470,0.474445,0.000000,0.000000,0.000000,0.000000,0.000000,0.000000,0.000000,0.000000,0.000000,0.000000,0.000000,0.000000,0.155247,3,0
1160000,-0.008523,29.923698,-0.032340,-0.028472,25.850769,-0.017338,0.001855,0.029693,1.571355,-0.063395,0.002952,-0.003171,-0.000446,-0.008162,0.000047,0.000726,0.008820,0.055571,0.036510,0.201390,0.201383,0.168163,0.469970,0.000000,0.000000,0.000000,0.000000,0.000000,0.000000,0.000000,0.000000,0.000000,0.000000,0.000000,0.000000,0.054379,3,0
1170000,-0.008516,30.184044,-0.033030,-0.028383,25.857637,-0.018128,0.001899,0.029989,1.571352,-0.063751,0.003011,-0.003021,-0.000459,-0.008243,0.000048,0.000529,0.008812,0.053587,-0.018295,0.201574,0.201567,0.167849,0.465595,0.000000,0.000000,0.000000,0.000000,0.000000,0.000000,0.000000,0.000000,0.000000,0.000000,0.000000,0.000000,0.052482,3,0
1180000,-0.008507,30.443058,-0.033442,-0.028140,25.862158,-0.018863,0.001935,0.030120,1.571363,-0.063829,0.003069,-0.002954,-0.000472,-0.008261,0.000048,0.000046,0.008803,0.011839,-0.008107,0.201755,0.201747,0.167531,0.461319,0.000000,0.000000,0.000000,0.000000,0.000000,0.000000,0.000000,0.000000,0.000000,0.000000,0.000000,0.000000,0.014257,3,0
1190000,-0.008497,30.705442,-0.034551,-0.028030,25.872519,-0.020373,0.001972,0.030649,1.571363,-0.064562,0.003128,-0.002684,-0.000486,-0.008434,0.000049,0.002155,0.008792,0.110603,-0.032667,0.201932,0.201924,0.167207,0.457139,0.000000,0.000000,0.000000,0.000000,0.000000,0.000000,0.000000,0.000000,0.000000,0.000000,0.000000,0.000000,0.107216,3,0
1200000,-0.008486,30.965788,-0.035466,-0.027850,25.879156,-0.021447,0.002019,0.030918,1.571377,-0.064874,0.003186,-0.002471,-0.000499,-0.008508,0.000049,0.000471,0.008781,0.046904,-0.025384,0.202106,0.202098,0.166879,0.453055,0.000000,0.000000,0.000000,0.000000,0.000000,0.000000,0.000000,0.000000,0.000000,0.000000,0.000000,0.000000,0.046110,3,0
1210000,-0.008471,31.226128,-0.034548,-0.027647,25.885597,-0.020348,0.002062,0.031180,1.571380,-0.065169,0.003244,-0.002826,-0.000514,-0.008579,0.000050,0.000610,0.008768,0.044916,0.041047,0.202278,0.202269,0.166547,0.449066,0.000000,0.000000,0.000000,0.000000,0.000000,0.000000,0.000000,0.000000,0.000000,0.000000,0.000000,0.000000,0.044224,3,0
1220000,-0.008454,31.486469,-0.033787,-0.027392,25.892118,-0.019401,0.002114,0.031442,1.571392,-0.065451,0.003301,-0.003132,-0.000528,-0.008647,0.000050,0.000508,0.008750,0.042938,0.035041,0.202448,0.202438,0.166210,0.445171,0.000000,0.000000,0.000000,0.000000,0.000000,0.000000,0.000000,0.000000,0.000000,0.000000,0.000000,0.000000,0.042345,3,0
1230000,-0.008436,31.745470,-0.034269,-0.027131,25.896023,-0.020173,0.002160,0.031543,1.571395,-0.065459,0.003359,-0.003043,-0.000542,-0.008649,0.000050,0.000030,0.008730,0.001202,-0.010303,0.202616,0.202605,0.165871,0.441367,0.000000,0.000000,0.000000,0.000000,0.000000,0.000000,0.000000,0.000000,0.000000,0.000000,0.000000,0.000000,0.008515,3,0
1240000,-0.008415,32.008518,-0.033853,-0.026874,25.907038,-0.019710,0.002200,0.032127,1.571404,-0.066248,0.003416,-0.003252,-0.000557,-0.008848,0.000051,0.002411,0.008710,0.119858,0.022896,0.202782,0.202770,0.165528,0.437654,0.000000,0.000000,0.000000,0.000000,0.000000,0.000000,0.000000,0.000000,0.000000,0.000000,0.000000,0.000000,0.116116,3,0
1250000,-0.008391,32.271519,-0.033070,-0.026612,25.917952,-0.018849,0.002249,0.032698,1.571402,-0.067003,0.003473,-0.003579,-0.000572,-0.009040,0.000053,0.002358,0.008686,0.115128,0.036109,0.202946,0.202935,0.165182,0.434032,0.000000,0.000000,0.000000,0.000000,0.000000,0.000000,0.000000,0.000000,0.000000,0.000000,0.000000,0.000000,0.111553,3,0
1260000,-0.008365,32.534473,-0.032264,-0.026338,25.928497,-0.018034,0.002301,0.033269,1.571414,-0.067727,0.003530,-0.003913,-0.000587,-0.009227,0.000054,0.002194,0.008660,0.110439,0.036695,0.203110,0.203098,0.164833,0.430497,0.000000,0.000000,0.000000,0.000000,0.000000,0.000000,0.000000,0.000000,0.000000,0.000000,0.000000,0.000000,0.107032,3,0
1270000,-0.008339,32.794018,-0.032093,-0.026140,25.932949,-0.017894,0.002351,0.033387,1.571425,-0.067768,0.003586,-0.004029,-0.000602,-0.009238,0.000054,0.000046,0.008632,0.006413,0.012939,0.203273,0.203260,0.164482,0.427050,0.000000,0.000000,0.000000,0.000000,0.000000,0.000000,0.000000,0.000000,0.000000,0.000000,0.000000,0.000000,0.010388,3,0
1280000,-0.008312,33.052895,-0.032913,-0.025862,25.936134,-0.018937,0.002389,0.033415,1.571442,-0.067673,0.003643,-0.003818,-0.000617,-0.009213,0.000054,0.000135,0.008603,-0.014626,-0.023401,0.203436,0.203422,0.164130,0.423688,0.000000,0.000000,0.000000,0.000000,0.000000,0.000000,0.000000,0.000000,0.000000,0.000000,0.000000,0.000000,0.016396,3,0
1290000,-0.008283,33.315155,-0.032937,-0.025714,25.945292,-0.018887,0.002446,0.033880,1.571455,-0.068223,0.003699,-0.003883,-0.000632,-0.009362,0.000055,0.001162,0.008574,0.084282,0.006422,0.203599,0.203584,0.163775,0.420410,0.000000,0.000000,0.000000,0.000000,0.000000,0.000000,0.000000,0.000000,0.000000,0.000000,0.000000,0.000000,0.081845,3,0
1300000,-0.008252,33.578049,-0.032198,-0.025491,25.955444,-0.017883,0.002497,0.034427,1.571463,-0.068874,0.003754,-0.004205,-0.000648,-0.009539,0.000056,0.001822,0.008543,0.100235,0.034476,0.203761,0.203746,0.163420,0.417215,0.000000,0.000000,0.000000,0.000000,0.000000,0.000000,0.000000,0.000000,0.000000,0.000000,0.000000,0.000000,0.097187,3,0
1310000,-0.008220,33.840900,-0.032926,-0.025220,25.965557,-0.018936,0.002554,0.034962,1.571470,-0.069496,0.003810,-0.004035,-0.000663,-0.009713,0.000057,0.001548,0.008509,0.095665,-0.019698,0.203925,0.203908,0.163063,0.414103,0.000000,0.000000,0.000000,0.000000,0.000000,0.000000,0.000000,0.000000,0.000000,0.000000,0.000000,0.000000,0.092776,3,0
1320000,-0.008188,34.102352,-0.034173,-0.024912,25.973053,-0.020543,0.002593,0.035302,1.571468,-0.069830,0.003865,-0.003686,-0.000678,-0.009809,0.000057,0.000679,0.008475,0.051376,-0.038703,0.204088,0.204071,0.162705,0.411070,0.000000,0.000000,0.000000,0.000000,0.000000,0.000000,0.000000,0.000000,0.000000,0.000000,0.000000,0.000000,0.050296,3,0
1330000,-0.008154,34.363098,-0.035454,-0.024757,25.979208,-0.022339,0.002633,0.035534,1.571481,-0.070015,0.003921,-0.003326,-0.000693,-0.009863,0.000058,0.000394,0.008440,0.028400,-0.039463,0.204253,0.204235,0.162347,0.408115,0.000000,0.000000,0.000000,0.000000,0.000000,0.000000,0.000000,0.000000,0.000000,0.000000,0.000000,0.000000,0.028614,3,0
1340000,-0.008119,34.621796,-0.036319,-0.024549,25.981615,-0.023494,0.002687,0.035478,1.571500,-0.069800,0.003975,-0.003103,-0.000709,-0.009801,0.000057,0.000285,0.008405,-0.033623,-0.023803,0.204418,0.204399,0.161989,0.405238,0.000000,0.000000,0.000000,0.000000,0.000000,0.000000,0.000000,0.000000,0.000000,0.000000,0.000000,0.000000,0.033482,3,0
1350000,-0.008082,34.884563,-0.036316,-0.024351,25.991056,-0.023604,0.002741,0.035973,1.571504,-0.070346,0.004029,-0.003199,-0.000725,-0.009962,0.000058,0.001199,0.008368,0.085361,0.009362,0.204584,0.204564,0.161630,0.402435,0.000000,0.000000,0.000000,0.000000,0.000000,0.000000,0.000000,0.000000,0.000000,0.000000,0.000000,0.000000,0.082846,3,0
1360000,-0.008044,35.143890,-0.036612,-0.024125,25.994360,-0.023960,0.002793,0.035980,1.571517,-0.070229,0.004082,-0.003176,-0.000741,-0.009927,0.000058,0.000067,0.008328,-0.018475,-0.002235,0.204752,0.204731,0.161272,0.399707,0.000000,0.000000,0.000000,0.000000,0.000000,0.000000,0.000000,0.000000,0.000000,0.000000,0.000000,0.000000,0.019574,3,0
1370000,-0.008005,35.405933,-0.037649,-0.023774,26.002443,-0.025149,0.002848,0.036363,1.571520,-0.070612,0.004135,-0.002907,-0.000757,-0.010044,0.000059,0.000733,0.008287,0.060108,-0.029380,0.204921,0.204899,0.160914,0.397050,0.000000,0.000000,0.000000,0.000000,0.000000,0.000000,0.000000,0.000000,0.000000,0.000000,0.000000,0.000000,0.058601,3,0
1380000,-0.007964,35.664536,-0.037840,-0.023552,26.004322,-0.025254,0.002908,0.036254,1.571532,-0.070340,0.004188,-0.002922,-0.000773,-0.009960,0.000059,0.000309,0.008246,-0.042984,0.002118,0.205091,0.205068,0.160557,0.394466,0.000000,0.000000,0.000000,0.000000,0.000000,0.000000,0.000000,0.000000,0.000000,0.000000,0.000000,0.000000,0.042272,3,0
1390000,-0.007921,35.922462,-0.037868,-0.023280,26.004927,-0.025277,0.002968,0.036046,1.571543,-0.069942,0.004239,-0.002991,-0.000789,-0.009835,0.000058,0.000662,0.008202,-0.063057,0.008199,0.205263,0.205239,0.160201,0.391951,0.000000,0.000000,0.000000,0.000000,0.000000,0.000000,0.000000,0.000000,0.000000,0.000000,0.000000,0.000000,0.061411,3,0
1400000,-0.007875,36.181770,-0.037012,-0.022978,26.007935,-0.023990,0.003030,0.036030,1.571550,-0.069796,0.004289,-0.003385,-0.000806,-0.009788,0.000058,0.000374,0.008156,-0.022808,0.041524,0.205437,0.205412,0.159845,0.389504,0.000000,0.000000,0.000000,0.000000,0.000000,0.000000,0.000000,0.000000,0.000000,0.000000,0.000000,0.000000,0.023388,3,0
1410000,-0.007829,36.443810,-0.037611,-0.022660,26.015713,-0.024588,0.003085,0.036402,1.571561,-0.070146,0.004340,-0.003265,-0.000822,-0.009901,0.000059,0.000540,0.008106,0.055794,-0.013178,0.205612,0.205586,0.159491,0.387122,0.000000,0.000000,0.000000,0.000000,0.000000,0.000000,0.000000,0.000000,0.000000,0.000000,0.000000,0.000000,0.054445,3,0
1420000,-0.007780,36.706478,-0.037738,-0.022288,26.024614,-0.024685,0.003137,0.036865,1.571575,-0.070593,0.004390,-0.003323,-0.000838,-0.010047,0.000060,0.000849,0.008057,0.071987,0.004967,0.205790,0.205763,0.159139,0.384807,0.000000,0.000000,0.000000,0.000000,0.000000,0.000000,0.000000,0.000000,0.000000,0.000000,0.000000,0.000000,0.069953,3,0
1430000,-0.007732,36.969097,-0.038681,-0.022063,26.033340,-0.025851,0.003182,0.037320,1.571586,-0.071013,0.004441,-0.003082,-0.000854,-0.010187,0.000061,0.000855,0.008006,0.067650,-0.025804,0.205969,0.205941,0.158788,0.382556,0.000000,0.000000,0.000000,0.000000,0.000000,0.000000,0.000000,0.000000,0.000000,0.000000,0.000000,0.000000,0.065779,3,0
1440000,-0.007680,37.227547,-0.037383,-0.021853,26.034430,-0.024278,0.003246,0.037127,1.571598,-0.070666,0.004488,-0.003646,-0.000871,-0.010068,0.000060,0.001073,0.007955,-0.055904,0.058752,0.206151,0.206121,0.158438,0.380367,0.000000,0.000000,0.000000,0.000000,0.000000,0.000000,0.000000,0.000000,0.000000,0.000000,0.000000,0.000000,0.054518,3,0
1450000,-0.007626,37.486004,-0.036229,-0.021460,26.035501,-0.022878,0.003302,0.036943,1.571604,-0.070321,0.004535,-0.004153,-0.000888,-0.009948,0.000060,0.000965,0.007900,-0.055939,0.052761,0.206334,0.206303,0.158091,0.378240,0.000000,0.000000,0.000000,0.000000,0.000000,0.000000,0.000000,0.000000,0.000000,0.000000,0.000000,0.000000,0.054540,3,0
1460000,-0.007571,37.747208,-0.035880,-0.021128,26.041492,-0.022641,0.003361,0.037159,1.571617,-0.070463,0.004582,-0.004376,-0.000905,-0.009997,0.000060,0.000180,0.007842,0.023537,0.022316,0.206519,0.206487,0.157746,0.376171,0.000000,0.000000,0.000000,0.000000,0.000000,0.000000,0.000000,0.000000,0.000000,0.000000,0.000000,0.000000,0.023960,3,0
1470000,-0.007517,38.009068,-0.036421,-0.020844,26.048590,-0.023485,0.003424,0.037470,1.571619,-0.070709,0.004630,-0.004268,-0.000922,-0.010084,0.000061,0.000296,0.007785,0.040581,-0.011562,0.206706,0.206673,0.157403,0.374161,0.000000,0.000000,0.000000,0.000000,0.000000,0.000000,0.000000,0.000000,0.000000,0.000000,0.000000,0.000000,0.039895,3,0
1480000,-0.007459,38.272240,-0.035492,-0.020572,26.057871,-0.022218,0.003469,0.037975,1.571622,-0.071169,0.004675,-0.004726,-0.000939,-0.010246,0.000062,0.001289,0.007727,0.076832,0.045011,0.206895,0.206860,0.157062,0.372207,0.000000,0.000000,0.000000,0.000000,0.000000,0.000000,0.000000,0.000000,0.000000,0.000000,0.000000,0.000000,0.074566,3,0
1490000,-0.007401,38.529854,-0.034887,-0.020224,26.056944,-0.021348,0.003524,0.037622,1.571633,-0.070647,0.004720,-0.005022,-0.000955,-0.010056,0.000061,0.001385,0.007666,-0.087040,0.031090,0.207086,0.207050,0.156724,0.370309,0.000000,0.000000,0.000000,0.000000,0.000000,0.000000,0.000000,0.000000,0.000000,0.000000,0.000000,0.000000,0.084355,3,0
1500000,-0.007340,38.791599,-0.034110,-0.019862,26.063463,-0.020343,0.003588,0.037905,1.571649,-0.070841,0.004764,-0.005411,-0.000972,-0.010125,0.000061,0.000424,0.007604,0.033058,0.038329,0.207278,0.207242,0.156388,0.368464,0.000000,0.000000,0.000000,0.000000,0.000000,0.000000,0.000000,0.000000,0.000000,0.000000,0.000000,0.000000,0.032758,3,0
1510000,-0.007277,39.050545,-0.032856,-0.019535,26.064886,-0.018921,0.003648,0.037739,1.571664,-0.070545,0.004807,-0.005963,-0.000989,-0.010012,0.000061,0.000914,0.007540,-0.049847,0.055767,0.207473,0.207435,0.156056,0.366673,0.000000,0.000000,0.000000,0.000000,0.000000,0.000000,0.000000,0.000000,0.000000,0.000000,0.000000,0.000000,0.048658,3,0
1520000,-0.007215,39.313625,-0.033249,-0.019120,26.073877,-0.019365,0.003701,0.038222,1.571668,-0.070948,0.004851,-0.005901,-0.001006,-0.010166,0.000062,0.000781,0.007473,0.068893,-0.007257,0.207670,0.207630,0.155726,0.364934,0.000000,0.000000,0.000000,0.000000,0.000000,0.000000,0.000000,0.000000,0.000000,0.000000,0.000000,0.000000,0.066899,3,0
1530000,-0.007149,39.571808,-0.032771,-0.018701,26.073759,-0.018893,0.003754,0.037927,1.571670,-0.070511,0.004894,-0.006146,-0.001023,-0.009996,0.000061,0.001019,0.007406,-0.075001,0.025468,0.207868,0.207827,0.155399,0.363244,0.000000,0.000000,0.000000,0.000000,0.000000,0.000000,0.000000,0.000000,0.000000,0.000000,0.000000,0.000000,0.072751,3,0
1540000,-0.007083,39.832756,-0.032934,-0.018421,26.078701,-0.019204,0.003810,0.038050,1.571673,-0.070538,0.004936,-0.006159,-0.001039,-0.010007,0.000061,0.000013,0.007338,0.004757,0.001173,0.208068,0.208026,0.155075,0.361603,0.000000,0.000000,0.000000,0.000000,0.000000,0.000000,0.000000,0.000000,0.000000,0.000000,0.000000,0.000000,0.008442,3,0
1550000,-0.007014,40.092278,-0.032233,-0.017994,26.080967,-0.018225,0.003865,0.037950,1.571680,-0.070321,0.004976,-0.006503,-0.001056,-0.009920,0.000061,0.000427,0.007268,-0.037575,0.034351,0.208269,0.208226,0.154754,0.360011,0.000000,0.000000,0.000000,0.000000,0.000000,0.000000,0.000000,0.000000,0.000000,0.000000,0.000000,0.000000,0.036935,3,0
1560000,-0.006946,40.353172,-0.032451,-0.017739,26.085596,-0.018470,0.003910,0.038051,1.571695,-0.070328,0.005017,-0.006490,-0.001072,-0.009922,0.000061,0.000009,0.007196,0.001064,-0.001298,0.208472,0.208427,0.154437,0.358463,0.000000,0.000000,0.000000,0.000000,0.000000,0.000000,0.000000,0.000000,0.000000,0.000000,0.000000,0.000000,0.007022,3,0
1570000,-0.006879,40.614033,-0.033400,-0.017442,26.090117,-0.019637,0.003961,0.038151,1.571697,-0.070321,0.005058,-0.006183,-0.001088,-0.009921,0.000061,0.000152,0.007125,-0.001450,-0.029713,0.208677,0.208630,0.154123,0.356961,0.000000,0.000000,0.000000,0.000000,0.000000,0.000000,0.000000,0.000000,0.000000,0.000000,0.000000,0.000000,0.007021,3,0
1580000,-0.006809,40.873470,-0.034471,-0.017032,26.091875,-0.021023,0.004022,0.038010,1.571714,-0.070078,0.005099,-0.005819,-0.001104,-0.009822,0.000061,0.000507,0.007053,-0.043686,-0.034356,0.208882,0.208835,0.153812,0.355502,0.000000,0.000000,0.000000,0.000000,0.000000,0.000000,0.000000,0.000000,0.000000,0.000000,0.000000,0.000000,0.042721,3,0
1590000,-0.006735,41.133560,-0.033909,-0.016604,26.094887,-0.020442,0.004085,0.037965,1.571730,-0.069939,0.005136,-0.006126,-0.001121,-0.009762,0.000061,0.000254,0.006980,-0.024834,0.030063,0.209089,0.209040,0.153505,0.354086,0.000000,0.000000,0.000000,0.000000,0.000000,0.000000,0.000000,0.000000,0.000000,0.000000,0.000000,0.000000,0.024889,3,0
1600000,-0.006659,41.392227,-0.032658,-0.016254,26.095196,-0.018862,0.004138,0.037685,1.571746,-0.069572,0.005172,-0.006703,-0.001138,-0.009603,0.000060,0.001232,0.006902,-0.066288,0.056445,0.209297,0.209247,0.153202,0.352711,0.000000,0.000000,0.000000,0.000000,0.000000,0.000000,0.000000,0.000000,0.000000,0.000000,0.000000,0.000000,0.064307,3,0
1610000,-0.006584,41.650898,-0.032577,-0.015924,26.095545,-0.018848,0.004191,0.037399,1.571763,-0.069210,0.005209,-0.006795,-0.001154,-0.009445,0.000060,0.000736,0.006823,-0.066532,0.010088,0.209506,0.209454,0.152902,0.351377,0.000000,0.000000,0.000000,0.000000,0.000000,0.000000,0.000000,0.000000,0.000000,0.000000,0.000000,0.000000,0.064542,3,0
1620000,-0.006509,41.908176,-0.032846,-0.015594,26.093248,-0.019150,0.004240,0.036889,1.571774,-0.068635,0.005245,-0.006728,-0.001170,-0.009192,0.000058,0.001836,0.006745,-0.106537,-0.004136,0.209716,0.209662,0.152605,0.350081,0.000000,0.000000,0.000000,0.000000,0.000000,0.000000,0.000000,0.000000,0.000000,0.000000,0.000000,0.000000,0.103020,3,0
1630000,-0.006434,42.167557,-0.033105,-0.015321,26.094830,-0.019273,0.004296,0.036714,1.571781,-0.068391,0.005281,-0.006686,-0.001186,-0.009083,0.000058,0.000345,0.006667,-0.045734,-0.003069,0.209926,0.209871,0.152313,0.348823,0.000000,0.000000,0.000000,0.000000,0.000000,0.000000,0.000000,0.000000,0.000000,0.000000,0.000000,0.000000,0.044603,3,0
1640000,-0.006357,42.426922,-0.033833,-0.014934,26.096294,-0.020168,0.004352,0.036551,1.571784,-0.068145,0.005316,-0.006447,-0.001201,-0.008973,0.000058,0.000433,0.006587,-0.046700,-0.021519,0.210137,0.210081,0.152024,0.347601,0.000000,0.000000,0.000000,0.000000,0.000000,0.000000,0.000000,0.000000,0.000000,0.000000,0.000000,0.000000,0.045517,3,0
1650000,-0.006278,42.689037,-0.033319,-0.014538,26.102707,-0.019463,0.004403,0.036832,1.571786,-0.068311,0.005349,-0.006760,-0.001217,-0.009048,0.000058,0.000304,0.006507,0.031864,0.028677,0.210349,0.210291,0.151739,0.346414,0.000000,0.000000,0.000000,0.000000,0.000000,0.000000,0.000000,0.000000,0.000000,0.000000,0.000000,0.000000,0.031388,3,0
1660000,-0.006199,42.951103,-0.033994,-0.014131,26.109055,-0.020492,0.004451,0.037083,1.571789,-0.068457,0.005383,-0.006568,-0.001233,-0.009117,0.000059,0.000190,0.006423,0.028107,-0.018567,0.210560,0.210501,0.151458,0.345263,0.000000,0.000000,0.000000,0.000000,0.000000,0.000000,0.000000,0.000000,0.000000,0.000000,0.000000,0.000000,0.027814,3,0
1670000,-0.006116,43.212387,-0.033232,-0.013717,26.113754,-0.019449,0.004507,0.037197,1.571797,-0.068479,0.005415,-0.006981,-0.001248,-0.009125,0.000059,0.000250,0.006340,0.004524,0.038462,0.210772,0.210711,0.151181,0.344144,0.000000,0.000000,0.000000,0.000000,0.000000,0.000000,0.000000,0.000000,0.000000,0.000000,0.000000,0.000000,0.007520,3,0
1680000,-0.006035,43.475033,-0.034361,-0.013338,26.120966,-0.020657,0.004567,0.037536,1.571803,-0.068690,0.005448,-0.006596,-0.001264,-0.009230,0.000060,0.000500,0.006253,0.041378,-0.036669,0.210984,0.210922,0.150907,0.343059,0.000000,0.000000,0.000000,0.000000,0.000000,0.000000,0.000000,0.000000,0.000000,0.000000,0.000000,0.000000,0.040367,3,0
1690000,-0.005951,43.732689,-0.033683,-0.013062,26.118917,-0.019952,0.004620,0.037024,1.571822,-0.068176,0.005477,-0.006941,-0.001279,-0.008975,0.000059,0.001871,0.006169,-0.102070,0.034207,0.211196,0.211132,0.150638,0.342006,0.000000,0.000000,0.000000,0.000000,0.000000,0.000000,0.000000,0.000000,0.000000,0.000000,0.000000,0.000000,0.098648,3,0
1700000,-0.005869,43.993862,-0.034265,-0.012811,26.123348,-0.020799,0.004671,0.037108,1.571830,-0.068168,0.005508,-0.006777,-0.001294,-0.008972,0.000059,0.000044,0.006083,-0.001881,-0.015131,0.211407,0.211342,0.150372,0.340982,0.000000,0.000000,0.000000,0.000000,0.000000,0.000000,0.000000,0.000000,0.000000,0.000000,0.000000,0.000000,0.006145,3,0
1710000,-0.005784,44.255669,-0.033823,-0.012378,26.128788,-0.020171,0.004725,0.037290,1.571845,-0.068241,0.005536,-0.007066,-0.001309,-0.009007,0.000059,0.000155,0.005997,0.015205,0.026202,0.211618,0.211551,0.150111,0.339988,0.000000,0.000000,0.000000,0.000000,0.000000,0.000000,0.000000,0.000000,0.000000,0.000000,0.000000,0.000000,0.015778,3,0
