time_us,pos_x,pos_y,pos_z,vel_x,vel_y,vel_z,roll,pitch,yaw,bias_ax,bias_ay,bias_az,bias_gx,bias_gy,bias_gz,nis,innov_x,innov_y,innov_z,cov_pos_x,cov_pos_y,cov_pos_z,cov_yaw,des_speed,des_heading,des_climb,pid_speed,pid_yaw,pid_alt,speed_meas,yaw_meas,climb_meas,fwd_accel,yaw_rate,vert_accel,drift_m,nav_mode,mission_state
0,-0.000003,0.150001,-0.000001,-0.000452,25.000208,-0.000179,-0.000007,0.000008,1.570788,0.000000,0.000000,0.000000,0.000000,0.000000,0.000000,0.006250,0.000005,-0.250005,0.000002,2.400038,2.400038,3.600017,1.000518,0.000000,0.000000,0.000000,0.000000,0.000000,0.000000,0.000000,0.000000,0.000000,0.000000,0.000000,0.000000,0.150001,1,0
10000,-0.000008,0.399313,-0.009870,-0.000793,25.000526,-0.000557,-0.000014,0.000004,1.570781,0.000000,0.000000,0.000000,0.000000,0.000000,0.000000,0.000073,0.000011,-0.002428,-0.026302,1.714420,1.714420,2.250079,1.001073,0.000000,0.000000,0.000000,0.000000,0.000000,0.000000,0.000000,0.000000,0.000000,0.000000,0.000000,0.000000,0.001734,3,0
20000,-0.000015,0.650807,0.004405,-0.001229,25.000902,-0.000687,-0.000013,0.000006,1.570773,-0.000000,0.000000,-0.000000,-0.000000,-0.000000,0.000000,0.000338,0.000020,0.006683,0.052362,1.333616,1.333616,1.636554,1.001655,0.000000,0.000000,0.000000,0.000000,0.000000,0.000000,0.000000,0.000000,0.000000,0.000000,0.000000,0.000000,0.005197,3,0
30000,-0.000026,0.892447,0.002252,-0.001597,25.001072,-0.000755,-0.000019,0.000020,1.570755,0.000001,0.000000,-0.000000,-0.000000,0.000000,-0.000000,0.000302,0.000031,-0.046026,-0.010007,1.091392,1.091392,1.286065,1.002257,0.000000,0.000000,0.000000,0.000000,0.000000,0.000000,0.000000,0.000000,0.000000,0.000000,0.000000,0.000000,0.037654,3,0
40000,-0.000038,1.131838,0.003311,-0.001957,25.001181,-0.001085,-0.000027,0.000032,1.570744,0.000003,0.000000,-0.000000,-0.000000,0.000000,-0.000000,0.000676,0.000045,-0.069001,0.006057,0.923811,0.923811,1.059385,1.002869,0.000000,0.000000,0.000000,0.000000,0.000000,0.000000,0.000000,0.000000,0.000000,0.000000,0.000000,0.000000,0.058377,3,0
50000,-0.000053,1.383145,0.000626,-0.002302,25.001638,-0.001281,-0.000032,0.000040,1.570732,0.000002,0.000000,0.000000,-0.000000,0.000000,-0.000000,0.000058,0.000061,0.009670,-0.017802,0.801036,0.801036,0.900822,1.003484,0.000000,0.000000,0.000000,0.000000,0.000000,0.000000,0.000000,0.000000,0.000000,0.000000,0.000000,0.000000,0.008379,3,0
60000,-0.000071,1.642173,-0.004416,-0.002715,25.002453,-0.001669,-0.000042,0.000055,1.570727,-0.000002,0.000000,0.000003,0.000000,-0.000000,0.000000,0.001073,0.000080,0.076422,-0.038489,0.707270,0.707270,0.783741,1.004094,0.000000,0.000000,0.000000,0.000000,0.000000,0.000000,0.000000,0.000000,0.000000,0.000000,0.000000,0.000000,0.067413,3,0
70000,-0.000091,1.900204,-0.003719,-0.003104,25.003353,-0.001778,-0.000040,0.000065,1.570723,-0.000008,0.000000,0.000002,-0.000000,-0.000000,0.000000,0.000862,0.000102,0.075811,0.006183,0.633370,0.633370,0.693801,1.004688,0.000000,0.000000,0.000000,0.000000,0.000000,0.000000,0.000000,0.000000,0.000000,0.000000,0.000000,0.000000,0.067808,3,0
80000,-0.000114,2.149925,-0.007218,-0.003489,25.003717,-0.002186,-0.000052,0.000071,1.570714,-0.000008,0.000000,0.000005,-0.000000,-0.000000,0.000000,0.000170,0.000126,-0.003319,-0.033531,0.573673,0.573673,0.622594,1.005260,0.000000,0.000000,0.000000,0.000000,0.000000,0.000000,0.000000,0.000000,0.000000,0.000000,0.000000,0.000000,0.003004,3,0
90000,-0.000140,2.405650,-0.010737,-0.003960,25.004749,-0.002602,-0.000056,0.000075,1.570704,-0.000016,0.000000,0.000010,-0.000000,-0.000000,0.000000,0.000851,0.000154,0.065019,-0.037136,0.524488,0.524488,0.564865,1.005801,0.000000,0.000000,0.000000,0.000000,0.000000,0.000000,0.000000,0.000000,0.000000,0.000000,0.000000,0.000000,0.059336,3,0
100000,-0.000169,2.653149,-0.013282,-0.004312,25.004835,-0.003273,-0.000064,0.000086,1.570696,-0.000011,0.000000,0.000014,-0.000000,-0.000000,0.000000,0.000283,0.000183,-0.031684,-0.029170,0.483303,0.483303,0.517162,1.006301,0.000000,0.000000,0.000000,0.000000,0.000000,0.000000,0.000000,0.000000,0.000000,0.000000,0.000000,0.000000,0.029133,3,0
110000,-0.000199,2.901651,-0.010649,-0.004659,25.005074,-0.003184,-0.000068,0.000085,1.570678,-0.000007,0.000000,0.000008,-0.000000,-0.000000,0.000000,0.000239,0.000215,-0.020759,0.033544,0.448353,0.448353,0.477121,1.006754,0.000000,0.000000,0.000000,0.000000,0.000000,0.000000,0.000000,0.000000,0.000000,0.000000,0.000000,0.000000,0.019209,3,0
120000,-0.000232,3.152337,-0.010231,-0.005029,25.005648,-0.003479,-0.000077,0.000096,1.570674,-0.000009,0.000000,0.000007,-0.000000,-0.000000,0.000000,0.000019,0.000249,0.009041,0.006139,0.418358,0.418358,0.443071,1.007150,0.000000,0.000000,0.000000,0.000000,0.000000,0.000000,0.000000,0.000000,0.000000,0.000000,0.000000,0.000000,0.008414,3,0
130000,-0.000267,3.399594,-0.010512,-0.005372,25.005501,-0.003895,-0.000075,0.000091,1.570665,0.000002,0.000000,0.000008,-0.000000,0.000000,-0.000000,0.000288,0.000286,-0.042860,-0.003515,0.392369,0.392369,0.413797,1.007481,0.000000,0.000000,0.000000,0.000000,0.000000,0.000000,0.000000,0.000000,0.000000,0.000000,0.000000,0.000000,0.040058,3,0
140000,-0.000305,3.657500,-0.011864,-0.005785,25.007633,-0.004379,-0.000078,0.000099,1.570654,-0.000036,0.000000,0.000014,-0.000000,-0.000001,0.000000,0.002600,0.000325,0.127340,-0.020237,0.369666,0.369666,0.388393,1.007739,0.000000,0.000000,0.000000,0.000000,0.000000,0.000000,0.000000,0.000000,0.000000,0.000000,0.000000,0.000000,0.119495,3,0
150000,-0.000345,3.908080,-0.008498,-0.006109,25.008249,-0.003998,-0.000094,0.000111,1.570640,-0.000039,0.000000,-0.000005,-0.000000,-0.000001,0.000000,0.000501,0.000366,0.008565,0.055917,0.349695,0.349695,0.366172,1.007915,0.000000,0.000000,0.000000,0.000000,0.000000,0.000000,0.000000,0.000000,0.000000,0.000000,0.000000,0.000000,0.008074,3,0
160000,-0.000388,4.164576,-0.007692,-0.006561,25.010456,-0.003954,-0.000106,0.000122,1.570638,-0.000083,0.000001,-0.000010,-0.000000,-0.000002,0.000000,0.002145,0.000410,0.115799,0.014688,0.332020,0.332020,0.346600,1.008002,0.000000,0.000000,0.000000,0.000000,0.000000,0.000000,0.000000,0.000000,0.000000,0.000000,0.000000,0.000000,0.109392,3,0
170000,-0.000432,4.418794,-0.005124,-0.006857,25.012074,-0.003506,-0.000123,0.000139,1.570631,-0.000116,0.000001,-0.000030,-0.000000,-0.000002,0.000000,0.001316,0.000456,0.077951,0.047555,0.316297,0.316297,0.329260,1.007991,0.000000,0.000000,0.000000,0.000000,0.000000,0.000000,0.000000,0.000000,0.000000,0.000000,0.000000,0.000000,0.073843,3,0
180000,-0.000480,4.675060,-0.002852,-0.007319,25.014553,-0.002955,-0.000140,0.000162,1.570621,-0.000174,0.000001,-0.000051,-0.000000,-0.000004,0.000000,0.002660,0.000506,0.121900,0.044135,0.302246,0.302246,0.313817,1.007875,0.000000,0.000000,0.000000,0.000000,0.000000,0.000000,0.000000,0.000000,0.000000,0.000000,0.000000,0.000000,0.115760,3,0
190000,-0.000530,4.925440,-0.001640,-0.007680,25.015163,-0.002660,-0.000138,0.000171,1.570602,-0.000177,0.000001,-0.000064,-0.000000,-0.000004,0.000000,0.000101,0.000557,0.004761,0.024851,0.289641,0.289641,0.300003,1.007645,0.000000,0.000000,0.000000,0.000000,0.000000,0.000000,0.000000,0.000000,0.000000,0.000000,0.000000,0.000000,0.004562,3,0
200000,-0.000583,5.180799,-0.002183,-0.008153,25.017569,-0.003222,-0.000145,0.000187,1.570592,-0.000242,0.000002,-0.000057,-0.000000,-0.000006,0.000000,0.002019,0.000612,0.112196,-0.010685,0.278295,0.278295,0.287598,1.007295,0.000000,0.000000,0.000000,0.000000,0.000000,0.000000,0.000000,0.000000,0.000000,0.000000,0.000000,0.000000,0.106994,3,0
210000,-0.000638,5.431687,-0.000681,-0.008482,25.018345,-0.002753,-0.000155,0.000198,1.570587,-0.000252,0.000002,-0.000078,-0.000000,-0.000006,0.000000,0.000217,0.000668,0.015843,0.033325,0.268053,0.268053,0.276421,1.006816,0.000000,0.000000,0.000000,0.000000,0.000000,0.000000,0.000000,0.000000,0.000000,0.000000,0.000000,0.000000,0.015149,3,0
220000,-0.000697,5.685456,-0.002391,-0.008953,25.020538,-0.003672,-0.000168,0.000230,1.570575,-0.000310,0.000003,-0.000052,-0.000000,-0.000008,0.000000,0.001327,0.000728,0.083009,-0.037850,0.258787,0.258787,0.266321,1.006202,0.000000,0.000000,0.000000,0.000000,0.000000,0.000000,0.000000,0.000000,0.000000,0.000000,0.000000,0.000000,0.079432,3,0
230000,-0.000758,5.940152,-0.000827,-0.009428,25.023123,-0.003085,-0.000170,0.000262,1.570569,-0.000392,0.000003,-0.000080,-0.000000,-0.000010,0.000000,0.002069,0.000791,0.107525,0.037361,0.250385,0.250385,0.257172,1.005446,0.000000,0.000000,0.000000,0.000000,0.000000,0.000000,0.000000,0.000000,0.000000,0.000000,0.000000,0.000000,0.103041,3,0
240000,-0.000823,6.194888,-0.001343,-0.009892,25.025930,-0.003740,-0.000179,0.000287,1.570555,-0.000484,0.000004,-0.000071,-0.000000,-0.000014,0.000000,0.002000,0.000857,0.111229,-0.011583,0.242755,0.242755,0.248866,1.004541,0.000000,0.000000,0.000000,0.000000,0.000000,0.000000,0.000000,0.000000,0.000000,0.000000,0.000000,0.000000,0.106732,3,0
250000,-0.000889,6.445760,-0.000499,-0.010265,25.026690,-0.003473,-0.000180,0.000304,1.570552,-0.000498,0.000005,-0.000090,-0.000000,-0.000014,0.000000,0.000116,0.000925,0.015497,0.021962,0.235818,0.235818,0.241314,1.003481,0.000000,0.000000,0.000000,0.000000,0.000000,0.000000,0.000000,0.000000,0.000000,0.000000,0.000000,0.000000,0.014914,3,0
260000,-0.000957,6.698434,-0.001691,-0.010556,25.028662,-0.004353,-0.000191,0.000326,1.570551,-0.000558,0.000006,-0.000062,-0.000000,-0.000016,0.000000,0.000772,0.000995,0.062800,-0.029559,0.229504,0.229504,0.234436,1.002258,0.000000,0.000000,0.000000,0.000000,0.000000,0.000000,0.000000,0.000000,0.000000,0.000000,0.000000,0.000000,0.060405,3,0
270000,-0.001026,6.952763,-0.002076,-0.010874,25.031715,-0.004830,-0.000193,0.000358,1.570540,-0.000670,0.000007,-0.000053,-0.000000,-0.000021,0.000000,0.001895,0.001066,0.108291,-0.008911,0.223754,0.223754,0.228165,1.000869,0.000000,0.000000,0.000000,0.000000,0.000000,0.000000,0.000000,0.000000,0.000000,0.000000,0.000000,0.000000,0.104257,3,0
280000,-0.001096,7.207177,-0.002673,-0.011145,25.035063,-0.005522,-0.000209,0.000409,1.570529,-0.000794,0.000008,-0.000037,-0.000000,-0.000025,0.000000,0.002062,0.001138,0.112356,-0.014709,0.218515,0.218515,0.222443,0.999307,0.000000,0.000000,0.000000,0.000000,0.000000,0.000000,0.000000,0.000000,0.000000,0.000000,0.000000,0.000000,0.108270,3,0
290000,-0.001169,7.459553,-0.001098,-0.011586,25.037035,-0.004684,-0.000209,0.000441,1.570522,-0.000861,0.000009,-0.000090,-0.000000,-0.000028,0.000000,0.000844,0.001213,0.056697,0.045107,0.213743,0.213743,0.217219,0.997567,0.000000,0.000000,0.000000,0.000000,0.000000,0.000000,0.000000,0.000000,0.000000,0.000000,0.000000,0.000000,0.054690,3,0
300000,-0.001245,7.712811,-0.001338,-0.012045,25.039753,-0.004954,-0.000223,0.000487,1.570505,-0.000964,0.000011,-0.000083,-0.000000,-0.000033,0.000000,0.001103,0.001290,0.082607,-0.005401,0.209398,0.209398,0.212446,0.995645,0.000000,0.000000,0.000000,0.000000,0.000000,0.000000,0.000000,0.000000,0.000000,0.000000,0.000000,0.000000,0.079734,3,0
310000,-0.001322,7.964857,-0.000301,-0.012389,25.041555,-0.004502,-0.000230,0.000511,1.570490,-0.001028,0.000013,-0.000125,-0.000000,-0.000035,0.000000,0.000530,0.001369,0.047989,0.031427,0.205443,0.205443,0.208087,0.993536,0.000000,0.000000,0.000000,0.000000,0.000000,0.000000,0.000000,0.000000,0.000000,0.000000,0.000000,0.000000,0.046365,3,0
320000,-0.001402,8.219780,0.000569,-0.012787,25.045849,-0.004043,-0.000234,0.000572,1.570473,-0.001218,0.000015,-0.000163,-0.000001,-0.000044,0.000000,0.003004,0.001451,0.133868,0.026972,0.201846,0.201846,0.204105,0.991237,0.000000,0.000000,0.000000,0.000000,0.000000,0.000000,0.000000,0.000000,0.000000,0.000000,0.000000,0.000000,0.129373,3,0
330000,-0.001484,8.472814,0.000894,-0.013227,25.048576,-0.003901,-0.000245,0.000607,1.570471,-0.001334,0.000017,-0.000179,-0.000001,-0.000050,0.000000,0.000993,0.001535,0.077691,0.010987,0.198581,0.198581,0.200469,0.988744,0.000000,0.000000,0.000000,0.000000,0.000000,0.000000,0.000000,0.000000,0.000000,0.000000,0.000000,0.000000,0.075135,3,0
340000,-0.001568,8.729254,0.000247,-0.013641,25.054674,-0.004564,-0.000245,0.000714,1.570467,-0.001623,0.000020,-0.000150,-0.000001,-0.000064,0.000000,0.005422,0.001621,0.182449,-0.018460,0.195621,0.195621,0.197151,0.986054,0.000000,0.000000,0.000000,0.000000,0.000000,0.000000,0.000000,0.000000,0.000000,0.000000,0.000000,0.000000,0.176508,3,0
350000,-0.001653,8.985736,0.000402,-0.013947,25.060984,-0.004596,-0.000260,0.000827,1.570458,-0.001931,0.000023,-0.000160,-0.000001,-0.000079,0.000000,0.005490,0.001708,0.184374,0.006261,0.192942,0.192942,0.194125,0.983164,0.000000,0.000000,0.000000,0.000000,0.000000,0.000000,0.000000,0.000000,0.000000,0.000000,0.000000,0.000000,0.178453,3,0
360000,-0.001740,9.241004,-0.000219,-0.014344,25.066229,-0.005287,-0.000266,0.000908,1.570453,-0.002188,0.000026,-0.000129,-0.000001,-0.000093,0.000000,0.003516,0.001797,0.146496,-0.017954,0.190526,0.190526,0.191370,0.980074,0.000000,0.000000,0.000000,0.000000,0.000000,0.000000,0.000000,0.000000,0.000000,0.000000,0.000000,0.000000,0.141854,3,0
370000,-0.001828,9.495121,-0.001676,-0.014648,25.070389,-0.006855,-0.000263,0.000971,1.570435,-0.002390,0.000029,-0.000047,-0.000001,-0.000103,0.000000,0.002269,0.001887,0.109844,-0.044537,0.188351,0.188351,0.188863,0.976780,0.000000,0.000000,0.000000,0.000000,0.000000,0.000000,0.000000,0.000000,0.000000,0.000000,0.000000,0.000000,0.106411,3,0
380000,-0.001917,9.748140,-0.000721,-0.015019,25.073467,-0.005945,-0.000266,0.001015,1.570434,-0.002534,0.000033,-0.000111,-0.000002,-0.000111,0.000000,0.001069,0.001979,0.074354,0.032962,0.186402,0.186402,0.186586,0.973283,0.000000,0.000000,0.000000,0.000000,0.000000,0.000000,0.000000,0.000000,0.000000,0.000000,0.000000,0.000000,0.072070,3,0
390000,-0.002008,10.006228,-0.000725,-0.015372,25.082186,-0.006009,-0.000267,0.001188,1.570420,-0.003017,0.000037,-0.000115,-0.000002,-0.000139,0.000001,0.009210,0.002072,0.238762,0.001830,0.184663,0.184663,0.184522,0.969582,0.000000,0.000000,0.000000,0.000000,0.000000,0.000000,0.000000,0.000000,0.000000,0.000000,0.000000,0.000000,0.231423,3,0
400000,-0.002099,10.260712,-0.000747,-0.015622,25.087019,-0.006251,-0.000273,0.001282,1.570399,-0.003271,0.000042,-0.000118,-0.000002,-0.000153,0.000001,0.002318,0.002165,0.119737,0.001359,0.183118,0.183118,0.182656,0.965677,0.000000,0.000000,0.000000,0.000000,0.000000,0.000000,0.000000,0.000000,0.000000,0.000000,0.000000,0.000000,0.116101,3,0
410000,-0.002190,10.518343,-0.000298,-0.015866,25.095486,-0.005899,-0.000283,0.001455,1.570394,-0.003764,0.000046,-0.000155,-0.000002,-0.000183,0.000001,0.008087,0.002258,0.223028,0.017049,0.181755,0.181755,0.180971,0.961568,0.000000,0.000000,0.000000,0.000000,0.000000,0.000000,0.000000,0.000000,0.000000,0.000000,0.000000,0.000000,0.216283,3,0
420000,-0.002282,10.773643,0.001245,-0.016212,25.101271,-0.004551,-0.000298,0.001567,1.570378,-0.004096,0.000052,-0.000279,-0.000003,-0.000203,0.000001,0.003829,0.002353,0.144222,0.053687,0.180561,0.180561,0.179456,0.957257,0.000000,0.000000,0.000000,0.000000,0.000000,0.000000,0.000000,0.000000,0.000000,0.000000,0.000000,0.000000,0.139901,3,0
430000,-0.002374,11.028474,0.002126,-0.016475,25.106611,-0.003599,-0.000300,0.001667,1.570374,-0.004401,0.000058,-0.000354,-0.000003,-0.000222,0.000001,0.002784,0.002448,0.127410,0.031284,0.179523,0.179523,0.178097,0.952745,0.000000,0.000000,0.000000,0.000000,0.000000,0.000000,0.000000,0.000000,0.000000,0.000000,0.000000,0.000000,0.123621,3,0
440000,-0.002468,11.285812,0.000846,-0.016794,25.115187,-0.005095,-0.000305,0.001844,1.570355,-0.004926,0.000064,-0.000249,-0.000003,-0.000256,0.000001,0.007452,0.002543,0.210468,-0.042196,0.178633,0.178633,0.176883,0.948035,0.000000,0.000000,0.000000,0.000000,0.000000,0.000000,0.000000,0.000000,0.000000,0.000000,0.000000,0.000000,0.204217,3,0
450000,-0.002562,11.544418,0.001149,-0.017151,25.125517,-0.004838,-0.000309,0.002079,1.570349,-0.005577,0.000071,-0.000280,-0.000004,-0.000299,0.000001,0.010232,0.002640,0.251227,0.012172,0.177879,0.177879,0.175803,0.943129,0.000000,0.000000,0.000000,0.000000,0.000000,0.000000,0.000000,0.000000,0.000000,0.000000,0.000000,0.000000,0.243793,3,0
460000,-0.002657,11.799571,0.000286,-0.017509,25.131443,-0.006121,-0.000312,0.002211,1.570329,-0.005931,0.000078,-0.000206,-0.000004,-0.000323,0.000001,0.002931,0.002738,0.131669,-0.027848,0.177252,0.177252,0.174847,0.938030,0.000000,0.000000,0.000000,0.000000,0.000000,0.000000,0.000000,0.000000,0.000000,0.000000,0.000000,0.000000,0.127807,3,0
470000,-0.002752,12.054866,0.001177,-0.017724,25.137581,-0.005051,-0.000314,0.002340,1.570319,-0.006306,0.000086,-0.000297,-0.000005,-0.000349,0.000001,0.003119,0.002835,0.134884,0.032895,0.176742,0.176742,0.174006,0.932742,0.000000,0.000000,0.000000,0.000000,0.000000,0.000000,0.000000,0.000000,0.000000,0.000000,0.000000,0.000000,0.130940,3,0
480000,-0.002848,12.312056,0.001481,-0.018096,25.146393,-0.005025,-0.000311,0.002546,1.570312,-0.006875,0.000094,-0.000333,-0.000006,-0.000389,0.000002,0.006342,0.002934,0.197589,0.012438,0.176343,0.176343,0.173271,0.927269,0.000000,0.000000,0.000000,0.000000,0.000000,0.000000,0.000000,0.000000,0.000000,0.000000,0.000000,0.000000,0.191803,3,0
490000,-0.002943,12.571108,0.001289,-0.018314,25.157944,-0.005454,-0.000323,0.002818,1.570292,-0.007645,0.000103,-0.000319,-0.000006,-0.000445,0.000002,0.010805,0.003032,0.258373,-0.004809,0.176046,0.176046,0.172634,0.921616,0.000000,0.000000,0.000000,0.000000,0.000000,0.000000,0.000000,0.000000,0.000000,0.000000,0.000000,0.000000,0.250810,3,0
500000,-0.003038,12.827332,0.001508,-0.018501,25.165342,-0.005285,-0.000325,0.002999,1.570287,-0.008131,0.000113,-0.000349,-0.000007,-0.000481,0.000002,0.004067,0.003130,0.158237,0.009615,0.175842,0.175842,0.172087,0.915787,0.000000,0.000000,0.000000,0.000000,0.000000,0.000000,0.000000,0.000000,0.000000,0.000000,0.000000,0.000000,0.153630,3,0
510000,-0.003132,13.085437,0.002625,-0.018760,25.175570,-0.004106,-0.000328,0.003253,1.570268,-0.008829,0.000123,-0.000481,-0.000008,-0.000533,0.000002,0.008105,0.003227,0.220001,0.041063,0.175727,0.175727,0.171622,0.909788,0.000000,0.000000,0.000000,0.000000,0.000000,0.000000,0.000000,0.000000,0.000000,0.000000,0.000000,0.000000,0.213581,3,0
520000,-0.003226,13.341902,0.003809,-0.018987,25.183338,-0.002672,-0.000333,0.003446,1.570250,-0.009354,0.000133,-0.000622,-0.000009,-0.000574,0.000002,0.004474,0.003323,0.160583,0.043024,0.175692,0.175692,0.171234,0.903624,0.000000,0.000000,0.000000,0.000000,0.000000,0.000000,0.000000,0.000000,0.000000,0.000000,0.000000,0.000000,0.155915,3,0
530000,-0.003320,13.600832,0.002901,-0.019294,25.194946,-0.003915,-0.000347,0.003736,1.570230,-0.010169,0.000145,-0.000518,-0.000009,-0.000638,0.000003,0.009630,0.003420,0.241982,-0.030911,0.175731,0.175731,0.170914,0.897303,0.000000,0.000000,0.000000,0.000000,0.000000,0.000000,0.000000,0.000000,0.000000,0.000000,0.000000,0.000000,0.234917,3,0
540000,-0.003415,13.856369,0.002286,-0.019561,25.201309,-0.005060,-0.000341,0.003892,1.570210,-0.010591,0.000157,-0.000448,-0.000010,-0.000672,0.000003,0.002479,0.003518,0.122087,-0.020082,0.175839,0.175839,0.170658,0.890829,0.000000,0.000000,0.000000,0.000000,0.000000,0.000000,0.000000,0.000000,0.000000,0.000000,0.000000,0.000000,0.118558,3,0
550000,-0.003507,14.112055,0.002075,-0.019724,25.207838,-0.005464,-0.000335,0.004066,1.570197,-0.011036,0.000170,-0.000428,-0.000011,-0.000709,0.000003,0.002531,0.003613,0.124913,-0.005572,0.176009,0.176009,0.170460,0.884210,0.000000,0.000000,0.000000,0.000000,0.000000,0.000000,0.000000,0.000000,0.000000,0.000000,0.000000,0.000000,0.121300,3,0
560000,-0.003600,14.369059,0.002147,-0.019939,25.216536,-0.005542,-0.000329,0.004292,1.570185,-0.011647,0.000183,-0.000445,-0.000013,-0.000761,0.000003,0.004536,0.003709,0.167345,0.004579,0.176237,0.176237,0.170314,0.877454,0.000000,0.000000,0.000000,0.000000,0.000000,0.000000,0.000000,0.000000,0.000000,0.000000,0.000000,0.000000,0.162470,3,0
570000,-0.003692,14.625611,0.001345,-0.020202,25.224426,-0.006640,-0.000332,0.004495,1.570166,-0.012205,0.000197,-0.000346,-0.000014,-0.000808,0.000003,0.003696,0.003803,0.148801,-0.026282,0.176516,0.176516,0.170214,0.870566,0.000000,0.000000,0.000000,0.000000,0.000000,0.000000,0.000000,0.000000,0.000000,0.000000,0.000000,0.000000,0.144471,3,0
580000,-0.003783,14.882891,0.000529,-0.020465,25.233475,-0.008143,-0.000328,0.004748,1.570162,-0.012860,0.000212,-0.000244,-0.000015,-0.000866,0.000004,0.004815,0.003898,0.170474,-0.026245,0.176844,0.176844,0.170157,0.863555,0.000000,0.000000,0.000000,0.000000,0.000000,0.000000,0.000000,0.000000,0.000000,0.000000,0.000000,0.000000,0.165492,3,0
590000,-0.003874,15.142062,0.000146,-0.020711,25.245426,-0.008850,-0.000328,0.005095,1.570156,-0.013769,0.000227,-0.000203,-0.000016,-0.000947,0.000004,0.008664,0.003992,0.231168,-0.010493,0.177213,0.177213,0.170138,0.856429,0.000000,0.000000,0.000000,0.000000,0.000000,0.000000,0.000000,0.000000,0.000000,0.000000,0.000000,0.000000,0.224374,3,0
600000,-0.003965,15.400168,-0.001100,-0.020927,25.255735,-0.010573,-0.000321,0.005397,1.570145,-0.014536,0.000244,-0.000036,-0.000018,-0.001017,0.000004,0.006144,0.004086,0.190542,-0.040750,0.177622,0.177622,0.170152,0.849194,0.000000,0.000000,0.000000,0.000000,0.000000,0.000000,0.000000,0.000000,0.000000,0.000000,0.000000,0.000000,0.184944,3,0
610000,-0.004055,15.658399,-0.001085,-0.021210,25.266153,-0.010662,-0.000327,0.005689,1.570129,-0.015321,0.000261,-0.000055,-0.000019,-0.001090,0.000004,0.005891,0.004179,0.190758,0.004395,0.178064,0.178064,0.170196,0.841859,0.000000,0.000000,0.000000,0.000000,0.000000,0.000000,0.000000,0.000000,0.000000,0.000000,0.000000,0.000000,0.185141,3,0
620000,-0.004144,15.917343,-0.001816,-0.021416,25.277721,-0.011780,-0.000319,0.006039,1.570112,-0.016208,0.000279,0.000038,-0.000021,-0.001174,0.000005,0.007261,0.004271,0.210729,-0.021882,0.178537,0.178537,0.170265,0.834433,0.000000,0.000000,0.000000,0.000000,0.000000,0.000000,0.000000,0.000000,0.000000,0.000000,0.000000,0.000000,0.204500,3,0
630000,-0.004232,16.176403,-0.002016,-0.021615,25.289396,-0.011995,-0.000314,0.006389,1.570107,-0.017110,0.000297,0.000050,-0.000023,-0.001261,0.000005,0.007141,0.004363,0.210093,-0.002822,0.179036,0.179036,0.170356,0.826923,0.000000,0.000000,0.000000,0.000000,0.000000,0.000000,0.000000,0.000000,0.000000,0.000000,0.000000,0.000000,0.203867,3,0
640000,-0.004319,16.436764,-0.001928,-0.021738,25.303131,-0.012105,-0.000310,0.006819,1.570081,-0.018202,0.000316,0.000015,-0.000025,-0.001368,0.000006,0.010045,0.004452,0.249100,0.007532,0.179558,0.179558,0.170465,0.819337,0.000000,0.000000,0.000000,0.000000,0.000000,0.000000,0.000000,0.000000,0.000000,0.000000,0.000000,0.000000,0.241684,3,0
650000,-0.004403,16.697224,-0.001419,-0.021900,25.316889,-0.011380,-0.000303,0.007248,1.570063,-0.019306,0.000336,-0.000088,-0.000027,-0.001478,0.000006,0.009949,0.004540,0.247030,0.022320,0.180101,0.180100,0.170591,0.811683,0.000000,0.000000,0.000000,0.000000,0.000000,0.000000,0.000000,0.000000,0.000000,0.000000,0.000000,0.000000,0.239655,3,0
660000,-0.004487,16.955383,-0.001631,-0.022028,25.326584,-0.011655,-0.000296,0.007554,1.570043,-0.020059,0.000357,-0.000073,-0.000029,-0.001555,0.000006,0.004424,0.004626,0.165342,-0.003379,0.180659,0.180659,0.170729,0.803970,0.000000,0.000000,0.000000,0.000000,0.000000,0.000000,0.000000,0.000000,0.000000,0.000000,0.000000,0.000000,0.160427,3,0
670000,-0.004568,17.213663,-0.001837,-0.022149,25.336527,-0.011941,-0.000297,0.007858,1.570027,-0.020826,0.000379,-0.000060,-0.000031,-0.001634,0.000007,0.004433,0.004711,0.165508,-0.003027,0.181232,0.181232,0.170877,0.796206,0.000000,0.000000,0.000000,0.000000,0.000000,0.000000,0.000000,0.000000,0.000000,0.000000,0.000000,0.000000,0.160574,3,0
680000,-0.004649,17.474470,-0.002648,-0.022303,25.350611,-0.013264,-0.000298,0.008319,1.570015,-0.021982,0.000401,0.000056,-0.000033,-0.001756,0.000007,0.009804,0.004794,0.245071,-0.024073,0.181816,0.181816,0.171033,0.788398,0.000000,0.000000,0.000000,0.000000,0.000000,0.000000,0.000000,0.000000,0.000000,0.000000,0.000000,0.000000,0.237690,3,0
690000,-0.004728,17.734154,-0.002405,-0.022495,25.362551,-0.013079,-0.000297,0.008723,1.570003,-0.022955,0.000424,-0.000011,-0.000036,-0.001861,0.000008,0.006679,0.004876,0.202793,0.013388,0.182408,0.182408,0.171194,0.780555,0.000000,0.000000,0.000000,0.000000,0.000000,0.000000,0.000000,0.000000,0.000000,0.000000,0.000000,0.000000,0.196685,3,0
700000,-0.004805,17.992119,-0.001674,-0.022605,25.371544,-0.011844,-0.000296,0.009007,1.569984,-0.023647,0.000448,-0.000165,-0.000039,-0.001937,0.000008,0.003400,0.004957,0.141777,0.030226,0.183007,0.183006,0.171357,0.772684,0.000000,0.000000,0.000000,0.000000,0.000000,0.000000,0.000000,0.000000,0.000000,0.000000,0.000000,0.000000,0.137537,3,0
710000,-0.004881,18.248983,-0.001437,-0.022703,25.378502,-0.011622,-0.000290,0.009227,1.569969,-0.024154,0.000473,-0.000230,-0.000041,-0.001993,0.000008,0.001724,0.005035,0.102390,0.012579,0.183609,0.183609,0.171522,0.764794,0.000000,0.000000,0.000000,0.000000,0.000000,0.000000,0.000000,0.000000,0.000000,0.000000,0.000000,0.000000,0.099376,3,0
720000,-0.004955,18.509026,-0.001274,-0.022847,25.390915,-0.011619,-0.000295,0.009661,1.569948,-0.025176,0.000498,-0.000284,-0.000044,-0.002109,0.000009,0.006696,0.005112,0.203276,0.009987,0.184213,0.184213,0.171686,0.756890,0.000000,0.000000,0.000000,0.000000,0.000000,0.000000,0.000000,0.000000,0.000000,0.000000,0.000000,0.000000,0.197097,3,0
730000,-0.005027,18.770996,-0.000459,-0.022909,25.406492,-0.010344,-0.000288,0.010215,1.569936,-0.026509,0.000524,-0.000460,-0.000047,-0.002262,0.000009,0.011196,0.005187,0.261173,0.032672,0.184818,0.184817,0.171847,0.748982,0.000000,0.000000,0.000000,0.000000,0.000000,0.000000,0.000000,0.000000,0.000000,0.000000,0.000000,0.000000,0.253178,3,0
740000,-0.005097,19.028120,-0.000594,-0.023023,25.413542,-0.010506,-0.000276,0.010445,1.569927,-0.027018,0.000551,-0.000455,-0.000051,-0.002322,0.000010,0.001570,0.005260,0.098440,-0.001018,0.185420,0.185420,0.172004,0.741076,0.000000,0.000000,0.000000,0.000000,0.000000,0.000000,0.000000,0.000000,0.000000,0.000000,0.000000,0.000000,0.095534,3,0
750000,-0.005166,19.287210,0.000256,-0.023185,25.423883,-0.009438,-0.000274,0.010812,1.569909,-0.027853,0.000579,-0.000641,-0.000054,-0.002421,0.000010,0.004285,0.005332,0.159309,0.033478,0.186020,0.186019,0.172155,0.733179,0.000000,0.000000,0.000000,0.000000,0.000000,0.000000,0.000000,0.000000,0.000000,0.000000,0.000000,0.000000,0.154458,3,0
760000,-0.005233,19.547014,0.001589,-0.023257,25.435289,-0.007467,-0.000264,0.011228,1.569900,-0.028801,0.000608,-0.000921,-0.000058,-0.002536,0.000010,0.005548,0.005402,0.178419,0.049855,0.186614,0.186614,0.172299,0.725297,0.000000,0.000000,0.000000,0.000000,0.000000,0.000000,0.000000,0.000000,0.000000,0.000000,0.000000,0.000000,0.172950,3,0
770000,-0.005299,19.809385,0.002728,-0.023353,25.451025,-0.005935,-0.000265,0.011825,1.569874,-0.030181,0.000637,-0.001165,-0.000061,-0.002706,0.000011,0.010916,0.005470,0.256443,0.042490,0.187203,0.187202,0.172436,0.717437,0.000000,0.000000,0.000000,0.000000,0.000000,0.000000,0.000000,0.000000,0.000000,0.000000,0.000000,0.000000,0.248498,3,0
780000,-0.005363,20.066835,0.001971,-0.023407,25.458063,-0.007209,-0.000251,0.012065,1.569868,-0.030689,0.000667,-0.001027,-0.000065,-0.002770,0.000011,0.001505,0.005536,0.093306,-0.024131,0.187784,0.187783,0.172563,0.709606,0.000000,0.000000,0.000000,0.000000,0.000000,0.000000,0.000000,0.000000,0.000000,0.000000,0.000000,0.000000,0.090544,3,0
790000,-0.005426,20.328138,0.000672,-0.023536,25.471756,-0.009299,-0.000253,0.012579,1.569859,-0.031865,0.000697,-0.000781,-0.000069,-0.002920,0.000012,0.007654,0.005601,0.213486,-0.042434,0.188357,0.188356,0.172681,0.701809,0.000000,0.000000,0.000000,0.000000,0.000000,0.000000,0.000000,0.000000,0.000000,0.000000,0.000000,0.000000,0.206854,3,0
800000,-0.005486,20.586370,0.001172,-0.023565,25.479788,-0.008516,-0.000249,0.012876,1.569854,-0.032484,0.000728,-0.000905,-0.000073,-0.003000,0.000012,0.002066,0.005664,0.111078,0.020682,0.188920,0.188919,0.172787,0.694053,0.000000,0.000000,0.000000,0.000000,0.000000,0.000000,0.000000,0.000000,0.000000,0.000000,0.000000,0.000000,0.107722,3,0
810000,-0.005544,20.847212,-0.000037,-0.023562,25.492371,-0.010602,-0.000250,0.013371,1.569842,-0.033557,0.000760,-0.000675,-0.000077,-0.003142,0.000013,0.006118,0.005725,0.190704,-0.038732,0.189474,0.189473,0.172882,0.686342,0.000000,0.000000,0.000000,0.000000,0.000000,0.000000,0.000000,0.000000,0.000000,0.000000,0.000000,0.000000,0.184764,3,0
820000,-0.005601,21.106226,-0.001006,-0.023594,25.501486,-0.012205,-0.000247,0.013708,1.569831,-0.034288,0.000793,-0.000496,-0.000081,-0.003240,0.000013,0.002815,0.005783,0.128527,-0.029737,0.190016,0.190015,0.172965,0.678682,0.000000,0.000000,0.000000,0.000000,0.000000,0.000000,0.000000,0.000000,0.000000,0.000000,0.000000,0.000000,0.124582,3,0
830000,-0.005654,21.364691,-0.000763,-0.023620,25.509575,-0.012116,-0.000246,0.014015,1.569821,-0.034908,0.000826,-0.000577,-0.000086,-0.003324,0.000014,0.001914,0.005840,0.107969,0.012908,0.190548,0.190546,0.173035,0.671078,0.000000,0.000000,0.000000,0.000000,0.000000,0.000000,0.000000,0.000000,0.000000,0.000000,0.000000,0.000000,0.104693,3,0
840000,-0.005708,21.623243,-0.000920,-0.023759,25.517799,-0.012248,-0.000247,0.014328,1.569814,-0.035533,0.000860,-0.000571,-0.000091,-0.003411,0.000014,0.001883,0.005895,0.107847,-0.001156,0.191067,0.191065,0.173092,0.663535,0.000000,0.000000,0.000000,0.000000,0.000000,0.000000,0.000000,0.000000,0.000000,0.000000,0.000000,0.000000,0.104568,3,0
850000,-0.005760,21.883783,-0.001026,-0.023874,25.529427,-0.012641,-0.000243,0.014796,1.569805,-0.036511,0.000894,-0.000579,-0.000095,-0.003548,0.000015,0.004520,0.005950,0.167276,0.000858,0.191573,0.191572,0.173136,0.656057,0.000000,0.000000,0.000000,0.000000,0.000000,0.000000,0.000000,0.000000,0.000000,0.000000,0.000000,0.000000,0.162038,3,0
860000,-0.005809,22.145020,-0.000811,-0.023870,25.542109,-0.012348,-0.000231,0.015317,1.569791,-0.037602,0.000929,-0.000659,-0.000101,-0.003704,0.000015,0.005546,0.006002,0.184921,0.012024,0.192067,0.192066,0.173166,0.648648,0.000000,0.000000,0.000000,0.000000,0.000000,0.000000,0.000000,0.000000,0.000000,0.000000,0.000000,0.000000,0.179097,3,0
870000,-0.005858,22.406942,-0.001288,-0.023907,25.555836,-0.012985,-0.000227,0.015886,1.569782,-0.038802,0.000965,-0.000585,-0.000106,-0.003878,0.000016,0.006603,0.006052,0.201864,-0.012026,0.192548,0.192546,0.173182,0.641313,0.000000,0.000000,0.000000,0.000000,0.000000,0.000000,0.000000,0.000000,0.000000,0.000000,0.000000,0.000000,0.195473,3,0
880000,-0.005903,22.666983,-0.000227,-0.023907,25.566105,-0.011613,-0.000207,0.016299,1.569772,-0.039633,0.001001,-0.000859,-0.000111,-0.004000,0.000017,0.003383,0.006100,0.138592,0.041492,0.193016,0.193014,0.173184,0.634054,0.000000,0.000000,0.000000,0.000000,0.000000,0.000000,0.000000,0.000000,0.000000,0.000000,0.000000,0.000000,0.134264,3,0
890000,-0.005948,22.927080,-0.000590,-0.023895,25.576204,-0.012360,-0.000191,0.016712,1.569765,-0.040459,0.001038,-0.000807,-0.000117,-0.004124,0.000017,0.003039,0.006146,0.136875,-0.008307,0.193470,0.193468,0.173172,0.626876,0.000000,0.000000,0.000000,0.000000,0.000000,0.000000,0.000000,0.000000,0.000000,0.000000,0.000000,0.000000,0.132595,3,0
900000,-0.005989,23.189159,0.000581,-0.023835,25.589842,-0.010585,-0.000174,0.017300,1.569747,-0.041643,0.001075,-0.001113,-0.000122,-0.004304,0.000018,0.006452,0.006190,0.194738,0.045107,0.193910,0.193908,0.173145,0.619782,0.000000,0.000000,0.000000,0.000000,0.000000,0.000000,0.000000,0.000000,0.000000,0.000000,0.000000,0.000000,0.188541,3,0
910000,-0.006030,23.448692,0.000114,-0.023948,25.598789,-0.011469,-0.000173,0.017668,1.569729,-0.042325,0.001113,-0.001032,-0.000128,-0.004409,0.000018,0.002033,0.006232,0.111433,-0.012287,0.194338,0.194335,0.173105,0.612774,0.000000,0.000000,0.000000,0.000000,0.000000,0.000000,0.000000,0.000000,0.000000,0.000000,0.000000,0.000000,0.107993,3,0
920000,-0.006070,23.708286,-0.001262,-0.023947,25.607763,-0.013673,-0.000172,0.018037,1.569714,-0.043005,0.001151,-0.000738,-0.000134,-0.004516,0.000019,0.002272,0.006273,0.110235,-0.043494,0.194751,0.194749,0.173050,0.605856,0.000000,0.000000,0.000000,0.000000,0.000000,0.000000,0.000000,0.000000,0.000000,0.000000,0.000000,0.000000,0.106828,3,0
930000,-0.006109,23.969875,-0.002011,-0.024039,25.620098,-0.015010,-0.000160,0.018571,1.569707,-0.044050,0.001190,-0.000598,-0.000140,-0.004683,0.000020,0.004661,0.006314,0.168615,-0.020891,0.195152,0.195149,0.172981,0.599028,0.000000,0.000000,0.000000,0.000000,0.000000,0.000000,0.000000,0.000000,0.000000,0.000000,0.000000,0.000000,0.163244,3,0
940000,-0.006146,24.231489,-0.000858,-0.024144,25.632309,-0.013517,-0.000148,0.019097,1.569689,-0.045080,0.001229,-0.000919,-0.000147,-0.004849,0.000020,0.004749,0.006354,0.165327,0.045527,0.195539,0.195536,0.172898,0.592295,0.000000,0.000000,0.000000,0.000000,0.000000,0.000000,0.000000,0.000000,0.000000,0.000000,0.000000,0.000000,0.160059,3,0
950000,-0.006182,24.491831,-0.000527,-0.024087,25.642069,-0.013210,-0.000144,0.019520,1.569681,-0.045846,0.001269,-0.001038,-0.000153,-0.004975,0.000021,0.002460,0.006391,0.122259,0.016458,0.195913,0.195910,0.172801,0.585658,0.000000,0.000000,0.000000,0.000000,0.000000,0.000000,0.000000,0.000000,0.000000,0.000000,0.000000,0.000000,0.118429,3,0
960000,-0.006216,24.752213,-0.000992,-0.023998,25.651751,-0.013993,-0.000140,0.019935,1.569659,-0.046604,0.001309,-0.000961,-0.000160,-0.005101,0.000021,0.002358,0.006426,0.120245,-0.011345,0.196275,0.196272,0.172691,0.579118,0.000000,0.000000,0.000000,0.000000,0.000000,0.000000,0.000000,0.000000,0.000000,0.000000,0.000000,0.000000,0.116478,3,0
970000,-0.006248,25.015238,-0.001408,-0.024042,25.665903,-0.014708,-0.000135,0.020588,1.569643,-0.047856,0.001349,-0.000901,-0.000167,-0.005314,0.000022,0.006322,0.006460,0.197708,-0.009225,0.196624,0.196620,0.172568,0.572677,0.000000,0.000000,0.000000,0.000000,0.000000,0.000000,0.000000,0.000000,0.000000,0.000000,0.000000,0.000000,0.191331,3,0
980000,-0.006279,25.274345,-0.000879,-0.024111,25.673061,-0.013917,-0.000130,0.020872,1.569632,-0.048325,0.001390,-0.001074,-0.000174,-0.005394,0.000023,0.000973,0.006493,0.073690,0.023694,0.196961,0.196957,0.172432,0.566337,0.000000,0.000000,0.000000,0.000000,0.000000,0.000000,0.000000,0.000000,0.000000,0.000000,0.000000,0.000000,0.071548,3,0
990000,-0.006310,25.537426,-0.001596,-0.024055,25.687056,-0.014911,-0.000111,0.021539,1.569606,-0.049553,0.001431,-0.000936,-0.000181,-0.005609,0.000023,0.006025,0.006524,0.192213,-0.019801,0.197286,0.197282,0.172283,0.560099,0.000000,0.000000,0.000000,0.000000,0.000000,0.000000,0.000000,0.000000,0.000000,0.000000,0.000000,0.000000,0.185999,3,0
1000000,-0.006338,25.799847,-0.002985,-0.023982,25.699736,-0.017120,-0.000089,0.022139,1.569591,-0.050629,0.001473,-0.000626,-0.000188,-0.005800,0.000024,0.004828,0.006553,0.167538,-0.042829,0.197600,0.197595,0.172121,0.553963,0.000000,0.000000,0.000000,0.000000,0.000000,0.000000,0.000000,0.000000,0.000000,0.000000,0.000000,0.000000,0.162142,3,0
1010000,-0.006364,26.059641,-0.002693,-0.023979,25.707745,-0.016672,-0.000065,0.022471,1.569570,-0.051169,0.001515,-0.000751,-0.000196,-0.005897,0.000025,0.001185,0.006582,0.083900,0.016351,0.197902,0.197898,0.171948,0.547931,0.000000,0.000000,0.000000,0.000000,0.000000,0.000000,0.000000,0.000000,0.000000,0.000000,0.000000,0.000000,0.081384,3,0
1020000,-0.006391,26.318819,-0.003945,-0.024023,25.714428,-0.018656,-0.000060,0.022738,1.569558,-0.051574,0.001558,-0.000471,-0.000204,-0.005971,0.000025,0.000868,0.006608,0.062571,-0.037656,0.198194,0.198189,0.171763,0.542004,0.000000,0.000000,0.000000,0.000000,0.000000,0.000000,0.000000,0.000000,0.000000,0.000000,0.000000,0.000000,0.060838,3,0
1030000,-0.006414,26.581324,-0.003696,-0.023968,25.726948,-0.018556,-0.000043,0.023329,1.569547,-0.052618,0.001600,-0.000595,-0.000212,-0.006165,0.000026,0.004232,0.006634,0.161148,0.015674,0.198476,0.198471,0.171567,0.536181,0.000000,0.000000,0.000000,0.000000,0.000000,0.000000,0.000000,0.000000,0.000000,0.000000,0.000000,0.000000,0.155951,3,0
1040000,-0.006436,26.840530,-0.002793,-0.023947,25.733595,-0.017205,-0.000028,0.023582,1.569526,-0.052991,0.001643,-0.000889,-0.000220,-0.006234,0.000026,0.000778,0.006658,0.057547,0.038269,0.198747,0.198742,0.171360,0.530464,0.000000,0.000000,0.000000,0.000000,0.000000,0.000000,0.000000,0.000000,0.000000,0.000000,0.000000,0.000000,0.056014,3,0
1050000,-0.006458,27.103079,-0.004088,-0.023846,25.746054,-0.019037,-0.000008,0.024175,1.569516,-0.054010,0.001686,-0.000596,-0.000228,-0.006430,0.000027,0.004180,0.006679,0.156094,-0.039012,0.199010,0.199004,0.171142,0.524852,0.000000,0.000000,0.000000,0.000000,0.000000,0.000000,0.000000,0.000000,0.000000,0.000000,0.000000,0.000000,0.151053,3,0
1060000,-0.006477,27.365612,-0.003842,-0.023845,25.758146,-0.018772,0.000003,0.024757,1.569499,-0.055002,0.001729,-0.000724,-0.000236,-0.006622,0.000028,0.003762,0.006700,0.151848,0.015694,0.199263,0.199257,0.170914,0.519345,0.000000,0.000000,0.000000,0.000000,0.000000,0.000000,0.000000,0.000000,0.000000,0.000000,0.000000,0.000000,0.146950,3,0
1070000,-0.006497,27.625494,-0.004931,-0.023843,25.765535,-0.020422,0.000014,0.025066,1.569476,-0.055449,0.001773,-0.000482,-0.000245,-0.006710,0.000028,0.000914,0.006720,0.068104,-0.031392,0.199508,0.199501,0.170676,0.513943,0.000000,0.000000,0.000000,0.000000,0.000000,0.000000,0.000000,0.000000,0.000000,0.000000,0.000000,0.000000,0.066158,3,0
1080000,-0.006516,27.886724,-0.006155,-0.023856,25.775129,-0.022303,0.000030,0.025519,1.569466,-0.056148,0.001817,-0.000208,-0.000254,-0.006850,0.000029,0.002034,0.006739,0.106333,-0.035548,0.199744,0.199737,0.170429,0.508647,0.000000,0.000000,0.000000,0.000000,0.000000,0.000000,0.000000,0.000000,0.000000,0.000000,0.000000,0.000000,0.102997,3,0
1090000,-0.006532,28.147295,-0.005487,-0.023774,25.783569,-0.021533,0.000058,0.025884,1.569461,-0.056697,0.001861,-0.000463,-0.000263,-0.006961,0.000029,0.001295,0.006757,0.083549,0.031739,0.199973,0.199966,0.170173,0.503456,0.000000,0.000000,0.000000,0.000000,0.000000,0.000000,0.000000,0.000000,0.000000,0.000000,0.000000,0.000000,0.081030,3,0
1100000,-0.006546,28.406551,-0.005126,-0.023714,25.789600,-0.020904,0.000080,0.026108,1.569458,-0.056970,0.001906,-0.000629,-0.000272,-0.007017,0.000030,0.000354,0.006773,0.041561,0.020521,0.200195,0.200187,0.169908,0.498369,0.000000,0.000000,0.000000,0.000000,0.000000,0.000000,0.000000,0.000000,0.000000,0.000000,0.000000,0.000000,0.040706,3,0
1110000,-0.006560,28.668499,-0.005747,-0.023672,25.800289,-0.021862,0.000097,0.026613,1.569436,-0.057763,0.001950,-0.000522,-0.000281,-0.007183,0.000030,0.002367,0.006787,0.120186,-0.014170,0.200410,0.200402,0.169636,0.493387,0.000000,0.000000,0.000000,0.000000,0.000000,0.000000,0.000000,0.000000,0.000000,0.000000,0.000000,0.000000,0.116356,3,0
1120000,-0.006572,28.929104,-0.005571,-0.023544,25.808304,-0.021813,0.000119,0.026980,1.569431,-0.058270,0.001995,-0.000641,-0.000291,-0.007290,0.000031,0.000991,0.006800,0.076801,0.014308,0.200619,0.200610,0.169355,0.488507,0.000000,0.000000,0.000000,0.000000,0.000000,0.000000,0.000000,0.000000,0.000000,0.000000,0.000000,0.000000,0.074524,3,0
1130000,-0.006583,29.192381,-0.006412,-0.023477,25.820944,-0.023012,0.000145,0.027627,1.569405,-0.059288,0.002039,-0.000474,-0.000300,-0.007509,0.000032,0.003906,0.006811,0.154057,-0.021608,0.200821,0.200812,0.169067,0.483730,0.000000,0.000000,0.000000,0.000000,0.000000,0.000000,0.000000,0.000000,0.000000,0.000000,0.000000,0.000000,0.149045,3,0
1140000,-0.006594,29.454290,-0.006842,-0.023498,25.831190,-0.023612,0.000167,0.028117,1.569385,-0.060012,0.002084,-0.000425,-0.000310,-0.007667,0.000033,0.001940,0.006822,0.109322,-0.006743,0.201019,0.201009,0.168773,0.479056,0.000000,0.000000,0.000000,0.000000,0.000000,0.000000,0.000000,0.000000,0.000000,0.000000,0.000000,0.000000,0.105865,3,0
1150000,-0.006604,29.716188,-0.007598,-0.023486,25.841270,-0.024491,0.000179,0.028610,1.569371,-0.060712,0.002129,-0.000282,-0.000320,-0.007822,0.000033,0.001862,0.006833,0.105732,-0.018178,0.201211,0.201201,0.168472,0.474482,0.000000,0.000000,0.000000,0.000000,0.000000,0.000000,0.000000,0.000000,0.000000,0.000000,0.000000,0.000000,0.102397,3,0
1160000,-0.006613,29.977404,-0.008346,-0.023387,25.849941,-0.025514,0.000202,0.029007,1.569356,-0.061257,0.002174,-0.000141,-0.000330,-0.007945,0.000034,0.001148,0.006842,0.082281,-0.017594,0.201399,0.201388,0.168164,0.470009,0.000000,0.000000,0.000000,0.000000,0.000000,0.000000,0.000000,0.000000,0.000000,0.000000,0.000000,0.000000,0.079792,3,0
1170000,-0.006618,30.239941,-0.007411,-0.023235,25.860802,-0.024394,0.000215,0.029557,1.569340,-0.062045,0.002218,-0.000508,-0.000340,-0.008123,0.000035,0.002595,0.006849,0.119164,0.043021,0.201583,0.201571,0.167851,0.465635,0.000000,0.000000,0.000000,0.000000,0.000000,0.000000,0.000000,0.000000,0.000000,0.000000,0.000000,0.000000,0.115354,3,0
1180000,-0.006622,30.503119,-0.007204,-0.023101,25.872660,-0.024337,0.000246,0.030167,1.569332,-0.062937,0.002263,-0.000658,-0.000351,-0.008329,0.000036,0.002981,0.006853,0.134825,0.016712,0.201763,0.201751,0.167533,0.461359,0.000000,0.000000,0.000000,0.000000,0.000000,0.000000,0.000000,0.000000,0.000000,0.000000,0.000000,0.000000,0.130461,3,0
1190000,-0.006626,30.765591,-0.008034,-0.023003,25.883211,-0.025318,0.000262,0.030703,1.569326,-0.063666,0.002308,-0.000491,-0.000361,-0.008500,0.000036,0.002028,0.006856,0.110071,-0.020633,0.201939,0.201927,0.167209,0.457181,0.000000,0.000000,0.000000,0.000000,0.000000,0.000000,0.000000,0.000000,0.000000,0.000000,0.000000,0.000000,0.106571,3,0
1200000,-0.006627,31.024677,-0.006916,-0.022966,25.887554,-0.023746,0.000282,0.030807,1.569312,-0.063707,0.002353,-0.000913,-0.000372,-0.008509,0.000036,0.000409,0.006860,0.006527,0.049372,0.202113,0.202100,0.166881,0.453098,0.000000,0.000000,0.000000,0.000000,0.000000,0.000000,0.000000,0.000000,0.000000,0.000000,0.000000,0.000000,0.009152,3,0
1210000,-0.006630,31.284462,-0.007584,-0.022940,25.893230,-0.024648,0.000302,0.031008,1.569294,-0.063878,0.002398,-0.000783,-0.000383,-0.008551,0.000037,0.000152,0.006861,0.025700,-0.015309,0.202284,0.202270,0.166549,0.449111,0.000000,0.000000,0.000000,0.000000,0.000000,0.000000,0.000000,0.000000,0.000000,0.000000,0.000000,0.000000,0.025702,3,0
1220000,-0.006629,31.547602,-0.006287,-0.022842,25.904604,-0.022934,0.000329,0.031609,1.569272,-0.064692,0.002443,-0.001278,-0.000394,-0.008749,0.000038,0.002983,0.006862,0.123680,0.056223,0.202453,0.202438,0.166212,0.445216,0.000000,0.000000,0.000000,0.000000,0.000000,0.000000,0.000000,0.000000,0.000000,0.000000,0.000000,0.000000,0.119696,3,0
1230000,-0.006631,31.809364,-0.007543,-0.022827,25.913589,-0.024429,0.000359,0.032042,1.569263,-0.065215,0.002488,-0.000965,-0.000405,-0.008880,0.000038,0.001235,0.006862,0.079092,-0.036814,0.202620,0.202605,0.165873,0.441415,0.000000,0.000000,0.000000,0.000000,0.000000,0.000000,0.000000,0.000000,0.000000,0.000000,0.000000,0.000000,0.076705,3,0
1240000,-0.006630,32.069752,-0.006803,-0.022811,25.919973,-0.023541,0.000392,0.032288,1.569253,-0.065450,0.002533,-0.001282,-0.000417,-0.008938,0.000038,0.000425,0.006863,0.035908,0.035933,0.202786,0.202770,0.165530,0.437705,0.000000,0.000000,0.000000,0.000000,0.000000,0.000000,0.000000,0.000000,0.000000,0.000000,0.000000,0.000000,0.035326,3,0
1250000,-0.006629,32.331490,-0.007727,-0.022633,25.928675,-0.024673,0.000417,0.032689,1.569232,-0.065936,0.002577,-0.001071,-0.000428,-0.009063,0.000039,0.000979,0.006861,0.073639,-0.024652,0.202950,0.202933,0.165184,0.434084,0.000000,0.000000,0.000000,0.000000,0.000000,0.000000,0.000000,0.000000,0.000000,0.000000,0.000000,0.000000,0.071452,3,0
1260000,-0.006626,32.593193,-0.007020,-0.022599,25.937243,-0.023792,0.000434,0.033083,1.569217,-0.066396,0.002622,-0.001388,-0.000440,-0.009181,0.000040,0.001002,0.006859,0.070240,0.035126,0.203113,0.203096,0.164835,0.430552,0.000000,0.000000,0.000000,0.000000,0.000000,0.000000,0.000000,0.000000,0.000000,0.000000,0.000000,0.000000,0.068190,3,0
1270000,-0.006623,32.856216,-0.006132,-0.022576,25.947897,-0.022697,0.000458,0.033644,1.569211,-0.067093,0.002666,-0.001768,-0.000452,-0.009363,0.000040,0.002119,0.006856,0.106636,0.041585,0.203276,0.203258,0.164485,0.427106,0.000000,0.000000,0.000000,0.000000,0.000000,0.000000,0.000000,0.000000,0.000000,0.000000,0.000000,0.000000,0.103240,3,0
1280000,-0.006620,33.119202,-0.007303,-0.022520,25.958492,-0.024407,0.000477,0.034183,1.569191,-0.067761,0.002711,-0.001474,-0.000464,-0.009542,0.000041,0.001867,0.006852,0.101929,-0.033897,0.203438,0.203419,0.164132,0.423747,0.000000,0.000000,0.000000,0.000000,0.000000,0.000000,0.000000,0.000000,0.000000,0.000000,0.000000,0.000000,0.098691,3,0
1290000,-0.006616,33.378761,-0.008575,-0.022318,25.962795,-0.025877,0.000505,0.034276,1.569185,-0.067748,0.002756,-0.001135,-0.000476,-0.009540,0.000041,0.000238,0.006848,-0.002129,-0.037618,0.203601,0.203580,0.163778,0.420471,0.000000,0.000000,0.000000,0.000000,0.000000,0.000000,0.000000,0.000000,0.000000,0.000000,0.000000,0.000000,0.006930,3,0
1300000,-0.006610,33.641018,-0.007879,-0.022282,25.971910,-0.024913,0.000537,0.034721,1.569163,-0.068243,0.002799,-0.001464,-0.000488,-0.009675,0.000042,0.001146,0.006843,0.076206,0.035453,0.203763,0.203742,0.163422,0.417279,0.000000,0.000000,0.000000,0.000000,0.000000,0.000000,0.000000,0.000000,0.000000,0.000000,0.000000,0.000000,0.073920,3,0
1310000,-0.006601,33.903908,-0.006512,-0.022100,25.982048,-0.023079,0.000560,0.035223,1.569149,-0.068839,0.002843,-0.002018,-0.000501,-0.009839,0.000043,0.001958,0.006835,0.092163,0.059937,0.203926,0.203903,0.163066,0.414168,0.000000,0.000000,0.000000,0.000000,0.000000,0.000000,0.000000,0.000000,0.000000,0.000000,0.000000,0.000000,0.089283,3,0
1320000,-0.006593,34.167431,-0.006490,-0.022072,25.993164,-0.023255,0.000582,0.035812,1.569126,-0.069534,0.002886,-0.002121,-0.000513,-0.010035,0.000044,0.001883,0.006826,0.107475,0.010016,0.204089,0.204066,0.162708,0.411137,0.000000,0.000000,0.000000,0.000000,0.000000,0.000000,0.000000,0.000000,0.000000,0.000000,0.000000,0.000000,0.104030,3,0
1330000,-0.006584,34.428860,-0.006607,-0.021909,26.000330,-0.023603,0.000608,0.036114,1.569114,-0.069809,0.002930,-0.002169,-0.000526,-0.010114,0.000044,0.000304,0.006817,0.042633,0.004638,0.204253,0.204229,0.162350,0.408185,0.000000,0.000000,0.000000,0.000000,0.000000,0.000000,0.000000,0.000000,0.000000,0.000000,0.000000,0.000000,0.041707,3,0
1340000,-0.006574,34.688904,-0.007123,-0.021752,26.004904,-0.024355,0.000629,0.036221,1.569099,-0.069808,0.002974,-0.002074,-0.000538,-0.010114,0.000044,0.000024,0.006806,-0.000198,-0.010231,0.204418,0.204393,0.161992,0.405308,0.000000,0.000000,0.000000,0.000000,0.000000,0.000000,0.000000,0.000000,0.000000,0.000000,0.000000,0.000000,0.006577,3,0
1350000,-0.006563,34.948936,-0.007860,-0.021576,26.009453,-0.025401,0.000648,0.036319,1.569090,-0.069797,0.003018,-0.001905,-0.000551,-0.010111,0.000044,0.000062,0.006794,-0.001862,-0.018186,0.204583,0.204557,0.161633,0.402508,0.000000,0.000000,0.000000,0.000000,0.000000,0.000000,0.000000,0.000000,0.000000,0.000000,0.000000,0.000000,0.006806,3,0
1360000,-0.006549,35.208271,-0.006960,-0.021469,26.012661,-0.024088,0.000673,0.036314,1.569079,-0.069646,0.003061,-0.002302,-0.000564,-0.010065,0.000044,0.000394,0.006782,-0.023396,0.042878,0.204750,0.204723,0.161275,0.399781,0.000000,0.000000,0.000000,0.000000,0.000000,0.000000,0.000000,0.000000,0.000000,0.000000,0.000000,0.000000,0.023521,3,0
1370000,-0.006534,35.468964,-0.005569,-0.021303,26.018171,-0.022494,0.000713,0.036481,1.569073,-0.069741,0.003103,-0.002878,-0.000578,-0.010091,0.000045,0.000651,0.006767,0.015419,0.061095,0.204919,0.204891,0.160918,0.397127,0.000000,0.000000,0.000000,0.000000,0.000000,0.000000,0.000000,0.000000,0.000000,0.000000,0.000000,0.000000,0.016270,3,0
1380000,-0.006517,35.728271,-0.004556,-0.021114,26.021168,-0.021314,0.000754,0.036458,1.569070,-0.069571,0.003145,-0.003311,-0.000591,-0.010037,0.000044,0.000468,0.006749,-0.026657,0.046240,0.205089,0.205059,0.160561,0.394544,0.000000,0.000000,0.000000,0.000000,0.000000,0.000000,0.000000,0.000000,0.000000,0.000000,0.000000,0.000000,0.026550,3,0
1390000,-0.006500,35.989628,-0.004915,-0.020884,26.027748,-0.021919,0.000793,0.036730,1.569054,-0.069773,0.003188,-0.003267,-0.000605,-0.010101,0.000045,0.000177,0.006730,0.032066,-0.005123,0.205260,0.205230,0.160204,0.392030,0.000000,0.000000,0.000000,0.000000,0.000000,0.000000,0.000000,0.000000,0.000000,0.000000,0.000000,0.000000,0.031643,3,0
1400000,-0.006481,36.248226,-0.005036,-0.020638,26.029383,-0.021953,0.000828,0.036598,1.569046,-0.069456,0.003230,-0.003292,-0.000618,-0.010000,0.000045,0.000419,0.006710,-0.050449,0.003412,0.205433,0.205401,0.159849,0.389585,0.000000,0.000000,0.000000,0.000000,0.000000,0.000000,0.000000,0.000000,0.000000,0.000000,0.000000,0.000000,0.049150,3,0
1410000,-0.006460,36.506832,-0.005132,-0.020450,26.031000,-0.022125,0.000853,0.036457,1.569031,-0.069140,0.003272,-0.003328,-0.000632,-0.009898,0.000044,0.000423,0.006689,-0.050636,0.004465,0.205608,0.205575,0.159495,0.387206,0.000000,0.000000,0.000000,0.000000,0.000000,0.000000,0.000000,0.000000,0.000000,0.000000,0.000000,0.000000,0.049325,3,0
1420000,-0.006439,36.766815,-0.006195,-0.020316,26.034967,-0.023297,0.000886,0.036502,1.569027,-0.069072,0.003314,-0.003020,-0.000645,-0.009877,0.000044,0.000191,0.006667,-0.011074,-0.031770,0.205785,0.205751,0.159143,0.384892,0.000000,0.000000,0.000000,0.000000,0.000000,0.000000,0.000000,0.000000,0.000000,0.000000,0.000000,0.000000,0.012488,3,0
1430000,-0.006416,37.026089,-0.005768,-0.020090,26.037552,-0.022856,0.000920,0.036432,1.569019,-0.068870,0.003355,-0.003256,-0.000659,-0.009809,0.000044,0.000278,0.006644,-0.032547,0.024868,0.205964,0.205928,0.158792,0.382642,0.000000,0.000000,0.000000,0.000000,0.000000,0.000000,0.000000,0.000000,0.000000,0.000000,0.000000,0.000000,0.032074,3,0
1440000,-0.006391,37.289455,-0.005664,-0.019948,26.047567,-0.022653,0.000949,0.036958,1.568997,-0.069398,0.003395,-0.003398,-0.000673,-0.009986,0.000045,0.001222,0.006619,0.085854,0.013251,0.206144,0.206107,0.158442,0.380454,0.000000,0.000000,0.000000,0.000000,0.000000,0.000000,0.000000,0.000000,0.000000,0.000000,0.000000,0.000000,0.083155,3,0
1450000,-0.006368,37.549347,-0.006700,-0.019815,26.051182,-0.024081,0.000974,0.036974,1.568989,-0.069285,0.003436,-0.003095,-0.000686,-0.009949,0.000045,0.000216,0.006594,-0.018589,-0.030704,0.206327,0.206289,0.158095,0.378328,0.000000,0.000000,0.000000,0.000000,0.000000,0.000000,0.000000,0.000000,0.000000,0.000000,0.000000,0.000000,0.019051,3,0
1460000,-0.006344,37.809219,-0.007392,-0.019732,26.054590,-0.024992,0.001009,0.036983,1.568985,-0.069164,0.003476,-0.002923,-0.000700,-0.009908,0.000045,0.000120,0.006569,-0.020084,-0.017167,0.206511,0.206472,0.157750,0.376260,0.000000,0.000000,0.000000,0.000000,0.000000,0.000000,0.000000,0.000000,0.000000,0.000000,0.000000,0.000000,0.020409,3,0
1470000,-0.006316,38.071796,-0.006167,-0.019533,26.062908,-0.023599,0.001049,0.037381,1.568977,-0.069512,0.003515,-0.003493,-0.000714,-0.010027,0.000046,0.001071,0.006543,0.057949,0.056799,0.206698,0.206657,0.157407,0.374252,0.000000,0.000000,0.000000,0.000000,0.000000,0.000000,0.000000,0.000000,0.000000,0.000000,0.000000,0.000000,0.056321,3,0
1480000,-0.006288,38.329517,-0.004936,-0.019387,26.062374,-0.022136,0.001078,0.037042,1.568966,-0.068996,0.003554,-0.004029,-0.000729,-0.009841,0.000045,0.001682,0.006514,-0.085438,0.055525,0.206886,0.206844,0.157067,0.372301,0.000000,0.000000,0.000000,0.000000,0.000000,0.000000,0.000000,0.000000,0.000000,0.000000,0.000000,0.000000,0.082721,3,0
1490000,-0.006260,38.592751,-0.005320,-0.019164,26.071659,-0.022805,0.001106,0.037546,1.568949,-0.069440,0.003592,-0.003987,-0.000743,-0.010002,0.000046,0.000900,0.006483,0.074306,-0.005481,0.207076,0.207033,0.156729,0.370403,0.000000,0.000000,0.000000,0.000000,0.000000,0.000000,0.000000,0.000000,0.000000,0.000000,0.000000,0.000000,0.072016,3,0
1500000,-0.006230,38.850418,-0.005140,-0.018991,26.070797,-0.022556,0.001143,0.037181,1.568941,-0.068908,0.003631,-0.004122,-0.000757,-0.009805,0.000045,0.001336,0.006454,-0.089626,0.015042,0.207268,0.207223,0.156393,0.368560,0.000000,0.000000,0.000000,0.000000,0.000000,0.000000,0.000000,0.000000,0.000000,0.000000,0.000000,0.000000,0.086753,3,0
1510000,-0.006200,39.110855,-0.005534,-0.018724,26.075016,-0.022991,0.001170,0.037226,1.568927,-0.068853,0.003669,-0.004055,-0.000771,-0.009785,0.000045,0.000028,0.006421,-0.009350,-0.006482,0.207462,0.207416,0.156061,0.366771,0.000000,0.000000,0.000000,0.000000,0.000000,0.000000,0.000000,0.000000,0.000000,0.000000,0.000000,0.000000,0.010953,3,0
1520000,-0.006167,39.369873,-0.004534,-0.018574,26.076590,-0.021864,0.001207,0.037041,1.568919,-0.068551,0.003706,-0.004521,-0.000786,-0.009669,0.000045,0.000788,0.006389,-0.051159,0.047096,0.207658,0.207610,0.155731,0.365033,0.000000,0.000000,0.000000,0.000000,0.000000,0.000000,0.000000,0.000000,0.000000,0.000000,0.000000,0.000000,0.049761,3,0
1530000,-0.006134,39.628887,-0.003661,-0.018416,26.077995,-0.020647,0.001233,0.036861,1.568907,-0.068249,0.003742,-0.004935,-0.000800,-0.009550,0.000045,0.000720,0.006355,-0.051765,0.041732,0.207855,0.207806,0.155404,0.363344,0.000000,0.000000,0.000000,0.000000,0.000000,0.000000,0.000000,0.000000,0.000000,0.000000,0.000000,0.000000,0.050340,3,0
1540000,-0.006101,39.890659,-0.004305,-0.018182,26.084471,-0.021534,0.001270,0.037118,1.568903,-0.068406,0.003779,-0.004772,-0.000814,-0.009613,0.000045,0.000169,0.006319,0.027153,-0.016528,0.208055,0.208004,0.155081,0.361704,0.000000,0.000000,0.000000,0.000000,0.000000,0.000000,0.000000,0.000000,0.000000,0.000000,0.000000,0.000000,0.026908,3,0
1550000,-0.006067,40.152370,-0.004102,-0.018081,26.090731,-0.021259,0.001299,0.037353,1.568899,-0.068541,0.003815,-0.004945,-0.000829,-0.009665,0.000046,0.000141,0.006286,0.023739,0.016479,0.208255,0.208203,0.154760,0.360112,0.000000,0.000000,0.000000,0.000000,0.000000,0.000000,0.000000,0.000000,0.000000,0.000000,0.000000,0.000000,0.023708,3,0
1560000,-0.006030,40.413330,-0.002953,-0.017824,26.095478,-0.020101,0.001329,0.037450,1.568883,-0.068543,0.003849,-0.005490,-0.000843,-0.009662,0.000046,0.000464,0.006249,0.000511,0.053103,0.208458,0.208404,0.154443,0.358566,0.000000,0.000000,0.000000,0.000000,0.000000,0.000000,0.000000,0.000000,0.000000,0.000000,0.000000,0.000000,0.006052,3,0
1570000,-0.005994,40.671494,-0.002834,-0.017640,26.095028,-0.019972,0.001366,0.037098,1.568871,-0.068082,0.003885,-0.005596,-0.000858,-0.009474,0.000045,0.001100,0.006211,-0.081585,0.011803,0.208662,0.208606,0.154129,0.357065,0.000000,0.000000,0.000000,0.000000,0.000000,0.000000,0.000000,0.000000,0.000000,0.000000,0.000000,0.000000,0.078975,3,0
1580000,-0.005957,40.931034,-0.002078,-0.017475,26.097073,-0.019063,0.001400,0.036964,1.568869,-0.067849,0.003919,-0.005970,-0.000872,-0.009375,0.000045,0.000506,0.006173,-0.041561,0.036953,0.208867,0.208810,0.153818,0.355607,0.000000,0.000000,0.000000,0.000000,0.000000,0.000000,0.000000,0.000000,0.000000,0.000000,0.000000,0.000000,0.040544,3,0
1590000,-0.005921,41.191952,-0.002736,-0.017314,26.101629,-0.019801,0.001430,0.037057,1.568859,-0.067833,0.003953,-0.005780,-0.000886,-0.009370,0.000045,0.000061,0.006134,-0.002937,-0.018234,0.209073,0.209015,0.153511,0.354192,0.000000,0.000000,0.000000,0.000000,0.000000,0.000000,0.000000,0.000000,0.000000,0.000000,0.000000,0.000000,0.006566,3,0
1600000,-0.005882,41.453510,-0.002089,-0.017123,26.107347,-0.018972,0.001475,0.037239,1.568839,-0.067911,0.003986,-0.006130,-0.000901,-0.009401,0.000045,0.000220,0.006096,0.014400,0.033307,0.209280,0.209221,0.153208,0.352819,0.000000,0.000000,0.000000,0.000000,0.000000,0.000000,0.000000,0.000000,0.000000,0.000000,0.000000,0.000000,0.015101,3,0
1610000,-0.005843,41.714314,-0.000865,-0.016976,26.111567,-0.017538,0.001516,0.037283,1.568827,-0.067862,0.004018,-0.006710,-0.000916,-0.009376,0.000045,0.000518,0.006056,-0.008667,0.055465,0.209489,0.209428,0.152908,0.351487,0.000000,0.000000,0.000000,0.000000,0.000000,0.000000,0.000000,0.000000,0.000000,0.000000,0.000000,0.000000,0.010191,3,0
1620000,-0.005803,41.973003,-0.000650,-0.016740,26.111824,-0.017113,0.001552,0.036980,1.568810,-0.067480,0.004051,-0.006848,-0.000930,-0.009207,0.000045,0.000845,0.006014,-0.070721,0.014614,0.209698,0.209635,0.152612,0.350193,0.000000,0.000000,0.000000,0.000000,0.000000,0.000000,0.000000,0.000000,0.000000,0.000000,0.000000,0.000000,0.068491,3,0
1630000,-0.005763,42.233074,-0.000526,-0.016546,26.114489,-0.016964,0.001587,0.036902,1.568809,-0.067313,0.004082,-0.006962,-0.000945,-0.009132,0.000045,0.000184,0.005973,-0.031227,0.011365,0.209909,0.209844,0.152319,0.348935,0.000000,0.000000,0.000000,0.000000,0.000000,0.000000,0.000000,0.000000,0.000000,0.000000,0.000000,0.000000,0.030679,3,0
1640000,-0.005723,42.493809,-0.000631,-0.016306,26.118366,-0.017069,0.001631,0.036929,1.568789,-0.067244,0.004114,-0.006985,-0.000959,-0.009100,0.000045,0.000034,0.005930,-0.013023,0.002507,0.210119,0.210053,0.152031,0.347715,0.000000,0.000000,0.000000,0.000000,0.000000,0.000000,0.000000,0.000000,0.000000,0.000000,0.000000,0.000000,0.013807,3,0
1650000,-0.005681,42.754505,-0.001272,-0.016033,26.122120,-0.017833,0.001672,0.036938,1.568781,-0.067164,0.004145,-0.006782,-0.000973,-0.009065,0.000045,0.000100,0.005887,-0.015369,-0.018692,0.210331,0.210263,0.151746,0.346531,0.000000,0.000000,0.000000,0.000000,0.000000,0.000000,0.000000,0.000000,0.000000,0.000000,0.000000,0.000000,0.015886,3,0
1660000,-0.005638,43.012363,-0.001210,-0.015893,26.120441,-0.017761,0.001705,0.036459,1.568767,-0.066660,0.004176,-0.006850,-0.000988,-0.008828,0.000044,0.001536,0.005844,-0.097195,0.008488,0.210542,0.210473,0.151465,0.345380,0.000000,0.000000,0.000000,0.000000,0.000000,0.000000,0.000000,0.000000,0.000000,0.000000,0.000000,0.000000,0.093954,3,0
1670000,-0.005595,43.274399,-0.000668,-0.015739,26.126556,-0.017240,0.001742,0.036684,1.568749,-0.066776,0.004205,-0.007166,-0.001002,-0.008881,0.000045,0.000224,0.005800,0.022667,0.028932,0.210754,0.210683,0.151188,0.344263,0.000000,0.000000,0.000000,0.000000,0.000000,0.000000,0.000000,0.000000,0.000000,0.000000,0.000000,0.000000,0.022585,3,0
1680000,-0.005552,43.535690,-0.001421,-0.015445,26.131220,-0.018098,0.001774,0.036776,1.568744,-0.066772,0.004235,-0.006917,-0.001016,-0.008881,0.000045,0.000091,0.005753,-0.000885,-0.023010,0.210966,0.210893,0.150915,0.343179,0.000000,0.000000,0.000000,0.000000,0.000000,0.000000,0.000000,0.000000,0.000000,0.000000,0.000000,0.000000,0.005618,3,0
1690000,-0.005505,43.797607,-0.000868,-0.015193,26.136883,-0.017400,0.001813,0.036962,1.568724,-0.066852,0.004263,-0.007240,-0.001030,-0.008918,0.000045,0.000188,0.005707,0.016079,0.029485,0.211177,0.211103,0.150645,0.342125,0.000000,0.000000,0.000000,0.000000,0.000000,0.000000,0.000000,0.000000,0.000000,0.000000,0.000000,0.000000,0.016469,3,0
1700000,-0.005460,44.057362,-0.000838,-0.015010,26.138494,-0.017357,0.001856,0.036782,1.568709,-0.066618,0.004291,-0.007311,-0.001044,-0.008800,0.000045,0.000371,0.005659,-0.047104,0.007631,0.211389,0.211313,0.150380,0.341102,0.000000,0.000000,0.000000,0.000000,0.000000,0.000000,0.000000,0.000000,0.000000,0.000000,0.000000,0.000000,0.045767,3,0
1710000,-0.005412,44.319885,-0.000632,-0.014761,26.145185,-0.017016,0.001882,0.037067,1.568689,-0.066770,0.004318,-0.007489,-0.001058,-0.008876,0.000045,0.000200,0.005611,0.031067,0.015584,0.211600,0.211522,0.150119,0.340109,0.000000,0.000000,0.000000,0.000000,0.000000,0.000000,0.000000,0.000000,0.000000,0.000000,0.000000,0.000000,0.030461,3,0
