time_us,pos_x,pos_y,pos_z,vel_x,vel_y,vel_z,roll,pitch,yaw,bias_ax,bias_ay,bias_az,bias_gx,bias_gy,bias_gz,nis,innov_x,innov_y,innov_z,cov_pos_x,cov_pos_y,cov_pos_z,cov_yaw,des_speed,des_heading,des_climb,pid_speed,pid_yaw,pid_alt,speed_meas,yaw_meas,climb_meas,fwd_accel,yaw_rate,vert_accel,drift_m,nav_mode,mission_state
0,0.000012,0.149999,0.000001,0.002024,24.999784,0.000146,0.000001,0.000001,1.570810,0.000000,0.000000,0.000000,0.000000,0.000000,0.000000,0.006250,-0.000020,-0.250000,-0.000001,2.400038,2.400038,3.600017,1.000518,0.000000,0.000000,0.000000,0.000000,0.000000,0.000000,0.000000,0.000000,0.000000,0.000000,0.000000,0.000000,0.149999,1,0
10000,0.000038,0.376586,-0.016240,0.004046,24.999817,0.000340,-0.000001,-0.000001,1.570818,0.000000,-0.000000,0.000000,0.000000,0.000000,0.000000,0.000995,-0.000053,-0.081936,-0.043317,1.714420,1.714420,2.250079,1.001073,0.000000,0.000000,0.000000,0.000000,0.000000,0.000000,0.000000,0.000000,0.000000,0.000000,0.000000,0.000000,0.058524,3,0
20000,0.000076,0.611031,-0.022107,0.006040,24.999653,0.000541,0.000009,0.000001,1.570823,0.000001,-0.000000,0.000000,-0.000000,0.000000,0.000000,0.000691,-0.000098,-0.069975,-0.021531,1.333616,1.333616,1.636554,1.001655,0.000000,0.000000,0.000000,0.000000,0.000000,0.000000,0.000000,0.000000,0.000000,0.000000,0.000000,0.000000,0.054422,3,0
30000,0.000128,0.838199,-0.035638,0.008003,24.999281,0.000550,0.000018,0.000006,1.570833,0.000003,-0.000000,0.000001,-0.000000,0.000000,0.000000,0.002670,-0.000156,-0.125509,-0.063166,1.091392,1.091392,1.286065,1.002257,0.000000,0.000000,0.000000,0.000000,0.000000,0.000000,0.000000,0.000000,0.000000,0.000000,0.000000,0.000000,0.102679,3,0
40000,0.000193,1.079804,-0.038329,0.009990,24.999235,0.000487,0.000010,0.000013,1.570845,0.000005,-0.000000,0.000002,-0.000000,0.000000,0.000000,0.000451,-0.000228,-0.054490,-0.015271,0.923811,0.923811,1.059385,1.002870,0.000000,0.000000,0.000000,0.000000,0.000000,0.000000,0.000000,0.000000,0.000000,0.000000,0.000000,0.000000,0.046101,3,0
50000,0.000272,1.319461,-0.037804,0.012096,24.999012,0.000783,0.000004,0.000020,1.570843,0.000008,-0.000000,0.000002,0.000000,0.000000,0.000000,0.000867,-0.000314,-0.077427,0.003445,0.801036,0.801036,0.900822,1.003486,0.000000,0.000000,0.000000,0.000000,0.000000,0.000000,0.000000,0.000000,0.000000,0.000000,0.000000,0.000000,0.067090,3,0
60000,0.000364,1.557853,-0.044872,0.014120,24.998627,0.000533,0.000005,0.000020,1.570844,0.000014,-0.000000,0.000005,-0.000000,0.000000,0.000000,0.001849,-0.000413,-0.098414,-0.054173,0.707270,0.707270,0.783741,1.004095,0.000000,0.000000,0.000000,0.000000,0.000000,0.000000,0.000000,0.000000,0.000000,0.000000,0.000000,0.000000,0.086814,3,0
70000,0.000470,1.799567,-0.049970,0.016137,24.998222,0.000503,0.000005,0.000025,1.570842,0.000020,-0.000000,0.000008,-0.000000,0.000000,0.000000,0.001203,-0.000526,-0.078375,-0.044150,0.633370,0.633370,0.693801,1.004690,0.000000,0.000000,0.000000,0.000000,0.000000,0.000000,0.000000,0.000000,0.000000,0.000000,0.000000,0.000000,0.070103,3,0
80000,0.000590,2.045555,-0.054767,0.018246,24.997923,0.000122,0.000008,0.000020,1.570845,0.000024,-0.000000,0.000013,-0.000000,0.000000,0.000000,0.000583,-0.000653,-0.041779,-0.046272,0.573673,0.573673,0.622594,1.005263,0.000000,0.000000,0.000000,0.000000,0.000000,0.000000,0.000000,0.000000,0.000000,0.000000,0.000000,0.000000,0.037789,3,0
90000,0.000723,2.301660,-0.049891,0.020230,24.998755,0.000744,0.000002,0.000024,1.570859,0.000015,-0.000000,0.000006,0.000000,0.000000,0.000000,0.001151,-0.000793,0.070055,0.051758,0.524488,0.524488,0.564865,1.005804,0.000000,0.000000,0.000000,0.000000,0.000000,0.000000,0.000000,0.000000,0.000000,0.000000,0.000000,0.000000,0.063935,3,0
100000,0.000870,2.557479,-0.048829,0.022291,24.999599,0.001002,0.000004,0.000029,1.570858,0.000004,-0.000000,0.000004,0.000000,-0.000000,-0.000000,0.000825,-0.000946,0.072368,0.012208,0.483304,0.483303,0.517162,1.006305,0.000000,0.000000,0.000000,0.000000,0.000000,0.000000,0.000000,0.000000,0.000000,0.000000,0.000000,0.000000,0.066544,3,0
110000,0.001030,2.816050,-0.048600,0.024333,25.001001,0.000977,0.000012,0.000032,1.570859,-0.000017,-0.000001,0.000004,0.000000,-0.000000,-0.000000,0.002031,-0.001114,0.114724,0.002764,0.448354,0.448354,0.477121,1.006759,0.000000,0.000000,0.000000,0.000000,0.000000,0.000000,0.000000,0.000000,0.000000,0.000000,0.000000,0.000000,0.106156,3,0
120000,0.001204,3.067120,-0.046411,0.026366,25.001392,0.001255,0.000014,0.000025,1.570868,-0.000021,-0.000001,-0.000002,0.000000,-0.000000,-0.000000,0.000170,-0.001294,0.015170,0.029519,0.418359,0.418359,0.443071,1.007155,0.000000,0.000000,0.000000,0.000000,0.000000,0.000000,0.000000,0.000000,0.000000,0.000000,0.000000,0.000000,0.014164,3,0
130000,0.001390,3.323808,-0.044335,0.028330,25.002779,0.001696,0.000010,0.000042,1.570867,-0.000047,-0.000001,-0.000010,0.000000,-0.000001,-0.000000,0.001761,-0.001487,0.102039,0.029906,0.392369,0.392369,0.413797,1.007487,0.000000,0.000000,0.000000,0.000000,0.000000,0.000000,0.000000,0.000000,0.000000,0.000000,0.000000,0.000000,0.095376,3,0
140000,0.001590,3.576555,-0.046985,0.030393,25.003485,0.001339,0.000006,0.000047,1.570869,-0.000060,-0.000002,0.000002,0.000000,-0.000001,-0.000000,0.000570,-0.001694,0.044126,-0.041221,0.369667,0.369667,0.388393,1.007746,0.000000,0.000000,0.000000,0.000000,0.000000,0.000000,0.000000,0.000000,0.000000,0.000000,0.000000,0.000000,0.041438,3,0
150000,0.001803,3.830653,-0.044513,0.032451,25.004665,0.002047,-0.000003,0.000061,1.570873,-0.000083,-0.000002,-0.000011,0.000000,-0.000002,-0.000000,0.001016,-0.001915,0.069675,0.040256,0.349695,0.349695,0.366172,1.007923,0.000000,0.000000,0.000000,0.000000,0.000000,0.000000,0.000000,0.000000,0.000000,0.000000,0.000000,0.000000,0.065639,3,0
160000,0.002029,4.086997,-0.047422,0.034492,25.006554,0.001346,0.000000,0.000075,1.570872,-0.000126,-0.000003,0.000008,0.000000,-0.000003,-0.000000,0.002442,-0.002148,0.113750,-0.050713,0.332021,0.332021,0.346600,1.008011,0.000000,0.000000,0.000000,0.000000,0.000000,0.000000,0.000000,0.000000,0.000000,0.000000,0.000000,0.000000,0.107474,3,0
170000,0.002269,4.336881,-0.045440,0.036509,25.006676,0.001941,-0.000009,0.000082,1.570881,-0.000125,-0.000004,-0.000007,0.000000,-0.000003,-0.000000,0.000205,-0.002395,-0.003460,0.035855,0.316298,0.316298,0.329260,1.008002,0.000000,0.000000,0.000000,0.000000,0.000000,0.000000,0.000000,0.000000,0.000000,0.000000,0.000000,0.000000,0.003986,3,0
180000,0.002520,4.590210,-0.045940,0.038448,25.007931,0.001883,-0.000001,0.000101,1.570879,-0.000156,-0.000006,-0.000003,0.000000,-0.000003,-0.000000,0.000680,-0.002654,0.064717,-0.009950,0.302247,0.302247,0.313817,1.007887,0.000000,0.000000,0.000000,0.000000,0.000000,0.000000,0.000000,0.000000,0.000000,0.000000,0.000000,0.000000,0.061508,3,0
190000,0.002783,4.841742,-0.043864,0.040393,25.008619,0.002621,0.000005,0.000097,1.570876,-0.000172,-0.000007,-0.000024,0.000000,-0.000004,-0.000000,0.000412,-0.002924,0.030044,0.041125,0.289642,0.289642,0.300003,1.007658,0.000000,0.000000,0.000000,0.000000,0.000000,0.000000,0.000000,0.000000,0.000000,0.000000,0.000000,0.000000,0.028728,3,0
200000,0.003059,5.097229,-0.041656,0.042372,25.010818,0.003707,0.000003,0.000117,1.570881,-0.000239,-0.000009,-0.000050,0.000000,-0.000006,-0.000000,0.002485,-0.003207,0.116448,0.045453,0.278296,0.278296,0.287598,1.007309,0.000000,0.000000,0.000000,0.000000,0.000000,0.000000,0.000000,0.000000,0.000000,0.000000,0.000000,0.000000,0.111089,3,0
210000,0.003346,5.353561,-0.042739,0.044348,25.013700,0.003556,-0.000004,0.000144,1.570896,-0.000329,-0.000011,-0.000035,0.000000,-0.000008,-0.000000,0.003183,-0.003503,0.139241,-0.024362,0.268055,0.268055,0.276421,1.006832,0.000000,0.000000,0.000000,0.000000,0.000000,0.000000,0.000000,0.000000,0.000000,0.000000,0.000000,0.000000,0.133062,3,0
220000,0.003647,5.609795,-0.041112,0.046382,25.016678,0.004312,0.000005,0.000185,1.570912,-0.000427,-0.000014,-0.000059,0.000000,-0.000011,-0.000000,0.003391,-0.003811,0.141307,0.035826,0.258788,0.258788,0.266321,1.006220,0.000000,0.000000,0.000000,0.000000,0.000000,0.000000,0.000000,0.000000,0.000000,0.000000,0.000000,0.000000,0.135262,3,0
230000,0.003958,5.860973,-0.040455,0.048246,25.017382,0.004613,0.000010,0.000198,1.570919,-0.000446,-0.000017,-0.000070,0.000001,-0.000012,-0.000000,0.000129,-0.004130,0.024196,0.014319,0.250387,0.250387,0.257172,1.005465,0.000000,0.000000,0.000000,0.000000,0.000000,0.000000,0.000000,0.000000,0.000000,0.000000,0.000000,0.000000,0.023521,3,0
240000,0.004279,6.118050,-0.039058,0.050077,25.021200,0.005205,0.000009,0.000235,1.570922,-0.000587,-0.000021,-0.000097,0.000001,-0.000017,-0.000000,0.004827,-0.004459,0.170589,0.032585,0.242757,0.242758,0.248866,1.004561,0.000000,0.000000,0.000000,0.000000,0.000000,0.000000,0.000000,0.000000,0.000000,0.000000,0.000000,0.000000,0.163743,3,0
250000,0.004612,6.372675,-0.038039,0.052040,25.023830,0.006006,0.000000,0.000271,1.570930,-0.000687,-0.000025,-0.000118,0.000001,-0.000020,-0.000000,0.002114,-0.004800,0.112264,0.023979,0.235820,0.235821,0.241314,1.003502,0.000000,0.000000,0.000000,0.000000,0.000000,0.000000,0.000000,0.000000,0.000000,0.000000,0.000000,0.000000,0.107950,3,0
260000,0.004955,6.625832,-0.037421,0.053913,25.025679,0.006368,-0.000008,0.000295,1.570935,-0.000760,-0.000030,-0.000131,0.000001,-0.000023,-0.000000,0.000970,-0.005152,0.076280,0.014262,0.229507,0.229507,0.234436,1.002282,0.000000,0.000000,0.000000,0.000000,0.000000,0.000000,0.000000,0.000000,0.000000,0.000000,0.000000,0.000000,0.073529,3,0
270000,0.005309,6.877649,-0.038521,0.055872,25.026947,0.005841,-0.000017,0.000313,1.570943,-0.000803,-0.000036,-0.000100,0.000001,-0.000025,-0.000001,0.000435,-0.005515,0.041771,-0.030636,0.223757,0.223758,0.228166,1.000894,0.000000,0.000000,0.000000,0.000000,0.000000,0.000000,0.000000,0.000000,0.000000,0.000000,0.000000,0.000000,0.040563,3,0
280000,0.005673,7.133302,-0.037955,0.057667,25.030807,0.006420,-0.000026,0.000362,1.570960,-0.000966,-0.000042,-0.000115,0.000001,-0.000031,-0.000001,0.003542,-0.005887,0.147763,0.013598,0.218519,0.218520,0.222444,0.999334,0.000000,0.000000,0.000000,0.000000,0.000000,0.000000,0.000000,0.000000,0.000000,0.000000,0.000000,0.000000,0.142495,3,0
290000,0.006046,7.387556,-0.037037,0.059437,25.033756,0.006935,-0.000019,0.000403,1.570964,-0.001097,-0.000049,-0.000142,0.000002,-0.000036,-0.000001,0.002067,-0.006269,0.110741,0.023611,0.213748,0.213749,0.217219,0.997595,0.000000,0.000000,0.000000,0.000000,0.000000,0.000000,0.000000,0.000000,0.000000,0.000000,0.000000,0.000000,0.106967,3,0
300000,0.006427,7.639823,-0.036903,0.061223,25.035444,0.007253,-0.000028,0.000425,1.570968,-0.001166,-0.000058,-0.000145,0.000002,-0.000039,-0.000001,0.000499,-0.006660,0.055245,0.001754,0.209403,0.209404,0.212447,0.995675,0.000000,0.000000,0.000000,0.000000,0.000000,0.000000,0.000000,0.000000,0.000000,0.000000,0.000000,0.000000,0.053703,3,0
310000,0.006817,7.896366,-0.035911,0.062963,25.040684,0.007879,-0.000032,0.000507,1.570979,-0.001407,-0.000067,-0.000180,0.000003,-0.000050,-0.000001,0.005375,-0.007059,0.180660,0.026527,0.205448,0.205449,0.208087,0.993568,0.000000,0.000000,0.000000,0.000000,0.000000,0.000000,0.000000,0.000000,0.000000,0.000000,0.000000,0.000000,0.174607,3,0
320000,0.007216,8.151577,-0.036904,0.064808,25.044941,0.007222,-0.000033,0.000563,1.570985,-0.001609,-0.000078,-0.000135,0.000003,-0.000059,-0.000001,0.003451,-0.007467,0.142733,-0.031562,0.201853,0.201854,0.204105,0.991270,0.000000,0.000000,0.000000,0.000000,0.000000,0.000000,0.000000,0.000000,0.000000,0.000000,0.000000,0.000000,0.138120,3,0
330000,0.007623,8.405541,-0.036787,0.066569,25.048233,0.007182,-0.000029,0.000624,1.571005,-0.001768,-0.000090,-0.000138,0.000004,-0.000067,-0.000001,0.001826,-0.007884,0.106148,0.001367,0.198588,0.198590,0.200469,0.988779,0.000000,0.000000,0.000000,0.000000,0.000000,0.000000,0.000000,0.000000,0.000000,0.000000,0.000000,0.000000,0.102917,3,0
340000,0.008037,8.660928,-0.036499,0.068256,25.052994,0.007529,-0.000034,0.000692,1.571013,-0.002006,-0.000103,-0.000148,0.000004,-0.000079,-0.000002,0.003662,-0.008308,0.150334,0.006524,0.195628,0.195630,0.197151,0.986090,0.000000,0.000000,0.000000,0.000000,0.000000,0.000000,0.000000,0.000000,0.000000,0.000000,0.000000,0.000000,0.145654,3,0
350000,0.008459,8.917029,-0.036714,0.069975,25.058510,0.007560,-0.000039,0.000776,1.571030,-0.002295,-0.000117,-0.000133,0.000005,-0.000093,-0.000002,0.004865,-0.008740,0.173205,-0.009056,0.192951,0.192953,0.194126,0.983203,0.000000,0.000000,0.000000,0.000000,0.000000,0.000000,0.000000,0.000000,0.000000,0.000000,0.000000,0.000000,0.167848,3,0
360000,0.008887,9.172557,-0.037245,0.071663,25.063623,0.007115,-0.000041,0.000868,1.571034,-0.002568,-0.000133,-0.000100,0.000006,-0.000107,-0.000002,0.003979,-0.009178,0.155596,-0.019071,0.190535,0.190537,0.191370,0.980114,0.000000,0.000000,0.000000,0.000000,0.000000,0.000000,0.000000,0.000000,0.000000,0.000000,0.000000,0.000000,0.150917,3,0
370000,0.009322,9.428793,-0.037974,0.073410,25.069649,0.006522,-0.000045,0.000984,1.571041,-0.002897,-0.000151,-0.000053,0.000007,-0.000125,-0.000003,0.005253,-0.009624,0.178322,-0.025448,0.188362,0.188365,0.188864,0.976822,0.000000,0.000000,0.000000,0.000000,0.000000,0.000000,0.000000,0.000000,0.000000,0.000000,0.000000,0.000000,0.172975,3,0
380000,0.009762,9.683864,-0.036680,0.074982,25.074598,0.007733,-0.000051,0.001070,1.571048,-0.003169,-0.000170,-0.000129,0.000008,-0.000140,-0.000003,0.003465,-0.010075,0.140693,0.039501,0.186414,0.186417,0.186587,0.973327,0.000000,0.000000,0.000000,0.000000,0.000000,0.000000,0.000000,0.000000,0.000000,0.000000,0.000000,0.000000,0.136670,3,0
390000,0.010208,9.939656,-0.035967,0.076685,25.080450,0.008590,-0.000052,0.001187,1.571071,-0.003501,-0.000192,-0.000171,0.000009,-0.000159,-0.000003,0.004425,-0.010533,0.163877,0.020603,0.184676,0.184679,0.184523,0.969628,0.000000,0.000000,0.000000,0.000000,0.000000,0.000000,0.000000,0.000000,0.000000,0.000000,0.000000,0.000000,0.159161,3,0
400000,0.010660,10.194331,-0.035595,0.078311,25.085247,0.008945,-0.000059,0.001285,1.571078,-0.003769,-0.000215,-0.000190,0.000010,-0.000175,-0.000004,0.002627,-0.010995,0.126694,0.009365,0.183132,0.183136,0.182656,0.965724,0.000000,0.000000,0.000000,0.000000,0.000000,0.000000,0.000000,0.000000,0.000000,0.000000,0.000000,0.000000,0.123288,3,0
410000,0.011117,10.447932,-0.036460,0.080004,25.088758,0.008215,-0.000072,0.001348,1.571091,-0.003969,-0.000240,-0.000120,0.000012,-0.000187,-0.000004,0.001512,-0.011464,0.090639,-0.031727,0.181770,0.181774,0.180972,0.961618,0.000000,0.000000,0.000000,0.000000,0.000000,0.000000,0.000000,0.000000,0.000000,0.000000,0.000000,0.000000,0.088594,3,0
420000,0.011576,10.702294,-0.035748,0.081478,25.093340,0.009132,-0.000082,0.001437,1.571101,-0.004235,-0.000268,-0.000169,0.000014,-0.000203,-0.000004,0.002243,-0.011936,0.115307,0.020976,0.180577,0.180581,0.179457,0.957309,0.000000,0.000000,0.000000,0.000000,0.000000,0.000000,0.000000,0.000000,0.000000,0.000000,0.000000,0.000000,0.112434,3,0
430000,0.012040,10.957992,-0.035654,0.083089,25.099592,0.009441,-0.000092,0.001559,1.571115,-0.004616,-0.000298,-0.000169,0.000016,-0.000227,-0.000005,0.004117,-0.012412,0.159083,0.000001,0.179542,0.179546,0.178098,0.952799,0.000000,0.000000,0.000000,0.000000,0.000000,0.000000,0.000000,0.000000,0.000000,0.000000,0.000000,0.000000,0.154792,3,0
440000,0.012508,11.212030,-0.036968,0.084628,25.103714,0.007931,-0.000095,0.001655,1.571126,-0.004871,-0.000330,-0.000050,0.000017,-0.000243,-0.000005,0.002083,-0.012892,0.102114,-0.047849,0.178652,0.178657,0.176884,0.948091,0.000000,0.000000,0.000000,0.000000,0.000000,0.000000,0.000000,0.000000,0.000000,0.000000,0.000000,0.000000,0.099860,3,0
450000,0.012979,11.466817,-0.036695,0.086194,25.108988,0.008427,-0.000116,0.001760,1.571142,-0.005198,-0.000364,-0.000067,0.000020,-0.000265,-0.000005,0.002617,-0.013375,0.126337,0.006542,0.177900,0.177905,0.175804,0.943187,0.000000,0.000000,0.000000,0.000000,0.000000,0.000000,0.000000,0.000000,0.000000,0.000000,0.000000,0.000000,0.123276,3,0
460000,0.013450,11.722924,-0.036942,0.087564,25.116093,0.008039,-0.000132,0.001923,1.571160,-0.005654,-0.000401,-0.000036,0.000022,-0.000296,-0.000006,0.004709,-0.013860,0.169681,-0.011372,0.177274,0.177280,0.174849,0.938090,0.000000,0.000000,0.000000,0.000000,0.000000,0.000000,0.000000,0.000000,0.000000,0.000000,0.000000,0.000000,0.165216,3,0
470000,0.013924,11.976811,-0.036932,0.089078,25.120169,0.008001,-0.000140,0.002014,1.571166,-0.005911,-0.000441,-0.000029,0.000025,-0.000314,-0.000006,0.001416,-0.014347,0.092414,-0.002442,0.176767,0.176773,0.174008,0.932804,0.000000,0.000000,0.000000,0.000000,0.000000,0.000000,0.000000,0.000000,0.000000,0.000000,0.000000,0.000000,0.090766,3,0
480000,0.014400,12.230865,-0.037804,0.090541,25.124523,0.006841,-0.000157,0.002116,1.571173,-0.006190,-0.000484,0.000066,0.000028,-0.000334,-0.000007,0.001731,-0.014836,0.096911,-0.032999,0.176370,0.176376,0.173273,0.927334,0.000000,0.000000,0.000000,0.000000,0.000000,0.000000,0.000000,0.000000,0.000000,0.000000,0.000000,0.000000,0.095159,3,0
490000,0.014876,12.489168,-0.037022,0.091975,25.134853,0.007845,-0.000176,0.002365,1.571195,-0.006906,-0.000530,-0.000008,0.000031,-0.000386,-0.000008,0.009486,-0.015326,0.240393,0.024780,0.176074,0.176080,0.172636,0.921683,0.000000,0.000000,0.000000,0.000000,0.000000,0.000000,0.000000,0.000000,0.000000,0.000000,0.000000,0.000000,0.233812,3,0
500000,0.015353,12.744656,-0.038308,0.093356,25.141308,0.006182,-0.000193,0.002524,1.571209,-0.007340,-0.000578,0.000139,0.000035,-0.000418,-0.000009,0.003625,-0.015816,0.141016,-0.047610,0.175873,0.175880,0.172089,0.915856,0.000000,0.000000,0.000000,0.000000,0.000000,0.000000,0.000000,0.000000,0.000000,0.000000,0.000000,0.000000,0.137740,3,0
510000,0.015828,13.000871,-0.038190,0.094573,25.148750,0.006499,-0.000208,0.002717,1.571228,-0.007859,-0.000630,0.000133,0.000039,-0.000457,-0.000009,0.004383,-0.016306,0.163770,0.001849,0.175759,0.175766,0.171624,0.909859,0.000000,0.000000,0.000000,0.000000,0.000000,0.000000,0.000000,0.000000,0.000000,0.000000,0.000000,0.000000,0.159758,3,0
520000,0.016302,13.255476,-0.038816,0.095735,25.153868,0.005816,-0.000221,0.002847,1.571236,-0.008207,-0.000685,0.000213,0.000043,-0.000484,-0.000010,0.001968,-0.016793,0.106269,-0.024287,0.175726,0.175734,0.171236,0.903698,0.000000,0.000000,0.000000,0.000000,0.000000,0.000000,0.000000,0.000000,0.000000,0.000000,0.000000,0.000000,0.104436,3,0
530000,0.016773,13.511991,-0.039573,0.096982,25.161928,0.004796,-0.000245,0.003043,1.571254,-0.008778,-0.000743,0.000310,0.000047,-0.000530,-0.000011,0.004839,-0.017279,0.169675,-0.028668,0.175767,0.175776,0.170916,0.897378,0.000000,0.000000,0.000000,0.000000,0.000000,0.000000,0.000000,0.000000,0.000000,0.000000,0.000000,0.000000,0.165556,3,0
540000,0.017244,13.769809,-0.041066,0.098237,25.172012,0.002736,-0.000274,0.003312,1.571286,-0.009509,-0.000804,0.000499,0.000052,-0.000589,-0.000012,0.007747,-0.017764,0.211262,-0.054182,0.175877,0.175886,0.170661,0.890907,0.000000,0.000000,0.000000,0.000000,0.000000,0.000000,0.000000,0.000000,0.000000,0.000000,0.000000,0.000000,0.205792,3,0
550000,0.017711,14.028915,-0.041924,0.099337,25.184000,0.001744,-0.000289,0.003628,1.571321,-0.010404,-0.000869,0.000611,0.000057,-0.000663,-0.000014,0.010447,-0.018246,0.251528,-0.031237,0.176050,0.176059,0.170462,0.884290,0.000000,0.000000,0.000000,0.000000,0.000000,0.000000,0.000000,0.000000,0.000000,0.000000,0.000000,0.000000,0.244789,3,0
560000,0.018174,14.284623,-0.043236,0.100367,25.190567,-0.000010,-0.000306,0.003809,1.571345,-0.010884,-0.000938,0.000784,0.000063,-0.000703,-0.000015,0.003208,-0.018723,0.131454,-0.046875,0.176280,0.176290,0.170316,0.877535,0.000000,0.000000,0.000000,0.000000,0.000000,0.000000,0.000000,0.000000,0.000000,0.000000,0.000000,0.000000,0.128879,3,0
570000,0.018633,14.543406,-0.044345,0.101373,25.201971,-0.001435,-0.000327,0.004134,1.571367,-0.011759,-0.001009,0.000932,0.000068,-0.000779,-0.000016,0.009127,-0.019197,0.233500,-0.039151,0.176562,0.176573,0.170217,0.870649,0.000000,0.000000,0.000000,0.000000,0.000000,0.000000,0.000000,0.000000,0.000000,0.000000,0.000000,0.000000,0.227393,3,0
580000,0.019085,14.800545,-0.043381,0.102365,25.210800,0.000082,-0.000354,0.004383,1.571384,-0.012425,-0.001085,0.000797,0.000075,-0.000837,-0.000017,0.005118,-0.019665,0.173390,0.034462,0.176892,0.176903,0.170160,0.863640,0.000000,0.000000,0.000000,0.000000,0.000000,0.000000,0.000000,0.000000,0.000000,0.000000,0.000000,0.000000,0.169357,3,0
590000,0.019533,15.060756,-0.042869,0.103399,25.224634,0.001077,-0.000374,0.004774,1.571418,-0.013503,-0.001164,0.000725,0.000083,-0.000934,-0.000019,0.012259,-0.020128,0.273983,0.017932,0.177264,0.177276,0.170141,0.856516,0.000000,0.000000,0.000000,0.000000,0.000000,0.000000,0.000000,0.000000,0.000000,0.000000,0.000000,0.000000,0.266605,3,0
600000,0.019979,15.318124,-0.044380,0.104434,25.233744,-0.000917,-0.000411,0.005032,1.571442,-0.014198,-0.001247,0.000945,0.000090,-0.000997,-0.000021,0.005358,-0.020588,0.172666,-0.053726,0.177675,0.177687,0.170155,0.849283,0.000000,0.000000,0.000000,0.000000,0.000000,0.000000,0.000000,0.000000,0.000000,0.000000,0.000000,0.000000,0.168739,3,0
610000,0.020417,15.578575,-0.043815,0.105301,25.247816,-0.000022,-0.000439,0.005459,1.571485,-0.015321,-0.001333,0.000859,0.000098,-0.001102,-0.000023,0.012193,-0.021043,0.273026,0.020231,0.178120,0.178132,0.170199,0.841950,0.000000,0.000000,0.000000,0.000000,0.000000,0.000000,0.000000,0.000000,0.000000,0.000000,0.000000,0.000000,0.265706,3,0
620000,0.020849,15.834982,-0.042575,0.106225,25.255085,0.001784,-0.000469,0.005684,1.571510,-0.015875,-0.001423,0.000672,0.000107,-0.001154,-0.000024,0.003189,-0.021490,0.131708,0.043677,0.178595,0.178608,0.170268,0.834526,0.000000,0.000000,0.000000,0.000000,0.000000,0.000000,0.000000,0.000000,0.000000,0.000000,0.000000,0.000000,0.129477,3,0
630000,0.021276,16.095093,-0.042348,0.107107,25.268526,0.002082,-0.000496,0.006099,1.571555,-0.016961,-0.001517,0.000638,0.000116,-0.001259,-0.000026,0.010430,-0.021931,0.252928,0.007377,0.179097,0.179111,0.170359,0.827017,0.000000,0.000000,0.000000,0.000000,0.000000,0.000000,0.000000,0.000000,0.000000,0.000000,0.000000,0.000000,0.246297,3,0
640000,0.021699,16.352924,-0.043373,0.107963,25.277924,0.000810,-0.000537,0.006391,1.571580,-0.017713,-0.001615,0.000804,0.000125,-0.001334,-0.000028,0.005062,-0.022367,0.171595,-0.036892,0.179622,0.179637,0.170469,0.819433,0.000000,0.000000,0.000000,0.000000,0.000000,0.000000,0.000000,0.000000,0.000000,0.000000,0.000000,0.000000,0.167865,3,0
650000,0.022115,16.609688,-0.044050,0.108844,25.285515,-0.000207,-0.000584,0.006618,1.571605,-0.018305,-0.001717,0.000914,0.000135,-0.001393,-0.000029,0.003009,-0.022798,0.132334,-0.024113,0.180167,0.180182,0.170595,0.811782,0.000000,0.000000,0.000000,0.000000,0.000000,0.000000,0.000000,0.000000,0.000000,0.000000,0.000000,0.000000,0.130250,3,0
660000,0.022524,16.867785,-0.044615,0.109617,25.295244,-0.001087,-0.000618,0.006931,1.571631,-0.019095,-0.001823,0.001006,0.000146,-0.001474,-0.000031,0.005026,-0.023223,0.173679,-0.019779,0.180729,0.180744,0.170733,0.804070,0.000000,0.000000,0.000000,0.000000,0.000000,0.000000,0.000000,0.000000,0.000000,0.000000,0.000000,0.000000,0.169947,3,0
670000,0.022924,17.127203,-0.043591,0.110351,25.307135,0.000490,-0.000652,0.007318,1.571670,-0.020086,-0.001932,0.000831,0.000158,-0.001577,-0.000033,0.007683,-0.023639,0.213669,0.036337,0.181304,0.181320,0.170881,0.796308,0.000000,0.000000,0.000000,0.000000,0.000000,0.000000,0.000000,0.000000,0.000000,0.000000,0.000000,0.000000,0.208477,3,0
680000,0.023320,17.383717,-0.044980,0.111131,25.314114,-0.001687,-0.000687,0.007533,1.571686,-0.020619,-0.002045,0.001069,0.000169,-0.001633,-0.000034,0.002550,-0.024047,0.113161,-0.048888,0.181891,0.181907,0.171037,0.788502,0.000000,0.000000,0.000000,0.000000,0.000000,0.000000,0.000000,0.000000,0.000000,0.000000,0.000000,0.000000,0.112180,3,0
690000,0.023706,17.645203,-0.043994,0.111783,25.329453,-0.000088,-0.000740,0.008056,1.571730,-0.021934,-0.002162,0.000894,0.000182,-0.001775,-0.000037,0.012432,-0.024451,0.274036,0.035133,0.182486,0.182503,0.171198,0.780660,0.000000,0.000000,0.000000,0.000000,0.000000,0.000000,0.000000,0.000000,0.000000,0.000000,0.000000,0.000000,0.266757,3,0
700000,0.024084,17.901920,-0.043163,0.112415,25.336378,0.001172,-0.000786,0.008277,1.571741,-0.022479,-0.002283,0.000746,0.000196,-0.001835,-0.000038,0.002256,-0.024843,0.111790,0.029100,0.183087,0.183105,0.171362,0.772791,0.000000,0.000000,0.000000,0.000000,0.000000,0.000000,0.000000,0.000000,0.000000,0.000000,0.000000,0.000000,0.111021,3,0
710000,0.024456,18.163031,-0.044270,0.112928,25.350870,-0.000507,-0.000826,0.008775,1.571781,-0.023730,-0.002408,0.000946,0.000209,-0.001975,-0.000041,0.010658,-0.025226,0.252581,-0.039139,0.183692,0.183710,0.171527,0.764901,0.000000,0.000000,0.000000,0.000000,0.000000,0.000000,0.000000,0.000000,0.000000,0.000000,0.000000,0.000000,0.246065,3,0
720000,0.024816,18.424835,-0.043264,0.113487,25.366455,0.000918,-0.000870,0.009335,1.571831,-0.025085,-0.002536,0.000759,0.000224,-0.002129,-0.000044,0.012053,-0.025604,0.269630,0.035392,0.184299,0.184318,0.171690,0.756999,0.000000,0.000000,0.000000,0.000000,0.000000,0.000000,0.000000,0.000000,0.000000,0.000000,0.000000,0.000000,0.262522,3,0
730000,0.025171,18.686714,-0.044090,0.114033,25.381908,-0.000287,-0.000927,0.009891,1.571871,-0.026443,-0.002669,0.000913,0.000239,-0.002286,-0.000047,0.011684,-0.025970,0.266094,-0.029146,0.184906,0.184925,0.171852,0.749092,0.000000,0.000000,0.000000,0.000000,0.000000,0.000000,0.000000,0.000000,0.000000,0.000000,0.000000,0.000000,0.259118,3,0
740000,0.025515,18.944359,-0.043751,0.114453,25.389837,0.000164,-0.000984,0.010165,1.571896,-0.027081,-0.002805,0.000848,0.000255,-0.002361,-0.000049,0.002592,-0.026330,0.123335,0.011922,0.185511,0.185531,0.172009,0.741187,0.000000,0.000000,0.000000,0.000000,0.000000,0.000000,0.000000,0.000000,0.000000,0.000000,0.000000,0.000000,0.122215,3,0
750000,0.025849,19.204588,-0.042881,0.114826,25.402300,0.001407,-0.001044,0.010610,1.571936,-0.028148,-0.002944,0.000680,0.000272,-0.002489,-0.000052,0.006955,-0.026678,0.203548,0.030289,0.186113,0.186133,0.172160,0.733291,0.000000,0.000000,0.000000,0.000000,0.000000,0.000000,0.000000,0.000000,0.000000,0.000000,0.000000,0.000000,0.198920,3,0
760000,0.026177,19.462427,-0.044149,0.115241,25.410480,-0.000564,-0.001094,0.010897,1.571958,-0.028797,-0.003088,0.000928,0.000289,-0.002568,-0.000053,0.002848,-0.027016,0.122107,-0.044629,0.186710,0.186731,0.172305,0.725410,0.000000,0.000000,0.000000,0.000000,0.000000,0.000000,0.000000,0.000000,0.000000,0.000000,0.000000,0.000000,0.121167,3,0
770000,0.026494,19.720995,-0.043711,0.115675,25.419821,0.000357,-0.001148,0.011244,1.571976,-0.029563,-0.003234,0.000840,0.000308,-0.002663,-0.000055,0.003437,-0.027349,0.142490,0.015333,0.187301,0.187323,0.172441,0.717552,0.000000,0.000000,0.000000,0.000000,0.000000,0.000000,0.000000,0.000000,0.000000,0.000000,0.000000,0.000000,0.140562,3,0
780000,0.026806,19.981531,-0.044847,0.116112,25.432356,-0.001426,-0.001201,0.011717,1.572003,-0.030662,-0.003385,0.001067,0.000326,-0.002801,-0.000058,0.006958,-0.027671,0.201891,-0.039595,0.187885,0.187907,0.172569,0.709722,0.000000,0.000000,0.000000,0.000000,0.000000,0.000000,0.000000,0.000000,0.000000,0.000000,0.000000,0.000000,0.197397,3,0
790000,0.027110,20.239019,-0.045966,0.116537,25.439417,-0.002924,-0.001266,0.011965,1.572031,-0.031214,-0.003539,0.001291,0.000345,-0.002872,-0.000060,0.001988,-0.027987,0.100260,-0.038448,0.188460,0.188483,0.172686,0.701926,0.000000,0.000000,0.000000,0.000000,0.000000,0.000000,0.000000,0.000000,0.000000,0.000000,0.000000,0.000000,0.100824,3,0
800000,0.027401,20.501627,-0.045179,0.116810,25.455366,-0.001462,-0.001345,0.012604,1.572084,-0.032662,-0.003696,0.001121,0.000366,-0.003060,-0.000063,0.011184,-0.028294,0.260159,0.028280,0.189026,0.189049,0.172793,0.694171,0.000000,0.000000,0.000000,0.000000,0.000000,0.000000,0.000000,0.000000,0.000000,0.000000,0.000000,0.000000,0.253446,3,0
810000,0.027684,20.759884,-0.045434,0.117051,25.463547,-0.001686,-0.001418,0.012912,1.572118,-0.033319,-0.003857,0.001170,0.000387,-0.003147,-0.000065,0.002340,-0.028587,0.116665,-0.008425,0.189582,0.189605,0.172888,0.686461,0.000000,0.000000,0.000000,0.000000,0.000000,0.000000,0.000000,0.000000,0.000000,0.000000,0.000000,0.000000,0.116320,3,0
820000,0.027956,21.022018,-0.044627,0.117214,25.478514,-0.000223,-0.001485,0.013508,1.572152,-0.034660,-0.004020,0.000994,0.000410,-0.003327,-0.000069,0.009256,-0.028872,0.236023,0.028521,0.190127,0.190151,0.172971,0.678802,0.000000,0.000000,0.000000,0.000000,0.000000,0.000000,0.000000,0.000000,0.000000,0.000000,0.000000,0.000000,0.230246,3,0
830000,0.028219,21.282936,-0.044080,0.117469,25.491037,0.000758,-0.001554,0.014018,1.572181,-0.035764,-0.004187,0.000875,0.000433,-0.003478,-0.000072,0.006170,-0.029147,0.192410,0.019014,0.190661,0.190685,0.173042,0.671198,0.000000,0.000000,0.000000,0.000000,0.000000,0.000000,0.000000,0.000000,0.000000,0.000000,0.000000,0.000000,0.188420,3,0
840000,0.028474,21.545179,-0.043950,0.117578,25.505732,0.000882,-0.001628,0.014633,1.572220,-0.037093,-0.004357,0.000845,0.000456,-0.003662,-0.000076,0.008645,-0.029412,0.229549,0.004300,0.191182,0.191207,0.173099,0.663656,0.000000,0.000000,0.000000,0.000000,0.000000,0.000000,0.000000,0.000000,0.000000,0.000000,0.000000,0.000000,0.224051,3,0
850000,0.028721,21.804287,-0.044430,0.117743,25.514688,0.000113,-0.001714,0.014991,1.572245,-0.037831,-0.004530,0.000951,0.000481,-0.003766,-0.000078,0.002758,-0.029668,0.126190,-0.016937,0.191692,0.191717,0.173143,0.656178,0.000000,0.000000,0.000000,0.000000,0.000000,0.000000,0.000000,0.000000,0.000000,0.000000,0.000000,0.000000,0.125489,3,0
860000,0.028961,22.065384,-0.045902,0.117830,25.527105,-0.002047,-0.001794,0.015512,1.572282,-0.038922,-0.004707,0.001275,0.000505,-0.003923,-0.000081,0.006090,-0.029916,0.185053,-0.051027,0.192188,0.192213,0.173173,0.648770,0.000000,0.000000,0.000000,0.000000,0.000000,0.000000,0.000000,0.000000,0.000000,0.000000,0.000000,0.000000,0.181449,3,0
870000,0.029189,22.324614,-0.046159,0.117845,25.536055,-0.002482,-0.001873,0.015864,1.572317,-0.039651,-0.004886,0.001326,0.000531,-0.004029,-0.000084,0.002583,-0.030157,0.122622,-0.008178,0.192671,0.192697,0.173189,0.641435,0.000000,0.000000,0.000000,0.000000,0.000000,0.000000,0.000000,0.000000,0.000000,0.000000,0.000000,0.000000,0.122220,3,0
880000,0.029405,22.583912,-0.045397,0.117930,25.545025,-0.001440,-0.001950,0.016223,1.572340,-0.040380,-0.005067,0.001146,0.000558,-0.004137,-0.000086,0.002660,-0.030385,0.121729,0.027287,0.193141,0.193167,0.173191,0.634177,0.000000,0.000000,0.000000,0.000000,0.000000,0.000000,0.000000,0.000000,0.000000,0.000000,0.000000,0.000000,0.121426,3,0
890000,0.029618,22.844564,-0.046436,0.118055,25.556255,-0.002900,-0.002028,0.016702,1.572378,-0.041349,-0.005252,0.001378,0.000585,-0.004282,-0.000089,0.004511,-0.030603,0.160522,-0.035484,0.193597,0.193624,0.173179,0.626999,0.000000,0.000000,0.000000,0.000000,0.000000,0.000000,0.000000,0.000000,0.000000,0.000000,0.000000,0.000000,0.158140,3,0
900000,0.029817,23.105265,-0.045048,0.118130,25.567415,-0.000793,-0.002129,0.017175,1.572406,-0.042309,-0.005438,0.001048,0.000615,-0.004429,-0.000092,0.004579,-0.030817,0.158182,0.049084,0.194040,0.194067,0.173153,0.619905,0.000000,0.000000,0.000000,0.000000,0.000000,0.000000,0.000000,0.000000,0.000000,0.000000,0.000000,0.000000,0.155944,3,0
910000,0.030010,23.366011,-0.044752,0.118115,25.578522,-0.000391,-0.002211,0.017657,1.572440,-0.043262,-0.005627,0.000974,0.000644,-0.004577,-0.000095,0.004088,-0.031016,0.155798,0.010566,0.194469,0.194497,0.173112,0.612898,0.000000,0.000000,0.000000,0.000000,0.000000,0.000000,0.000000,0.000000,0.000000,0.000000,0.000000,0.000000,0.153705,3,0
920000,0.030193,23.628094,-0.044338,0.118043,25.591951,0.000156,-0.002301,0.018253,1.572480,-0.044451,-0.005819,0.000871,0.000675,-0.004764,-0.000099,0.006205,-0.031208,0.193121,0.014570,0.194885,0.194913,0.173057,0.605979,0.000000,0.000000,0.000000,0.000000,0.000000,0.000000,0.000000,0.000000,0.000000,0.000000,0.000000,0.000000,0.189271,3,0
930000,0.030366,23.887611,-0.043189,0.117952,25.600546,0.002011,-0.002407,0.018623,1.572513,-0.045130,-0.006012,0.000595,0.000707,-0.004872,-0.000101,0.002359,-0.031391,0.109814,0.039715,0.195288,0.195316,0.172988,0.599152,0.000000,0.000000,0.000000,0.000000,0.000000,0.000000,0.000000,0.000000,0.000000,0.000000,0.000000,0.000000,0.110494,3,0
940000,0.030536,24.149780,-0.044469,0.117837,25.613821,0.000013,-0.002504,0.019224,1.572559,-0.046303,-0.006209,0.000905,0.000737,-0.005063,-0.000105,0.006196,-0.031562,0.188150,-0.045023,0.195677,0.195705,0.172906,0.592418,0.000000,0.000000,0.000000,0.000000,0.000000,0.000000,0.000000,0.000000,0.000000,0.000000,0.000000,0.000000,0.184556,3,0
950000,0.030698,24.411966,-0.045431,0.117789,25.626932,-0.001208,-0.002592,0.019826,1.572590,-0.047458,-0.006408,0.001136,0.000769,-0.005253,-0.000109,0.005818,-0.031732,0.184275,-0.033430,0.196053,0.196082,0.172809,0.585781,0.000000,0.000000,0.000000,0.000000,0.000000,0.000000,0.000000,0.000000,0.000000,0.000000,0.000000,0.000000,0.180875,3,0
960000,0.030849,24.670261,-0.045590,0.117671,25.632998,-0.001503,-0.002693,0.020067,1.572614,-0.047843,-0.006609,0.001171,0.000803,-0.005318,-0.000111,0.000770,-0.031893,0.061111,-0.005083,0.196417,0.196446,0.172699,0.579241,0.000000,0.000000,0.000000,0.000000,0.000000,0.000000,0.000000,0.000000,0.000000,0.000000,0.000000,0.000000,0.066676,3,0
970000,0.030992,24.931883,-0.045558,0.117526,25.644762,-0.001523,-0.002800,0.020615,1.572657,-0.048859,-0.006811,0.001156,0.000837,-0.005491,-0.000114,0.004322,-0.032043,0.160576,0.001683,0.196768,0.196797,0.172576,0.572800,0.000000,0.000000,0.000000,0.000000,0.000000,0.000000,0.000000,0.000000,0.000000,0.000000,0.000000,0.000000,0.158372,3,0
980000,0.031124,25.193523,-0.044718,0.117323,25.656500,-0.000317,-0.002901,0.021160,1.572696,-0.049858,-0.007015,0.000936,0.000873,-0.005663,-0.000118,0.004297,-0.032184,0.157261,0.029809,0.197107,0.197136,0.172440,0.566460,0.000000,0.000000,0.000000,0.000000,0.000000,0.000000,0.000000,0.000000,0.000000,0.000000,0.000000,0.000000,0.155246,3,0
990000,0.031249,25.455835,-0.044340,0.117093,25.669312,0.000283,-0.003012,0.021755,1.572733,-0.050967,-0.007220,0.000835,0.000910,-0.005857,-0.000122,0.005066,-0.032314,0.173809,0.013304,0.197434,0.197463,0.172291,0.560221,0.000000,0.000000,0.000000,0.000000,0.000000,0.000000,0.000000,0.000000,0.000000,0.000000,0.000000,0.000000,0.170969,3,0
1000000,0.031367,25.716188,-0.044038,0.116868,25.678555,0.000884,-0.003125,0.022164,1.572751,-0.051672,-0.007427,0.000755,0.000947,-0.005983,-0.000125,0.002143,-0.032437,0.110157,0.010395,0.197749,0.197779,0.172130,0.554085,0.000000,0.000000,0.000000,0.000000,0.000000,0.000000,0.000000,0.000000,0.000000,0.000000,0.000000,0.000000,0.111047,3,0
1010000,0.031478,25.977228,-0.044419,0.116587,25.688719,0.000396,-0.003240,0.022638,1.572786,-0.052496,-0.007637,0.000853,0.000984,-0.006131,-0.000128,0.002842,-0.032551,0.128016,-0.013607,0.198054,0.198084,0.171957,0.548053,0.000000,0.000000,0.000000,0.000000,0.000000,0.000000,0.000000,0.000000,0.000000,0.000000,0.000000,0.000000,0.127728,3,0
1020000,0.031576,26.236971,-0.043421,0.116192,25.696547,0.001857,-0.003358,0.022983,1.572809,-0.053048,-0.007846,0.000591,0.001024,-0.006232,-0.000130,0.001546,-0.032659,0.085541,0.034700,0.198348,0.198377,0.171772,0.542124,0.000000,0.000000,0.000000,0.000000,0.000000,0.000000,0.000000,0.000000,0.000000,0.000000,0.000000,0.000000,0.088536,3,0
1030000,0.031675,26.500044,-0.044859,0.115963,25.710117,0.000029,-0.003463,0.023648,1.572855,-0.054237,-0.008059,0.000970,0.001062,-0.006454,-0.000135,0.006021,-0.032755,0.183538,-0.050903,0.198631,0.198661,0.171576,0.536301,0.000000,0.000000,0.000000,0.000000,0.000000,0.000000,0.000000,0.000000,0.000000,0.000000,0.000000,0.000000,0.180264,3,0
1040000,0.031761,26.759146,-0.044553,0.115667,25.716509,0.000704,-0.003576,0.023904,1.572876,-0.054623,-0.008272,0.000888,0.001102,-0.006527,-0.000136,0.000762,-0.032851,0.059484,0.010578,0.198905,0.198935,0.171369,0.530582,0.000000,0.000000,0.000000,0.000000,0.000000,0.000000,0.000000,0.000000,0.000000,0.000000,0.000000,0.000000,0.065699,3,0
1050000,0.031843,27.018951,-0.045529,0.115365,25.724066,-0.000442,-0.003699,0.024241,1.572898,-0.055136,-0.008487,0.001151,0.001143,-0.006626,-0.000139,0.001364,-0.032933,0.078621,-0.034563,0.199169,0.199199,0.171151,0.524969,0.000000,0.000000,0.000000,0.000000,0.000000,0.000000,0.000000,0.000000,0.000000,0.000000,0.000000,0.000000,0.082410,3,0
1060000,0.031918,27.282753,-0.046463,0.115017,25.738636,-0.001754,-0.003822,0.024975,1.572946,-0.056420,-0.008703,0.001395,0.001184,-0.006876,-0.000144,0.006564,-0.033013,0.196440,-0.032480,0.199424,0.199454,0.170923,0.519462,0.000000,0.000000,0.000000,0.000000,0.000000,0.000000,0.000000,0.000000,0.000000,0.000000,0.000000,0.000000,0.192573,3,0
1070000,0.031980,27.544538,-0.045864,0.114581,25.749527,-0.000772,-0.003947,0.025504,1.572979,-0.057278,-0.008918,0.001222,0.001227,-0.007045,-0.000147,0.003029,-0.033084,0.131281,0.021700,0.199671,0.199701,0.170685,0.514059,0.000000,0.000000,0.000000,0.000000,0.000000,0.000000,0.000000,0.000000,0.000000,0.000000,0.000000,0.000000,0.130880,3,0
1080000,0.032035,27.807648,-0.045099,0.114204,25.762491,0.000299,-0.004078,0.026164,1.573015,-0.058376,-0.009134,0.001001,0.001271,-0.007265,-0.000152,0.004822,-0.033142,0.167570,0.027301,0.199909,0.199939,0.170438,0.508762,0.000000,0.000000,0.000000,0.000000,0.000000,0.000000,0.000000,0.000000,0.000000,0.000000,0.000000,0.000000,0.165125,3,0
1090000,0.032083,28.070734,-0.044576,0.113794,25.775324,0.001157,-0.004216,0.026809,1.573048,-0.059444,-0.009351,0.000849,0.001316,-0.007482,-0.000157,0.004500,-0.033192,0.162756,0.018427,0.200140,0.200170,0.170182,0.503570,0.000000,0.000000,0.000000,0.000000,0.000000,0.000000,0.000000,0.000000,0.000000,0.000000,0.000000,0.000000,0.160566,3,0
1100000,0.032130,28.333136,-0.045565,0.113399,25.786861,-0.000151,-0.004354,0.027388,1.573079,-0.060354,-0.009570,0.001124,0.001360,-0.007670,-0.000161,0.003451,-0.033236,0.138086,-0.035258,0.200364,0.200394,0.169918,0.498483,0.000000,0.000000,0.000000,0.000000,0.000000,0.000000,0.000000,0.000000,0.000000,0.000000,0.000000,0.000000,0.137285,3,0
1110000,0.032164,28.595518,-0.045298,0.112854,25.798147,0.000063,-0.004497,0.027963,1.573111,-0.061236,-0.009788,0.001041,0.001406,-0.007855,-0.000165,0.003086,-0.033278,0.133997,0.009662,0.200581,0.200611,0.169645,0.493499,0.000000,0.000000,0.000000,0.000000,0.000000,0.000000,0.000000,0.000000,0.000000,0.000000,0.000000,0.000000,0.133451,3,0
1120000,0.032188,28.857216,-0.043968,0.112343,25.808048,0.001700,-0.004638,0.028449,1.573137,-0.061960,-0.010006,0.000655,0.001454,-0.008008,-0.000168,0.002491,-0.033308,0.110048,0.047219,0.200792,0.200821,0.169365,0.488618,0.000000,0.000000,0.000000,0.000000,0.000000,0.000000,0.000000,0.000000,0.000000,0.000000,0.000000,0.000000,0.111131,3,0
1130000,0.032209,29.119572,-0.043679,0.111919,25.819077,0.002204,-0.004784,0.029004,1.573167,-0.062795,-0.010225,0.000570,0.001501,-0.008188,-0.000172,0.002774,-0.033327,0.126554,0.009681,0.200997,0.201026,0.169077,0.483841,0.000000,0.000000,0.000000,0.000000,0.000000,0.000000,0.000000,0.000000,0.000000,0.000000,0.000000,0.000000,0.126484,3,0
1140000,0.032220,29.379906,-0.042596,0.111371,25.826389,0.003750,-0.004923,0.029323,1.573186,-0.063209,-0.010443,0.000259,0.001550,-0.008278,-0.000174,0.001046,-0.033343,0.062878,0.037652,0.201196,0.201225,0.168782,0.479165,0.000000,0.000000,0.000000,0.000000,0.000000,0.000000,0.000000,0.000000,0.000000,0.000000,0.000000,0.000000,0.068783,3,0
1150000,0.032234,29.643589,-0.043673,0.110922,25.839550,0.002110,-0.005055,0.030020,1.573216,-0.064270,-0.010664,0.000577,0.001598,-0.008514,-0.000179,0.004569,-0.033349,0.160290,-0.039431,0.201390,0.201419,0.168481,0.474591,0.000000,0.000000,0.000000,0.000000,0.000000,0.000000,0.000000,0.000000,0.000000,0.000000,0.000000,0.000000,0.158225,3,0
1160000,0.032238,29.905891,-0.044206,0.110278,25.850016,0.001311,-0.005201,0.030555,1.573238,-0.065031,-0.010885,0.000734,0.001647,-0.008686,-0.000182,0.002377,-0.033356,0.115141,-0.019631,0.201580,0.201608,0.168174,0.470116,0.000000,0.000000,0.000000,0.000000,0.000000,0.000000,0.000000,0.000000,0.000000,0.000000,0.000000,0.000000,0.115847,3,0
1170000,0.032231,30.166162,-0.043733,0.109702,25.856936,0.001868,-0.005352,0.030846,1.573261,-0.065371,-0.011104,0.000595,0.001698,-0.008764,-0.000184,0.000650,-0.033355,0.051523,0.016413,0.201766,0.201793,0.167861,0.465741,0.000000,0.000000,0.000000,0.000000,0.000000,0.000000,0.000000,0.000000,0.000000,0.000000,0.000000,0.000000,0.059313,3,0
1180000,0.032222,30.427780,-0.044327,0.109105,25.866077,0.001165,-0.005487,0.031293,1.573287,-0.065963,-0.011325,0.000775,0.001748,-0.008901,-0.000187,0.001543,-0.033342,0.089367,-0.021916,0.201947,0.201975,0.167542,0.461464,0.000000,0.000000,0.000000,0.000000,0.000000,0.000000,0.000000,0.000000,0.000000,0.000000,0.000000,0.000000,0.092173,3,0
1190000,0.032205,30.687370,-0.044481,0.108559,25.871494,0.001162,-0.005632,0.031485,1.573304,-0.066138,-0.011546,0.000826,0.001800,-0.008943,-0.000188,0.000298,-0.033327,0.026447,-0.006102,0.202126,0.202153,0.167219,0.457285,0.000000,0.000000,0.000000,0.000000,0.000000,0.000000,0.000000,0.000000,0.000000,0.000000,0.000000,0.000000,0.041113,3,0
1200000,0.032180,30.946304,-0.044027,0.107931,25.875784,0.001941,-0.005785,0.031602,1.573309,-0.066173,-0.011765,0.000693,0.001853,-0.008951,-0.000189,0.000223,-0.033304,0.005348,0.015721,0.202301,0.202328,0.166891,0.453201,0.000000,0.000000,0.000000,0.000000,0.000000,0.000000,0.000000,0.000000,0.000000,0.000000,0.000000,0.000000,0.032592,3,0
1210000,0.032151,31.207947,-0.044325,0.107319,25.884756,0.001735,-0.005928,0.032044,1.573336,-0.066729,-0.011984,0.000786,0.001906,-0.009086,-0.000192,0.001344,-0.033273,0.084312,-0.011437,0.202474,0.202500,0.166558,0.449212,0.000000,0.000000,0.000000,0.000000,0.000000,0.000000,0.000000,0.000000,0.000000,0.000000,0.000000,0.000000,0.087581,3,0
1220000,0.032120,31.468233,-0.045750,0.106642,25.891249,-0.000179,-0.006080,0.032314,1.573345,-0.067003,-0.012206,0.001234,0.001958,-0.009154,-0.000193,0.000892,-0.033237,0.041246,-0.052090,0.202645,0.202670,0.166222,0.445317,0.000000,0.000000,0.000000,0.000000,0.000000,0.000000,0.000000,0.000000,0.000000,0.000000,0.000000,0.000000,0.051182,3,0
1230000,0.032078,31.727169,-0.045684,0.105998,25.895138,-0.000108,-0.006228,0.032411,1.573357,-0.067001,-0.012424,0.001215,0.002012,-0.009153,-0.000194,0.000178,-0.033200,-0.000435,0.002335,0.202814,0.202838,0.165882,0.441513,0.000000,0.000000,0.000000,0.000000,0.000000,0.000000,0.000000,0.000000,0.000000,0.000000,0.000000,0.000000,0.032080,3,0
1240000,0.032028,31.988144,-0.045641,0.105202,25.902597,0.000046,-0.006393,0.032741,1.573366,-0.067386,-0.012642,0.001198,0.002068,-0.009251,-0.000196,0.000731,-0.033150,0.058651,0.001572,0.202981,0.203005,0.165539,0.437800,0.000000,0.000000,0.000000,0.000000,0.000000,0.000000,0.000000,0.000000,0.000000,0.000000,0.000000,0.000000,0.065092,3,0
1250000,0.031972,32.251801,-0.045899,0.104449,25.914719,-0.000388,-0.006558,0.033414,1.573396,-0.068276,-0.012858,0.001268,0.002123,-0.009480,-0.000201,0.003148,-0.033092,0.135544,-0.009078,0.203147,0.203170,0.165193,0.434177,0.000000,0.000000,0.000000,0.000000,0.000000,0.000000,0.000000,0.000000,0.000000,0.000000,0.000000,0.000000,0.134801,3,0
1260000,0.031907,32.512703,-0.045173,0.103713,25.921785,0.000480,-0.006720,0.033733,1.573422,-0.068607,-0.013073,0.001030,0.002180,-0.009565,-0.000203,0.000704,-0.033030,0.050678,0.026590,0.203312,0.203335,0.164845,0.430642,0.000000,0.000000,0.000000,0.000000,0.000000,0.000000,0.000000,0.000000,0.000000,0.000000,0.000000,0.000000,0.058441,3,0
1270000,0.031841,32.773594,-0.045730,0.102929,25.928749,-0.000039,-0.006890,0.034042,1.573447,-0.068923,-0.013290,0.001210,0.002236,-0.009649,-0.000205,0.000616,-0.032956,0.048130,-0.020545,0.203476,0.203498,0.164494,0.427194,0.000000,0.000000,0.000000,0.000000,0.000000,0.000000,0.000000,0.000000,0.000000,0.000000,0.000000,0.000000,0.056355,3,0
1280000,0.031772,33.033127,-0.046821,0.102261,25.933311,-0.001285,-0.007049,0.034170,1.573455,-0.068963,-0.013506,0.001569,0.002293,-0.009661,-0.000205,0.000440,-0.032883,0.005836,-0.040039,0.203640,0.203661,0.164142,0.423833,0.000000,0.000000,0.000000,0.000000,0.000000,0.000000,0.000000,0.000000,0.000000,0.000000,0.000000,0.000000,0.032268,3,0
1290000,0.031692,33.292664,-0.047114,0.101379,25.937777,-0.001759,-0.007213,0.034288,1.573463,-0.068994,-0.013721,0.001663,0.002350,-0.009670,-0.000206,0.000194,-0.032805,0.004681,-0.010382,0.203803,0.203824,0.163787,0.420555,0.000000,0.000000,0.000000,0.000000,0.000000,0.000000,0.000000,0.000000,0.000000,0.000000,0.000000,0.000000,0.032013,3,0
1300000,0.031611,33.552208,-0.048405,0.100518,25.942226,-0.003503,-0.007369,0.034394,1.573466,-0.069020,-0.013936,0.002088,0.002407,-0.009678,-0.000206,0.000530,-0.032717,0.003529,-0.046827,0.203967,0.203987,0.163432,0.417359,0.000000,0.000000,0.000000,0.000000,0.000000,0.000000,0.000000,0.000000,0.000000,0.000000,0.000000,0.000000,0.031794,3,0
1310000,0.031512,33.814453,-0.047573,0.099574,25.951347,-0.002470,-0.007535,0.034868,1.573488,-0.069548,-0.014145,0.001790,0.002467,-0.009825,-0.000210,0.001418,-0.032627,0.081879,0.032082,0.204131,0.204150,0.163075,0.414244,0.000000,0.000000,0.000000,0.000000,0.000000,0.000000,0.000000,0.000000,0.000000,0.000000,0.000000,0.000000,0.085144,3,0
1320000,0.031409,34.075985,-0.046906,0.098733,25.959187,-0.001435,-0.007701,0.035237,1.573506,-0.069922,-0.014353,0.001552,0.002528,-0.009930,-0.000212,0.000819,-0.032519,0.058090,0.025497,0.204295,0.204313,0.162718,0.411210,0.000000,0.000000,0.000000,0.000000,0.000000,0.000000,0.000000,0.000000,0.000000,0.000000,0.000000,0.000000,0.064306,3,0
1330000,0.031299,34.336132,-0.046046,0.097933,25.964340,-0.000225,-0.007875,0.035403,1.573518,-0.070018,-0.014559,0.001256,0.002589,-0.009957,-0.000213,0.000374,-0.032408,0.015148,0.032207,0.204460,0.204477,0.162359,0.408255,0.000000,0.000000,0.000000,0.000000,0.000000,0.000000,0.000000,0.000000,0.000000,0.000000,0.000000,0.000000,0.034553,3,0
1340000,0.031189,34.595596,-0.046366,0.097019,25.968300,-0.000592,-0.008048,0.035476,1.573516,-0.069978,-0.014767,0.001369,0.002649,-0.009946,-0.000213,0.000198,-0.032289,-0.006504,-0.011974,0.204626,0.204642,0.162001,0.405376,0.000000,0.000000,0.000000,0.000000,0.000000,0.000000,0.000000,0.000000,0.000000,0.000000,0.000000,0.000000,0.031816,3,0
1350000,0.031077,34.855064,-0.047249,0.096179,25.972099,-0.001730,-0.008223,0.035551,1.573525,-0.069931,-0.014975,0.001675,0.002709,-0.009933,-0.000213,0.000350,-0.032171,-0.007580,-0.032744,0.204793,0.204809,0.161643,0.402571,0.000000,0.000000,0.000000,0.000000,0.000000,0.000000,0.000000,0.000000,0.000000,0.000000,0.000000,0.000000,0.031928,3,0
1360000,0.030954,35.117249,-0.047293,0.095280,25.980677,-0.001945,-0.008397,0.035978,1.573539,-0.070382,-0.015179,0.001676,0.002770,-0.010068,-0.000216,0.000974,-0.032049,0.070854,-0.000746,0.204962,0.204976,0.161285,0.399841,0.000000,0.000000,0.000000,0.000000,0.000000,0.000000,0.000000,0.000000,0.000000,0.000000,0.000000,0.000000,0.075107,3,0
1370000,0.030833,35.376675,-0.048471,0.094440,25.984230,-0.003172,-0.008582,0.036028,1.573544,-0.070305,-0.015384,0.002088,0.002831,-0.010046,-0.000216,0.000496,-0.031918,-0.012508,-0.043507,0.205131,0.205144,0.160927,0.397184,0.000000,0.000000,0.000000,0.000000,0.000000,0.000000,0.000000,0.000000,0.000000,0.000000,0.000000,0.000000,0.033117,3,0
1380000,0.030701,35.636780,-0.048823,0.093488,25.989008,-0.003486,-0.008765,0.036154,1.573548,-0.070346,-0.015586,0.002203,0.002892,-0.010059,-0.000217,0.000193,-0.031787,0.006336,-0.012124,0.205302,0.205314,0.160569,0.394597,0.000000,0.000000,0.000000,0.000000,0.000000,0.000000,0.000000,0.000000,0.000000,0.000000,0.000000,0.000000,0.031305,3,0
1390000,0.030566,35.898918,-0.049445,0.092632,25.997404,-0.004105,-0.008948,0.036561,1.573567,-0.070751,-0.015786,0.002404,0.002954,-0.010187,-0.000220,0.000903,-0.031647,0.064247,-0.021887,0.205475,0.205485,0.160213,0.392081,0.000000,0.000000,0.000000,0.000000,0.000000,0.000000,0.000000,0.000000,0.000000,0.000000,0.000000,0.000000,0.069163,3,0
1400000,0.030422,36.160324,-0.049340,0.091707,26.004416,-0.003795,-0.009127,0.036853,1.573592,-0.071005,-0.015983,0.002349,0.003017,-0.010268,-0.000222,0.000430,-0.031502,0.040569,0.005475,0.205649,0.205658,0.159858,0.389633,0.000000,0.000000,0.000000,0.000000,0.000000,0.000000,0.000000,0.000000,0.000000,0.000000,0.000000,0.000000,0.049604,3,0
1410000,0.030278,36.420341,-0.050296,0.090809,26.008848,-0.004777,-0.009315,0.036948,1.573607,-0.070993,-0.016181,0.002684,0.003079,-0.010265,-0.000222,0.000355,-0.031349,-0.002239,-0.034764,0.205825,0.205833,0.159504,0.387252,0.000000,0.000000,0.000000,0.000000,0.000000,0.000000,0.000000,0.000000,0.000000,0.000000,0.000000,0.000000,0.030356,3,0
1420000,0.030127,36.678978,-0.050668,0.089895,26.010561,-0.005010,-0.009504,0.036843,1.573599,-0.070724,-0.016376,0.002813,0.003142,-0.010177,-0.000221,0.000489,-0.031196,-0.043633,-0.012668,0.206003,0.206010,0.159151,0.384935,0.000000,0.000000,0.000000,0.000000,0.000000,0.000000,0.000000,0.000000,0.000000,0.000000,0.000000,0.000000,0.051800,3,0
1430000,0.029964,36.941715,-0.049715,0.088932,26.019653,-0.003800,-0.009697,0.037323,1.573612,-0.071187,-0.016564,0.002436,0.003207,-0.010330,-0.000224,0.001306,-0.031036,0.075413,0.038142,0.206183,0.206188,0.158800,0.382682,0.000000,0.000000,0.000000,0.000000,0.000000,0.000000,0.000000,0.000000,0.000000,0.000000,0.000000,0.000000,0.078750,3,0
1440000,0.029806,37.205090,-0.050989,0.087845,26.029900,-0.005364,-0.009884,0.037889,1.573639,-0.071748,-0.016756,0.002876,0.003269,-0.010521,-0.000229,0.001832,-0.030861,0.090889,-0.046419,0.206364,0.206369,0.158451,0.380492,0.000000,0.000000,0.000000,0.000000,0.000000,0.000000,0.000000,0.000000,0.000000,0.000000,0.000000,0.000000,0.092681,3,0
1450000,0.029634,37.467018,-0.050571,0.086821,26.037273,-0.004991,-0.010070,0.038227,1.573657,-0.072028,-0.016942,0.002695,0.003334,-0.010617,-0.000231,0.000546,-0.030693,0.046082,0.018095,0.206548,0.206551,0.158103,0.378362,0.000000,0.000000,0.000000,0.000000,0.000000,0.000000,0.000000,0.000000,0.000000,0.000000,0.000000,0.000000,0.053463,3,0
1460000,0.029459,37.727531,-0.050523,0.085753,26.042120,-0.004870,-0.010258,0.038356,1.573665,-0.072045,-0.017127,0.002661,0.003399,-0.010622,-0.000232,0.000153,-0.030511,0.002747,0.003569,0.206733,0.206735,0.157758,0.376293,0.000000,0.000000,0.000000,0.000000,0.000000,0.000000,0.000000,0.000000,0.000000,0.000000,0.000000,0.000000,0.029578,3,0
1470000,0.029274,37.989384,-0.049714,0.084705,26.049316,-0.003985,-0.010449,0.038677,1.573681,-0.072287,-0.017307,0.002333,0.003464,-0.010706,-0.000234,0.000586,-0.030325,0.040367,0.032867,0.206921,0.206921,0.157415,0.374283,0.000000,0.000000,0.000000,0.000000,0.000000,0.000000,0.000000,0.000000,0.000000,0.000000,0.000000,0.000000,0.048750,3,0
1480000,0.029089,38.249138,-0.049586,0.083652,26.052446,-0.003845,-0.010639,0.038663,1.573685,-0.072150,-0.017487,0.002277,0.003529,-0.010657,-0.000233,0.000236,-0.030130,-0.022766,0.006121,0.207110,0.207108,0.157074,0.372327,0.000000,0.000000,0.000000,0.000000,0.000000,0.000000,0.000000,0.000000,0.000000,0.000000,0.000000,0.000000,0.036459,3,0
1490000,0.028899,38.510937,-0.049606,0.082611,26.059223,-0.003763,-0.010835,0.038950,1.573704,-0.072362,-0.017665,0.002266,0.003594,-0.010734,-0.000235,0.000347,-0.029934,0.035511,0.000755,0.207300,0.207298,0.156736,0.370428,0.000000,0.000000,0.000000,0.000000,0.000000,0.000000,0.000000,0.000000,0.000000,0.000000,0.000000,0.000000,0.044838,3,0
1500000,0.028710,38.768566,-0.050541,0.081521,26.058554,-0.004678,-0.011034,0.038598,1.573695,-0.071848,-0.017845,0.002634,0.003658,-0.010546,-0.000232,0.001568,-0.029733,-0.087208,-0.035257,0.207493,0.207489,0.156401,0.368584,0.000000,0.000000,0.000000,0.000000,0.000000,0.000000,0.000000,0.000000,0.000000,0.000000,0.000000,0.000000,0.088958,3,0
1510000,0.028516,39.028278,-0.051585,0.080378,26.061579,-0.005778,-0.011219,0.038565,1.573696,-0.071693,-0.018023,0.003030,0.003722,-0.010490,-0.000232,0.000500,-0.029532,-0.026764,-0.038761,0.207688,0.207682,0.156068,0.366791,0.000000,0.000000,0.000000,0.000000,0.000000,0.000000,0.000000,0.000000,0.000000,0.000000,0.000000,0.000000,0.038485,3,0
1520000,0.028309,39.291409,-0.051532,0.079216,26.070778,-0.005772,-0.011413,0.039046,1.573710,-0.072109,-0.018193,0.002973,0.003787,-0.010648,-0.000235,0.000960,-0.029327,0.071316,0.004688,0.207884,0.207877,0.155738,0.365050,0.000000,0.000000,0.000000,0.000000,0.000000,0.000000,0.000000,0.000000,0.000000,0.000000,0.000000,0.000000,0.074441,3,0
1530000,0.028094,39.552399,-0.050627,0.078071,26.075972,-0.004684,-0.011610,0.039191,1.573717,-0.072147,-0.018358,0.002597,0.003853,-0.010661,-0.000236,0.000367,-0.029109,0.006878,0.037094,0.208082,0.208073,0.155411,0.363360,0.000000,0.000000,0.000000,0.000000,0.000000,0.000000,0.000000,0.000000,0.000000,0.000000,0.000000,0.000000,0.028869,3,0
1540000,0.027880,39.814045,-0.050881,0.076937,26.082159,-0.004963,-0.011811,0.039436,1.573735,-0.072286,-0.018525,0.002676,0.003918,-0.010716,-0.000238,0.000238,-0.028881,0.024143,-0.008009,0.208282,0.208271,0.155087,0.361718,0.000000,0.000000,0.000000,0.000000,0.000000,0.000000,0.000000,0.000000,0.000000,0.000000,0.000000,0.000000,0.036337,3,0
1550000,0.027667,40.075649,-0.052112,0.075801,26.088314,-0.006577,-0.012003,0.039668,1.573754,-0.072408,-0.018693,0.003142,0.003981,-0.010766,-0.000239,0.000541,-0.028656,0.020863,-0.045689,0.208483,0.208471,0.154767,0.360124,0.000000,0.000000,0.000000,0.000000,0.000000,0.000000,0.000000,0.000000,0.000000,0.000000,0.000000,0.000000,0.034213,3,0
1560000,0.027443,40.337883,-0.052270,0.074701,26.095406,-0.006751,-0.012195,0.039978,1.573763,-0.072621,-0.018854,0.003172,0.004046,-0.010852,-0.000241,0.000358,-0.028432,0.037498,-0.003429,0.208686,0.208672,0.154449,0.358576,0.000000,0.000000,0.000000,0.000000,0.000000,0.000000,0.000000,0.000000,0.000000,0.000000,0.000000,0.000000,0.045422,3,0
1570000,0.027213,40.597977,-0.051962,0.073487,26.098541,-0.006389,-0.012393,0.039937,1.573773,-0.072474,-0.019011,0.003032,0.004111,-0.010791,-0.000241,0.000270,-0.028196,-0.026016,0.014252,0.208890,0.208874,0.154135,0.357074,0.000000,0.000000,0.000000,0.000000,0.000000,0.000000,0.000000,0.000000,0.000000,0.000000,0.000000,0.000000,0.037026,3,0
1580000,0.026976,40.860115,-0.051380,0.072355,26.105291,-0.005839,-0.012597,0.040230,1.573784,-0.072651,-0.019163,0.002765,0.004177,-0.010864,-0.000243,0.000394,-0.027954,0.031921,0.025388,0.209095,0.209077,0.153824,0.355614,0.000000,0.000000,0.000000,0.000000,0.000000,0.000000,0.000000,0.000000,0.000000,0.000000,0.000000,0.000000,0.040955,3,0
1590000,0.026744,41.120125,-0.052349,0.071141,26.108021,-0.006955,-0.012788,0.040177,1.573793,-0.072479,-0.019321,0.003147,0.004240,-0.010793,-0.000242,0.000494,-0.027705,-0.031498,-0.036007,0.209301,0.209282,0.153517,0.354197,0.000000,0.000000,0.000000,0.000000,0.000000,0.000000,0.000000,0.000000,0.000000,0.000000,0.000000,0.000000,0.040495,3,0
1600000,0.026495,41.377308,-0.051047,0.069992,26.105501,-0.005035,-0.012995,0.039642,1.573794,-0.071860,-0.019466,0.002623,0.004307,-0.010525,-0.000237,0.002608,-0.027462,-0.112621,0.052449,0.209508,0.209487,0.153214,0.352822,0.000000,0.000000,0.000000,0.000000,0.000000,0.000000,0.000000,0.000000,0.000000,0.000000,0.000000,0.000000,0.111860,3,0
1610000,0.026255,41.637997,-0.051856,0.068803,26.109484,-0.006099,-0.013189,0.039692,1.573806,-0.071797,-0.019618,0.002943,0.004370,-0.010499,-0.000237,0.000288,-0.027201,-0.011959,-0.030008,0.209716,0.209693,0.152913,0.351487,0.000000,0.000000,0.000000,0.000000,0.000000,0.000000,0.000000,0.000000,0.000000,0.000000,0.000000,0.000000,0.028682,3,0
1620000,0.026010,41.895866,-0.052631,0.067632,26.108288,-0.006778,-0.013379,0.039274,1.573792,-0.071295,-0.019767,0.003271,0.004434,-0.010278,-0.000234,0.001670,-0.026948,-0.093777,-0.029167,0.209925,0.209900,0.152617,0.350191,0.000000,0.000000,0.000000,0.000000,0.000000,0.000000,0.000000,0.000000,0.000000,0.000000,0.000000,0.000000,0.094167,3,0
1630000,0.025757,42.153038,-0.052643,0.066428,26.105690,-0.006658,-0.013587,0.038735,1.573789,-0.070693,-0.019910,0.003287,0.004498,-0.010008,-0.000229,0.002172,-0.026692,-0.113091,0.000939,0.210134,0.210108,0.152324,0.348933,0.000000,0.000000,0.000000,0.000000,0.000000,0.000000,0.000000,0.000000,0.000000,0.000000,0.000000,0.000000,0.112129,3,0
1640000,0.025499,42.410919,-0.052542,0.065144,26.104471,-0.006349,-0.013792,0.038294,1.573784,-0.070209,-0.020050,0.003250,0.004562,-0.009787,-0.000226,0.001476,-0.026426,-0.091930,0.005477,0.210344,0.210316,0.152036,0.347711,0.000000,0.000000,0.000000,0.000000,0.000000,0.000000,0.000000,0.000000,0.000000,0.000000,0.000000,0.000000,0.092299,3,0
1650000,0.025230,42.668789,-0.051290,0.063916,26.103128,-0.004677,-0.014001,0.037849,1.573789,-0.069731,-0.020181,0.002730,0.004627,-0.009562,-0.000222,0.001873,-0.026155,-0.091370,0.050912,0.210555,0.210525,0.151751,0.346524,0.000000,0.000000,0.000000,0.000000,0.000000,0.000000,0.000000,0.000000,0.000000,0.000000,0.000000,0.000000,0.091690,3,0
1660000,0.024971,42.925991,-0.052270,0.062685,26.100513,-0.005612,-0.014196,0.037307,1.573788,-0.069161,-0.020321,0.003166,0.004689,-0.009296,-0.000217,0.002317,-0.025873,-0.110680,-0.038328,0.210765,0.210733,0.151469,0.345371,0.000000,0.000000,0.000000,0.000000,0.000000,0.000000,0.000000,0.000000,0.000000,0.000000,0.000000,0.000000,0.109684,3,0
1670000,0.024708,43.187401,-0.053386,0.061400,26.105619,-0.006967,-0.014391,0.037457,1.573793,-0.069213,-0.020457,0.003617,0.004750,-0.009323,-0.000219,0.000409,-0.025601,0.009842,-0.042083,0.210976,0.210942,0.151192,0.344250,0.000000,0.000000,0.000000,0.000000,0.000000,0.000000,0.000000,0.000000,0.000000,0.000000,0.000000,0.000000,0.026465,3,0
1680000,0.024430,43.446636,-0.052731,0.060122,26.106638,-0.006192,-0.014593,0.037226,1.573804,-0.068946,-0.020582,0.003328,0.004814,-0.009191,-0.000217,0.000680,-0.025325,-0.052830,0.028135,0.211187,0.211151,0.150919,0.343162,0.000000,0.000000,0.000000,0.000000,0.000000,0.000000,0.000000,0.000000,0.000000,0.000000,0.000000,0.000000,0.056517,3,0
1690000,0.024145,43.708645,-0.051530,0.058889,26.112810,-0.004607,-0.014793,0.037457,1.573810,-0.069073,-0.020700,0.002780,0.004877,-0.009251,-0.000219,0.000621,-0.025035,0.025867,0.050365,0.211397,0.211359,0.150649,0.342106,0.000000,0.000000,0.000000,0.000000,0.000000,0.000000,0.000000,0.000000,0.000000,0.000000,0.000000,0.000000,0.034735,3,0
1700000,0.023863,43.965687,-0.050947,0.057645,26.109583,-0.003868,-0.014987,0.036857,1.573805,-0.068495,-0.020821,0.002553,0.004940,-0.008959,-0.000214,0.002388,-0.024738,-0.116928,0.023672,0.211607,0.211568,0.150384,0.341080,0.000000,0.000000,0.000000,0.000000,0.000000,0.000000,0.000000,0.000000,0.000000,0.000000,0.000000,0.000000,0.115293,3,0
1710000,0.023571,44.227646,-0.049769,0.056243,26.115522,-0.002560,-0.015195,0.037089,1.573822,-0.068609,-0.020933,0.002018,0.005003,-0.009014,-0.000215,0.000573,-0.024441,0.023643,0.048779,0.211817,0.211775,0.150122,0.340082,0.000000,0.000000,0.000000,0.000000,0.000000,0.000000,0.000000,0.000000,0.000000,0.000000,0.000000,0.000000,0.032810,3,0
