time_us,pos_x,pos_y,pos_z,vel_x,vel_y,vel_z,roll,pitch,yaw,bias_ax,bias_ay,bias_az,bias_gx,bias_gy,bias_gz,nis,innov_x,innov_y,innov_z,cov_pos_x,cov_pos_y,cov_pos_z,cov_yaw,des_speed,des_heading,des_climb,pid_speed,pid_yaw,pid_alt,speed_meas,yaw_meas,climb_meas,fwd_accel,yaw_rate,vert_accel,drift_m,nav_mode,mission_state
0,0.000001,0.150000,-0.000001,0.000181,24.999941,-0.000348,-0.000002,-0.000006,1.570789,0.000000,0.000000,0.000000,0.000000,0.000000,0.000000,0.006250,-0.000002,-0.250002,0.000003,2.400038,2.400038,3.600017,1.000518,0.000000,0.000000,0.000000,0.000000,0.000000,0.000000,0.000000,0.000000,0.000000,0.000000,0.000000,0.000000,0.150000,1,0
10000,0.000003,0.353868,0.027441,0.000278,24.999863,-0.000669,-0.000011,-0.000021,1.570792,0.000000,-0.000000,-0.000000,0.000000,0.000000,0.000000,0.003661,-0.000004,-0.161454,0.073199,1.714420,1.714420,2.250079,1.001073,0.000000,0.000000,0.000000,0.000000,0.000000,0.000000,0.000000,0.000000,0.000000,0.000000,0.000000,0.000000,0.115321,3,0
20000,0.000005,0.597782,0.018630,0.000400,24.999899,-0.001225,-0.000012,-0.000032,1.570788,0.000001,-0.000000,0.000000,-0.000000,0.000000,0.000000,0.000223,-0.000007,-0.027379,-0.032261,1.333616,1.333616,1.636554,1.001655,0.000000,0.000000,0.000000,0.000000,0.000000,0.000000,0.000000,0.000000,0.000000,0.000000,0.000000,0.000000,0.021294,3,0
30000,0.000009,0.827362,0.021618,0.000623,24.999605,-0.001666,-0.000024,-0.000040,1.570795,0.000003,-0.000000,-0.000000,0.000000,0.000000,0.000000,0.001744,-0.000011,-0.112262,0.014017,1.091392,1.091392,1.286065,1.002257,0.000000,0.000000,0.000000,0.000000,0.000000,0.000000,0.000000,0.000000,0.000000,0.000000,0.000000,0.000000,0.091842,3,0
40000,0.000014,1.070638,0.023854,0.000720,24.999525,-0.001835,-0.000027,-0.000049,1.570790,0.000004,-0.000000,-0.000001,0.000000,0.000000,0.000000,0.000291,-0.000017,-0.043655,0.012772,0.923811,0.923811,1.059385,1.002869,0.000000,0.000000,0.000000,0.000000,0.000000,0.000000,0.000000,0.000000,0.000000,0.000000,0.000000,0.000000,0.036934,3,0
50000,0.000020,1.316829,0.020471,0.000862,24.999496,-0.002358,-0.000035,-0.000064,1.570786,0.000005,-0.000000,0.000000,0.000000,0.000000,0.000000,0.000188,-0.000023,-0.028505,-0.022382,0.801036,0.801036,0.900822,1.003484,0.000000,0.000000,0.000000,0.000000,0.000000,0.000000,0.000000,0.000000,0.000000,0.000000,0.000000,0.000000,0.024699,3,0
60000,0.000027,1.574280,0.026260,0.001091,25.000008,-0.002539,-0.000037,-0.000068,1.570786,0.000001,-0.000000,-0.000002,0.000000,-0.000000,-0.000000,0.000875,-0.000031,0.063246,0.044529,0.707270,0.707270,0.783741,1.004094,0.000000,0.000000,0.000000,0.000000,0.000000,0.000000,0.000000,0.000000,0.000000,0.000000,0.000000,0.000000,0.055791,3,0
70000,0.000036,1.822666,0.020165,0.001315,25.000013,-0.003311,-0.000051,-0.000077,1.570787,0.000003,-0.000000,0.000002,0.000000,0.000000,0.000000,0.000440,-0.000040,-0.015300,-0.052445,0.633370,0.633370,0.693801,1.004688,0.000000,0.000000,0.000000,0.000000,0.000000,0.000000,0.000000,0.000000,0.000000,0.000000,0.000000,0.000000,0.013685,3,0
80000,0.000045,2.075967,0.015953,0.001408,25.000513,-0.004098,-0.000068,-0.000074,1.570787,-0.000001,-0.000000,0.000006,0.000000,-0.000000,-0.000000,0.000421,-0.000050,0.034496,-0.040227,0.573673,0.573673,0.622594,1.005260,0.000000,0.000000,0.000000,0.000000,0.000000,0.000000,0.000000,0.000000,0.000000,0.000000,0.000000,0.000000,0.031198,3,0
90000,0.000055,2.332913,0.016809,0.001544,25.001461,-0.004486,-0.000088,-0.000075,1.570792,-0.000011,-0.000000,0.000005,0.000000,-0.000000,-0.000000,0.000972,-0.000061,0.079374,0.009577,0.524488,0.524488,0.564865,1.005801,0.000000,0.000000,0.000000,0.000000,0.000000,0.000000,0.000000,0.000000,0.000000,0.000000,0.000000,0.000000,0.072436,3,0
100000,0.000066,2.587840,0.013101,0.001658,25.002203,-0.005215,-0.000103,-0.000075,1.570789,-0.000021,-0.000000,0.000011,0.000000,-0.000000,-0.000000,0.000844,-0.000072,0.060966,-0.042456,0.483303,0.483303,0.517162,1.006301,0.000000,0.000000,0.000000,0.000000,0.000000,0.000000,0.000000,0.000000,0.000000,0.000000,0.000000,0.000000,0.056056,3,0
110000,0.000078,2.842680,0.012456,0.001814,25.003012,-0.005769,-0.000113,-0.000078,1.570799,-0.000033,-0.000000,0.000012,0.000000,-0.000000,-0.000000,0.000649,-0.000084,0.064458,-0.007402,0.448353,0.448353,0.477121,1.006754,0.000000,0.000000,0.000000,0.000000,0.000000,0.000000,0.000000,0.000000,0.000000,0.000000,0.000000,0.000000,0.059641,3,0
120000,0.000091,3.098843,0.009799,0.001945,25.004208,-0.006395,-0.000119,-0.000086,1.570803,-0.000052,-0.000000,0.000020,0.000000,-0.000001,-0.000000,0.001389,-0.000097,0.087914,-0.035162,0.418358,0.418358,0.443071,1.007150,0.000000,0.000000,0.000000,0.000000,0.000000,0.000000,0.000000,0.000000,0.000000,0.000000,0.000000,0.000000,0.081784,3,0
130000,0.000104,3.353483,0.013270,0.002048,25.005243,-0.006073,-0.000126,-0.000080,1.570800,-0.000070,-0.000000,0.000007,0.000000,-0.000001,-0.000000,0.001178,-0.000111,0.070287,0.051288,0.392369,0.392369,0.413797,1.007481,0.000000,0.000000,0.000000,0.000000,0.000000,0.000000,0.000000,0.000000,0.000000,0.000000,0.000000,0.000000,0.065691,3,0
140000,0.000119,3.606876,0.015167,0.002265,25.006134,-0.006095,-0.000137,-0.000076,1.570807,-0.000086,-0.000000,-0.000002,0.000000,-0.000001,-0.000000,0.000602,-0.000127,0.054183,0.030306,0.369666,0.369666,0.388393,1.007739,0.000000,0.000000,0.000000,0.000000,0.000000,0.000000,0.000000,0.000000,0.000000,0.000000,0.000000,0.000000,0.050845,3,0
150000,0.000135,3.861547,0.017489,0.002452,25.007345,-0.006039,-0.000141,-0.000068,1.570798,-0.000112,-0.000000,-0.000014,0.000000,-0.000002,-0.000000,0.001221,-0.000143,0.079087,0.039118,0.349695,0.349695,0.366172,1.007915,0.000000,0.000000,0.000000,0.000000,0.000000,0.000000,0.000000,0.000000,0.000000,0.000000,0.000000,0.000000,0.074478,3,0
160000,0.000153,4.118406,0.020465,0.002657,25.009308,-0.005607,-0.000158,-0.000068,1.570801,-0.000159,-0.000000,-0.000034,0.000000,-0.000003,-0.000000,0.002801,-0.000162,0.122587,0.052623,0.332020,0.332020,0.346600,1.008002,0.000000,0.000000,0.000000,0.000000,0.000000,0.000000,0.000000,0.000000,0.000000,0.000000,0.000000,0.000000,0.115804,3,0
170000,0.000171,4.368756,0.020695,0.002771,25.009516,-0.005933,-0.000172,-0.000071,1.570797,-0.000161,-0.000000,-0.000036,0.000000,-0.000003,-0.000000,0.000008,-0.000180,0.004861,0.005278,0.316297,0.316297,0.329260,1.007991,0.000000,0.000000,0.000000,0.000000,0.000000,0.000000,0.000000,0.000000,0.000000,0.000000,0.000000,0.000000,0.004608,3,0
180000,0.000190,4.618504,0.018743,0.002880,25.009653,-0.006952,-0.000180,-0.000077,1.570791,-0.000158,-0.000000,-0.000019,0.000000,-0.000003,-0.000000,0.000213,-0.000200,-0.006945,-0.036095,0.302246,0.302246,0.313817,1.007875,0.000000,0.000000,0.000000,0.000000,0.000000,0.000000,0.000000,0.000000,0.000000,0.000000,0.000000,0.000000,0.006598,3,0
190000,0.000208,4.872525,0.017726,0.002919,25.011309,-0.007524,-0.000196,-0.000077,1.570794,-0.000201,-0.000001,-0.000010,0.000000,-0.000004,-0.000000,0.001104,-0.000219,0.081247,-0.018883,0.289640,0.289640,0.300003,1.007645,0.000000,0.000000,0.000000,0.000000,0.000000,0.000000,0.000000,0.000000,0.000000,0.000000,0.000000,0.000000,0.077325,3,0
200000,0.000228,5.126612,0.016396,0.003055,25.013016,-0.008131,-0.000200,-0.000079,1.570794,-0.000251,-0.000001,0.000005,0.000000,-0.000005,-0.000000,0.001274,-0.000239,0.085637,-0.026143,0.278294,0.278294,0.287598,1.007295,0.000000,0.000000,0.000000,0.000000,0.000000,0.000000,0.000000,0.000000,0.000000,0.000000,0.000000,0.000000,0.081665,3,0
210000,0.000248,5.379874,0.018328,0.003225,25.014500,-0.007629,-0.000219,-0.000076,1.570795,-0.000296,-0.000001,-0.000022,0.000000,-0.000007,-0.000000,0.001086,-0.000260,0.070080,0.043744,0.268053,0.268053,0.276421,1.006816,0.000000,0.000000,0.000000,0.000000,0.000000,0.000000,0.000000,0.000000,0.000000,0.000000,0.000000,0.000000,0.066949,3,0
220000,0.000269,5.635839,0.018012,0.003292,25.017401,-0.008063,-0.000235,-0.000054,1.570797,-0.000390,-0.000001,-0.000018,0.000000,-0.000010,-0.000000,0.002905,-0.000281,0.134864,-0.005315,0.258786,0.258786,0.266321,1.006202,0.000000,0.000000,0.000000,0.000000,0.000000,0.000000,0.000000,0.000000,0.000000,0.000000,0.000000,0.000000,0.129047,3,0
230000,0.000291,5.892574,0.019009,0.003434,25.020931,-0.007927,-0.000252,-0.000020,1.570806,-0.000509,-0.000001,-0.000037,0.000000,-0.000013,-0.000000,0.004047,-0.000304,0.157175,0.025214,0.250384,0.250384,0.257172,1.005446,0.000000,0.000000,0.000000,0.000000,0.000000,0.000000,0.000000,0.000000,0.000000,0.000000,0.000000,0.000000,0.150616,3,0
240000,0.000314,6.148407,0.020486,0.003620,25.024096,-0.007380,-0.000267,-0.000001,1.570813,-0.000624,-0.000002,-0.000068,0.000000,-0.000017,-0.000000,0.003314,-0.000327,0.138953,0.037591,0.242754,0.242754,0.248866,1.004541,0.000000,0.000000,0.000000,0.000000,0.000000,0.000000,0.000000,0.000000,0.000000,0.000000,0.000000,0.000000,0.133331,3,0
250000,0.000338,6.401868,0.022230,0.003742,25.026201,-0.006680,-0.000271,0.000016,1.570821,-0.000697,-0.000002,-0.000108,0.000000,-0.000020,-0.000000,0.001401,-0.000352,0.081877,0.045247,0.235817,0.235817,0.241314,1.003481,0.000000,0.000000,0.000000,0.000000,0.000000,0.000000,0.000000,0.000000,0.000000,0.000000,0.000000,0.000000,0.078659,3,0
260000,0.000362,6.655454,0.021029,0.003817,25.028509,-0.007475,-0.000284,0.000030,1.570814,-0.000780,-0.000002,-0.000080,0.000000,-0.000023,-0.000000,0.001343,-0.000376,0.086820,-0.028983,0.229502,0.229502,0.234436,1.002258,0.000000,0.000000,0.000000,0.000000,0.000000,0.000000,0.000000,0.000000,0.000000,0.000000,0.000000,0.000000,0.083500,3,0
270000,0.000385,6.910640,0.022248,0.003856,25.031837,-0.007220,-0.000291,0.000068,1.570822,-0.000916,-0.000003,-0.000115,0.000000,-0.000028,-0.000000,0.002957,-0.000400,0.131396,0.034154,0.223752,0.223752,0.228165,1.000869,0.000000,0.000000,0.000000,0.000000,0.000000,0.000000,0.000000,0.000000,0.000000,0.000000,0.000000,0.000000,0.126496,3,0
280000,0.000410,7.164415,0.022484,0.003987,25.034420,-0.007498,-0.000292,0.000087,1.570827,-0.001021,-0.000003,-0.000124,0.000000,-0.000032,-0.000000,0.001456,-0.000425,0.094844,0.008457,0.218514,0.218514,0.222443,0.999307,0.000000,0.000000,0.000000,0.000000,0.000000,0.000000,0.000000,0.000000,0.000000,0.000000,0.000000,0.000000,0.091391,3,0
290000,0.000435,7.415471,0.023423,0.004123,25.035061,-0.007282,-0.000297,0.000097,1.570827,-0.001044,-0.000004,-0.000157,0.000000,-0.000033,-0.000000,0.000191,-0.000451,0.019955,0.028122,0.213742,0.213742,0.217219,0.997567,0.000000,0.000000,0.000000,0.000000,0.000000,0.000000,0.000000,0.000000,0.000000,0.000000,0.000000,0.000000,0.019249,3,0
300000,0.000461,7.668165,0.025050,0.004285,25.037142,-0.006378,-0.000317,0.000116,1.570833,-0.001128,-0.000004,-0.000217,0.000000,-0.000037,-0.000000,0.001096,-0.000478,0.067074,0.048111,0.209396,0.209396,0.212446,0.995645,0.000000,0.000000,0.000000,0.000000,0.000000,0.000000,0.000000,0.000000,0.000000,0.000000,0.000000,0.000000,0.064735,3,0
310000,0.000488,7.920351,0.023192,0.004356,25.038824,-0.008029,-0.000331,0.000128,1.570838,-0.001199,-0.000005,-0.000149,0.000000,-0.000040,-0.000000,0.000880,-0.000505,0.052907,-0.051654,0.205440,0.205440,0.208087,0.993536,0.000000,0.000000,0.000000,0.000000,0.000000,0.000000,0.000000,0.000000,0.000000,0.000000,0.000000,0.000000,0.051097,3,0
320000,0.000515,8.174067,0.024121,0.004484,25.041912,-0.007743,-0.000333,0.000169,1.570830,-0.001339,-0.000006,-0.000190,0.000000,-0.000046,-0.000000,0.001718,-0.000533,0.098888,0.029820,0.201844,0.201844,0.204105,0.991236,0.000000,0.000000,0.000000,0.000000,0.000000,0.000000,0.000000,0.000000,0.000000,0.000000,0.000000,0.000000,0.095563,3,0
330000,0.000542,8.430549,0.022381,0.004601,25.047522,-0.009546,-0.000344,0.000252,1.570830,-0.001613,-0.000006,-0.000117,0.000000,-0.000059,-0.000000,0.005798,-0.000561,0.183082,-0.049623,0.198578,0.198578,0.200469,0.988743,0.000000,0.000000,0.000000,0.000000,0.000000,0.000000,0.000000,0.000000,0.000000,0.000000,0.000000,0.000000,0.177023,3,0
340000,0.000570,8.687704,0.021959,0.004638,25.053835,-0.010081,-0.000346,0.000346,1.570825,-0.001937,-0.000007,-0.000101,0.000000,-0.000075,-0.000000,0.006782,-0.000589,0.204850,-0.009842,0.195617,0.195617,0.197151,0.986053,0.000000,0.000000,0.000000,0.000000,0.000000,0.000000,0.000000,0.000000,0.000000,0.000000,0.000000,0.000000,0.198172,3,0
350000,0.000597,8.941675,0.021107,0.004730,25.057444,-0.010935,-0.000359,0.000401,1.570822,-0.002115,-0.000008,-0.000063,0.000000,-0.000084,-0.000000,0.001922,-0.000617,0.106661,-0.023172,0.192939,0.192939,0.194125,0.983163,0.000000,0.000000,0.000000,0.000000,0.000000,0.000000,0.000000,0.000000,0.000000,0.000000,0.000000,0.000000,0.103233,3,0
360000,0.000625,9.197673,0.020339,0.004762,25.063141,-0.011719,-0.000375,0.000493,1.570825,-0.002415,-0.000010,-0.000027,0.000000,-0.000100,-0.000000,0.004772,-0.000645,0.170717,-0.020605,0.190522,0.190522,0.191370,0.980072,0.000000,0.000000,0.000000,0.000000,0.000000,0.000000,0.000000,0.000000,0.000000,0.000000,0.000000,0.000000,0.165298,3,0
370000,0.000653,9.451244,0.019655,0.004933,25.066435,-0.012576,-0.000376,0.000539,1.570818,-0.002587,-0.000011,0.000006,0.000000,-0.000109,-0.000000,0.001465,-0.000674,0.093573,-0.017875,0.188347,0.188347,0.188863,0.976778,0.000000,0.000000,0.000000,0.000000,0.000000,0.000000,0.000000,0.000000,0.000000,0.000000,0.000000,0.000000,0.090638,3,0
380000,0.000681,9.705585,0.020604,0.004975,25.070641,-0.011693,-0.000386,0.000599,1.570823,-0.002816,-0.000012,-0.000061,0.000001,-0.000121,-0.000000,0.002453,-0.000703,0.118274,0.034611,0.186398,0.186398,0.186586,0.973281,0.000000,0.000000,0.000000,0.000000,0.000000,0.000000,0.000000,0.000000,0.000000,0.000000,0.000000,0.000000,0.114601,3,0
390000,0.000709,9.960060,0.020142,0.004992,25.075190,-0.012195,-0.000404,0.000671,1.570828,-0.003064,-0.000014,-0.000038,0.000001,-0.000135,-0.000000,0.002437,-0.000731,0.122314,-0.011178,0.184658,0.184658,0.184522,0.969579,0.000000,0.000000,0.000000,0.000000,0.000000,0.000000,0.000000,0.000000,0.000000,0.000000,0.000000,0.000000,0.118552,3,0
400000,0.000736,10.214061,0.020859,0.004982,25.079208,-0.011734,-0.000413,0.000733,1.570823,-0.003289,-0.000015,-0.000096,0.000001,-0.000148,-0.000000,0.001951,-0.000759,0.106342,0.027692,0.183113,0.183113,0.182656,0.965674,0.000000,0.000000,0.000000,0.000000,0.000000,0.000000,0.000000,0.000000,0.000000,0.000000,0.000000,0.000000,0.103100,3,0
410000,0.000763,10.468209,0.019579,0.005015,25.083378,-0.013515,-0.000427,0.000811,1.570817,-0.003534,-0.000017,-0.000012,0.000001,-0.000163,-0.000000,0.002219,-0.000786,0.110728,-0.038343,0.181749,0.181749,0.180971,0.961565,0.000000,0.000000,0.000000,0.000000,0.000000,0.000000,0.000000,0.000000,0.000000,0.000000,0.000000,0.000000,0.107377,3,0
420000,0.000790,10.722507,0.019986,0.005151,25.087948,-0.013099,-0.000429,0.000892,1.570816,-0.003798,-0.000019,-0.000054,0.000001,-0.000179,-0.000000,0.002190,-0.000814,0.114963,0.018175,0.180554,0.180554,0.179456,0.957254,0.000000,0.000000,0.000000,0.000000,0.000000,0.000000,0.000000,0.000000,0.000000,0.000000,0.000000,0.000000,0.111505,3,0
430000,0.000817,10.977545,0.021388,0.005196,25.093397,-0.011725,-0.000444,0.001001,1.570810,-0.004132,-0.000021,-0.000178,0.000001,-0.000200,-0.000000,0.003554,-0.000842,0.138926,0.051777,0.179516,0.179516,0.178097,0.952742,0.000000,0.000000,0.000000,0.000000,0.000000,0.000000,0.000000,0.000000,0.000000,0.000000,0.000000,0.000000,0.134772,3,0
440000,0.000844,11.235084,0.020844,0.005232,25.102072,-0.012676,-0.000447,0.001185,1.570804,-0.004685,-0.000023,-0.000142,0.000001,-0.000236,-0.000000,0.007986,-0.000870,0.221774,-0.014306,0.178625,0.178625,0.176883,0.948031,0.000000,0.000000,0.000000,0.000000,0.000000,0.000000,0.000000,0.000000,0.000000,0.000000,0.000000,0.000000,0.215173,3,0
450000,0.000870,11.490350,0.021118,0.005275,25.108040,-0.012719,-0.000466,0.001312,1.570802,-0.005055,-0.000025,-0.000178,0.000001,-0.000260,-0.000000,0.003341,-0.000897,0.143057,0.013848,0.177871,0.177871,0.175803,0.943125,0.000000,0.000000,0.000000,0.000000,0.000000,0.000000,0.000000,0.000000,0.000000,0.000000,0.000000,0.000000,0.138819,3,0
460000,0.000896,11.744576,0.021643,0.005310,25.112577,-0.012129,-0.000484,0.001397,1.570795,-0.005341,-0.000028,-0.000239,0.000002,-0.000279,-0.000000,0.001913,-0.000924,0.106400,0.022477,0.177243,0.177243,0.174847,0.938025,0.000000,0.000000,0.000000,0.000000,0.000000,0.000000,0.000000,0.000000,0.000000,0.000000,0.000000,0.000000,0.103261,3,0
470000,0.000923,12.000134,0.022621,0.005436,25.119017,-0.010966,-0.000491,0.001530,1.570804,-0.005760,-0.000030,-0.000344,0.000002,-0.000308,-0.000000,0.003888,-0.000951,0.150311,0.037949,0.176733,0.176733,0.174006,0.932737,0.000000,0.000000,0.000000,0.000000,0.000000,0.000000,0.000000,0.000000,0.000000,0.000000,0.000000,0.000000,0.145886,3,0
480000,0.000949,12.255828,0.022908,0.005402,25.125731,-0.010814,-0.000496,0.001666,1.570803,-0.006201,-0.000033,-0.000385,0.000002,-0.000339,-0.000000,0.003824,-0.000977,0.153115,0.013894,0.176333,0.176333,0.173271,0.927264,0.000000,0.000000,0.000000,0.000000,0.000000,0.000000,0.000000,0.000000,0.000000,0.000000,0.000000,0.000000,0.148619,3,0
490000,0.000974,12.509911,0.022089,0.005406,25.130211,-0.012144,-0.000509,0.001764,1.570799,-0.006487,-0.000036,-0.000311,0.000002,-0.000360,-0.000001,0.001593,-0.001003,0.096144,-0.024579,0.176035,0.176035,0.172634,0.921610,0.000000,0.000000,0.000000,0.000000,0.000000,0.000000,0.000000,0.000000,0.000000,0.000000,0.000000,0.000000,0.093328,3,0
500000,0.000998,12.766490,0.021452,0.005426,25.138157,-0.013306,-0.000530,0.001957,1.570805,-0.007040,-0.000039,-0.000256,0.000002,-0.000401,-0.000001,0.005291,-0.001028,0.179958,-0.017793,0.175831,0.175831,0.172087,0.915781,0.000000,0.000000,0.000000,0.000000,0.000000,0.000000,0.000000,0.000000,0.000000,0.000000,0.000000,0.000000,0.174687,3,0
510000,0.001023,13.023781,0.022253,0.005463,25.147303,-0.012509,-0.000535,0.002165,1.570812,-0.007680,-0.000043,-0.000361,0.000003,-0.000449,-0.000001,0.006750,-0.001053,0.201603,0.032828,0.175714,0.175714,0.171622,0.909782,0.000000,0.000000,0.000000,0.000000,0.000000,0.000000,0.000000,0.000000,0.000000,0.000000,0.000000,0.000000,0.195701,3,0
520000,0.001046,13.282356,0.021498,0.005453,25.158371,-0.013663,-0.000543,0.002442,1.570810,-0.008472,-0.000046,-0.000289,0.000003,-0.000511,-0.000001,0.009585,-0.001078,0.242404,-0.021962,0.175679,0.175679,0.171234,0.903618,0.000000,0.000000,0.000000,0.000000,0.000000,0.000000,0.000000,0.000000,0.000000,0.000000,0.000000,0.000000,0.235309,3,0
530000,0.001069,13.541038,0.021997,0.005445,25.169664,-0.013247,-0.000545,0.002727,1.570813,-0.009287,-0.000050,-0.000365,0.000003,-0.000575,-0.000001,0.009568,-0.001101,0.242143,0.022482,0.175717,0.175717,0.170914,0.897296,0.000000,0.000000,0.000000,0.000000,0.000000,0.000000,0.000000,0.000000,0.000000,0.000000,0.000000,0.000000,0.235054,3,0
540000,0.001090,13.798659,0.022786,0.005429,25.179249,-0.012498,-0.000555,0.002962,1.570812,-0.009987,-0.000054,-0.000479,0.000004,-0.000631,-0.000001,0.006775,-0.001123,0.202018,0.032626,0.175824,0.175824,0.170658,0.890822,0.000000,0.000000,0.000000,0.000000,0.000000,0.000000,0.000000,0.000000,0.000000,0.000000,0.000000,0.000000,0.196101,3,0
550000,0.001112,14.056988,0.023025,0.005491,25.190001,-0.012347,-0.000560,0.003250,1.570821,-0.010779,-0.000058,-0.000526,0.000004,-0.000696,-0.000001,0.008044,-0.001146,0.222605,0.012937,0.175993,0.175993,0.170460,0.884203,0.000000,0.000000,0.000000,0.000000,0.000000,0.000000,0.000000,0.000000,0.000000,0.000000,0.000000,0.000000,0.216078,3,0
560000,0.001134,14.311928,0.022778,0.005547,25.195293,-0.012867,-0.000568,0.003390,1.570832,-0.011156,-0.000062,-0.000510,0.000004,-0.000728,-0.000001,0.001730,-0.001168,0.103321,-0.004215,0.176220,0.176220,0.170314,0.877446,0.000000,0.000000,0.000000,0.000000,0.000000,0.000000,0.000000,0.000000,0.000000,0.000000,0.000000,0.000000,0.100293,3,0
570000,0.001154,14.569952,0.023110,0.005489,25.205563,-0.012669,-0.000570,0.003667,1.570840,-0.011929,-0.000067,-0.000573,0.000005,-0.000794,-0.000001,0.006918,-0.001189,0.206147,0.016399,0.176499,0.176499,0.170214,0.870558,0.000000,0.000000,0.000000,0.000000,0.000000,0.000000,0.000000,0.000000,0.000000,0.000000,0.000000,0.000000,0.200086,3,0
580000,0.001175,14.827513,0.021590,0.005524,25.215101,-0.014997,-0.000579,0.003926,1.570845,-0.012645,-0.000071,-0.000382,0.000005,-0.000857,-0.000001,0.006019,-0.001210,0.186566,-0.048980,0.176825,0.176825,0.170157,0.863547,0.000000,0.000000,0.000000,0.000000,0.000000,0.000000,0.000000,0.000000,0.000000,0.000000,0.000000,0.000000,0.181072,3,0
590000,0.001195,15.083441,0.021826,0.005571,25.221800,-0.014755,-0.000594,0.004112,1.570855,-0.013148,-0.000076,-0.000437,0.000005,-0.000902,-0.000001,0.002668,-0.001231,0.127702,0.013723,0.177194,0.177194,0.170138,0.856420,0.000000,0.000000,0.000000,0.000000,0.000000,0.000000,0.000000,0.000000,0.000000,0.000000,0.000000,0.000000,0.123937,3,0
600000,0.001215,15.340107,0.022316,0.005649,25.229801,-0.014000,-0.000600,0.004333,1.570850,-0.013752,-0.000081,-0.000530,0.000006,-0.000957,-0.000001,0.003722,-0.001252,0.150009,0.022587,0.177601,0.177601,0.170152,0.849185,0.000000,0.000000,0.000000,0.000000,0.000000,0.000000,0.000000,0.000000,0.000000,0.000000,0.000000,0.000000,0.145574,3,0
610000,0.001234,15.598682,0.022549,0.005684,25.240742,-0.013716,-0.000603,0.004655,1.570848,-0.014622,-0.000086,-0.000586,0.000006,-0.001037,-0.000001,0.007251,-0.001272,0.211327,0.013244,0.178043,0.178042,0.170195,0.841850,0.000000,0.000000,0.000000,0.000000,0.000000,0.000000,0.000000,0.000000,0.000000,0.000000,0.000000,0.000000,0.205060,3,0
620000,0.001253,15.855602,0.021331,0.005679,25.248896,-0.015469,-0.000608,0.004894,1.570845,-0.015259,-0.000092,-0.000423,0.000007,-0.001097,-0.000001,0.003942,-0.001292,0.151430,-0.038014,0.178514,0.178514,0.170264,0.834423,0.000000,0.000000,0.000000,0.000000,0.000000,0.000000,0.000000,0.000000,0.000000,0.000000,0.000000,0.000000,0.146930,3,0
630000,0.001273,16.113253,0.021214,0.005804,25.258297,-0.015917,-0.000618,0.005171,1.570841,-0.016001,-0.000097,-0.000430,0.000007,-0.001169,-0.000002,0.004825,-0.001312,0.172733,0.001551,0.179012,0.179012,0.170355,0.826912,0.000000,0.000000,0.000000,0.000000,0.000000,0.000000,0.000000,0.000000,0.000000,0.000000,0.000000,0.000000,0.167584,3,0
640000,0.001292,16.369844,0.019862,0.005841,25.265882,-0.018028,-0.000624,0.005387,1.570849,-0.016586,-0.000103,-0.000242,0.000008,-0.001226,-0.000002,0.003172,-0.001332,0.133656,-0.041864,0.179534,0.179534,0.170465,0.819326,0.000000,0.000000,0.000000,0.000000,0.000000,0.000000,0.000000,0.000000,0.000000,0.000000,0.000000,0.000000,0.129662,3,0
650000,0.001311,16.628963,0.020595,0.005852,25.277582,-0.016972,-0.000634,0.005743,1.570853,-0.017547,-0.000109,-0.000391,0.000009,-0.001322,-0.000002,0.007637,-0.001351,0.214930,0.032280,0.180075,0.180075,0.170591,0.811672,0.000000,0.000000,0.000000,0.000000,0.000000,0.000000,0.000000,0.000000,0.000000,0.000000,0.000000,0.000000,0.208483,3,0
660000,0.001328,16.885803,0.020777,0.005785,25.285414,-0.016752,-0.000654,0.005969,1.570857,-0.018160,-0.000116,-0.000449,0.000009,-0.001384,-0.000002,0.002954,-0.001369,0.134602,0.012462,0.180633,0.180633,0.170729,0.803958,0.000000,0.000000,0.000000,0.000000,0.000000,0.000000,0.000000,0.000000,0.000000,0.000000,0.000000,0.000000,0.130555,3,0
670000,0.001344,17.143377,0.021005,0.005760,25.294287,-0.016364,-0.000673,0.006250,1.570850,-0.018883,-0.000122,-0.000517,0.000010,-0.001459,-0.000002,0.003965,-0.001386,0.155991,0.013976,0.181204,0.181204,0.170877,0.796193,0.000000,0.000000,0.000000,0.000000,0.000000,0.000000,0.000000,0.000000,0.000000,0.000000,0.000000,0.000000,0.151285,3,0
680000,0.001360,17.403488,0.021550,0.005719,25.307493,-0.015724,-0.000684,0.006674,1.570849,-0.019998,-0.000128,-0.000639,0.000011,-0.001577,-0.000002,0.009124,-0.001402,0.236269,0.025066,0.181787,0.181787,0.171033,0.788385,0.000000,0.000000,0.000000,0.000000,0.000000,0.000000,0.000000,0.000000,0.000000,0.000000,0.000000,0.000000,0.229115,3,0
690000,0.001375,17.660074,0.020465,0.005775,25.314468,-0.017511,-0.000690,0.006892,1.570858,-0.020551,-0.000135,-0.000479,0.000011,-0.001636,-0.000002,0.002313,-0.001418,0.115179,-0.032341,0.182378,0.182378,0.171193,0.780541,0.000000,0.000000,0.000000,0.000000,0.000000,0.000000,0.000000,0.000000,0.000000,0.000000,0.000000,0.000000,0.111686,3,0
700000,0.001391,17.920433,0.021186,0.005836,25.327850,-0.016451,-0.000708,0.007344,1.570862,-0.021703,-0.000142,-0.000639,0.000012,-0.001762,-0.000002,0.009177,-0.001434,0.236221,0.031488,0.182976,0.182976,0.171357,0.772669,0.000000,0.000000,0.000000,0.000000,0.000000,0.000000,0.000000,0.000000,0.000000,0.000000,0.000000,0.000000,0.229021,3,0
710000,0.001405,18.177845,0.019745,0.005806,25.336018,-0.018751,-0.000712,0.007609,1.570871,-0.022370,-0.000149,-0.000411,0.000013,-0.001836,-0.000002,0.003255,-0.001449,0.134760,-0.044489,0.183577,0.183577,0.171522,0.764778,0.000000,0.000000,0.000000,0.000000,0.000000,0.000000,0.000000,0.000000,0.000000,0.000000,0.000000,0.000000,0.130644,3,0
720000,0.001418,18.438433,0.019334,0.005728,25.349619,-0.019314,-0.000718,0.008088,1.570866,-0.023553,-0.000157,-0.000372,0.000014,-0.001970,-0.000003,0.008938,-0.001463,0.235085,-0.007668,0.184180,0.184180,0.171685,0.756874,0.000000,0.000000,0.000000,0.000000,0.000000,0.000000,0.000000,0.000000,0.000000,0.000000,0.000000,0.000000,0.227873,3,0
730000,0.001431,18.700335,0.018254,0.005741,25.365349,-0.020904,-0.000739,0.008653,1.570863,-0.024944,-0.000164,-0.000209,0.000015,-0.002130,-0.000003,0.012153,-0.001476,0.272547,-0.030816,0.184784,0.184783,0.171846,0.748965,0.000000,0.000000,0.000000,0.000000,0.000000,0.000000,0.000000,0.000000,0.000000,0.000000,0.000000,0.000000,0.264156,3,0
740000,0.001442,18.957397,0.018162,0.005659,25.372589,-0.020927,-0.000757,0.008902,1.570858,-0.025513,-0.000172,-0.000232,0.000015,-0.002197,-0.000003,0.001953,-0.001488,0.109879,0.004173,0.185385,0.185385,0.172003,0.741057,0.000000,0.000000,0.000000,0.000000,0.000000,0.000000,0.000000,0.000000,0.000000,0.000000,0.000000,0.000000,0.106493,3,0
750000,0.001454,19.217047,0.017342,0.005739,25.384144,-0.022196,-0.000779,0.009314,1.570866,-0.026513,-0.000180,-0.000117,0.000016,-0.002316,-0.000003,0.005945,-0.001501,0.190685,-0.021097,0.185984,0.185983,0.172154,0.733159,0.000000,0.000000,0.000000,0.000000,0.000000,0.000000,0.000000,0.000000,0.000000,0.000000,0.000000,0.000000,0.184780,3,0
760000,0.001465,19.476789,0.018149,0.005736,25.395792,-0.021140,-0.000796,0.009730,1.570868,-0.027519,-0.000188,-0.000319,0.000017,-0.002438,-0.000003,0.006000,-0.001512,0.189346,0.036047,0.186577,0.186577,0.172299,0.725277,0.000000,0.000000,0.000000,0.000000,0.000000,0.000000,0.000000,0.000000,0.000000,0.000000,0.000000,0.000000,0.183464,3,0
770000,0.001476,19.738482,0.019430,0.005779,25.410620,-0.019297,-0.000810,0.010280,1.570877,-0.028851,-0.000196,-0.000617,0.000018,-0.002602,-0.000003,0.010335,-0.001524,0.247549,0.052147,0.187165,0.187164,0.172435,0.717416,0.000000,0.000000,0.000000,0.000000,0.000000,0.000000,0.000000,0.000000,0.000000,0.000000,0.000000,0.000000,0.239833,3,0
780000,0.001487,19.995886,0.020504,0.005824,25.417818,-0.017732,-0.000818,0.010531,1.570869,-0.029422,-0.000204,-0.000872,0.000019,-0.002673,-0.000003,0.002096,-0.001535,0.104982,0.044187,0.187745,0.187744,0.172562,0.709584,0.000000,0.000000,0.000000,0.000000,0.000000,0.000000,0.000000,0.000000,0.000000,0.000000,0.000000,0.000000,0.101709,3,0
790000,0.001497,20.257771,0.021389,0.005792,25.432760,-0.016321,-0.000840,0.011115,1.570881,-0.030772,-0.000213,-0.001090,0.000021,-0.002845,-0.000004,0.009920,-0.001546,0.245085,0.037053,0.188317,0.188316,0.172680,0.701786,0.000000,0.000000,0.000000,0.000000,0.000000,0.000000,0.000000,0.000000,0.000000,0.000000,0.000000,0.000000,0.237397,3,0
800000,0.001507,20.517838,0.021651,0.005766,25.444380,-0.016106,-0.000854,0.011555,1.570876,-0.031785,-0.000221,-0.001180,0.000022,-0.002976,-0.000004,0.005374,-0.001556,0.181839,0.014958,0.188879,0.188879,0.172786,0.694029,0.000000,0.000000,0.000000,0.000000,0.000000,0.000000,0.000000,0.000000,0.000000,0.000000,0.000000,0.000000,0.176121,3,0
810000,0.001515,20.777985,0.021845,0.005672,25.456068,-0.015825,-0.000866,0.012000,1.570886,-0.032799,-0.000230,-0.001257,0.000023,-0.003110,-0.000004,0.005260,-0.001564,0.180080,0.012484,0.189432,0.189431,0.172881,0.686317,0.000000,0.000000,0.000000,0.000000,0.000000,0.000000,0.000000,0.000000,0.000000,0.000000,0.000000,0.000000,0.174401,3,0
820000,0.001523,21.040094,0.021166,0.005669,25.470932,-0.016891,-0.000875,0.012603,1.570896,-0.034152,-0.000239,-0.001150,0.000024,-0.003291,-0.000004,0.009184,-0.001572,0.237877,-0.017874,0.189973,0.189973,0.172964,0.678656,0.000000,0.000000,0.000000,0.000000,0.000000,0.000000,0.000000,0.000000,0.000000,0.000000,0.000000,0.000000,0.230350,3,0
830000,0.001530,21.299095,0.021441,0.005618,25.480232,-0.016733,-0.000895,0.012954,1.570887,-0.034925,-0.000248,-0.001248,0.000025,-0.003396,-0.000004,0.002966,-0.001580,0.134651,0.015607,0.190504,0.190503,0.173034,0.671052,0.000000,0.000000,0.000000,0.000000,0.000000,0.000000,0.000000,0.000000,0.000000,0.000000,0.000000,0.000000,0.130386,3,0
840000,0.001537,21.560715,0.019900,0.005687,25.494070,-0.018966,-0.000903,0.013505,1.570897,-0.036163,-0.000257,-0.000954,0.000027,-0.003567,-0.000005,0.007720,-0.001587,0.213497,-0.047440,0.191022,0.191021,0.173092,0.663507,0.000000,0.000000,0.000000,0.000000,0.000000,0.000000,0.000000,0.000000,0.000000,0.000000,0.000000,0.000000,0.206705,3,0
850000,0.001544,21.821114,0.019042,0.005729,25.505526,-0.020461,-0.000914,0.013975,1.570907,-0.037160,-0.000267,-0.000811,0.000028,-0.003707,-0.000005,0.004771,-0.001595,0.170408,-0.022902,0.191528,0.191527,0.173135,0.656028,0.000000,0.000000,0.000000,0.000000,0.000000,0.000000,0.000000,0.000000,0.000000,0.000000,0.000000,0.000000,0.164976,3,0
860000,0.001550,22.082848,0.017542,0.005617,25.519083,-0.022760,-0.000937,0.014549,1.570907,-0.038388,-0.000276,-0.000528,0.000029,-0.003882,-0.000005,0.007308,-0.001601,0.208078,-0.044665,0.192021,0.192020,0.173165,0.648618,0.000000,0.000000,0.000000,0.000000,0.000000,0.000000,0.000000,0.000000,0.000000,0.000000,0.000000,0.000000,0.201424,3,0
870000,0.001555,22.344624,0.017223,0.005515,25.532547,-0.023308,-0.000954,0.015106,1.570910,-0.039605,-0.000286,-0.000512,0.000031,-0.004058,-0.000005,0.006757,-0.001606,0.204632,-0.002902,0.192501,0.192500,0.173181,0.641282,0.000000,0.000000,0.000000,0.000000,0.000000,0.000000,0.000000,0.000000,0.000000,0.000000,0.000000,0.000000,0.198073,3,0
880000,0.001560,22.606440,0.016641,0.005578,25.546051,-0.024216,-0.000964,0.015668,1.570913,-0.040810,-0.000295,-0.000437,0.000032,-0.004236,-0.000005,0.006550,-0.001611,0.201147,-0.011873,0.192967,0.192966,0.173183,0.634022,0.000000,0.000000,0.000000,0.000000,0.000000,0.000000,0.000000,0.000000,0.000000,0.000000,0.000000,0.000000,0.194684,3,0
890000,0.001563,22.868294,0.017367,0.005465,25.559475,-0.023358,-0.000982,0.016242,1.570911,-0.042003,-0.000305,-0.000664,0.000033,-0.004414,-0.000006,0.006485,-0.001615,0.197618,0.033871,0.193421,0.193420,0.173171,0.626843,0.000000,0.000000,0.000000,0.000000,0.000000,0.000000,0.000000,0.000000,0.000000,0.000000,0.000000,0.000000,0.191254,3,0
900000,0.001566,23.126968,0.017504,0.005414,25.567114,-0.023039,-0.000994,0.016530,1.570909,-0.042579,-0.000315,-0.000752,0.000035,-0.004502,-0.000006,0.001473,-0.001618,0.094664,0.012944,0.193861,0.193859,0.173144,0.619748,0.000000,0.000000,0.000000,0.000000,0.000000,0.000000,0.000000,0.000000,0.000000,0.000000,0.000000,0.000000,0.091620,3,0
910000,0.001568,23.388290,0.018669,0.005349,25.579336,-0.021489,-0.001015,0.017047,1.570911,-0.043643,-0.000325,-0.001084,0.000036,-0.004666,-0.000006,0.005258,-0.001620,0.173855,0.048648,0.194287,0.194286,0.173103,0.612739,0.000000,0.000000,0.000000,0.000000,0.000000,0.000000,0.000000,0.000000,0.000000,0.000000,0.000000,0.000000,0.168234,3,0
920000,0.001569,23.647070,0.017895,0.005259,25.586754,-0.022669,-0.001026,0.017348,1.570909,-0.044206,-0.000335,-0.000954,0.000038,-0.004754,-0.000006,0.001405,-0.001621,0.091320,-0.019198,0.194700,0.194698,0.173048,0.605819,0.000000,0.000000,0.000000,0.000000,0.000000,0.000000,0.000000,0.000000,0.000000,0.000000,0.000000,0.000000,0.088370,3,0
930000,0.001568,23.907209,0.017070,0.005123,25.596544,-0.023892,-0.001043,0.017763,1.570907,-0.045016,-0.000345,-0.000815,0.000040,-0.004883,-0.000006,0.002821,-0.001621,0.130651,-0.020532,0.195100,0.195098,0.172979,0.598990,0.000000,0.000000,0.000000,0.000000,0.000000,0.000000,0.000000,0.000000,0.000000,0.000000,0.000000,0.000000,0.126412,3,0
940000,0.001568,24.165453,0.017310,0.005145,25.602886,-0.023621,-0.001065,0.018008,1.570908,-0.045448,-0.000355,-0.000933,0.000041,-0.004953,-0.000006,0.000818,-0.001620,0.069201,0.016799,0.195486,0.195484,0.172896,0.592255,0.000000,0.000000,0.000000,0.000000,0.000000,0.000000,0.000000,0.000000,0.000000,0.000000,0.000000,0.000000,0.066964,3,0
950000,0.001566,24.427011,0.017560,0.005037,25.614912,-0.023497,-0.001088,0.018542,1.570916,-0.046505,-0.000365,-0.001058,0.000043,-0.005126,-0.000006,0.004638,-0.001619,0.168713,0.017223,0.195860,0.195858,0.172800,0.585616,0.000000,0.000000,0.000000,0.000000,0.000000,0.000000,0.000000,0.000000,0.000000,0.000000,0.000000,0.000000,0.163214,3,0
960000,0.001564,24.685347,0.017655,0.004989,25.621220,-0.023451,-0.001104,0.018786,1.570909,-0.046922,-0.000375,-0.001142,0.000045,-0.005195,-0.000006,0.000726,-0.001617,0.066065,0.011677,0.196221,0.196219,0.172690,0.579075,0.000000,0.000000,0.000000,0.000000,0.000000,0.000000,0.000000,0.000000,0.000000,0.000000,0.000000,0.000000,0.063923,3,0
970000,0.001562,24.945702,0.018703,0.004995,25.630898,-0.022124,-0.001119,0.019218,1.570907,-0.047717,-0.000385,-0.001467,0.000046,-0.005330,-0.000007,0.002875,-0.001615,0.125731,0.044857,0.196569,0.196567,0.172566,0.572633,0.000000,0.000000,0.000000,0.000000,0.000000,0.000000,0.000000,0.000000,0.000000,0.000000,0.000000,0.000000,0.121623,3,0
980000,0.001560,25.204790,0.018295,0.005007,25.638197,-0.022832,-0.001130,0.019530,1.570903,-0.048252,-0.000395,-0.001423,0.000048,-0.005422,-0.000007,0.001143,-0.001613,0.083946,-0.006263,0.196905,0.196903,0.172430,0.566291,0.000000,0.000000,0.000000,0.000000,0.000000,0.000000,0.000000,0.000000,0.000000,0.000000,0.000000,0.000000,0.081207,3,0
990000,0.001558,25.463934,0.017647,0.004988,25.645658,-0.023818,-0.001140,0.019845,1.570906,-0.048784,-0.000406,-0.001320,0.000050,-0.005514,-0.000007,0.001150,-0.001611,0.083208,-0.014398,0.197229,0.197227,0.172281,0.560051,0.000000,0.000000,0.000000,0.000000,0.000000,0.000000,0.000000,0.000000,0.000000,0.000000,0.000000,0.000000,0.080488,3,0
1000000,0.001556,25.723127,0.018075,0.005014,25.652975,-0.023372,-0.001151,0.020159,1.570904,-0.049312,-0.000416,-0.001495,0.000052,-0.005608,-0.000007,0.001184,-0.001609,0.082418,0.023466,0.197542,0.197540,0.172120,0.553914,0.000000,0.000000,0.000000,0.000000,0.000000,0.000000,0.000000,0.000000,0.000000,0.000000,0.000000,0.000000,0.079721,3,0
1010000,0.001554,25.985649,0.019288,0.005016,25.666008,-0.021608,-0.001176,0.020792,1.570914,-0.050477,-0.000426,-0.001878,0.000054,-0.005817,-0.000007,0.005696,-0.001607,0.180969,0.050763,0.197844,0.197841,0.171946,0.547880,0.000000,0.000000,0.000000,0.000000,0.000000,0.000000,0.000000,0.000000,0.000000,0.000000,0.000000,0.000000,0.175010,3,0
1020000,0.001552,26.246861,0.018537,0.005001,25.676723,-0.022711,-0.001190,0.021282,1.570911,-0.051362,-0.000436,-0.001743,0.000056,-0.005978,-0.000007,0.003080,-0.001605,0.136984,-0.018433,0.198135,0.198132,0.171761,0.541951,0.000000,0.000000,0.000000,0.000000,0.000000,0.000000,0.000000,0.000000,0.000000,0.000000,0.000000,0.000000,0.132469,3,0
1030000,0.001549,26.507429,0.019785,0.004981,25.686077,-0.021108,-0.001197,0.021719,1.570920,-0.052102,-0.000446,-0.002139,0.000058,-0.006115,-0.000008,0.002538,-0.001602,0.114214,0.051861,0.198416,0.198413,0.171565,0.536126,0.000000,0.000000,0.000000,0.000000,0.000000,0.000000,0.000000,0.000000,0.000000,0.000000,0.000000,0.000000,0.110450,3,0
1040000,0.001546,26.767368,0.018726,0.004839,25.694168,-0.022747,-0.001207,0.022075,1.570918,-0.052702,-0.000457,-0.001918,0.000059,-0.006228,-0.000008,0.001507,-0.001598,0.092100,-0.029421,0.198687,0.198684,0.171358,0.530406,0.000000,0.000000,0.000000,0.000000,0.000000,0.000000,0.000000,0.000000,0.000000,0.000000,0.000000,0.000000,0.089062,3,0
1050000,0.001541,27.027340,0.018742,0.004711,25.702400,-0.022633,-0.001215,0.022436,1.570911,-0.053292,-0.000467,-0.001988,0.000061,-0.006340,-0.000008,0.001333,-0.001594,0.090502,0.008741,0.198949,0.198945,0.171140,0.524792,0.000000,0.000000,0.000000,0.000000,0.000000,0.000000,0.000000,0.000000,0.000000,0.000000,0.000000,0.000000,0.087515,3,0
1060000,0.001535,27.291302,0.019856,0.004610,25.717461,-0.021188,-0.001222,0.023204,1.570917,-0.054652,-0.000477,-0.002362,0.000063,-0.006603,-0.000008,0.007346,-0.001588,0.208149,0.047455,0.199201,0.199198,0.170912,0.519284,0.000000,0.000000,0.000000,0.000000,0.000000,0.000000,0.000000,0.000000,0.000000,0.000000,0.000000,0.000000,0.201246,3,0
1070000,0.001528,27.553255,0.018964,0.004467,25.728779,-0.022389,-0.001237,0.023759,1.570927,-0.055588,-0.000488,-0.002183,0.000065,-0.006788,-0.000008,0.003378,-0.001580,0.142826,-0.023626,0.199446,0.199441,0.170674,0.513880,0.000000,0.000000,0.000000,0.000000,0.000000,0.000000,0.000000,0.000000,0.000000,0.000000,0.000000,0.000000,0.138085,3,0
1080000,0.001520,27.813223,0.017674,0.004316,25.736589,-0.024136,-0.001253,0.024095,1.570920,-0.056112,-0.000498,-0.001893,0.000068,-0.006892,-0.000009,0.001245,-0.001572,0.079546,-0.037313,0.199682,0.199677,0.170427,0.508582,0.000000,0.000000,0.000000,0.000000,0.000000,0.000000,0.000000,0.000000,0.000000,0.000000,0.000000,0.000000,0.076912,3,0
1090000,0.001511,28.073215,0.017092,0.004223,25.744270,-0.025168,-0.001273,0.024443,1.570924,-0.056625,-0.000509,-0.001804,0.000070,-0.006996,-0.000009,0.001001,-0.001563,0.077925,-0.011679,0.199910,0.199906,0.170170,0.503389,0.000000,0.000000,0.000000,0.000000,0.000000,0.000000,0.000000,0.000000,0.000000,0.000000,0.000000,0.000000,0.075344,3,0
1100000,0.001501,28.336548,0.017802,0.004136,25.757721,-0.024120,-0.001279,0.025135,1.570928,-0.057781,-0.000519,-0.002084,0.000072,-0.007234,-0.000009,0.005163,-0.001553,0.175676,0.034315,0.200132,0.200127,0.169906,0.498300,0.000000,0.000000,0.000000,0.000000,0.000000,0.000000,0.000000,0.000000,0.000000,0.000000,0.000000,0.000000,0.169826,3,0
1110000,0.001491,28.595875,0.016518,0.004028,25.763990,-0.025841,-0.001291,0.025393,1.570938,-0.058121,-0.000529,-0.001792,0.000074,-0.007305,-0.000009,0.000643,-0.001543,0.051361,-0.036691,0.200346,0.200341,0.169633,0.493315,0.000000,0.000000,0.000000,0.000000,0.000000,0.000000,0.000000,0.000000,0.000000,0.000000,0.000000,0.000000,0.049667,3,0
1120000,0.001480,28.855228,0.017102,0.003962,25.770140,-0.025151,-0.001308,0.025646,1.570929,-0.058453,-0.000539,-0.002037,0.000076,-0.007375,-0.000009,0.000556,-0.001532,0.050398,0.030063,0.200555,0.200549,0.169352,0.488434,0.000000,0.000000,0.000000,0.000000,0.000000,0.000000,0.000000,0.000000,0.000000,0.000000,0.000000,0.000000,0.048738,3,0
1130000,0.001469,29.114616,0.016491,0.003829,25.776306,-0.025965,-0.001315,0.025890,1.570929,-0.058780,-0.000549,-0.001938,0.000078,-0.007445,-0.000009,0.000419,-0.001520,0.049408,-0.012532,0.200757,0.200751,0.169065,0.483655,0.000000,0.000000,0.000000,0.000000,0.000000,0.000000,0.000000,0.000000,0.000000,0.000000,0.000000,0.000000,0.047777,3,0
1140000,0.001456,29.378693,0.016739,0.003681,25.790722,-0.025679,-0.001337,0.026667,1.570925,-0.060021,-0.000559,-0.002099,0.000080,-0.007715,-0.000010,0.005721,-0.001506,0.187536,0.018518,0.200955,0.200948,0.168770,0.478978,0.000000,0.000000,0.000000,0.000000,0.000000,0.000000,0.000000,0.000000,0.000000,0.000000,0.000000,0.000000,0.181263,3,0
1150000,0.001442,29.639391,0.017724,0.003581,25.798925,-0.024395,-0.001346,0.027046,1.570935,-0.060565,-0.000568,-0.002470,0.000083,-0.007835,-0.000010,0.001414,-0.001493,0.082346,0.044508,0.201147,0.201140,0.168468,0.474402,0.000000,0.000000,0.000000,0.000000,0.000000,0.000000,0.000000,0.000000,0.000000,0.000000,0.000000,0.000000,0.079601,3,0
1160000,0.001428,29.901428,0.018824,0.003435,25.809370,-0.022877,-0.001355,0.027580,1.570943,-0.061356,-0.000578,-0.002878,0.000085,-0.008011,-0.000010,0.002688,-0.001478,0.119749,0.048306,0.201335,0.201327,0.168161,0.469926,0.000000,0.000000,0.000000,0.000000,0.000000,0.000000,0.000000,0.000000,0.000000,0.000000,0.000000,0.000000,0.115743,3,0
1170000,0.001413,30.164125,0.017371,0.003294,25.820862,-0.024958,-0.001366,0.028181,1.570938,-0.062258,-0.000588,-0.002523,0.000087,-0.008217,-0.000010,0.003280,-0.001462,0.135912,-0.043321,0.201518,0.201511,0.167848,0.465550,0.000000,0.000000,0.000000,0.000000,0.000000,0.000000,0.000000,0.000000,0.000000,0.000000,0.000000,0.000000,0.131351,3,0
1180000,0.001396,30.427462,0.016563,0.003121,25.833427,-0.025941,-0.001381,0.028854,1.570931,-0.063261,-0.000597,-0.002367,0.000089,-0.008449,-0.000010,0.003754,-0.001445,0.151402,-0.019577,0.201698,0.201690,0.167529,0.461272,0.000000,0.000000,0.000000,0.000000,0.000000,0.000000,0.000000,0.000000,0.000000,0.000000,0.000000,0.000000,0.146317,3,0
1190000,0.001380,30.686747,0.015513,0.003089,25.838736,-0.027497,-0.001400,0.029032,1.570928,-0.063441,-0.000607,-0.002130,0.000091,-0.008492,-0.000010,0.000247,-0.001428,0.027094,-0.028142,0.201875,0.201866,0.167205,0.457091,0.000000,0.000000,0.000000,0.000000,0.000000,0.000000,0.000000,0.000000,0.000000,0.000000,0.000000,0.000000,0.026217,3,0
1200000,0.001364,30.946053,0.015661,0.003078,25.844027,-0.027215,-0.001412,0.029219,1.570934,-0.063614,-0.000616,-0.002263,0.000093,-0.008533,-0.000011,0.000149,-0.001412,0.026180,0.015387,0.202049,0.202040,0.166877,0.453006,0.000000,0.000000,0.000000,0.000000,0.000000,0.000000,0.000000,0.000000,0.000000,0.000000,0.000000,0.000000,0.025336,3,0
1210000,0.001347,31.204710,0.016171,0.002966,25.848108,-0.026598,-0.001430,0.029323,1.570928,-0.063649,-0.000625,-0.002506,0.000096,-0.008540,-0.000011,0.000135,-0.001395,0.005367,0.028328,0.202220,0.202210,0.166545,0.449016,0.000000,0.000000,0.000000,0.000000,0.000000,0.000000,0.000000,0.000000,0.000000,0.000000,0.000000,0.000000,0.005360,3,0
1220000,0.001331,31.468092,0.016322,0.002916,25.860388,-0.026367,-0.001441,0.029993,1.570920,-0.064601,-0.000634,-0.002650,0.000098,-0.008773,-0.000011,0.003390,-0.001377,0.144249,0.015540,0.202389,0.202379,0.166208,0.445120,0.000000,0.000000,0.000000,0.000000,0.000000,0.000000,0.000000,0.000000,0.000000,0.000000,0.000000,0.000000,0.139392,3,0
1230000,0.001315,31.729420,0.014896,0.002894,25.868824,-0.028460,-0.001467,0.030413,1.570924,-0.065127,-0.000643,-0.002294,0.000100,-0.008904,-0.000011,0.001300,-0.001361,0.079533,-0.041621,0.202556,0.202545,0.165868,0.441315,0.000000,0.000000,0.000000,0.000000,0.000000,0.000000,0.000000,0.000000,0.000000,0.000000,0.000000,0.000000,0.076856,3,0
1240000,0.001298,31.992071,0.015924,0.002833,25.879507,-0.027304,-0.001477,0.030977,1.570922,-0.065892,-0.000652,-0.002722,0.000102,-0.009096,-0.000011,0.002553,-0.001344,0.116304,0.048084,0.202722,0.202710,0.165525,0.437601,0.000000,0.000000,0.000000,0.000000,0.000000,0.000000,0.000000,0.000000,0.000000,0.000000,0.000000,0.000000,0.112387,3,0
1250000,0.001281,32.251328,0.016193,0.002699,25.884079,-0.027076,-0.001498,0.031109,1.570919,-0.065974,-0.000660,-0.002898,0.000105,-0.009116,-0.000011,0.000090,-0.001326,0.012577,0.019904,0.202886,0.202874,0.165179,0.433978,0.000000,0.000000,0.000000,0.000000,0.000000,0.000000,0.000000,0.000000,0.000000,0.000000,0.000000,0.000000,0.012221,3,0
1260000,0.001264,32.513290,0.017151,0.002683,25.893490,-0.025950,-0.001521,0.031572,1.570920,-0.066572,-0.000669,-0.003304,0.000107,-0.009270,-0.000011,0.001671,-0.001309,0.091217,0.045174,0.203049,0.203036,0.164831,0.430443,0.000000,0.000000,0.000000,0.000000,0.000000,0.000000,0.000000,0.000000,0.000000,0.000000,0.000000,0.000000,0.088144,3,0
1270000,0.001247,32.775230,0.018041,0.002582,25.902655,-0.024841,-0.001538,0.032039,1.570924,-0.067145,-0.000677,-0.003688,0.000109,-0.009420,-0.000012,0.001526,-0.001291,0.087582,0.042339,0.203211,0.203198,0.164480,0.426994,0.000000,0.000000,0.000000,0.000000,0.000000,0.000000,0.000000,0.000000,0.000000,0.000000,0.000000,0.000000,0.084627,3,0
1280000,0.001230,33.034447,0.018828,0.002552,25.906935,-0.024083,-0.001547,0.032147,1.570931,-0.067172,-0.000685,-0.004029,0.000111,-0.009427,-0.000012,0.000238,-0.001273,0.004463,0.038061,0.203374,0.203360,0.164127,0.423632,0.000000,0.000000,0.000000,0.000000,0.000000,0.000000,0.000000,0.000000,0.000000,0.000000,0.000000,0.000000,0.004486,3,0
1290000,0.001212,33.296371,0.019799,0.002385,25.915840,-0.023071,-0.001558,0.032595,1.570924,-0.067713,-0.000693,-0.004439,0.000114,-0.009572,-0.000012,0.001440,-0.001255,0.083145,0.044878,0.203536,0.203521,0.163773,0.420353,0.000000,0.000000,0.000000,0.000000,0.000000,0.000000,0.000000,0.000000,0.000000,0.000000,0.000000,0.000000,0.080339,3,0
1300000,0.001194,33.558952,0.018870,0.002303,25.925972,-0.024327,-0.001566,0.033137,1.570927,-0.068362,-0.000701,-0.004220,0.000116,-0.009750,-0.000012,0.001695,-0.001236,0.099434,-0.025169,0.203698,0.203682,0.163417,0.417158,0.000000,0.000000,0.000000,0.000000,0.000000,0.000000,0.000000,0.000000,0.000000,0.000000,0.000000,0.000000,0.096061,3,0
1310000,0.001175,33.820129,0.020088,0.002182,25.933435,-0.022949,-0.001592,0.033472,1.570934,-0.068720,-0.000708,-0.004717,0.000118,-0.009849,-0.000012,0.000970,-0.001216,0.055424,0.054138,0.203860,0.203844,0.163060,0.414043,0.000000,0.000000,0.000000,0.000000,0.000000,0.000000,0.000000,0.000000,0.000000,0.000000,0.000000,0.000000,0.053560,3,0
1320000,0.001156,34.081970,0.019710,0.002095,25.941908,-0.023534,-0.001603,0.033895,1.570927,-0.069189,-0.000716,-0.004678,0.000120,-0.009981,-0.000012,0.000850,-0.001196,0.072472,-0.005044,0.204023,0.204006,0.162703,0.411009,0.000000,0.000000,0.000000,0.000000,0.000000,0.000000,0.000000,0.000000,0.000000,0.000000,0.000000,0.000000,0.070017,3,0
1330000,0.001137,34.343102,0.018940,0.002102,25.949100,-0.024578,-0.001620,0.034204,1.570922,-0.069507,-0.000724,-0.004504,0.000122,-0.010073,-0.000012,0.000449,-0.001177,0.049095,-0.019430,0.204186,0.204169,0.162344,0.408053,0.000000,0.000000,0.000000,0.000000,0.000000,0.000000,0.000000,0.000000,0.000000,0.000000,0.000000,0.000000,0.047438,3,0
1340000,0.001120,34.604893,0.017776,0.002081,25.957439,-0.026035,-0.001631,0.034602,1.570917,-0.069934,-0.000731,-0.004199,0.000125,-0.010198,-0.000012,0.000889,-0.001159,0.066196,-0.033629,0.204351,0.204333,0.161986,0.405175,0.000000,0.000000,0.000000,0.000000,0.000000,0.000000,0.000000,0.000000,0.000000,0.000000,0.000000,0.000000,0.063948,3,0
1350000,0.001101,34.868683,0.016702,0.001957,25.969213,-0.027358,-0.001651,0.035265,1.570925,-0.070720,-0.000739,-0.003936,0.000127,-0.010430,-0.000013,0.002553,-0.001140,0.122383,-0.029586,0.204517,0.204498,0.161627,0.402372,0.000000,0.000000,0.000000,0.000000,0.000000,0.000000,0.000000,0.000000,0.000000,0.000000,0.000000,0.000000,0.118215,3,0
1360000,0.001082,35.131721,0.017551,0.001883,25.979362,-0.026524,-0.001665,0.035807,1.570929,-0.071339,-0.000746,-0.004342,0.000129,-0.010614,-0.000013,0.001807,-0.001121,0.097023,0.042367,0.204684,0.204664,0.161269,0.399642,0.000000,0.000000,0.000000,0.000000,0.000000,0.000000,0.000000,0.000000,0.000000,0.000000,0.000000,0.000000,0.093726,3,0
1370000,0.001063,35.390644,0.016390,0.001782,25.982180,-0.027825,-0.001672,0.035783,1.570929,-0.071168,-0.000753,-0.004025,0.000131,-0.010563,-0.000013,0.000299,-0.001101,-0.026970,-0.033453,0.204852,0.204831,0.160911,0.396986,0.000000,0.000000,0.000000,0.000000,0.000000,0.000000,0.000000,0.000000,0.000000,0.000000,0.000000,0.000000,0.026076,3,0
1380000,0.001045,35.652958,0.017408,0.001789,25.990946,-0.026492,-0.001681,0.036223,1.570925,-0.071622,-0.000759,-0.004495,0.000133,-0.010702,-0.000013,0.001220,-0.001082,0.071903,0.048871,0.205022,0.205000,0.160554,0.394401,0.000000,0.000000,0.000000,0.000000,0.000000,0.000000,0.000000,0.000000,0.000000,0.000000,0.000000,0.000000,0.069462,3,0
1390000,0.001025,35.913872,0.017776,0.001648,25.997084,-0.026106,-0.001703,0.036447,1.570933,-0.071799,-0.000766,-0.004725,0.000135,-0.010756,-0.000013,0.000221,-0.001062,0.028172,0.023986,0.205194,0.205171,0.160197,0.391885,0.000000,0.000000,0.000000,0.000000,0.000000,0.000000,0.000000,0.000000,0.000000,0.000000,0.000000,0.000000,0.027230,3,0
1400000,0.001007,36.176807,0.017558,0.001642,26.006861,-0.026685,-0.001717,0.036972,1.570930,-0.072335,-0.000772,-0.004757,0.000137,-0.010926,-0.000013,0.001171,-0.001042,0.085255,0.002293,0.205367,0.205344,0.159842,0.389438,0.000000,0.000000,0.000000,0.000000,0.000000,0.000000,0.000000,0.000000,0.000000,0.000000,0.000000,0.000000,0.082343,3,0
1410000,0.000988,36.439003,0.018008,0.001619,26.015192,-0.026283,-0.001727,0.037377,1.570939,-0.072713,-0.000778,-0.005028,0.000139,-0.011047,-0.000013,0.000717,-0.001024,0.060764,0.027465,0.205542,0.205518,0.159488,0.387058,0.000000,0.000000,0.000000,0.000000,0.000000,0.000000,0.000000,0.000000,0.000000,0.000000,0.000000,0.000000,0.058694,3,0
1420000,0.000969,36.700466,0.018053,0.001438,26.021999,-0.026438,-0.001754,0.037671,1.570945,-0.072944,-0.000785,-0.005148,0.000141,-0.011121,-0.000014,0.000244,-0.001003,0.037037,0.011985,0.205719,0.205693,0.159135,0.384743,0.000000,0.000000,0.000000,0.000000,0.000000,0.000000,0.000000,0.000000,0.000000,0.000000,0.000000,0.000000,0.035784,3,0
1430000,0.000950,36.961216,0.017536,0.001368,26.027559,-0.027062,-0.001778,0.037841,1.570943,-0.073031,-0.000791,-0.005059,0.000143,-0.011151,-0.000014,0.000046,-0.000983,0.014053,-0.009363,0.205898,0.205871,0.158784,0.382493,0.000000,0.000000,0.000000,0.000000,0.000000,0.000000,0.000000,0.000000,0.000000,0.000000,0.000000,0.000000,0.013602,3,0
1440000,0.000930,37.220573,0.017153,0.001334,26.030375,-0.027665,-0.001787,0.037804,1.570939,-0.072858,-0.000797,-0.005014,0.000145,-0.011093,-0.000014,0.000130,-0.000963,-0.028084,-0.004212,0.206079,0.206051,0.158435,0.380304,0.000000,0.000000,0.000000,0.000000,0.000000,0.000000,0.000000,0.000000,0.000000,0.000000,0.000000,0.000000,0.027135,3,0
1450000,0.000911,37.479919,0.017439,0.001249,26.033209,-0.027376,-0.001797,0.037747,1.570935,-0.072679,-0.000802,-0.005219,0.000147,-0.011031,-0.000013,0.000210,-0.000943,-0.029045,0.021323,0.206261,0.206232,0.158087,0.378177,0.000000,0.000000,0.000000,0.000000,0.000000,0.000000,0.000000,0.000000,0.000000,0.000000,0.000000,0.000000,0.028057,3,0
1460000,0.000892,37.740643,0.016097,0.001196,26.038464,-0.029153,-0.001807,0.037899,1.570942,-0.072740,-0.000808,-0.004823,0.000149,-0.011054,-0.000014,0.000280,-0.000923,0.009762,-0.040378,0.206446,0.206415,0.157742,0.376109,0.000000,0.000000,0.000000,0.000000,0.000000,0.000000,0.000000,0.000000,0.000000,0.000000,0.000000,0.000000,0.009461,3,0
1470000,0.000872,38.002014,0.015673,0.001098,26.044786,-0.029906,-0.001830,0.038140,1.570935,-0.072906,-0.000814,-0.004781,0.000151,-0.011112,-0.000014,0.000124,-0.000903,0.027294,-0.004671,0.206632,0.206601,0.157399,0.374099,0.000000,0.000000,0.000000,0.000000,0.000000,0.000000,0.000000,0.000000,0.000000,0.000000,0.000000,0.000000,0.026366,3,0
1480000,0.000851,38.264706,0.016807,0.000925,26.053410,-0.028502,-0.001846,0.038561,1.570938,-0.073289,-0.000819,-0.005339,0.000153,-0.011246,-0.000014,0.001157,-0.000882,0.064041,0.055296,0.206820,0.206788,0.157058,0.372146,0.000000,0.000000,0.000000,0.000000,0.000000,0.000000,0.000000,0.000000,0.000000,0.000000,0.000000,0.000000,0.061850,3,0
1490000,0.000829,38.525280,0.017961,0.000736,26.058094,-0.027137,-0.001865,0.038667,1.570944,-0.073287,-0.000823,-0.005889,0.000155,-0.011243,-0.000014,0.000496,-0.000859,0.000053,0.055260,0.207011,0.206977,0.156720,0.370249,0.000000,0.000000,0.000000,0.000000,0.000000,0.000000,0.000000,0.000000,0.000000,0.000000,0.000000,0.000000,0.000832,3,0
1500000,0.000807,38.783089,0.017520,0.000567,26.057737,-0.027577,-0.001878,0.038333,1.570934,-0.072802,-0.000828,-0.005807,0.000157,-0.011066,-0.000014,0.001081,-0.000836,-0.081657,-0.006977,0.207203,0.207168,0.156384,0.368407,0.000000,0.000000,0.000000,0.000000,0.000000,0.000000,0.000000,0.000000,0.000000,0.000000,0.000000,0.000000,0.078842,3,0
1510000,0.000784,39.045727,0.016203,0.000442,26.066042,-0.029225,-0.001887,0.038742,1.570939,-0.073147,-0.000833,-0.005419,0.000159,-0.011196,-0.000014,0.000796,-0.000812,0.058113,-0.039473,0.207397,0.207361,0.156052,0.366616,0.000000,0.000000,0.000000,0.000000,0.000000,0.000000,0.000000,0.000000,0.000000,0.000000,0.000000,0.000000,0.056104,3,0
1520000,0.000761,39.306911,0.017313,0.000441,26.071514,-0.028116,-0.001901,0.038921,1.570940,-0.073227,-0.000837,-0.005970,0.000160,-0.011223,-0.000014,0.000511,-0.000789,0.014061,0.054333,0.207593,0.207555,0.155722,0.364877,0.000000,0.000000,0.000000,0.000000,0.000000,0.000000,0.000000,0.000000,0.000000,0.000000,0.000000,0.000000,0.013605,3,0
1530000,0.000739,39.569431,0.018204,0.000388,26.079483,-0.027193,-0.001915,0.039299,1.570933,-0.073522,-0.000841,-0.006443,0.000162,-0.011334,-0.000014,0.000760,-0.000766,0.051006,0.045846,0.207791,0.207752,0.155395,0.363189,0.000000,0.000000,0.000000,0.000000,0.000000,0.000000,0.000000,0.000000,0.000000,0.000000,0.000000,0.000000,0.049253,3,0
1540000,0.000716,39.831207,0.017857,0.000206,26.086018,-0.027690,-0.001939,0.039548,1.570935,-0.073678,-0.000846,-0.006421,0.000164,-0.011395,-0.000014,0.000118,-0.000741,0.026955,-0.002570,0.207990,0.207950,0.155071,0.361550,0.000000,0.000000,0.000000,0.000000,0.000000,0.000000,0.000000,0.000000,0.000000,0.000000,0.000000,0.000000,0.026030,3,0
1550000,0.000692,40.092247,0.016541,0.000047,26.090982,-0.029237,-0.001952,0.039686,1.570933,-0.073700,-0.000850,-0.006011,0.000165,-0.011406,-0.000014,0.000264,-0.000717,0.003662,-0.040126,0.208191,0.208149,0.154750,0.359958,0.000000,0.000000,0.000000,0.000000,0.000000,0.000000,0.000000,0.000000,0.000000,0.000000,0.000000,0.000000,0.003596,3,0
1560000,0.000667,40.350479,0.015725,-0.000101,26.090742,-0.030285,-0.001976,0.039366,1.570940,-0.073255,-0.000854,-0.005784,0.000167,-0.011228,-0.000014,0.001062,-0.000691,-0.078518,-0.020824,0.208393,0.208351,0.154433,0.358412,0.000000,0.000000,0.000000,0.000000,0.000000,0.000000,0.000000,0.000000,0.000000,0.000000,0.000000,0.000000,0.075797,3,0
1570000,0.000642,40.608017,0.016065,-0.000229,26.089216,-0.029680,-0.001991,0.038933,1.570943,-0.072699,-0.000858,-0.006017,0.000168,-0.011001,-0.000014,0.001647,-0.000666,-0.098202,0.024300,0.208597,0.208553,0.154119,0.356911,0.000000,0.000000,0.000000,0.000000,0.000000,0.000000,0.000000,0.000000,0.000000,0.000000,0.000000,0.000000,0.094786,3,0
1580000,0.000617,40.868332,0.016038,-0.000396,26.092722,-0.029814,-0.001998,0.038942,1.570942,-0.072599,-0.000861,-0.006124,0.000170,-0.010959,-0.000014,0.000069,-0.000639,-0.017780,0.010592,0.208803,0.208757,0.153808,0.355453,0.000000,0.000000,0.000000,0.000000,0.000000,0.000000,0.000000,0.000000,0.000000,0.000000,0.000000,0.000000,0.017170,3,0
1590000,0.000591,41.130009,0.015367,-0.000463,26.098753,-0.030609,-0.002012,0.039167,1.570943,-0.072711,-0.000865,-0.005979,0.000171,-0.011007,-0.000014,0.000098,-0.000612,0.020050,-0.014291,0.209009,0.208962,0.153501,0.354039,0.000000,0.000000,0.000000,0.000000,0.000000,0.000000,0.000000,0.000000,0.000000,0.000000,0.000000,0.000000,0.019357,3,0
1600000,0.000566,41.390923,0.016489,-0.000515,26.103161,-0.029250,-0.002028,0.039249,1.570935,-0.072692,-0.000868,-0.006564,0.000173,-0.010996,-0.000014,0.000512,-0.000586,-0.003139,0.056067,0.209217,0.209168,0.153197,0.352665,0.000000,0.000000,0.000000,0.000000,0.000000,0.000000,0.000000,0.000000,0.000000,0.000000,0.000000,0.000000,0.003070,3,0
1610000,0.000540,41.651096,0.017488,-0.000633,26.106167,-0.028226,-0.002052,0.039199,1.570930,-0.072551,-0.000870,-0.007090,0.000174,-0.010932,-0.000014,0.000522,-0.000560,-0.025551,0.050653,0.209425,0.209375,0.152897,0.351332,0.000000,0.000000,0.000000,0.000000,0.000000,0.000000,0.000000,0.000000,0.000000,0.000000,0.000000,0.000000,0.024653,3,0
1620000,0.000515,41.909157,0.018325,-0.000673,26.105217,-0.027171,-0.002073,0.038791,1.570929,-0.072079,-0.000872,-0.007530,0.000175,-0.010722,-0.000013,0.001521,-0.000534,-0.086967,0.043320,0.209635,0.209583,0.152601,0.350038,0.000000,0.000000,0.000000,0.000000,0.000000,0.000000,0.000000,0.000000,0.000000,0.000000,0.000000,0.000000,0.083921,3,0
1630000,0.000490,42.167225,0.018424,-0.000733,26.104338,-0.027038,-0.002081,0.038389,1.570925,-0.071616,-0.000875,-0.007659,0.000177,-0.010515,-0.000013,0.001237,-0.000508,-0.086590,0.013892,0.209845,0.209792,0.152308,0.348781,0.000000,0.000000,0.000000,0.000000,0.000000,0.000000,0.000000,0.000000,0.000000,0.000000,0.000000,0.000000,0.083559,3,0
1640000,0.000464,42.428070,0.018998,-0.000908,26.108509,-0.026426,-0.002088,0.038445,1.570927,-0.071579,-0.000877,-0.008013,0.000178,-0.010496,-0.000013,0.000189,-0.000481,-0.006706,0.033449,0.210055,0.210001,0.152019,0.347561,0.000000,0.000000,0.000000,0.000000,0.000000,0.000000,0.000000,0.000000,0.000000,0.000000,0.000000,0.000000,0.006479,3,0
1650000,0.000439,42.690964,0.019269,-0.000931,26.116325,-0.026005,-0.002106,0.038831,1.570925,-0.071843,-0.000879,-0.008255,0.000179,-0.010616,-0.000013,0.000486,-0.000455,0.050468,0.021724,0.210266,0.210210,0.151734,0.346377,0.000000,0.000000,0.000000,0.000000,0.000000,0.000000,0.000000,0.000000,0.000000,0.000000,0.000000,0.000000,0.048708,3,0
1660000,0.000414,42.952381,0.019871,-0.000986,26.121462,-0.025299,-0.002127,0.038958,1.570917,-0.071874,-0.000881,-0.008624,0.000180,-0.010629,-0.000013,0.000198,-0.000430,0.006161,0.034353,0.210478,0.210420,0.151453,0.345228,0.000000,0.000000,0.000000,0.000000,0.000000,0.000000,0.000000,0.000000,0.000000,0.000000,0.000000,0.000000,0.005969,3,0
1670000,0.000390,43.209549,0.020968,-0.001026,26.118580,-0.023964,-0.002136,0.038375,1.570924,-0.071275,-0.000883,-0.009162,0.000181,-0.010341,-0.000013,0.002617,-0.000404,-0.116154,0.052487,0.210690,0.210631,0.151176,0.344113,0.000000,0.000000,0.000000,0.000000,0.000000,0.000000,0.000000,0.000000,0.000000,0.000000,0.000000,0.000000,0.112061,3,0
1680000,0.000366,43.468147,0.020025,-0.001101,26.118359,-0.025091,-0.002156,0.038037,1.570931,-0.070895,-0.000885,-0.008836,0.000182,-0.010159,-0.000013,0.001041,-0.000379,-0.075108,-0.028642,0.210901,0.210841,0.150903,0.343029,0.000000,0.000000,0.000000,0.000000,0.000000,0.000000,0.000000,0.000000,0.000000,0.000000,0.000000,0.000000,0.072476,3,0
1690000,0.000342,43.726723,0.020273,-0.001146,26.118004,-0.024675,-0.002162,0.037681,1.570937,-0.070516,-0.000886,-0.009026,0.000183,-0.009972,-0.000013,0.000971,-0.000355,-0.075275,0.019134,0.211113,0.211051,0.150633,0.341976,0.000000,0.000000,0.000000,0.000000,0.000000,0.000000,0.000000,0.000000,0.000000,0.000000,0.000000,0.000000,0.072621,3,0
1700000,0.000318,43.984608,0.018908,-0.001266,26.116394,-0.026175,-0.002181,0.037222,1.570944,-0.070044,-0.000889,-0.008509,0.000184,-0.009739,-0.000013,0.001799,-0.000330,-0.095303,-0.045601,0.211324,0.211261,0.150368,0.340953,0.000000,0.000000,0.000000,0.000000,0.000000,0.000000,0.000000,0.000000,0.000000,0.000000,0.000000,0.000000,0.091961,3,0
1710000,0.000295,44.245293,0.017554,-0.001325,26.119965,-0.027876,-0.002200,0.037227,1.570952,-0.069970,-0.000891,-0.008030,0.000184,-0.009705,-0.000013,0.000347,-0.000305,-0.015228,-0.043668,0.211535,0.211470,0.150106,0.339960,0.000000,0.000000,0.000000,0.000000,0.000000,0.000000,0.000000,0.000000,0.000000,0.000000,0.000000,0.000000,0.014709,3,0
