time_us,pos_x,pos_y,pos_z,vel_x,vel_y,vel_z,roll,pitch,yaw,bias_ax,bias_ay,bias_az,bias_gx,bias_gy,bias_gz,nis,innov_x,innov_y,innov_z,cov_pos_x,cov_pos_y,cov_pos_z,cov_yaw,des_speed,des_heading,des_climb,pid_speed,pid_yaw,pid_alt,speed_meas,yaw_meas,climb_meas,fwd_accel,yaw_rate,vert_accel,drift_m,nav_mode,mission_state
0,-0.000001,0.149996,-0.000002,-0.000139,24.999321,-0.000557,0.000020,-0.000010,1.570775,0.000000,0.000000,0.000000,0.000000,0.000000,0.000000,0.006250,0.000001,-0.249996,0.000006,2.400038,2.400038,3.600017,1.000518,0.000000,0.000000,0.000000,0.000000,0.000000,0.000000,0.000000,0.000000,0.000000,0.000000,0.000000,0.000000,0.149996,1,0
10000,-0.000002,0.399297,0.008159,-0.000215,24.998867,-0.000886,0.000030,-0.000023,1.570769,0.000000,0.000000,-0.000000,0.000000,0.000000,0.000000,0.000050,0.000003,-0.002406,0.021787,1.714420,1.714420,2.250079,1.001073,0.000000,0.000000,0.000000,0.000000,0.000000,0.000000,0.000000,0.000000,0.000000,0.000000,0.000000,0.000000,0.001719,3,0
20000,-0.000003,0.650775,0.018704,-0.000217,24.998377,-0.001163,0.000048,-0.000022,1.570758,-0.000000,0.000000,-0.000000,-0.000000,-0.000000,0.000000,0.000187,0.000004,0.006724,0.038707,1.333616,1.333616,1.636554,1.001655,0.000000,0.000000,0.000000,0.000000,0.000000,0.000000,0.000000,0.000000,0.000000,0.000000,0.000000,0.000000,0.005229,3,0
30000,-0.000006,0.899627,0.024252,-0.000355,24.998001,-0.001327,0.000066,-0.000029,1.570737,0.000000,0.000000,-0.000001,-0.000000,0.000000,-0.000000,0.000093,0.000007,-0.006204,0.025951,1.091392,1.091392,1.286065,1.002257,0.000000,0.000000,0.000000,0.000000,0.000000,0.000000,0.000000,0.000000,0.000000,0.000000,0.000000,0.000000,0.005076,3,0
40000,-0.000009,1.140939,0.019680,-0.000469,24.997238,-0.001629,0.000085,-0.000027,1.570731,0.000002,0.000000,-0.000000,-0.000000,0.000000,-0.000000,0.000538,0.000010,-0.056261,-0.025810,0.923811,0.923811,1.059385,1.002869,0.000000,0.000000,0.000000,0.000000,0.000000,0.000000,0.000000,0.000000,0.000000,0.000000,0.000000,0.000000,0.047599,3,0
50000,-0.000013,1.383029,0.017926,-0.000624,24.996559,-0.002251,0.000089,-0.000035,1.570720,0.000004,0.000000,0.000000,-0.000000,0.000000,-0.000000,0.000522,0.000015,-0.059021,-0.011535,0.801036,0.801036,0.900822,1.003484,0.000000,0.000000,0.000000,0.000000,0.000000,0.000000,0.000000,0.000000,0.000000,0.000000,0.000000,0.000000,0.051141,3,0
60000,-0.000018,1.642019,0.023689,-0.000740,24.996559,-0.002183,0.000106,-0.000039,1.570715,-0.000000,0.000000,-0.000002,-0.000000,-0.000000,0.000000,0.001147,0.000020,0.076597,0.044305,0.707270,0.707270,0.783741,1.004094,0.000000,0.000000,0.000000,0.000000,0.000000,0.000000,0.000000,0.000000,0.000000,0.000000,0.000000,0.000000,0.067568,3,0
70000,-0.000024,1.897907,0.024710,-0.000830,24.996487,-0.002425,0.000126,-0.000042,1.570707,-0.000005,0.000000,-0.000003,-0.000000,-0.000000,0.000000,0.000482,0.000026,0.056154,0.009039,0.633370,0.633370,0.693801,1.004688,0.000000,0.000000,0.000000,0.000000,0.000000,0.000000,0.000000,0.000000,0.000000,0.000000,0.000000,0.000000,0.050227,3,0
80000,-0.000029,2.149679,0.021229,-0.000874,24.996284,-0.003137,0.000137,-0.000052,1.570698,-0.000007,0.000000,0.000000,-0.000000,-0.000000,0.000000,0.000219,0.000032,0.018933,-0.033261,0.573673,0.573673,0.622594,1.005260,0.000000,0.000000,0.000000,0.000000,0.000000,0.000000,0.000000,0.000000,0.000000,0.000000,0.000000,0.000000,0.017123,3,0
90000,-0.000036,2.394923,0.022605,-0.000992,24.995338,-0.003337,0.000149,-0.000064,1.570677,0.000000,0.000000,-0.000001,-0.000000,0.000000,-0.000000,0.000476,0.000039,-0.053925,0.014982,0.524488,0.524488,0.564865,1.005801,0.000000,0.000000,0.000000,0.000000,0.000000,0.000000,0.000000,0.000000,0.000000,0.000000,0.000000,0.000000,0.049211,3,0
100000,-0.000042,2.643192,0.023663,-0.001045,24.994680,-0.003594,0.000168,-0.000077,1.570672,0.000003,0.000000,-0.000003,-0.000000,0.000000,-0.000000,0.000091,0.000046,-0.020855,0.012697,0.483303,0.483303,0.517162,1.006301,0.000000,0.000000,0.000000,0.000000,0.000000,0.000000,0.000000,0.000000,0.000000,0.000000,0.000000,0.000000,0.019175,3,0
110000,-0.000049,2.899763,0.024646,-0.001095,24.995169,-0.003922,0.000178,-0.000073,1.570665,-0.000013,0.000000,-0.000006,-0.000000,-0.000000,0.000000,0.001239,0.000053,0.088703,0.012880,0.448353,0.448353,0.477121,1.006754,0.000000,0.000000,0.000000,0.000000,0.000000,0.000000,0.000000,0.000000,0.000000,0.000000,0.000000,0.000000,0.082075,3,0
120000,-0.000057,3.150479,0.026122,-0.001140,24.994766,-0.004119,0.000191,-0.000076,1.570657,-0.000016,0.000000,-0.000010,-0.000000,-0.000000,0.000000,0.000084,0.000061,0.011039,0.020571,0.418358,0.418358,0.443071,1.007150,0.000000,0.000000,0.000000,0.000000,0.000000,0.000000,0.000000,0.000000,0.000000,0.000000,0.000000,0.000000,0.010269,3,0
130000,-0.000064,3.405547,0.024934,-0.001182,24.995188,-0.004843,0.000212,-0.000069,1.570640,-0.000036,0.000000,-0.000006,-0.000000,-0.000001,0.000000,0.001000,0.000068,0.078389,-0.016543,0.392369,0.392369,0.413797,1.007481,0.000000,0.000000,0.000000,0.000000,0.000000,0.000000,0.000000,0.000000,0.000000,0.000000,0.000000,0.000000,0.073263,3,0
140000,-0.000071,3.658082,0.025201,-0.001158,24.995327,-0.005111,0.000222,-0.000061,1.570623,-0.000048,0.000000,-0.000007,-0.000000,-0.000001,0.000000,0.000279,0.000076,0.041983,0.004916,0.369666,0.369666,0.388393,1.007739,0.000000,0.000000,0.000000,0.000000,0.000000,0.000000,0.000000,0.000000,0.000000,0.000000,0.000000,0.000000,0.039397,3,0
150000,-0.000079,3.914296,0.021853,-0.001260,24.996336,-0.006024,0.000228,-0.000047,1.570615,-0.000084,0.000000,0.000010,-0.000000,-0.000002,0.000000,0.002270,0.000083,0.107511,-0.053985,0.349695,0.349695,0.366172,1.007915,0.000000,0.000000,0.000000,0.000000,0.000000,0.000000,0.000000,0.000000,0.000000,0.000000,0.000000,0.000000,0.101245,3,0
160000,-0.000086,4.164826,0.023148,-0.001279,24.996067,-0.005971,0.000247,-0.000056,1.570603,-0.000088,0.000000,0.000002,-0.000000,-0.000002,0.000000,0.000104,0.000091,0.010317,0.023506,0.332020,0.332020,0.346600,1.008002,0.000000,0.000000,0.000000,0.000000,0.000000,0.000000,0.000000,0.000000,0.000000,0.000000,0.000000,0.000000,0.009747,3,0
170000,-0.000095,4.417838,0.023057,-0.001410,24.996456,-0.006384,0.000269,-0.000047,1.570598,-0.000113,0.000000,0.000002,-0.000000,-0.000002,0.000000,0.000531,0.000100,0.057974,-0.000502,0.316297,0.316297,0.329260,1.007991,0.000000,0.000000,0.000000,0.000000,0.000000,0.000000,0.000000,0.000000,0.000000,0.000000,0.000000,0.000000,0.054918,3,0
180000,-0.000104,4.667987,0.021702,-0.001447,24.996086,-0.007092,0.000288,-0.000049,1.570580,-0.000115,0.000000,0.000013,-0.000000,-0.000002,0.000000,0.000098,0.000110,0.003747,-0.024612,0.302246,0.302246,0.313817,1.007875,0.000000,0.000000,0.000000,0.000000,0.000000,0.000000,0.000000,0.000000,0.000000,0.000000,0.000000,0.000000,0.003560,3,0
190000,-0.000112,4.924282,0.021103,-0.001386,24.997990,-0.007673,0.000302,-0.000037,1.570558,-0.000184,0.000000,0.000019,-0.000000,-0.000004,0.000000,0.002752,0.000118,0.131301,-0.010484,0.289640,0.289640,0.300003,1.007645,0.000000,0.000000,0.000000,0.000000,0.000000,0.000000,0.000000,0.000000,0.000000,0.000000,0.000000,0.000000,0.124963,3,0
200000,-0.000120,5.179523,0.021599,-0.001353,24.999578,-0.007901,0.000319,-0.000029,1.570541,-0.000250,0.000000,0.000012,-0.000000,-0.000006,0.000000,0.002072,0.000126,0.113534,0.012047,0.278295,0.278295,0.287598,1.007295,0.000000,0.000000,0.000000,0.000000,0.000000,0.000000,0.000000,0.000000,0.000000,0.000000,0.000000,0.000000,0.108268,3,0
210000,-0.000129,5.431175,0.020287,-0.001464,24.999762,-0.008900,0.000340,-0.000028,1.570519,-0.000274,0.000000,0.000029,-0.000000,-0.000007,0.000000,0.000333,0.000135,0.037188,-0.026672,0.268053,0.268053,0.276421,1.006816,0.000000,0.000000,0.000000,0.000000,0.000000,0.000000,0.000000,0.000000,0.000000,0.000000,0.000000,0.000000,0.035527,3,0
220000,-0.000137,5.684778,0.018509,-0.001448,25.000887,-0.010013,0.000345,-0.000020,1.570514,-0.000333,0.000001,0.000055,-0.000000,-0.000008,0.000000,0.001347,0.000143,0.083718,-0.037945,0.258786,0.258786,0.266321,1.006202,0.000000,0.000000,0.000000,0.000000,0.000000,0.000000,0.000000,0.000000,0.000000,0.000000,0.000000,0.000000,0.080107,3,0
230000,-0.000146,5.935988,0.018856,-0.001516,25.000986,-0.010173,0.000348,-0.000016,1.570505,-0.000355,0.000001,0.000047,-0.000000,-0.000009,0.000000,0.000151,0.000152,0.028893,0.010512,0.250384,0.250384,0.257172,1.005446,0.000000,0.000000,0.000000,0.000000,0.000000,0.000000,0.000000,0.000000,0.000000,0.000000,0.000000,0.000000,0.027687,3,0
240000,-0.000154,6.193084,0.017708,-0.001474,25.004290,-0.011016,0.000367,0.000027,1.570486,-0.000499,0.000001,0.000067,-0.000000,-0.000014,0.000000,0.005013,0.000161,0.175261,-0.025139,0.242754,0.242754,0.248866,1.004541,0.000000,0.000000,0.000000,0.000000,0.000000,0.000000,0.000000,0.000000,0.000000,0.000000,0.000000,0.000000,0.168170,3,0
250000,-0.000163,6.446936,0.017248,-0.001554,25.006010,-0.011462,0.000378,0.000053,1.570475,-0.000586,0.000001,0.000075,-0.000000,-0.000017,0.000000,0.001520,0.000170,0.097041,-0.008633,0.235817,0.235817,0.241314,1.003481,0.000000,0.000000,0.000000,0.000000,0.000000,0.000000,0.000000,0.000000,0.000000,0.000000,0.000000,0.000000,0.093227,3,0
260000,-0.000173,6.702398,0.016766,-0.001655,25.008831,-0.011909,0.000396,0.000099,1.570454,-0.000721,0.000001,0.000084,-0.000000,-0.000022,0.000000,0.003217,0.000180,0.141356,-0.009347,0.229503,0.229503,0.234436,1.002258,0.000000,0.000000,0.000000,0.000000,0.000000,0.000000,0.000000,0.000000,0.000000,0.000000,0.000000,0.000000,0.135949,3,0
270000,-0.000182,6.957863,0.017872,-0.001604,25.011896,-0.011357,0.000410,0.000137,1.570444,-0.000870,0.000001,0.000051,-0.000000,-0.000028,0.000000,0.003507,0.000189,0.144291,0.032249,0.223752,0.223752,0.228165,1.000869,0.000000,0.000000,0.000000,0.000000,0.000000,0.000000,0.000000,0.000000,0.000000,0.000000,0.000000,0.000000,0.138910,3,0
280000,-0.000191,7.211893,0.017525,-0.001663,25.014223,-0.011846,0.000423,0.000173,1.570432,-0.000989,0.000001,0.000058,-0.000000,-0.000032,0.000000,0.001861,0.000198,0.107463,-0.006183,0.218514,0.218514,0.222443,0.999307,0.000000,0.000000,0.000000,0.000000,0.000000,0.000000,0.000000,0.000000,0.000000,0.000000,0.000000,0.000000,0.103549,3,0
290000,-0.000200,7.463182,0.015655,-0.001636,25.014681,-0.013214,0.000429,0.000178,1.570426,-0.001027,0.000002,0.000114,-0.000000,-0.000034,0.000000,0.000543,0.000208,0.032320,-0.048338,0.213742,0.213742,0.217219,0.997567,0.000000,0.000000,0.000000,0.000000,0.000000,0.000000,0.000000,0.000000,0.000000,0.000000,0.000000,0.000000,0.031170,3,0
300000,-0.000210,7.718865,0.016290,-0.001747,25.018616,-0.012934,0.000445,0.000242,1.570420,-0.001226,0.000002,0.000087,-0.000000,-0.000043,0.000000,0.004128,0.000218,0.158725,0.021732,0.209396,0.209396,0.212446,0.995645,0.000000,0.000000,0.000000,0.000000,0.000000,0.000000,0.000000,0.000000,0.000000,0.000000,0.000000,0.000000,0.153186,3,0
310000,-0.000220,7.971852,0.015927,-0.001707,25.020472,-0.013500,0.000452,0.000272,1.570400,-0.001336,0.000002,0.000096,-0.000000,-0.000047,0.000000,0.001087,0.000227,0.081914,-0.006625,0.205441,0.205441,0.208087,0.993536,0.000000,0.000000,0.000000,0.000000,0.000000,0.000000,0.000000,0.000000,0.000000,0.000000,0.000000,0.000000,0.079109,3,0
320000,-0.000229,8.224322,0.017106,-0.001780,25.022024,-0.012901,0.000472,0.000308,1.570392,-0.001431,0.000003,0.000042,-0.000000,-0.000052,0.000000,0.000975,0.000237,0.067454,0.038748,0.201844,0.201844,0.204105,0.991237,0.000000,0.000000,0.000000,0.000000,0.000000,0.000000,0.000000,0.000000,0.000000,0.000000,0.000000,0.000000,0.065186,3,0
330000,-0.000240,8.478284,0.016960,-0.001869,25.025000,-0.013136,0.000478,0.000357,1.570374,-0.001601,0.000003,0.000042,-0.000000,-0.000060,0.000000,0.002063,0.000248,0.113153,-0.000436,0.198578,0.198578,0.200469,0.988743,0.000000,0.000000,0.000000,0.000000,0.000000,0.000000,0.000000,0.000000,0.000000,0.000000,0.000000,0.000000,0.109409,3,0
340000,-0.000250,8.731714,0.015753,-0.001870,25.027485,-0.014533,0.000493,0.000400,1.570354,-0.001755,0.000003,0.000093,-0.000000,-0.000067,0.000000,0.001711,0.000259,0.097710,-0.032606,0.195618,0.195618,0.197151,0.986053,0.000000,0.000000,0.000000,0.000000,0.000000,0.000000,0.000000,0.000000,0.000000,0.000000,0.000000,0.000000,0.094525,3,0
350000,-0.000260,8.989123,0.017086,-0.001845,25.034021,-0.013785,0.000500,0.000506,1.570347,-0.002125,0.000004,0.000017,-0.000000,-0.000086,0.000000,0.008286,0.000269,0.221952,0.045874,0.192939,0.192939,0.194125,0.983164,0.000000,0.000000,0.000000,0.000000,0.000000,0.000000,0.000000,0.000000,0.000000,0.000000,0.000000,0.000000,0.214815,3,0
360000,-0.000271,9.241488,0.015326,-0.001938,25.035671,-0.015577,0.000517,0.000542,1.570330,-0.002238,0.000004,0.000106,-0.000000,-0.000092,0.000000,0.001074,0.000280,0.063873,-0.050758,0.190522,0.190522,0.191370,0.980073,0.000000,0.000000,0.000000,0.000000,0.000000,0.000000,0.000000,0.000000,0.000000,0.000000,0.000000,0.000000,0.061845,3,0
370000,-0.000282,9.497780,0.014367,-0.002021,25.041483,-0.016542,0.000535,0.000648,1.570314,-0.002586,0.000005,0.000153,-0.000000,-0.000110,0.000000,0.005883,0.000291,0.189191,-0.025468,0.188348,0.188348,0.188863,0.976779,0.000000,0.000000,0.000000,0.000000,0.000000,0.000000,0.000000,0.000000,0.000000,0.000000,0.000000,0.000000,0.183253,3,0
380000,-0.000293,9.754134,0.013647,-0.001980,25.047615,-0.017528,0.000549,0.000765,1.570304,-0.002956,0.000005,0.000187,-0.000000,-0.000131,0.000000,0.005958,0.000302,0.191266,-0.017696,0.186398,0.186398,0.186586,0.973282,0.000000,0.000000,0.000000,0.000000,0.000000,0.000000,0.000000,0.000000,0.000000,0.000000,0.000000,0.000000,0.185324,3,0
390000,-0.000302,10.008108,0.013574,-0.001946,25.051239,-0.017971,0.000555,0.000842,1.570291,-0.003186,0.000006,0.000180,-0.000000,-0.000144,0.000000,0.002093,0.000312,0.113761,0.003499,0.184658,0.184658,0.184522,0.969581,0.000000,0.000000,0.000000,0.000000,0.000000,0.000000,0.000000,0.000000,0.000000,0.000000,0.000000,0.000000,0.110260,3,0
400000,-0.000313,10.264044,0.012938,-0.001977,25.057180,-0.018969,0.000560,0.000964,1.570284,-0.003563,0.000006,0.000211,-0.000000,-0.000165,0.000000,0.005144,0.000322,0.177814,-0.014830,0.183113,0.183113,0.182656,0.965675,0.000000,0.000000,0.000000,0.000000,0.000000,0.000000,0.000000,0.000000,0.000000,0.000000,0.000000,0.000000,0.172387,3,0
410000,-0.000323,10.519470,0.013032,-0.002064,25.062611,-0.019056,0.000571,0.001084,1.570280,-0.003917,0.000007,0.000190,-0.000000,-0.000186,0.000000,0.004171,0.000333,0.160366,0.009537,0.181749,0.181749,0.180971,0.961566,0.000000,0.000000,0.000000,0.000000,0.000000,0.000000,0.000000,0.000000,0.000000,0.000000,0.000000,0.000000,0.155508,3,0
420000,-0.000334,10.773212,0.011446,-0.002126,25.066029,-0.020841,0.000580,0.001154,1.570270,-0.004156,0.000008,0.000297,-0.000000,-0.000201,0.000000,0.002088,0.000345,0.103674,-0.046580,0.180554,0.180554,0.179456,0.957255,0.000000,0.000000,0.000000,0.000000,0.000000,0.000000,0.000000,0.000000,0.000000,0.000000,0.000000,0.000000,0.100555,3,0
430000,-0.000344,11.029490,0.010573,-0.002052,25.072811,-0.021884,0.000585,0.001310,1.570255,-0.004607,0.000009,0.000350,-0.000000,-0.000229,0.000000,0.005785,0.000355,0.187838,-0.022315,0.179517,0.179517,0.178097,0.952743,0.000000,0.000000,0.000000,0.000000,0.000000,0.000000,0.000000,0.000000,0.000000,0.000000,0.000000,0.000000,0.182218,3,0
440000,-0.000354,11.283503,0.010693,-0.002086,25.076784,-0.022024,0.000601,0.001392,1.570248,-0.004882,0.000009,0.000321,-0.000000,-0.000247,0.000000,0.001993,0.000365,0.110403,0.011663,0.178626,0.178625,0.176883,0.948033,0.000000,0.000000,0.000000,0.000000,0.000000,0.000000,0.000000,0.000000,0.000000,0.000000,0.000000,0.000000,0.107117,3,0
450000,-0.000363,11.541796,0.010042,-0.001980,25.086391,-0.022730,0.000606,0.001608,1.570236,-0.005540,0.000010,0.000359,-0.000001,-0.000290,0.000000,0.010463,0.000374,0.253929,-0.014647,0.177871,0.177871,0.175803,0.943126,0.000000,0.000000,0.000000,0.000000,0.000000,0.000000,0.000000,0.000000,0.000000,0.000000,0.000000,0.000000,0.246402,3,0
460000,-0.000371,11.795463,0.009419,-0.001925,25.089970,-0.023430,0.000609,0.001692,1.570216,-0.005795,0.000011,0.000396,-0.000001,-0.000307,0.000000,0.001487,0.000383,0.094934,-0.013488,0.177243,0.177243,0.174847,0.938027,0.000000,0.000000,0.000000,0.000000,0.000000,0.000000,0.000000,0.000000,0.000000,0.000000,0.000000,0.000000,0.092129,3,0
470000,-0.000380,12.049296,0.009462,-0.001998,25.093834,-0.023391,0.000611,0.001794,1.570199,-0.006072,0.000012,0.000369,-0.000001,-0.000327,0.000000,0.001622,0.000391,0.099656,0.009656,0.176733,0.176733,0.174006,0.932739,0.000000,0.000000,0.000000,0.000000,0.000000,0.000000,0.000000,0.000000,0.000000,0.000000,0.000000,0.000000,0.096721,3,0
480000,-0.000388,12.304463,0.008220,-0.001987,25.099463,-0.025012,0.000615,0.001933,1.570183,-0.006487,0.000013,0.000469,-0.000001,-0.000356,0.000000,0.003549,0.000400,0.143970,-0.034807,0.176333,0.176333,0.173271,0.927266,0.000000,0.000000,0.000000,0.000000,0.000000,0.000000,0.000000,0.000000,0.000000,0.000000,0.000000,0.000000,0.139740,3,0
490000,-0.000396,12.560941,0.007702,-0.001924,25.107037,-0.025595,0.000628,0.002120,1.570179,-0.007044,0.000014,0.000497,-0.000001,-0.000396,0.000000,0.005667,0.000408,0.186930,-0.009252,0.176035,0.176035,0.172634,0.921612,0.000000,0.000000,0.000000,0.000000,0.000000,0.000000,0.000000,0.000000,0.000000,0.000000,0.000000,0.000000,0.181446,3,0
500000,-0.000403,12.817542,0.008705,-0.001902,25.114834,-0.024411,0.000635,0.002323,1.570169,-0.007624,0.000016,0.000361,-0.000001,-0.000439,0.000000,0.006081,0.000415,0.188803,0.044033,0.175831,0.175831,0.172087,0.915783,0.000000,0.000000,0.000000,0.000000,0.000000,0.000000,0.000000,0.000000,0.000000,0.000000,0.000000,0.000000,0.183270,3,0
510000,-0.000410,13.073688,0.007725,-0.001979,25.122015,-0.025654,0.000646,0.002504,1.570147,-0.008166,0.000017,0.000442,-0.000001,-0.000480,0.000000,0.004819,0.000423,0.170669,-0.025632,0.175715,0.175714,0.171622,0.909783,0.000000,0.000000,0.000000,0.000000,0.000000,0.000000,0.000000,0.000000,0.000000,0.000000,0.000000,0.000000,0.165671,3,0
520000,-0.000418,13.329387,0.008686,-0.002001,25.128517,-0.024393,0.000662,0.002678,1.570144,-0.008666,0.000018,0.000302,-0.000001,-0.000519,0.000000,0.004083,0.000430,0.152999,0.042771,0.175679,0.175678,0.171234,0.903619,0.000000,0.000000,0.000000,0.000000,0.000000,0.000000,0.000000,0.000000,0.000000,0.000000,0.000000,0.000000,0.148519,3,0
530000,-0.000426,13.586394,0.007288,-0.002035,25.137119,-0.026358,0.000667,0.002901,1.570141,-0.009323,0.000019,0.000439,-0.000001,-0.000571,0.000000,0.006443,0.000438,0.195417,-0.040413,0.175717,0.175717,0.170914,0.897297,0.000000,0.000000,0.000000,0.000000,0.000000,0.000000,0.000000,0.000000,0.000000,0.000000,0.000000,0.000000,0.189695,3,0
540000,-0.000434,13.844695,0.006130,-0.002090,25.147663,-0.027793,0.000669,0.003192,1.570118,-0.010142,0.000021,0.000548,-0.000001,-0.000636,0.000000,0.009209,0.000447,0.236507,-0.031402,0.175824,0.175824,0.170658,0.890823,0.000000,0.000000,0.000000,0.000000,0.000000,0.000000,0.000000,0.000000,0.000000,0.000000,0.000000,0.000000,0.229577,3,0
550000,-0.000441,14.102525,0.004721,-0.002049,25.157402,-0.029884,0.000677,0.003462,1.570111,-0.010913,0.000022,0.000691,-0.000001,-0.000700,0.000000,0.007848,0.000454,0.216650,-0.039637,0.175994,0.175993,0.170460,0.884204,0.000000,0.000000,0.000000,0.000000,0.000000,0.000000,0.000000,0.000000,0.000000,0.000000,0.000000,0.000000,0.210296,3,0
560000,-0.000448,14.360477,0.005948,-0.002079,25.167471,-0.028300,0.000689,0.003747,1.570099,-0.011706,0.000024,0.000491,-0.000002,-0.000767,0.000000,0.008099,0.000462,0.217147,0.053908,0.176220,0.176220,0.170314,0.877447,0.000000,0.000000,0.000000,0.000000,0.000000,0.000000,0.000000,0.000000,0.000000,0.000000,0.000000,0.000000,0.210769,3,0
570000,-0.000456,14.617382,0.005972,-0.002120,25.175789,-0.028178,0.000695,0.003985,1.570089,-0.012372,0.000025,0.000450,-0.000002,-0.000824,0.000001,0.005131,0.000470,0.177761,0.010921,0.176499,0.176499,0.170214,0.870559,0.000000,0.000000,0.000000,0.000000,0.000000,0.000000,0.000000,0.000000,0.000000,0.000000,0.000000,0.000000,0.172533,3,0
580000,-0.000463,14.875008,0.006036,-0.002065,25.185266,-0.028060,0.000715,0.004256,1.570074,-0.013137,0.000027,0.000402,-0.000002,-0.000890,0.000001,0.006435,0.000477,0.199078,0.012288,0.176825,0.176825,0.170157,0.863547,0.000000,0.000000,0.000000,0.000000,0.000000,0.000000,0.000000,0.000000,0.000000,0.000000,0.000000,0.000000,0.193211,3,0
590000,-0.000469,15.131000,0.005737,-0.002003,25.192007,-0.028262,0.000723,0.004469,1.570063,-0.013688,0.000028,0.000404,-0.000002,-0.000940,0.000001,0.003177,0.000483,0.140148,-0.000597,0.177194,0.177194,0.170138,0.856420,0.000000,0.000000,0.000000,0.000000,0.000000,0.000000,0.000000,0.000000,0.000000,0.000000,0.000000,0.000000,0.136010,3,0
600000,-0.000474,15.387139,0.006071,-0.001920,25.199011,-0.027864,0.000728,0.004674,1.570055,-0.014262,0.000030,0.000314,-0.000002,-0.000992,0.000001,0.003362,0.000488,0.142513,0.021869,0.177601,0.177601,0.170152,0.849184,0.000000,0.000000,0.000000,0.000000,0.000000,0.000000,0.000000,0.000000,0.000000,0.000000,0.000000,0.000000,0.138296,3,0
610000,-0.000478,15.642836,0.006302,-0.001877,25.205187,-0.027595,0.000740,0.004875,1.570045,-0.014776,0.000032,0.000238,-0.000002,-0.001039,0.000001,0.002574,0.000493,0.124850,0.018120,0.178043,0.178042,0.170195,0.841849,0.000000,0.000000,0.000000,0.000000,0.000000,0.000000,0.000000,0.000000,0.000000,0.000000,0.000000,0.000000,0.121146,3,0
620000,-0.000483,15.899867,0.007026,-0.001892,25.213593,-0.026362,0.000746,0.005147,1.570027,-0.015480,0.000034,0.000086,-0.000003,-0.001106,0.000001,0.004726,0.000497,0.167274,0.035281,0.178514,0.178514,0.170264,0.834422,0.000000,0.000000,0.000000,0.000000,0.000000,0.000000,0.000000,0.000000,0.000000,0.000000,0.000000,0.000000,0.162298,3,0
630000,-0.000487,16.157627,0.007089,-0.001940,25.223051,-0.026387,0.000761,0.005453,1.570020,-0.016289,0.000036,0.000035,-0.000003,-0.001184,0.000001,0.005765,0.000502,0.188465,0.011646,0.179013,0.179012,0.170355,0.826911,0.000000,0.000000,0.000000,0.000000,0.000000,0.000000,0.000000,0.000000,0.000000,0.000000,0.000000,0.000000,0.182843,3,0
640000,-0.000491,16.417301,0.006109,-0.001879,25.235796,-0.027652,0.000764,0.005863,1.569998,-0.017379,0.000038,0.000147,-0.000003,-0.001291,0.000001,0.010100,0.000506,0.248671,-0.025165,0.179534,0.179533,0.170465,0.819324,0.000000,0.000000,0.000000,0.000000,0.000000,0.000000,0.000000,0.000000,0.000000,0.000000,0.000000,0.000000,0.241231,3,0
650000,-0.000494,16.677681,0.007485,-0.001846,25.249542,-0.025559,0.000780,0.006317,1.569981,-0.018573,0.000039,-0.000120,-0.000003,-0.001410,0.000001,0.012088,0.000510,0.267176,0.058180,0.180075,0.180074,0.170591,0.811669,0.000000,0.000000,0.000000,0.000000,0.000000,0.000000,0.000000,0.000000,0.000000,0.000000,0.000000,0.000000,0.259158,3,0
660000,-0.000497,16.937563,0.008328,-0.001779,25.262445,-0.024173,0.000783,0.006757,1.569975,-0.019689,0.000041,-0.000302,-0.000003,-0.001524,0.000001,0.009961,0.000513,0.245203,0.038662,0.180633,0.180632,0.170729,0.803955,0.000000,0.000000,0.000000,0.000000,0.000000,0.000000,0.000000,0.000000,0.000000,0.000000,0.000000,0.000000,0.237822,3,0
670000,-0.000499,17.196348,0.007028,-0.001735,25.273373,-0.026283,0.000803,0.007128,1.569966,-0.020635,0.000044,-0.000125,-0.000004,-0.001621,0.000001,0.006939,0.000515,0.203861,-0.037001,0.181204,0.181204,0.170877,0.796190,0.000000,0.000000,0.000000,0.000000,0.000000,0.000000,0.000000,0.000000,0.000000,0.000000,0.000000,0.000000,0.197705,3,0
680000,-0.000501,17.457657,0.007068,-0.001710,25.288391,-0.026176,0.000809,0.007650,1.569962,-0.021970,0.000045,-0.000178,-0.000004,-0.001762,0.000001,0.012954,0.000517,0.282907,0.010673,0.181787,0.181786,0.171033,0.788381,0.000000,0.000000,0.000000,0.000000,0.000000,0.000000,0.000000,0.000000,0.000000,0.000000,0.000000,0.000000,0.274336,3,0
690000,-0.000503,17.716637,0.007787,-0.001751,25.299349,-0.025242,0.000818,0.008042,1.569948,-0.022931,0.000048,-0.000350,-0.000004,-0.001865,0.000001,0.006680,0.000519,0.200357,0.034514,0.182378,0.182377,0.171193,0.780537,0.000000,0.000000,0.000000,0.000000,0.000000,0.000000,0.000000,0.000000,0.000000,0.000000,0.000000,0.000000,0.194268,3,0
700000,-0.000505,17.977543,0.007634,-0.001723,25.313496,-0.025508,0.000839,0.008549,1.569926,-0.024196,0.000050,-0.000369,-0.000004,-0.002004,0.000001,0.010869,0.000520,0.259331,0.003572,0.182975,0.182975,0.171357,0.772664,0.000000,0.000000,0.000000,0.000000,0.000000,0.000000,0.000000,0.000000,0.000000,0.000000,0.000000,0.000000,0.251423,3,0
710000,-0.000505,18.236713,0.008583,-0.001659,25.324490,-0.023981,0.000852,0.008941,1.569909,-0.025172,0.000052,-0.000586,-0.000005,-0.002112,0.000001,0.006563,0.000521,0.197071,0.042154,0.183576,0.183576,0.171522,0.764772,0.000000,0.000000,0.000000,0.000000,0.000000,0.000000,0.000000,0.000000,0.000000,0.000000,0.000000,0.000000,0.191043,3,0
720000,-0.000506,18.498430,0.008142,-0.001661,25.339861,-0.024594,0.000871,0.009504,1.569893,-0.026559,0.000054,-0.000551,-0.000005,-0.002269,0.000001,0.012290,0.000522,0.275730,-0.006976,0.184179,0.184179,0.171685,0.756867,0.000000,0.000000,0.000000,0.000000,0.000000,0.000000,0.000000,0.000000,0.000000,0.000000,0.000000,0.000000,0.267266,3,0
730000,-0.000507,18.756548,0.008789,-0.001669,25.348677,-0.023663,0.000887,0.009823,1.569875,-0.027340,0.000056,-0.000718,-0.000005,-0.002359,0.000001,0.003941,0.000523,0.153015,0.031300,0.184783,0.184782,0.171846,0.748958,0.000000,0.000000,0.000000,0.000000,0.000000,0.000000,0.000000,0.000000,0.000000,0.000000,0.000000,0.000000,0.148303,3,0
740000,-0.000508,19.015390,0.007992,-0.001636,25.358717,-0.024940,0.000905,0.010191,1.569871,-0.028236,0.000059,-0.000614,-0.000005,-0.002464,0.000001,0.004901,0.000524,0.173111,-0.019429,0.185384,0.185383,0.172003,0.741050,0.000000,0.000000,0.000000,0.000000,0.000000,0.000000,0.000000,0.000000,0.000000,0.000000,0.000000,0.000000,0.167764,3,0
750000,-0.000507,19.273720,0.007463,-0.001555,25.367699,-0.025918,0.000916,0.010534,1.569852,-0.029037,0.000061,-0.000562,-0.000006,-0.002559,0.000001,0.003782,0.000523,0.152716,-0.009608,0.185982,0.185981,0.172154,0.733151,0.000000,0.000000,0.000000,0.000000,0.000000,0.000000,0.000000,0.000000,0.000000,0.000000,0.000000,0.000000,0.147983,3,0
760000,-0.000506,19.533390,0.006372,-0.001478,25.378992,-0.027584,0.000927,0.010974,1.569847,-0.030060,0.000064,-0.000401,-0.000006,-0.002683,0.000002,0.006118,0.000522,0.192480,-0.028872,0.186575,0.186574,0.172299,0.725267,0.000000,0.000000,0.000000,0.000000,0.000000,0.000000,0.000000,0.000000,0.000000,0.000000,0.000000,0.000000,0.186496,3,0
770000,-0.000504,19.791912,0.007538,-0.001410,25.388138,-0.025879,0.000943,0.011325,1.569831,-0.030874,0.000066,-0.000688,-0.000006,-0.002783,0.000002,0.004109,0.000520,0.151363,0.050317,0.187162,0.187161,0.172435,0.717406,0.000000,0.000000,0.000000,0.000000,0.000000,0.000000,0.000000,0.000000,0.000000,0.000000,0.000000,0.000000,0.146642,3,0
780000,-0.000502,20.049911,0.006094,-0.001392,25.396351,-0.028016,0.000964,0.011648,1.569828,-0.031589,0.000069,-0.000452,-0.000007,-0.002873,0.000002,0.003057,0.000518,0.131296,-0.041126,0.187742,0.187741,0.172562,0.709573,0.000000,0.000000,0.000000,0.000000,0.000000,0.000000,0.000000,0.000000,0.000000,0.000000,0.000000,0.000000,0.127189,3,0
790000,-0.000500,20.310513,0.005810,-0.001347,25.408945,-0.028559,0.000976,0.012155,1.569824,-0.032753,0.000071,-0.000453,-0.000007,-0.003021,0.000002,0.007198,0.000516,0.211157,0.000008,0.188314,0.188313,0.172680,0.701774,0.000000,0.000000,0.000000,0.000000,0.000000,0.000000,0.000000,0.000000,0.000000,0.000000,0.000000,0.000000,0.204529,3,0
800000,-0.000497,20.569937,0.007184,-0.001294,25.419365,-0.026401,0.000983,0.012564,1.569816,-0.033694,0.000073,-0.000796,-0.000007,-0.003143,0.000002,0.005154,0.000513,0.169096,0.057700,0.188876,0.188875,0.172786,0.694015,0.000000,0.000000,0.000000,0.000000,0.000000,0.000000,0.000000,0.000000,0.000000,0.000000,0.000000,0.000000,0.163773,3,0
810000,-0.000492,20.828192,0.005904,-0.001134,25.427603,-0.028194,0.000997,0.012897,1.569805,-0.034416,0.000076,-0.000586,-0.000008,-0.003238,0.000002,0.002855,0.000508,0.128237,-0.035184,0.189428,0.189427,0.172881,0.686302,0.000000,0.000000,0.000000,0.000000,0.000000,0.000000,0.000000,0.000000,0.000000,0.000000,0.000000,0.000000,0.124188,3,0
820000,-0.000487,21.087172,0.005500,-0.001031,25.437098,-0.028612,0.001011,0.013275,1.569799,-0.035259,0.000078,-0.000561,-0.000008,-0.003351,0.000002,0.003548,0.000503,0.148203,-0.004196,0.189969,0.189968,0.172964,0.678640,0.000000,0.000000,0.000000,0.000000,0.000000,0.000000,0.000000,0.000000,0.000000,0.000000,0.000000,0.000000,0.143512,3,0
830000,-0.000482,21.345608,0.004780,-0.001018,25.445499,-0.029749,0.001034,0.013623,1.569796,-0.035993,0.000081,-0.000470,-0.000008,-0.003450,0.000002,0.002667,0.000498,0.127676,-0.014902,0.190499,0.190498,0.173034,0.671034,0.000000,0.000000,0.000000,0.000000,0.000000,0.000000,0.000000,0.000000,0.000000,0.000000,0.000000,0.000000,0.123624,3,0
840000,-0.000476,21.607304,0.005088,-0.000942,25.459534,-0.029282,0.001039,0.014223,1.569775,-0.037308,0.000083,-0.000604,-0.000009,-0.003632,0.000002,0.008385,0.000491,0.226974,0.021087,0.191017,0.191016,0.173091,0.663489,0.000000,0.000000,0.000000,0.000000,0.000000,0.000000,0.000000,0.000000,0.000000,0.000000,0.000000,0.000000,0.219748,3,0
850000,-0.000469,21.867779,0.004327,-0.000838,25.471142,-0.030471,0.001053,0.014723,1.569764,-0.038383,0.000086,-0.000504,-0.000009,-0.003783,0.000002,0.005493,0.000484,0.183807,-0.016085,0.191522,0.191521,0.173135,0.656008,0.000000,0.000000,0.000000,0.000000,0.000000,0.000000,0.000000,0.000000,0.000000,0.000000,0.000000,0.000000,0.177941,3,0
860000,-0.000462,22.129589,0.003625,-0.000781,25.484983,-0.031589,0.001057,0.015330,1.569744,-0.039690,0.000088,-0.000419,-0.000009,-0.003969,0.000002,0.007938,0.000477,0.221399,-0.013614,0.192015,0.192013,0.173165,0.648597,0.000000,0.000000,0.000000,0.000000,0.000000,0.000000,0.000000,0.000000,0.000000,0.000000,0.000000,0.000000,0.214314,3,0
870000,-0.000454,22.390167,0.004963,-0.000696,25.496452,-0.029584,0.001074,0.015838,1.569729,-0.040748,0.000090,-0.000793,-0.000010,-0.004123,0.000002,0.005651,0.000469,0.178118,0.057406,0.192494,0.192493,0.173181,0.641259,0.000000,0.000000,0.000000,0.000000,0.000000,0.000000,0.000000,0.000000,0.000000,0.000000,0.000000,0.000000,0.172404,3,0
880000,-0.000446,22.648886,0.005207,-0.000640,25.504602,-0.029259,0.001093,0.016184,1.569727,-0.041444,0.000092,-0.000918,-0.000010,-0.004225,0.000002,0.002236,0.000461,0.116213,0.018854,0.192960,0.192959,0.173183,0.633998,0.000000,0.000000,0.000000,0.000000,0.000000,0.000000,0.000000,0.000000,0.000000,0.000000,0.000000,0.000000,0.112475,3,0
890000,-0.000437,22.907042,0.006520,-0.000520,25.511618,-0.027176,0.001104,0.016487,1.569720,-0.042023,0.000095,-0.001287,-0.000010,-0.004312,0.000002,0.001987,0.000451,0.095959,0.055704,0.193413,0.193412,0.173170,0.626817,0.000000,0.000000,0.000000,0.000000,0.000000,0.000000,0.000000,0.000000,0.000000,0.000000,0.000000,0.000000,0.092866,3,0
900000,-0.000427,23.169777,0.005586,-0.000456,25.526640,-0.028652,0.001113,0.017173,1.569698,-0.043455,0.000097,-0.001138,-0.000011,-0.004529,0.000003,0.009015,0.000441,0.235312,-0.022804,0.193852,0.193851,0.173144,0.619720,0.000000,0.000000,0.000000,0.000000,0.000000,0.000000,0.000000,0.000000,0.000000,0.000000,0.000000,0.000000,0.227709,3,0
910000,-0.000417,23.429317,0.006130,-0.000401,25.535854,-0.028018,0.001132,0.017579,1.569687,-0.044259,0.000099,-0.001336,-0.000011,-0.004653,0.000003,0.002923,0.000431,0.131456,0.028980,0.194278,0.194277,0.173103,0.612709,0.000000,0.000000,0.000000,0.000000,0.000000,0.000000,0.000000,0.000000,0.000000,0.000000,0.000000,0.000000,0.127200,3,0
920000,-0.000408,23.687628,0.005637,-0.000395,25.542667,-0.028650,0.001151,0.017882,1.569678,-0.044817,0.000101,-0.001287,-0.000012,-0.004740,0.000003,0.001329,0.000422,0.090490,-0.007262,0.194690,0.194689,0.173048,0.605787,0.000000,0.000000,0.000000,0.000000,0.000000,0.000000,0.000000,0.000000,0.000000,0.000000,0.000000,0.000000,0.087556,3,0
930000,-0.000397,23.948601,0.006354,-0.000255,25.554070,-0.027523,0.001164,0.018422,1.569675,-0.045871,0.000103,-0.001531,-0.000012,-0.004908,0.000003,0.004860,0.000411,0.170053,0.034881,0.195089,0.195088,0.172979,0.598956,0.000000,0.000000,0.000000,0.000000,0.000000,0.000000,0.000000,0.000000,0.000000,0.000000,0.000000,0.000000,0.164525,3,0
940000,-0.000386,24.210909,0.005337,-0.000172,25.567839,-0.028892,0.001184,0.019069,1.569669,-0.047163,0.000105,-0.001356,-0.000012,-0.005117,0.000003,0.007025,0.000399,0.207148,-0.025629,0.195475,0.195474,0.172896,0.592220,0.000000,0.000000,0.000000,0.000000,0.000000,0.000000,0.000000,0.000000,0.000000,0.000000,0.000000,0.000000,0.200400,3,0
950000,-0.000375,24.469992,0.005087,-0.000088,25.575670,-0.029409,0.001195,0.019431,1.569658,-0.047814,0.000107,-0.001368,-0.000013,-0.005224,0.000003,0.001735,0.000387,0.103735,0.001546,0.195848,0.195847,0.172799,0.585579,0.000000,0.000000,0.000000,0.000000,0.000000,0.000000,0.000000,0.000000,0.000000,0.000000,0.000000,0.000000,0.100350,3,0
960000,-0.000362,24.731737,0.004267,0.000081,25.588173,-0.030725,0.001216,0.020036,1.569637,-0.048964,0.000109,-0.001243,-0.000013,-0.005415,0.000003,0.005423,0.000374,0.182512,-0.018103,0.196209,0.196207,0.172689,0.579036,0.000000,0.000000,0.000000,0.000000,0.000000,0.000000,0.000000,0.000000,0.000000,0.000000,0.000000,0.000000,0.176545,3,0
970000,-0.000349,24.994806,0.002955,0.000168,25.602718,-0.032542,0.001237,0.020753,1.569628,-0.050351,0.000110,-0.000998,-0.000013,-0.005650,0.000003,0.007915,0.000361,0.218828,-0.034791,0.196557,0.196555,0.172565,0.572592,0.000000,0.000000,0.000000,0.000000,0.000000,0.000000,0.000000,0.000000,0.000000,0.000000,0.000000,0.000000,0.211661,3,0
980000,-0.000335,25.258530,0.002984,0.000292,25.618237,-0.032483,0.001250,0.021535,1.569615,-0.051840,0.000112,-0.001093,-0.000013,-0.005905,0.000003,0.008846,0.000346,0.233917,0.012483,0.196892,0.196891,0.172429,0.566248,0.000000,0.000000,0.000000,0.000000,0.000000,0.000000,0.000000,0.000000,0.000000,0.000000,0.000000,0.000000,0.226242,3,0
990000,-0.000320,25.518974,0.002294,0.000384,25.627783,-0.033306,0.001270,0.021984,1.569608,-0.052665,0.000114,-0.001004,-0.000014,-0.006049,0.000003,0.002711,0.000331,0.129068,-0.012584,0.197216,0.197214,0.172280,0.560006,0.000000,0.000000,0.000000,0.000000,0.000000,0.000000,0.000000,0.000000,0.000000,0.000000,0.000000,0.000000,0.124827,3,0
1000000,-0.000305,25.779455,0.002244,0.000453,25.637440,-0.033319,0.001272,0.022449,1.569590,-0.053479,0.000115,-0.001080,-0.000014,-0.006193,0.000003,0.002614,0.000316,0.126951,0.010010,0.197529,0.197527,0.172119,0.553867,0.000000,0.000000,0.000000,0.000000,0.000000,0.000000,0.000000,0.000000,0.000000,0.000000,0.000000,0.000000,0.122773,3,0
1010000,-0.000290,26.043245,0.002076,0.000586,25.652639,-0.033425,0.001280,0.023225,1.569577,-0.054923,0.000116,-0.001130,-0.000014,-0.006453,0.000003,0.008107,0.000300,0.224195,0.005915,0.197830,0.197828,0.171945,0.547831,0.000000,0.000000,0.000000,0.000000,0.000000,0.000000,0.000000,0.000000,0.000000,0.000000,0.000000,0.000000,0.216803,3,0
1020000,-0.000274,26.303078,0.001051,0.000669,25.660786,-0.034628,0.001285,0.023617,1.569558,-0.055566,0.000118,-0.000952,-0.000015,-0.006570,0.000003,0.001686,0.000283,0.099405,-0.024014,0.198121,0.198119,0.171760,0.541900,0.000000,0.000000,0.000000,0.000000,0.000000,0.000000,0.000000,0.000000,0.000000,0.000000,0.000000,0.000000,0.096123,3,0
1030000,-0.000258,26.566236,0.000585,0.000766,25.674747,-0.035234,0.001296,0.024337,1.569544,-0.056846,0.000119,-0.000927,-0.000015,-0.006807,0.000004,0.006277,0.000266,0.197311,-0.003999,0.198401,0.198399,0.171563,0.536073,0.000000,0.000000,0.000000,0.000000,0.000000,0.000000,0.000000,0.000000,0.000000,0.000000,0.000000,0.000000,0.190787,3,0
1040000,-0.000240,26.825432,0.000994,0.000935,25.681526,-0.034572,0.001301,0.024643,1.569523,-0.057321,0.000120,-0.001134,-0.000015,-0.006896,0.000004,0.000979,0.000248,0.073164,0.026810,0.198672,0.198670,0.171356,0.530351,0.000000,0.000000,0.000000,0.000000,0.000000,0.000000,0.000000,0.000000,0.000000,0.000000,0.000000,0.000000,0.070742,3,0
1050000,-0.000223,27.084671,-0.000091,0.000968,25.688290,-0.035861,0.001305,0.024960,1.569502,-0.057794,0.000121,-0.000938,-0.000015,-0.006986,0.000004,0.000951,0.000231,0.072327,-0.025796,0.198933,0.198931,0.171138,0.524735,0.000000,0.000000,0.000000,0.000000,0.000000,0.000000,0.000000,0.000000,0.000000,0.000000,0.000000,0.000000,0.069929,3,0
1060000,-0.000205,27.345272,-0.000560,0.001137,25.697262,-0.036522,0.001313,0.025397,1.569490,-0.058521,0.000122,-0.000912,-0.000016,-0.007127,0.000004,0.001995,0.000212,0.111204,-0.003691,0.199186,0.199183,0.170910,0.519224,0.000000,0.000000,0.000000,0.000000,0.000000,0.000000,0.000000,0.000000,0.000000,0.000000,0.000000,0.000000,0.107512,3,0
1070000,-0.000187,27.605890,-0.000490,0.001144,25.706194,-0.036149,0.001324,0.025840,1.569478,-0.059234,0.000123,-0.001036,-0.000016,-0.007267,0.000004,0.001951,0.000193,0.108940,0.015440,0.199430,0.199427,0.170672,0.513818,0.000000,0.000000,0.000000,0.000000,0.000000,0.000000,0.000000,0.000000,0.000000,0.000000,0.000000,0.000000,0.105320,3,0
1080000,-0.000168,27.867189,0.000180,0.001300,25.716352,-0.034984,0.001329,0.026345,1.569471,-0.060064,0.000123,-0.001327,-0.000016,-0.007433,0.000004,0.002795,0.000174,0.126535,0.036441,0.199665,0.199663,0.170425,0.508518,0.000000,0.000000,0.000000,0.000000,0.000000,0.000000,0.000000,0.000000,0.000000,0.000000,0.000000,0.000000,0.122326,3,0
1090000,-0.000149,28.130484,0.000724,0.001464,25.729755,-0.034275,0.001346,0.027073,1.569451,-0.061268,0.000124,-0.001585,-0.000016,-0.007676,0.000004,0.005571,0.000154,0.183197,0.031789,0.199894,0.199891,0.170168,0.503322,0.000000,0.000000,0.000000,0.000000,0.000000,0.000000,0.000000,0.000000,0.000000,0.000000,0.000000,0.000000,0.177094,3,0
1100000,-0.000130,28.389112,0.000038,0.001463,25.734959,-0.035163,0.001356,0.027286,1.569440,-0.061526,0.000124,-0.001491,-0.000016,-0.007729,0.000004,0.000269,0.000134,0.039042,-0.011952,0.200115,0.200112,0.169904,0.498231,0.000000,0.000000,0.000000,0.000000,0.000000,0.000000,0.000000,0.000000,0.000000,0.000000,0.000000,0.000000,0.037739,3,0
1110000,-0.000110,28.653095,-0.000543,0.001561,25.749430,-0.036035,0.001374,0.028078,1.569431,-0.062832,0.000124,-0.001436,-0.000016,-0.008001,0.000004,0.006314,0.000114,0.197819,-0.007800,0.200329,0.200326,0.169631,0.493244,0.000000,0.000000,0.000000,0.000000,0.000000,0.000000,0.000000,0.000000,0.000000,0.000000,0.000000,0.000000,0.191214,3,0
1120000,-0.000090,28.912390,-0.001517,0.001710,25.755566,-0.037289,0.001382,0.028354,1.569423,-0.063183,0.000125,-0.001263,-0.000016,-0.008076,0.000004,0.000527,0.000093,0.052963,-0.021565,0.200537,0.200534,0.169350,0.488360,0.000000,0.000000,0.000000,0.000000,0.000000,0.000000,0.000000,0.000000,0.000000,0.000000,0.000000,0.000000,0.051193,3,0
1130000,-0.000070,29.175041,-0.001223,0.001795,25.767368,-0.036794,0.001391,0.028988,1.569412,-0.064183,0.000124,-0.001464,-0.000016,-0.008290,0.000004,0.003786,0.000072,0.151426,0.023910,0.200739,0.200736,0.169062,0.483579,0.000000,0.000000,0.000000,0.000000,0.000000,0.000000,0.000000,0.000000,0.000000,0.000000,0.000000,0.000000,0.146360,3,0
1140000,-0.000049,29.439003,-0.002127,0.001900,25.781422,-0.038056,0.001410,0.029775,1.569394,-0.065420,0.000124,-0.001319,-0.000016,-0.008560,0.000004,0.005680,0.000051,0.186840,-0.018709,0.200936,0.200932,0.168767,0.478899,0.000000,0.000000,0.000000,0.000000,0.000000,0.000000,0.000000,0.000000,0.000000,0.000000,0.000000,0.000000,0.180582,3,0
1150000,-0.000029,29.700256,-0.002313,0.001960,25.790594,-0.038201,0.001421,0.030241,1.569387,-0.066093,0.000124,-0.001382,-0.000016,-0.008708,0.000004,0.001673,0.000030,0.101646,0.007129,0.201128,0.201124,0.168466,0.474322,0.000000,0.000000,0.000000,0.000000,0.000000,0.000000,0.000000,0.000000,0.000000,0.000000,0.000000,0.000000,0.098240,3,0
1160000,-0.000008,29.963507,-0.001874,0.002071,25.803146,-0.037574,0.001423,0.030938,1.569367,-0.067141,0.000123,-0.001635,-0.000016,-0.008943,0.000004,0.004181,0.000008,0.158361,0.029600,0.201315,0.201311,0.168158,0.469844,0.000000,0.000000,0.000000,0.000000,0.000000,0.000000,0.000000,0.000000,0.000000,0.000000,0.000000,0.000000,0.153049,3,0
1170000,0.000014,30.223383,-0.000828,0.002247,25.809608,-0.036025,0.001441,0.031240,1.569346,-0.067496,0.000122,-0.002065,-0.000016,-0.009024,0.000004,0.000892,-0.000015,0.054018,0.051016,0.201499,0.201494,0.167845,0.465465,0.000000,0.000000,0.000000,0.000000,0.000000,0.000000,0.000000,0.000000,0.000000,0.000000,0.000000,0.000000,0.052206,3,0
1180000,0.000037,30.484613,-0.002134,0.002389,25.818323,-0.037543,0.001455,0.031698,1.569338,-0.068109,0.000122,-0.001786,-0.000016,-0.009165,0.000004,0.001555,-0.000038,0.092260,-0.033668,0.201678,0.201673,0.167526,0.461185,0.000000,0.000000,0.000000,0.000000,0.000000,0.000000,0.000000,0.000000,0.000000,0.000000,0.000000,0.000000,0.089159,3,0
1190000,0.000060,30.748512,-0.002725,0.002462,25.831696,-0.038363,0.001461,0.032467,1.569328,-0.069227,0.000121,-0.001732,-0.000016,-0.009427,0.000004,0.004603,-0.000062,0.168884,-0.007365,0.201854,0.201849,0.167202,0.457001,0.000000,0.000000,0.000000,0.000000,0.000000,0.000000,0.000000,0.000000,0.000000,0.000000,0.000000,0.000000,0.163202,3,0
1200000,0.000082,31.009014,-0.003168,0.002501,25.838888,-0.038906,0.001482,0.032822,1.569324,-0.069650,0.000120,-0.001720,-0.000016,-0.009527,0.000004,0.000658,-0.000085,0.063883,-0.001883,0.202028,0.202022,0.166874,0.452914,0.000000,0.000000,0.000000,0.000000,0.000000,0.000000,0.000000,0.000000,0.000000,0.000000,0.000000,0.000000,0.061731,3,0
1210000,0.000104,31.270857,-0.002790,0.002605,25.848396,-0.038421,0.001484,0.033317,1.569311,-0.070320,0.000118,-0.001965,-0.000015,-0.009689,0.000004,0.001786,-0.000108,0.101494,0.027949,0.202198,0.202192,0.166541,0.448922,0.000000,0.000000,0.000000,0.000000,0.000000,0.000000,0.000000,0.000000,0.000000,0.000000,0.000000,0.000000,0.098074,3,0
1220000,0.000127,31.533348,-0.001407,0.002664,25.858849,-0.036566,0.001497,0.033887,1.569294,-0.071095,0.000116,-0.002526,-0.000015,-0.009878,0.000004,0.002903,-0.000131,0.117861,0.064121,0.202367,0.202360,0.166205,0.445023,0.000000,0.000000,0.000000,0.000000,0.000000,0.000000,0.000000,0.000000,0.000000,0.000000,0.000000,0.000000,0.113888,3,0
1230000,0.000149,31.794466,-0.000173,0.002744,25.866802,-0.034766,0.001513,0.034286,1.569284,-0.071580,0.000115,-0.003035,-0.000015,-0.009998,0.000004,0.001427,-0.000154,0.073931,0.058071,0.202533,0.202527,0.165864,0.441216,0.000000,0.000000,0.000000,0.000000,0.000000,0.000000,0.000000,0.000000,0.000000,0.000000,0.000000,0.000000,0.071438,3,0
1240000,0.000172,32.053558,0.000411,0.002882,25.871191,-0.034042,0.001516,0.034429,1.569276,-0.071654,0.000113,-0.003332,-0.000014,-0.010016,0.000004,0.000208,-0.000178,0.011524,0.033949,0.202698,0.202691,0.165521,0.437501,0.000000,0.000000,0.000000,0.000000,0.000000,0.000000,0.000000,0.000000,0.000000,0.000000,0.000000,0.000000,0.011136,3,0
1250000,0.000195,32.317375,-0.000124,0.003046,25.883820,-0.034589,0.001518,0.035162,1.569273,-0.072642,0.000111,-0.003283,-0.000014,-0.010268,0.000004,0.003629,-0.000202,0.149963,-0.006734,0.202862,0.202855,0.165175,0.433876,0.000000,0.000000,0.000000,0.000000,0.000000,0.000000,0.000000,0.000000,0.000000,0.000000,0.000000,0.000000,0.144894,3,0
1260000,0.000219,32.579792,0.000261,0.003068,25.893761,-0.034108,0.001524,0.035706,1.569265,-0.073328,0.000109,-0.003528,-0.000013,-0.010446,0.000004,0.001883,-0.000226,0.104687,0.026955,0.203025,0.203017,0.164826,0.430338,0.000000,0.000000,0.000000,0.000000,0.000000,0.000000,0.000000,0.000000,0.000000,0.000000,0.000000,0.000000,0.101147,3,0
1270000,0.000241,32.838806,0.001690,0.003101,25.897514,-0.032284,0.001539,0.035817,1.569262,-0.073332,0.000107,-0.004104,-0.000013,-0.010446,0.000004,0.000680,-0.000250,0.001202,0.064758,0.203187,0.203179,0.164475,0.426888,0.000000,0.000000,0.000000,0.000000,0.000000,0.000000,0.000000,0.000000,0.000000,0.000000,0.000000,0.000000,0.001188,3,0
1280000,0.000264,33.099186,0.002054,0.003195,25.903748,-0.031921,0.001550,0.036094,1.569248,-0.073595,0.000105,-0.004334,-0.000012,-0.010516,0.000005,0.000366,-0.000273,0.040333,0.025365,0.203349,0.203340,0.164122,0.423523,0.000000,0.000000,0.000000,0.000000,0.000000,0.000000,0.000000,0.000000,0.000000,0.000000,0.000000,0.000000,0.038968,3,0
1290000,0.000287,33.359558,0.003421,0.003337,25.909798,-0.030202,0.001553,0.036360,1.569239,-0.073841,0.000102,-0.004895,-0.000012,-0.010582,0.000005,0.000860,-0.000298,0.038319,0.062034,0.203511,0.203502,0.163768,0.420242,0.000000,0.000000,0.000000,0.000000,0.000000,0.000000,0.000000,0.000000,0.000000,0.000000,0.000000,0.000000,0.037023,3,0
1300000,0.000310,33.619251,0.003474,0.003335,25.914652,-0.030316,0.001572,0.036527,1.569229,-0.073948,0.000100,-0.005016,-0.000011,-0.010611,0.000005,0.000072,-0.000321,0.016434,0.013275,0.203673,0.203663,0.163412,0.417045,0.000000,0.000000,0.000000,0.000000,0.000000,0.000000,0.000000,0.000000,0.000000,0.000000,0.000000,0.000000,0.015880,3,0
1310000,0.000333,33.878948,0.003451,0.003459,25.919386,-0.030316,0.001575,0.036699,1.569208,-0.074045,0.000098,-0.005112,-0.000010,-0.010638,0.000005,0.000055,-0.000345,0.015114,0.010469,0.203835,0.203824,0.163055,0.413928,0.000000,0.000000,0.000000,0.000000,0.000000,0.000000,0.000000,0.000000,0.000000,0.000000,0.000000,0.000000,0.014606,3,0
1320000,0.000355,34.139999,0.003621,0.003453,25.926550,-0.029974,0.001582,0.037034,1.569205,-0.074391,0.000095,-0.005278,-0.000010,-0.010736,0.000005,0.000512,-0.000368,0.053555,0.017663,0.203998,0.203987,0.162697,0.410892,0.000000,0.000000,0.000000,0.000000,0.000000,0.000000,0.000000,0.000000,0.000000,0.000000,0.000000,0.000000,0.051736,3,0
1330000,0.000378,34.399002,0.003704,0.003563,25.929853,-0.029855,0.001594,0.037105,1.569202,-0.074333,0.000092,-0.005409,-0.000009,-0.010719,0.000005,0.000045,-0.000391,-0.008778,0.014265,0.204161,0.204149,0.162339,0.407933,0.000000,0.000000,0.000000,0.000000,0.000000,0.000000,0.000000,0.000000,0.000000,0.000000,0.000000,0.000000,0.008485,3,0
1340000,0.000399,34.660049,0.004461,0.003541,25.936829,-0.028982,0.001602,0.037440,1.569195,-0.074654,0.000089,-0.005778,-0.000008,-0.010812,0.000005,0.000659,-0.000413,0.050247,0.039423,0.204326,0.204313,0.161980,0.405052,0.000000,0.000000,0.000000,0.000000,0.000000,0.000000,0.000000,0.000000,0.000000,0.000000,0.000000,0.000000,0.048540,3,0
1350000,0.000422,34.923790,0.003523,0.003697,25.948612,-0.030223,0.001610,0.038130,1.569188,-0.075471,0.000086,-0.005570,-0.000007,-0.011053,0.000005,0.002690,-0.000437,0.127071,-0.023567,0.204491,0.204478,0.161621,0.402247,0.000000,0.000000,0.000000,0.000000,0.000000,0.000000,0.000000,0.000000,0.000000,0.000000,0.000000,0.000000,0.122739,3,0
1360000,0.000445,35.186104,0.004560,0.003844,25.957533,-0.029039,0.001620,0.038623,1.569182,-0.075991,0.000082,-0.006048,-0.000006,-0.011208,0.000005,0.001489,-0.000460,0.081882,0.050257,0.204658,0.204644,0.161263,0.399515,0.000000,0.000000,0.000000,0.000000,0.000000,0.000000,0.000000,0.000000,0.000000,0.000000,0.000000,0.000000,0.079095,3,0
1370000,0.000468,35.448376,0.005569,0.003998,25.966448,-0.027750,0.001633,0.039103,1.569165,-0.076483,0.000078,-0.006514,-0.000005,-0.011356,0.000005,0.001364,-0.000485,0.077904,0.048830,0.204826,0.204812,0.160905,0.396856,0.000000,0.000000,0.000000,0.000000,0.000000,0.000000,0.000000,0.000000,0.000000,0.000000,0.000000,0.000000,0.075250,3,0
1380000,0.000492,35.709251,0.005521,0.004121,25.972750,-0.027692,0.001634,0.039378,1.569157,-0.076700,0.000074,-0.006600,-0.000004,-0.011423,0.000005,0.000201,-0.000510,0.034210,0.008766,0.204996,0.204981,0.160547,0.394269,0.000000,0.000000,0.000000,0.000000,0.000000,0.000000,0.000000,0.000000,0.000000,0.000000,0.000000,0.000000,0.033047,3,0
1390000,0.000516,35.972820,0.006173,0.004201,25.983814,-0.026985,0.001650,0.040029,1.569141,-0.077399,0.000070,-0.006946,-0.000003,-0.011641,0.000005,0.002193,-0.000535,0.111210,0.035324,0.205168,0.205152,0.160190,0.391752,0.000000,0.000000,0.000000,0.000000,0.000000,0.000000,0.000000,0.000000,0.000000,0.000000,0.000000,0.000000,0.107412,3,0
1400000,0.000540,36.234962,0.006879,0.004216,25.992105,-0.026168,0.001663,0.040470,1.569131,-0.077813,0.000066,-0.007306,-0.000002,-0.011771,0.000005,0.000928,-0.000559,0.066200,0.036994,0.205341,0.205324,0.159835,0.389303,0.000000,0.000000,0.000000,0.000000,0.000000,0.000000,0.000000,0.000000,0.000000,0.000000,0.000000,0.000000,0.063940,3,0
1410000,0.000563,36.497059,0.007621,0.004342,26.000311,-0.025387,0.001670,0.040882,1.569123,-0.078201,0.000062,-0.007679,-0.000000,-0.011895,0.000005,0.000863,-0.000583,0.062401,0.038164,0.205516,0.205499,0.159480,0.386921,0.000000,0.000000,0.000000,0.000000,0.000000,0.000000,0.000000,0.000000,0.000000,0.000000,0.000000,0.000000,0.060271,3,0
1420000,0.000587,36.755703,0.007803,0.004467,26.002066,-0.025367,0.001677,0.040785,1.569108,-0.077946,0.000058,-0.007833,0.000001,-0.011812,0.000005,0.000311,-0.000608,-0.040745,0.016506,0.205693,0.205675,0.159128,0.384604,0.000000,0.000000,0.000000,0.000000,0.000000,0.000000,0.000000,0.000000,0.000000,0.000000,0.000000,0.000000,0.039349,3,0
1430000,0.000610,37.014355,0.008905,0.004436,26.003853,-0.023960,0.001695,0.040687,1.569097,-0.077688,0.000054,-0.008324,0.000002,-0.011726,0.000005,0.000695,-0.000632,-0.040981,0.051135,0.205872,0.205852,0.158776,0.382350,0.000000,0.000000,0.000000,0.000000,0.000000,0.000000,0.000000,0.000000,0.000000,0.000000,0.000000,0.000000,0.039575,3,0
1440000,0.000634,37.273697,0.010025,0.004561,26.006729,-0.022845,0.001701,0.040684,1.569081,-0.077553,0.000050,-0.008824,0.000004,-0.011680,0.000005,0.000506,-0.000656,-0.021347,0.051624,0.206052,0.206032,0.158427,0.380159,0.000000,0.000000,0.000000,0.000000,0.000000,0.000000,0.000000,0.000000,0.000000,0.000000,0.000000,0.000000,0.020617,3,0
1450000,0.000656,37.533039,0.010950,0.004546,26.009743,-0.021698,0.001716,0.040679,1.569063,-0.077413,0.000045,-0.009249,0.000005,-0.011631,0.000005,0.000391,-0.000680,-0.022293,0.043805,0.206235,0.206214,0.158079,0.378030,0.000000,0.000000,0.000000,0.000000,0.000000,0.000000,0.000000,0.000000,0.000000,0.000000,0.000000,0.000000,0.021533,3,0
1460000,0.000679,37.791702,0.009615,0.004656,26.011433,-0.023496,0.001732,0.040572,1.569055,-0.077154,0.000042,-0.008826,0.000006,-0.011542,0.000005,0.000593,-0.000703,-0.043118,-0.042572,0.206419,0.206397,0.157734,0.375960,0.000000,0.000000,0.000000,0.000000,0.000000,0.000000,0.000000,0.000000,0.000000,0.000000,0.000000,0.000000,0.041647,3,0
1470000,0.000702,38.049675,0.010422,0.004726,26.011705,-0.022673,0.001735,0.040362,1.569039,-0.076767,0.000037,-0.009208,0.000008,-0.011406,0.000005,0.000898,-0.000727,-0.063248,0.039602,0.206606,0.206583,0.157390,0.373947,0.000000,0.000000,0.000000,0.000000,0.000000,0.000000,0.000000,0.000000,0.000000,0.000000,0.000000,0.000000,0.061070,3,0
1480000,0.000724,38.308346,0.011548,0.004747,26.013197,-0.021441,0.001739,0.040245,1.569022,-0.076505,0.000033,-0.009715,0.000010,-0.011312,0.000005,0.000730,-0.000750,-0.042919,0.051661,0.206794,0.206771,0.157049,0.371991,0.000000,0.000000,0.000000,0.000000,0.000000,0.000000,0.000000,0.000000,0.000000,0.000000,0.000000,0.000000,0.041438,3,0
1490000,0.000745,38.570457,0.011844,0.004788,26.020901,-0.021176,0.001748,0.040653,1.569017,-0.076840,0.000027,-0.009921,0.000011,-0.011432,0.000005,0.000573,-0.000772,0.056213,0.019953,0.206985,0.206960,0.156711,0.370091,0.000000,0.000000,0.000000,0.000000,0.000000,0.000000,0.000000,0.000000,0.000000,0.000000,0.000000,0.000000,0.054281,3,0
1500000,0.000767,38.829079,0.012854,0.004888,26.022205,-0.020159,0.001759,0.040514,1.569010,-0.076557,0.000023,-0.010383,0.000013,-0.011328,0.000005,0.000710,-0.000795,-0.046944,0.046800,0.207177,0.207151,0.156375,0.368245,0.000000,0.000000,0.000000,0.000000,0.000000,0.000000,0.000000,0.000000,0.000000,0.000000,0.000000,0.000000,0.045321,3,0
1510000,0.000790,39.087719,0.011834,0.005050,26.023581,-0.021454,0.001765,0.040385,1.568992,-0.076281,0.000018,-0.010059,0.000015,-0.011226,0.000005,0.000520,-0.000818,-0.047153,-0.031610,0.207371,0.207344,0.156042,0.366452,0.000000,0.000000,0.000000,0.000000,0.000000,0.000000,0.000000,0.000000,0.000000,0.000000,0.000000,0.000000,0.045535,3,0
1520000,0.000812,39.350479,0.012230,0.005083,26.032286,-0.020952,0.001782,0.040883,1.568988,-0.076701,0.000013,-0.010312,0.000017,-0.011384,0.000005,0.000926,-0.000841,0.071896,0.024025,0.207567,0.207539,0.155712,0.364710,0.000000,0.000000,0.000000,0.000000,0.000000,0.000000,0.000000,0.000000,0.000000,0.000000,0.000000,0.000000,0.069417,3,0
1530000,0.000835,39.611111,0.012818,0.005211,26.037098,-0.020369,0.001793,0.041027,1.568980,-0.076744,0.000008,-0.010627,0.000019,-0.011400,0.000005,0.000166,-0.000865,0.007835,0.031004,0.207765,0.207736,0.155385,0.363019,0.000000,0.000000,0.000000,0.000000,0.000000,0.000000,0.000000,0.000000,0.000000,0.000000,0.000000,0.000000,0.007614,3,0
1540000,0.000857,39.871712,0.013930,0.005249,26.041784,-0.019144,0.001806,0.041167,1.568967,-0.076773,0.000002,-0.011148,0.000021,-0.011410,0.000005,0.000429,-0.000888,0.005581,0.051067,0.207965,0.207935,0.155061,0.361377,0.000000,0.000000,0.000000,0.000000,0.000000,0.000000,0.000000,0.000000,0.000000,0.000000,0.000000,0.000000,0.005462,3,0
1550000,0.000878,40.131603,0.013441,0.005273,26.045164,-0.019884,0.001813,0.041182,1.568954,-0.076679,-0.000003,-0.011028,0.000023,-0.011373,0.000005,0.000065,-0.000910,-0.016521,-0.011489,0.208166,0.208135,0.154740,0.359783,0.000000,0.000000,0.000000,0.000000,0.000000,0.000000,0.000000,0.000000,0.000000,0.000000,0.000000,0.000000,0.015973,3,0
1560000,0.000901,40.390083,0.014532,0.005429,26.045807,-0.018659,0.001823,0.040961,1.568932,-0.076346,-0.000008,-0.011532,0.000025,-0.011238,0.000005,0.000941,-0.000933,-0.057774,0.049898,0.208369,0.208337,0.154422,0.358234,0.000000,0.000000,0.000000,0.000000,0.000000,0.000000,0.000000,0.000000,0.000000,0.000000,0.000000,0.000000,0.055767,3,0
1570000,0.000923,40.648575,0.014181,0.005510,26.046518,-0.019290,0.001825,0.040752,1.568922,-0.076020,-0.000013,-0.011454,0.000027,-0.011106,0.000005,0.000545,-0.000956,-0.057838,-0.006615,0.208573,0.208540,0.154108,0.356731,0.000000,0.000000,0.000000,0.000000,0.000000,0.000000,0.000000,0.000000,0.000000,0.000000,0.000000,0.000000,0.055836,3,0
1580000,0.000945,40.907074,0.013051,0.005511,26.047091,-0.020850,0.001830,0.040551,1.568914,-0.075699,-0.000018,-0.011063,0.000029,-0.010974,0.000005,0.000760,-0.000979,-0.057907,-0.036797,0.208779,0.208744,0.153797,0.355271,0.000000,0.000000,0.000000,0.000000,0.000000,0.000000,0.000000,0.000000,0.000000,0.000000,0.000000,0.000000,0.055909,3,0
1590000,0.000966,41.167637,0.013963,0.005527,26.051449,-0.019743,0.001831,0.040651,1.568902,-0.075705,-0.000024,-0.011520,0.000032,-0.010975,0.000005,0.000314,-0.001001,0.001648,0.043903,0.208986,0.208950,0.153490,0.353853,0.000000,0.000000,0.000000,0.000000,0.000000,0.000000,0.000000,0.000000,0.000000,0.000000,0.000000,0.000000,0.001868,3,0
1600000,0.000987,41.429573,0.012640,0.005581,26.058348,-0.021454,0.001837,0.040985,1.568896,-0.075924,-0.000030,-0.011071,0.000034,-0.011070,0.000005,0.000557,-0.001022,0.039223,-0.043645,0.209194,0.209156,0.153186,0.352478,0.000000,0.000000,0.000000,0.000000,0.000000,0.000000,0.000000,0.000000,0.000000,0.000000,0.000000,0.000000,0.037858,3,0
1610000,0.001008,41.690746,0.013205,0.005677,26.063581,-0.021042,0.001834,0.041187,1.568876,-0.076007,-0.000036,-0.011398,0.000036,-0.011105,0.000005,0.000195,-0.001044,0.015762,0.030898,0.209402,0.209364,0.152885,0.351142,0.000000,0.000000,0.000000,0.000000,0.000000,0.000000,0.000000,0.000000,0.000000,0.000000,0.000000,0.000000,0.015250,3,0
1620000,0.001029,41.948395,0.014139,0.005814,26.062313,-0.019771,0.001833,0.040790,1.568867,-0.075537,-0.000041,-0.011850,0.000039,-0.010897,0.000005,0.001522,-0.001067,-0.086426,0.044411,0.209612,0.209573,0.152589,0.349846,0.000000,0.000000,0.000000,0.000000,0.000000,0.000000,0.000000,0.000000,0.000000,0.000000,0.000000,0.000000,0.083403,3,0
1630000,0.001051,42.208851,0.013600,0.005909,26.066238,-0.020673,0.001844,0.040859,1.568856,-0.075506,-0.000047,-0.011708,0.000041,-0.010883,0.000005,0.000035,-0.001089,-0.006119,-0.013310,0.209823,0.209782,0.152296,0.348587,0.000000,0.000000,0.000000,0.000000,0.000000,0.000000,0.000000,0.000000,0.000000,0.000000,0.000000,0.000000,0.006002,3,0
1640000,0.001073,42.469269,0.013328,0.006009,26.070024,-0.021018,0.001844,0.040913,1.568843,-0.075462,-0.000053,-0.011680,0.000044,-0.010864,0.000005,0.000012,-0.001112,-0.008190,-0.002552,0.210034,0.209992,0.152007,0.347366,0.000000,0.000000,0.000000,0.000000,0.000000,0.000000,0.000000,0.000000,0.000000,0.000000,0.000000,0.000000,0.007977,3,0
1650000,0.001095,42.726871,0.012716,0.006100,26.068594,-0.021907,0.001854,0.040491,1.568831,-0.074993,-0.000058,-0.011487,0.000047,-0.010648,0.000005,0.001339,-0.001135,-0.089733,-0.016423,0.210245,0.210202,0.151722,0.346180,0.000000,0.000000,0.000000,0.000000,0.000000,0.000000,0.000000,0.000000,0.000000,0.000000,0.000000,0.000000,0.086601,3,0
1660000,0.001117,42.986580,0.011411,0.006198,26.070911,-0.023614,0.001850,0.040420,1.568823,-0.074844,-0.000063,-0.011020,0.000049,-0.010580,0.000005,0.000440,-0.001158,-0.029263,-0.043119,0.210457,0.210413,0.151440,0.345028,0.000000,0.000000,0.000000,0.000000,0.000000,0.000000,0.000000,0.000000,0.000000,0.000000,0.000000,0.000000,0.028266,3,0
1670000,0.001140,43.244858,0.011678,0.006335,26.070515,-0.023308,0.001850,0.040104,1.568804,-0.074482,-0.000069,-0.011215,0.000052,-0.010407,0.000005,0.000857,-0.001181,-0.070324,0.019470,0.210669,0.210623,0.151163,0.343909,0.000000,0.000000,0.000000,0.000000,0.000000,0.000000,0.000000,0.000000,0.000000,0.000000,0.000000,0.000000,0.067862,3,0
1680000,0.001162,43.503841,0.011106,0.006397,26.071472,-0.024009,0.001848,0.039905,1.568800,-0.074227,-0.000075,-0.011056,0.000055,-0.010285,0.000005,0.000438,-0.001205,-0.050293,-0.013795,0.210881,0.210834,0.150889,0.342823,0.000000,0.000000,0.000000,0.000000,0.000000,0.000000,0.000000,0.000000,0.000000,0.000000,0.000000,0.000000,0.048544,3,0
1690000,0.001185,43.765610,0.010611,0.006526,26.077530,-0.024701,0.001861,0.040172,1.568789,-0.074372,-0.000081,-0.010957,0.000058,-0.010356,0.000005,0.000148,-0.001228,0.028652,-0.009721,0.211093,0.211044,0.150620,0.341768,0.000000,0.000000,0.000000,0.000000,0.000000,0.000000,0.000000,0.000000,0.000000,0.000000,0.000000,0.000000,0.027667,3,0
1700000,0.001207,44.025208,0.011240,0.006505,26.079525,-0.024139,0.001868,0.040070,1.568781,-0.074198,-0.000087,-0.011328,0.000061,-0.010268,0.000005,0.000387,-0.001251,-0.034386,0.034803,0.211304,0.211255,0.150354,0.340744,0.000000,0.000000,0.000000,0.000000,0.000000,0.000000,0.000000,0.000000,0.000000,0.000000,0.000000,0.000000,0.033187,3,0
1710000,0.001228,44.287586,0.011564,0.006566,26.086552,-0.023953,0.001877,0.040429,1.568761,-0.074412,-0.000094,-0.011590,0.000064,-0.010376,0.000005,0.000398,-0.001273,0.043938,0.023231,0.211515,0.211464,0.150092,0.339749,0.000000,0.000000,0.000000,0.000000,0.000000,0.000000,0.000000,0.000000,0.000000,0.000000,0.000000,0.000000,0.042414,3,0
1720000,0.001250,44.549911,0.010564,0.006650,26.093504,-0.025117,0.001885,0.040768,1.568742,-0.074608,-0.000100,-0.011272,0.000068,-0.010478,0.000004,0.000402,-0.001296,0.039913,-0.029942,0.211725,0.211673,0.149835,0.338784,0.000000,0.000000,0.000000,0.000000,0.000000,0.000000,0.000000,0.000000,0.000000,0.000000,0.000000,0.000000,0.038518,3,0
