time_us,pos_x,pos_y,pos_z,vel_x,vel_y,vel_z,roll,pitch,yaw,bias_ax,bias_ay,bias_az,bias_gx,bias_gy,bias_gz,nis,innov_x,innov_y,innov_z,cov_pos_x,cov_pos_y,cov_pos_z,cov_yaw,des_speed,des_heading,des_climb,pid_speed,pid_yaw,pid_alt,speed_meas,yaw_meas,climb_meas,fwd_accel,yaw_rate,vert_accel,drift_m,nav_mode,mission_state
0,-0.000006,0.150002,-0.000002,-0.000967,25.000280,-0.000589,0.000001,0.000006,1.570797,0.000000,0.000000,0.000000,0.000000,0.000000,0.000000,0.006250,0.000010,-0.250005,0.000006,2.400038,2.400038,3.600017,1.000518,0.000000,0.000000,0.000000,0.000000,0.000000,0.000000,0.000000,0.000000,0.000000,0.000000,0.000000,0.000000,0.150002,1,0
10000,-0.000019,0.353874,-0.006700,-0.002084,25.000483,-0.001011,0.000006,0.000014,1.570793,0.000000,0.000000,0.000000,0.000000,0.000000,0.000000,0.003137,0.000027,-0.161463,-0.017833,1.714420,1.714420,2.250079,1.001073,0.000000,0.000000,0.000000,0.000000,0.000000,0.000000,0.000000,0.000000,0.000000,0.000000,0.000000,0.000000,0.115327,3,0
20000,-0.000040,0.593377,0.006102,-0.003220,25.000925,-0.001449,0.000006,0.000018,1.570792,0.000001,0.000000,-0.000000,-0.000000,0.000000,-0.000000,0.000557,0.000051,-0.047275,0.046993,1.333616,1.333616,1.636554,1.001655,0.000000,0.000000,0.000000,0.000000,0.000000,0.000000,0.000000,0.000000,0.000000,0.000000,0.000000,0.000000,0.036767,3,0
30000,-0.000068,0.820154,0.010177,-0.004301,25.000988,-0.001723,0.000015,0.000019,1.570784,0.000003,0.000000,-0.000001,-0.000000,0.000000,-0.000000,0.002273,0.000083,-0.127750,0.019092,1.091392,1.091392,1.286065,1.002257,0.000000,0.000000,0.000000,0.000000,0.000000,0.000000,0.000000,0.000000,0.000000,0.000000,0.000000,0.000000,0.104513,3,0
40000,-0.000102,1.079858,0.014489,-0.005280,25.001829,-0.002227,0.000031,0.000030,1.570781,0.000001,0.000000,-0.000001,-0.000000,-0.000000,0.000000,0.000641,0.000121,0.062929,0.024556,0.923811,0.923811,1.059385,1.002869,0.000000,0.000000,0.000000,0.000000,0.000000,0.000000,0.000000,0.000000,0.000000,0.000000,0.000000,0.000000,0.053240,3,0
50000,-0.000143,1.319533,0.015690,-0.006290,25.001917,-0.002867,0.000035,0.000040,1.570769,0.000005,0.000000,-0.000002,-0.000000,0.000000,-0.000000,0.000877,0.000165,-0.077510,0.008191,0.801036,0.801036,0.900822,1.003484,0.000000,0.000000,0.000000,0.000000,0.000000,0.000000,0.000000,0.000000,0.000000,0.000000,0.000000,0.000000,0.067162,3,0
60000,-0.000191,1.564976,0.014691,-0.007388,25.002344,-0.003582,0.000054,0.000043,1.570754,0.000007,0.000000,-0.000001,-0.000000,0.000000,-0.000000,0.000230,0.000217,-0.038883,-0.007382,0.707270,0.707270,0.783741,1.004094,0.000000,0.000000,0.000000,0.000000,0.000000,0.000000,0.000000,0.000000,0.000000,0.000000,0.000000,0.000000,0.034300,3,0
70000,-0.000246,1.814370,0.014474,-0.008424,25.002983,-0.004095,0.000061,0.000037,1.570750,0.000007,0.000000,-0.000001,-0.000000,0.000000,-0.000000,0.000006,0.000276,-0.006025,-0.001520,0.633370,0.633370,0.693801,1.004689,0.000000,0.000000,0.000000,0.000000,0.000000,0.000000,0.000000,0.000000,0.000000,0.000000,0.000000,0.000000,0.005394,3,0
80000,-0.000308,2.064693,0.016926,-0.009421,25.003674,-0.004540,0.000071,0.000044,1.570737,0.000007,0.000000,-0.000003,-0.000000,0.000000,-0.000000,0.000088,0.000341,0.003001,0.024083,0.573673,0.573673,0.622594,1.005261,0.000000,0.000000,0.000000,0.000000,0.000000,0.000000,0.000000,0.000000,0.000000,0.000000,0.000000,0.000000,0.002731,3,0
90000,-0.000377,2.312230,0.018796,-0.010552,25.003944,-0.004866,0.000078,0.000046,1.570739,0.000011,0.000000,-0.000006,-0.000000,0.000000,-0.000000,0.000188,0.000414,-0.028660,0.020400,0.524488,0.524488,0.564865,1.005801,0.000000,0.000000,0.000000,0.000000,0.000000,0.000000,0.000000,0.000000,0.000000,0.000000,0.000000,0.000000,0.026157,3,0
100000,-0.000454,2.562446,0.017938,-0.011571,25.004650,-0.005352,0.000084,0.000051,1.570735,0.000010,0.000000,-0.000005,-0.000000,0.000000,-0.000000,0.000014,0.000493,0.002104,-0.009344,0.483303,0.483303,0.517162,1.006302,0.000000,0.000000,0.000000,0.000000,0.000000,0.000000,0.000000,0.000000,0.000000,0.000000,0.000000,0.000000,0.001987,3,0
110000,-0.000536,2.811783,0.014238,-0.012575,25.005154,-0.006380,0.000091,0.000062,1.570738,0.000012,0.000000,0.000004,-0.000000,0.000000,-0.000000,0.000336,0.000579,-0.009571,-0.045786,0.448353,0.448353,0.477121,1.006755,0.000000,0.000000,0.000000,0.000000,0.000000,0.000000,0.000000,0.000000,0.000000,0.000000,0.000000,0.000000,0.008872,3,0
120000,-0.000626,3.065965,0.010680,-0.013717,25.006447,-0.007377,0.000099,0.000062,1.570722,-0.000001,0.000000,0.000014,-0.000000,-0.000000,0.000000,0.000887,0.000673,0.059149,-0.047242,0.418358,0.418358,0.443071,1.007151,0.000000,0.000000,0.000000,0.000000,0.000000,0.000000,0.000000,0.000000,0.000000,0.000000,0.000000,0.000000,0.055029,3,0
130000,-0.000722,3.321480,0.010748,-0.014661,25.008003,-0.007775,0.000112,0.000062,1.570705,-0.000022,0.000001,0.000013,-0.000000,-0.000000,0.000000,0.001081,0.000773,0.083260,0.002108,0.392369,0.392369,0.413797,1.007483,0.000000,0.000000,0.000000,0.000000,0.000000,0.000000,0.000000,0.000000,0.000000,0.000000,0.000000,0.000000,0.077818,3,0
140000,-0.000826,3.574425,0.012802,-0.015797,25.009226,-0.007711,0.000121,0.000061,1.570690,-0.000036,0.000001,0.000004,-0.000000,-0.000001,0.000000,0.000506,0.000881,0.046397,0.032993,0.369666,0.369666,0.388393,1.007741,0.000000,0.000000,0.000000,0.000000,0.000000,0.000000,0.000000,0.000000,0.000000,0.000000,0.000000,0.000000,0.043546,3,0
150000,-0.000937,3.833338,0.009508,-0.016801,25.011860,-0.008914,0.000136,0.000073,1.570678,-0.000087,0.000001,0.000021,-0.000000,-0.000002,0.000000,0.004025,0.000994,0.151261,-0.052628,0.349695,0.349695,0.366172,1.007917,0.000000,0.000000,0.000000,0.000000,0.000000,0.000000,0.000000,0.000000,0.000000,0.000000,0.000000,0.000000,0.142448,3,0
160000,-0.001054,4.085203,0.007100,-0.017855,25.012829,-0.010023,0.000153,0.000070,1.570669,-0.000099,0.000002,0.000036,-0.000000,-0.000002,0.000000,0.000408,0.001115,0.031475,-0.040047,0.332020,0.332020,0.346600,1.008004,0.000000,0.000000,0.000000,0.000000,0.000000,0.000000,0.000000,0.000000,0.000000,0.000000,0.000000,0.000000,0.029751,3,0
170000,-0.001177,4.338389,0.008051,-0.018849,25.014259,-0.010146,0.000156,0.000079,1.570655,-0.000123,0.000002,0.000028,-0.000000,-0.000003,0.000000,0.000588,0.001242,0.057904,0.019233,0.316297,0.316297,0.329260,1.007994,0.000000,0.000000,0.000000,0.000000,0.000000,0.000000,0.000000,0.000000,0.000000,0.000000,0.000000,0.000000,0.054864,3,0
180000,-0.001306,4.591717,0.007347,-0.019885,25.015842,-0.010666,0.000164,0.000096,1.570650,-0.000153,0.000003,0.000033,-0.000000,-0.000003,0.000000,0.000652,0.001376,0.063129,-0.011450,0.302245,0.302245,0.313817,1.007878,0.000000,0.000000,0.000000,0.000000,0.000000,0.000000,0.000000,0.000000,0.000000,0.000000,0.000000,0.000000,0.059964,3,0
190000,-0.001442,4.846133,0.005213,-0.020879,25.017891,-0.011782,0.000176,0.000121,1.570640,-0.000200,0.000004,0.000054,-0.000000,-0.000005,0.000000,0.001491,0.001516,0.088090,-0.040474,0.289640,0.289640,0.300003,1.007648,0.000000,0.000000,0.000000,0.000000,0.000000,0.000000,0.000000,0.000000,0.000000,0.000000,0.000000,0.000000,0.083850,3,0
200000,-0.001584,5.101511,0.005576,-0.021810,25.020510,-0.012072,0.000179,0.000140,1.570631,-0.000265,0.000005,0.000048,-0.000000,-0.000006,0.000000,0.002009,0.001661,0.111959,0.010134,0.278294,0.278294,0.287598,1.007298,0.000000,0.000000,0.000000,0.000000,0.000000,0.000000,0.000000,0.000000,0.000000,0.000000,0.000000,0.000000,0.106777,3,0
210000,-0.001731,5.353305,0.006372,-0.022772,25.021700,-0.012094,0.000184,0.000157,1.570628,-0.000288,0.000006,0.000036,-0.000000,-0.000007,0.000000,0.000264,0.001812,0.035465,0.019979,0.268052,0.268052,0.276421,1.006820,0.000000,0.000000,0.000000,0.000000,0.000000,0.000000,0.000000,0.000000,0.000000,0.000000,0.000000,0.000000,0.033925,3,0
220000,-0.001884,5.610488,0.007723,-0.023762,25.025553,-0.012144,0.000197,0.000191,1.570615,-0.000401,0.000007,0.000013,-0.000000,-0.000011,0.000000,0.004330,0.001969,0.161357,0.033323,0.258785,0.258785,0.266321,1.006207,0.000000,0.000000,0.000000,0.000000,0.000000,0.000000,0.000000,0.000000,0.000000,0.000000,0.000000,0.000000,0.154409,3,0
230000,-0.002043,5.861727,0.008991,-0.024775,25.026695,-0.011928,0.000198,0.000191,1.570614,-0.000419,0.000009,-0.000011,-0.000000,-0.000011,0.000000,0.000257,0.002132,0.023409,0.032507,0.250384,0.250384,0.257172,1.005451,0.000000,0.000000,0.000000,0.000000,0.000000,0.000000,0.000000,0.000000,0.000000,0.000000,0.000000,0.000000,0.022525,3,0
240000,-0.002209,6.118868,0.009574,-0.025827,25.030998,-0.012256,0.000207,0.000234,1.570606,-0.000559,0.000011,-0.000025,-0.000000,-0.000016,0.000000,0.004655,0.002302,0.169737,0.017113,0.242754,0.242754,0.248866,1.004547,0.000000,0.000000,0.000000,0.000000,0.000000,0.000000,0.000000,0.000000,0.000000,0.000000,0.000000,0.000000,0.162884,3,0
250000,-0.002381,6.371997,0.008667,-0.026858,25.033192,-0.013270,0.000224,0.000262,1.570603,-0.000622,0.000013,-0.000008,-0.000000,-0.000018,0.000000,0.000881,0.002478,0.071585,-0.019360,0.235816,0.235816,0.241314,1.003487,0.000000,0.000000,0.000000,0.000000,0.000000,0.000000,0.000000,0.000000,0.000000,0.000000,0.000000,0.000000,0.068813,3,0
260000,-0.002558,6.627556,0.006271,-0.027900,25.036978,-0.014894,0.000235,0.000309,1.570592,-0.000753,0.000015,0.000046,-0.000000,-0.000023,0.000000,0.003523,0.002660,0.136497,-0.057832,0.229501,0.229502,0.234436,1.002266,0.000000,0.000000,0.000000,0.000000,0.000000,0.000000,0.000000,0.000000,0.000000,0.000000,0.000000,0.000000,0.131301,3,0
270000,-0.002742,6.881645,0.004208,-0.028907,25.039980,-0.016386,0.000253,0.000341,1.570577,-0.000856,0.000018,0.000098,-0.000001,-0.000027,0.000000,0.001997,0.002848,0.099568,-0.050253,0.223751,0.223751,0.228165,1.000877,0.000000,0.000000,0.000000,0.000000,0.000000,0.000000,0.000000,0.000000,0.000000,0.000000,0.000000,0.000000,0.095894,3,0
280000,-0.002930,7.133662,0.002254,-0.029785,25.041679,-0.018114,0.000260,0.000350,1.570576,-0.000905,0.000022,0.000150,-0.000001,-0.000029,0.000000,0.000688,0.003041,0.044238,-0.048131,0.218512,0.218513,0.222443,0.999316,0.000000,0.000000,0.000000,0.000000,0.000000,0.000000,0.000000,0.000000,0.000000,0.000000,0.000000,0.000000,0.042727,3,0
290000,-0.003122,7.389429,0.001770,-0.030657,25.046131,-0.018896,0.000274,0.000405,1.570557,-0.001082,0.000026,0.000160,-0.000001,-0.000036,0.000000,0.003630,0.003237,0.150025,-0.008196,0.213740,0.213740,0.217219,0.997576,0.000000,0.000000,0.000000,0.000000,0.000000,0.000000,0.000000,0.000000,0.000000,0.000000,0.000000,0.000000,0.144714,3,0
300000,-0.003318,7.643836,0.002163,-0.031508,25.049778,-0.018940,0.000277,0.000458,1.570547,-0.001224,0.000030,0.000139,-0.000001,-0.000042,0.000000,0.002096,0.003438,0.112881,0.016575,0.209394,0.209394,0.212446,0.995655,0.000000,0.000000,0.000000,0.000000,0.000000,0.000000,0.000000,0.000000,0.000000,0.000000,0.000000,0.000000,0.108992,3,0
310000,-0.003518,7.899703,0.000312,-0.032361,25.054731,-0.020704,0.000278,0.000522,1.570548,-0.001433,0.000035,0.000202,-0.000001,-0.000051,0.000001,0.004318,0.003643,0.156621,-0.047772,0.205438,0.205439,0.208087,0.993546,0.000000,0.000000,0.000000,0.000000,0.000000,0.000000,0.000000,0.000000,0.000000,0.000000,0.000000,0.000000,0.151300,3,0
320000,-0.003723,8.152267,-0.000893,-0.033368,25.057117,-0.022106,0.000297,0.000548,1.570530,-0.001517,0.000040,0.000243,-0.000001,-0.000055,0.000001,0.000714,0.003853,0.059735,-0.029140,0.201842,0.201842,0.204105,0.991248,0.000000,0.000000,0.000000,0.000000,0.000000,0.000000,0.000000,0.000000,0.000000,0.000000,0.000000,0.000000,0.057846,3,0
330000,-0.003934,8.406330,-0.001951,-0.034381,25.060909,-0.023468,0.000300,0.000599,1.570531,-0.001675,0.000046,0.000280,-0.000002,-0.000063,0.000001,0.001890,0.004068,0.105331,-0.024851,0.198576,0.198576,0.200469,0.988755,0.000000,0.000000,0.000000,0.000000,0.000000,0.000000,0.000000,0.000000,0.000000,0.000000,0.000000,0.000000,0.101922,3,0
340000,-0.004147,8.663762,-0.000693,-0.035226,25.067959,-0.022752,0.000321,0.000710,1.570526,-0.002006,0.000053,0.000208,-0.000002,-0.000079,0.000001,0.007384,0.004287,0.209050,0.045600,0.195615,0.195615,0.197151,0.986065,0.000000,0.000000,0.000000,0.000000,0.000000,0.000000,0.000000,0.000000,0.000000,0.000000,0.000000,0.000000,0.202277,3,0
350000,-0.004365,8.919283,0.000335,-0.036111,25.073313,-0.022174,0.000331,0.000800,1.570518,-0.002257,0.000060,0.000144,-0.000002,-0.000091,0.000001,0.003894,0.004510,0.150337,0.038996,0.192936,0.192936,0.194125,0.983177,0.000000,0.000000,0.000000,0.000000,0.000000,0.000000,0.000000,0.000000,0.000000,0.000000,0.000000,0.000000,0.145568,3,0
360000,-0.004585,9.172995,-0.000003,-0.036917,25.077028,-0.022736,0.000350,0.000857,1.570516,-0.002421,0.000069,0.000150,-0.000003,-0.000100,0.000001,0.001418,0.004735,0.093551,-0.003491,0.190518,0.190519,0.191370,0.980086,0.000000,0.000000,0.000000,0.000000,0.000000,0.000000,0.000000,0.000000,0.000000,0.000000,0.000000,0.000000,0.090696,3,0
370000,-0.004809,9.426232,-0.001052,-0.037810,25.080357,-0.024037,0.000361,0.000913,1.570499,-0.002565,0.000078,0.000197,-0.000003,-0.000108,0.000001,0.001104,0.004965,0.078349,-0.025933,0.188343,0.188344,0.188863,0.976794,0.000000,0.000000,0.000000,0.000000,0.000000,0.000000,0.000000,0.000000,0.000000,0.000000,0.000000,0.000000,0.076042,3,0
380000,-0.005036,9.683961,-0.000511,-0.038641,25.088583,-0.023815,0.000372,0.001053,1.570495,-0.002996,0.000088,0.000149,-0.000004,-0.000131,0.000001,0.008114,0.005197,0.222656,0.025284,0.186394,0.186394,0.186586,0.973297,0.000000,0.000000,0.000000,0.000000,0.000000,0.000000,0.000000,0.000000,0.000000,0.000000,0.000000,0.000000,0.215798,3,0
390000,-0.005265,9.938054,0.000434,-0.039536,25.092783,-0.023213,0.000395,0.001124,1.570495,-0.003206,0.000099,0.000071,-0.000005,-0.000143,0.000002,0.001994,0.005433,0.103999,0.038698,0.184653,0.184654,0.184523,0.969596,0.000000,0.000000,0.000000,0.000000,0.000000,0.000000,0.000000,0.000000,0.000000,0.000000,0.000000,0.000000,0.100936,3,0
400000,-0.005497,10.194721,-0.000257,-0.040283,25.100149,-0.024322,0.000410,0.001264,1.570483,-0.003604,0.000111,0.000102,-0.000005,-0.000166,0.000002,0.005740,0.005670,0.187804,-0.014871,0.183107,0.183108,0.182656,0.965692,0.000000,0.000000,0.000000,0.000000,0.000000,0.000000,0.000000,0.000000,0.000000,0.000000,0.000000,0.000000,0.182156,3,0
410000,-0.005732,10.451470,-0.001219,-0.041131,25.107708,-0.025525,0.000429,0.001402,1.570477,-0.004023,0.000124,0.000154,-0.000006,-0.000191,0.000002,0.005899,0.005911,0.189489,-0.023659,0.181743,0.181744,0.180971,0.961583,0.000000,0.000000,0.000000,0.000000,0.000000,0.000000,0.000000,0.000000,0.000000,0.000000,0.000000,0.000000,0.183839,3,0
420000,-0.005969,10.706511,-0.002514,-0.041993,25.113262,-0.027241,0.000445,0.001507,1.570468,-0.004325,0.000138,0.000233,-0.000007,-0.000209,0.000002,0.002993,0.006154,0.131454,-0.034558,0.180548,0.180548,0.179456,0.957273,0.000000,0.000000,0.000000,0.000000,0.000000,0.000000,0.000000,0.000000,0.000000,0.000000,0.000000,0.000000,0.127638,3,0
430000,-0.006208,10.965253,-0.001892,-0.042849,25.123598,-0.026629,0.000452,0.001711,1.570462,-0.004935,0.000153,0.000161,-0.000008,-0.000247,0.000003,0.010591,0.006400,0.254056,0.030284,0.179509,0.179510,0.178097,0.952762,0.000000,0.000000,0.000000,0.000000,0.000000,0.000000,0.000000,0.000000,0.000000,0.000000,0.000000,0.000000,0.246533,3,0
440000,-0.006449,11.219906,-0.001680,-0.043607,25.128773,-0.026719,0.000460,0.001806,1.570458,-0.005220,0.000170,0.000120,-0.000009,-0.000266,0.000003,0.002170,0.006647,0.114485,0.016463,0.178617,0.178618,0.176883,0.948053,0.000000,0.000000,0.000000,0.000000,0.000000,0.000000,0.000000,0.000000,0.000000,0.000000,0.000000,0.000000,0.111263,3,0
450000,-0.006691,11.474707,-0.003273,-0.044364,25.134260,-0.028726,0.000466,0.001915,1.570442,-0.005527,0.000188,0.000236,-0.000010,-0.000286,0.000003,0.002597,0.006895,0.118205,-0.045120,0.177862,0.177863,0.175803,0.943147,0.000000,0.000000,0.000000,0.000000,0.000000,0.000000,0.000000,0.000000,0.000000,0.000000,0.000000,0.000000,0.114896,3,0
460000,-0.006934,11.732590,-0.002680,-0.045169,25.143780,-0.028357,0.000491,0.002127,1.570435,-0.006121,0.000207,0.000154,-0.000011,-0.000326,0.000004,0.008071,0.007145,0.221171,0.030494,0.177233,0.177234,0.174848,0.938049,0.000000,0.000000,0.000000,0.000000,0.000000,0.000000,0.000000,0.000000,0.000000,0.000000,0.000000,0.000000,0.214751,3,0
470000,-0.007177,11.990564,-0.002141,-0.045842,25.153572,-0.027743,0.000498,0.002350,1.570416,-0.006738,0.000227,0.000075,-0.000013,-0.000368,0.000004,0.008085,0.007396,0.221618,0.028515,0.176723,0.176724,0.174007,0.932762,0.000000,0.000000,0.000000,0.000000,0.000000,0.000000,0.000000,0.000000,0.000000,0.000000,0.000000,0.000000,0.215210,3,0
480000,-0.007421,12.248049,-0.002128,-0.046511,25.162811,-0.027777,0.000511,0.002549,1.570396,-0.007320,0.000249,0.000045,-0.000014,-0.000410,0.000004,0.006633,0.007646,0.202092,0.010226,0.176322,0.176323,0.173272,0.927289,0.000000,0.000000,0.000000,0.000000,0.000000,0.000000,0.000000,0.000000,0.000000,0.000000,0.000000,0.000000,0.196294,3,0
490000,-0.007664,12.503890,-0.002381,-0.047186,25.169733,-0.028394,0.000525,0.002703,1.570374,-0.007747,0.000273,0.000041,-0.000016,-0.000440,0.000005,0.003333,0.007896,0.143305,0.001114,0.176023,0.176024,0.172635,0.921637,0.000000,0.000000,0.000000,0.000000,0.000000,0.000000,0.000000,0.000000,0.000000,0.000000,0.000000,0.000000,0.139312,3,0
500000,-0.007907,12.760451,-0.002368,-0.047832,25.177645,-0.028367,0.000540,0.002891,1.570355,-0.008256,0.000298,0.000009,-0.000018,-0.000478,0.000005,0.004470,0.008146,0.165699,0.010482,0.175818,0.175820,0.172087,0.915808,0.000000,0.000000,0.000000,0.000000,0.000000,0.000000,0.000000,0.000000,0.000000,0.000000,0.000000,0.000000,0.161038,3,0
510000,-0.008150,13.016560,-0.001415,-0.048555,25.184914,-0.027228,0.000564,0.003066,1.570338,-0.008724,0.000324,-0.000130,-0.000020,-0.000513,0.000006,0.003842,0.008397,0.147605,0.043444,0.175701,0.175702,0.171623,0.909810,0.000000,0.000000,0.000000,0.000000,0.000000,0.000000,0.000000,0.000000,0.000000,0.000000,0.000000,0.000000,0.143515,3,0
520000,-0.008394,13.273971,-0.002479,-0.049270,25.194191,-0.028965,0.000576,0.003294,1.570317,-0.009344,0.000352,-0.000040,-0.000022,-0.000561,0.000006,0.005950,0.008647,0.189607,-0.027456,0.175664,0.175665,0.171234,0.903647,0.000000,0.000000,0.000000,0.000000,0.000000,0.000000,0.000000,0.000000,0.000000,0.000000,0.000000,0.000000,0.184247,3,0
530000,-0.008636,13.532084,-0.001540,-0.049891,25.204422,-0.027698,0.000603,0.003550,1.570299,-0.010052,0.000382,-0.000187,-0.000025,-0.000617,0.000007,0.007479,0.008897,0.210409,0.043294,0.175702,0.175703,0.170915,0.897326,0.000000,0.000000,0.000000,0.000000,0.000000,0.000000,0.000000,0.000000,0.000000,0.000000,0.000000,0.000000,0.204430,3,0
540000,-0.008878,13.787396,-0.002263,-0.050564,25.210430,-0.028752,0.000627,0.003691,1.570289,-0.010437,0.000414,-0.000133,-0.000027,-0.000648,0.000007,0.002054,0.009145,0.111225,-0.015516,0.175807,0.175809,0.170659,0.890854,0.000000,0.000000,0.000000,0.000000,0.000000,0.000000,0.000000,0.000000,0.000000,0.000000,0.000000,0.000000,0.108331,3,0
550000,-0.009118,14.046944,-0.001077,-0.051223,25.222902,-0.027392,0.000647,0.004008,1.570276,-0.011339,0.000447,-0.000321,-0.000030,-0.000722,0.000008,0.010846,0.009394,0.253429,0.052171,0.175976,0.175978,0.170461,0.884236,0.000000,0.000000,0.000000,0.000000,0.000000,0.000000,0.000000,0.000000,0.000000,0.000000,0.000000,0.000000,0.246165,3,0
560000,-0.009357,14.306007,-0.001388,-0.051771,25.234751,-0.028029,0.000676,0.004310,1.570264,-0.012188,0.000482,-0.000318,-0.000033,-0.000793,0.000009,0.008745,0.009640,0.232304,-0.001064,0.176202,0.176203,0.170314,0.877480,0.000000,0.000000,0.000000,0.000000,0.000000,0.000000,0.000000,0.000000,0.000000,0.000000,0.000000,0.000000,0.225675,3,0
570000,-0.009594,14.562253,-0.000568,-0.052377,25.241947,-0.026906,0.000707,0.004489,1.570249,-0.012683,0.000519,-0.000466,-0.000036,-0.000835,0.000009,0.003087,0.009885,0.132154,0.038976,0.176480,0.176481,0.170215,0.870593,0.000000,0.000000,0.000000,0.000000,0.000000,0.000000,0.000000,0.000000,0.000000,0.000000,0.000000,0.000000,0.128625,3,0
580000,-0.009829,14.822155,0.000350,-0.052960,25.254978,-0.025600,0.000727,0.004845,1.570224,-0.013657,0.000558,-0.000630,-0.000040,-0.000920,0.000010,0.010701,0.010129,0.253534,0.042060,0.176805,0.176807,0.170158,0.863583,0.000000,0.000000,0.000000,0.000000,0.000000,0.000000,0.000000,0.000000,0.000000,0.000000,0.000000,0.000000,0.246259,3,0
590000,-0.010062,15.082744,0.000194,-0.053378,25.269176,-0.026077,0.000759,0.005249,1.570211,-0.014726,0.000598,-0.000646,-0.000043,-0.001015,0.000011,0.011969,0.010368,0.271806,0.003809,0.177172,0.177174,0.170139,0.856457,0.000000,0.000000,0.000000,0.000000,0.000000,0.000000,0.000000,0.000000,0.000000,0.000000,0.000000,0.000000,0.263971,3,0
600000,-0.010291,15.341071,0.000674,-0.053782,25.279631,-0.025324,0.000789,0.005531,1.570184,-0.015491,0.000641,-0.000755,-0.000047,-0.001084,0.000012,0.005968,0.010605,0.189986,0.026310,0.177578,0.177581,0.170153,0.849223,0.000000,0.000000,0.000000,0.000000,0.000000,0.000000,0.000000,0.000000,0.000000,0.000000,0.000000,0.000000,0.184650,3,0
610000,-0.010517,15.601876,-0.000855,-0.054272,25.293932,-0.027536,0.000807,0.005946,1.570169,-0.016601,0.000685,-0.000567,-0.000051,-0.001187,0.000013,0.012089,0.010839,0.269495,-0.044780,0.178019,0.178021,0.170196,0.841889,0.000000,0.000000,0.000000,0.000000,0.000000,0.000000,0.000000,0.000000,0.000000,0.000000,0.000000,0.000000,0.261710,3,0
620000,-0.010741,15.859223,-0.001830,-0.054740,25.302517,-0.028945,0.000832,0.006198,1.570158,-0.017222,0.000732,-0.000463,-0.000056,-0.001246,0.000014,0.003645,0.011070,0.147698,-0.024488,0.178489,0.178492,0.170266,0.834463,0.000000,0.000000,0.000000,0.000000,0.000000,0.000000,0.000000,0.000000,0.000000,0.000000,0.000000,0.000000,0.143706,3,0
630000,-0.010961,16.119070,-0.002788,-0.055137,25.315228,-0.030497,0.000861,0.006574,1.570130,-0.018202,0.000780,-0.000361,-0.000060,-0.001340,0.000015,0.008529,0.011298,0.228207,-0.023271,0.178986,0.178989,0.170357,0.826954,0.000000,0.000000,0.000000,0.000000,0.000000,0.000000,0.000000,0.000000,0.000000,0.000000,0.000000,0.000000,0.221670,3,0
640000,-0.011177,16.378424,-0.001715,-0.055578,25.327070,-0.028883,0.000896,0.006920,1.570103,-0.019109,0.000830,-0.000581,-0.000065,-0.001429,0.000016,0.007319,0.011523,0.206778,0.048730,0.179507,0.179509,0.170467,0.819368,0.000000,0.000000,0.000000,0.000000,0.000000,0.000000,0.000000,0.000000,0.000000,0.000000,0.000000,0.000000,0.200903,3,0
650000,-0.011391,16.638479,-0.002564,-0.055947,25.339878,-0.030215,0.000915,0.007320,1.570077,-0.020117,0.000883,-0.000493,-0.000070,-0.001529,0.000017,0.008313,0.011743,0.225613,-0.019466,0.180047,0.180049,0.170592,0.811715,0.000000,0.000000,0.000000,0.000000,0.000000,0.000000,0.000000,0.000000,0.000000,0.000000,0.000000,0.000000,0.219138,3,0
660000,-0.011599,16.899828,-0.002183,-0.056277,25.354731,-0.029560,0.000952,0.007796,1.570044,-0.021317,0.000937,-0.000607,-0.000076,-0.001651,0.000018,0.011351,0.011960,0.263611,0.024242,0.180603,0.180606,0.170730,0.804003,0.000000,0.000000,0.000000,0.000000,0.000000,0.000000,0.000000,0.000000,0.000000,0.000000,0.000000,0.000000,0.255939,3,0
670000,-0.011803,17.160658,-0.001230,-0.056649,25.368574,-0.028288,0.000984,0.008232,1.570012,-0.022433,0.000993,-0.000819,-0.000082,-0.001766,0.000020,0.009701,0.012172,0.240662,0.044141,0.181174,0.181177,0.170879,0.796240,0.000000,0.000000,0.000000,0.000000,0.000000,0.000000,0.000000,0.000000,0.000000,0.000000,0.000000,0.000000,0.233693,3,0
680000,-0.012005,17.417961,-0.002634,-0.057006,25.376410,-0.030483,0.001018,0.008473,1.569990,-0.022994,0.001051,-0.000630,-0.000088,-0.001825,0.000020,0.002555,0.012380,0.118843,-0.039081,0.181755,0.181758,0.171034,0.788433,0.000000,0.000000,0.000000,0.000000,0.000000,0.000000,0.000000,0.000000,0.000000,0.000000,0.000000,0.000000,0.115866,3,0
690000,-0.012203,17.676594,-0.002151,-0.057358,25.386301,-0.029886,0.001047,0.008783,1.569965,-0.023760,0.001111,-0.000769,-0.000095,-0.001907,0.000021,0.004270,0.012586,0.159645,0.027869,0.182345,0.182348,0.171195,0.780590,0.000000,0.000000,0.000000,0.000000,0.000000,0.000000,0.000000,0.000000,0.000000,0.000000,0.000000,0.000000,0.155273,3,0
700000,-0.012394,17.937149,-0.001598,-0.057534,25.399433,-0.028990,0.001076,0.009208,1.569947,-0.024828,0.001173,-0.000922,-0.000102,-0.002024,0.000022,0.007921,0.012785,0.218977,0.030043,0.182942,0.182944,0.171359,0.772720,0.000000,0.000000,0.000000,0.000000,0.000000,0.000000,0.000000,0.000000,0.000000,0.000000,0.000000,0.000000,0.212663,3,0
710000,-0.012581,18.195967,-0.001804,-0.057729,25.409544,-0.029211,0.001102,0.009524,1.569937,-0.025607,0.001237,-0.000939,-0.000109,-0.002110,0.000023,0.004015,0.012978,0.157078,0.003133,0.183542,0.183545,0.171523,0.764830,0.000000,0.000000,0.000000,0.000000,0.000000,0.000000,0.000000,0.000000,0.000000,0.000000,0.000000,0.000000,0.152792,3,0
720000,-0.012762,18.457935,-0.000968,-0.057945,25.424843,-0.028231,0.001144,0.010042,1.569918,-0.026894,0.001303,-0.001150,-0.000116,-0.002255,0.000025,0.010871,0.013168,0.255981,0.039809,0.184144,0.184147,0.171687,0.756928,0.000000,0.000000,0.000000,0.000000,0.000000,0.000000,0.000000,0.000000,0.000000,0.000000,0.000000,0.000000,0.248453,3,0
730000,-0.012939,18.719358,-0.000536,-0.058138,25.439013,-0.027621,0.001172,0.010529,1.569901,-0.028080,0.001371,-0.001286,-0.000124,-0.002392,0.000027,0.008857,0.013351,0.232405,0.025213,0.184746,0.184749,0.171848,0.749020,0.000000,0.000000,0.000000,0.000000,0.000000,0.000000,0.000000,0.000000,0.000000,0.000000,0.000000,0.000000,0.225620,3,0
740000,-0.013114,18.977779,-0.002205,-0.058411,25.447826,-0.030274,0.001201,0.010824,1.569887,-0.028753,0.001441,-0.001025,-0.000132,-0.002471,0.000027,0.003131,0.013530,0.129871,-0.048298,0.185346,0.185349,0.172005,0.741115,0.000000,0.000000,0.000000,0.000000,0.000000,0.000000,0.000000,0.000000,0.000000,0.000000,0.000000,0.000000,0.126540,3,0
750000,-0.013281,19.236298,-0.001072,-0.058625,25.456831,-0.028682,0.001236,0.011115,1.569863,-0.029433,0.001512,-0.001303,-0.000141,-0.002551,0.000028,0.003160,0.013707,0.129787,0.050301,0.185943,0.185946,0.172157,0.733218,0.000000,0.000000,0.000000,0.000000,0.000000,0.000000,0.000000,0.000000,0.000000,0.000000,0.000000,0.000000,0.126466,3,0
760000,-0.013446,19.496151,-0.001706,-0.058844,25.467939,-0.029832,0.001270,0.011501,1.569852,-0.030334,0.001586,-0.001239,-0.000150,-0.002660,0.000030,0.004686,0.013877,0.169363,-0.011782,0.186536,0.186539,0.172301,0.725337,0.000000,0.000000,0.000000,0.000000,0.000000,0.000000,0.000000,0.000000,0.000000,0.000000,0.000000,0.000000,0.164647,3,0
770000,-0.013606,19.757944,-0.002651,-0.058982,25.482382,-0.031508,0.001301,0.012028,1.569821,-0.031558,0.001661,-0.001116,-0.000159,-0.002811,0.000031,0.008465,0.014043,0.227459,-0.022111,0.187122,0.187125,0.172438,0.717479,0.000000,0.000000,0.000000,0.000000,0.000000,0.000000,0.000000,0.000000,0.000000,0.000000,0.000000,0.000000,0.220785,3,0
780000,-0.013761,20.017929,-0.002669,-0.059190,25.493500,-0.031400,0.001349,0.012425,1.569800,-0.032453,0.001738,-0.001178,-0.000169,-0.002923,0.000033,0.004409,0.014205,0.164310,0.010529,0.187701,0.187704,0.172565,0.709648,0.000000,0.000000,0.000000,0.000000,0.000000,0.000000,0.000000,0.000000,0.000000,0.000000,0.000000,0.000000,0.159764,3,0
790000,-0.013912,20.277988,-0.004033,-0.059277,25.504477,-0.033488,0.001394,0.012836,1.569790,-0.033349,0.001817,-0.000969,-0.000179,-0.003037,0.000034,0.004515,0.014361,0.162642,-0.036174,0.188271,0.188274,0.172683,0.701852,0.000000,0.000000,0.000000,0.000000,0.000000,0.000000,0.000000,0.000000,0.000000,0.000000,0.000000,0.000000,0.158151,3,0
800000,-0.014057,20.536867,-0.005299,-0.059388,25.513336,-0.035491,0.001432,0.013154,1.569780,-0.034024,0.001898,-0.000781,-0.000189,-0.003124,0.000035,0.002569,0.014513,0.121140,-0.032044,0.188833,0.188836,0.172789,0.694097,0.000000,0.000000,0.000000,0.000000,0.000000,0.000000,0.000000,0.000000,0.000000,0.000000,0.000000,0.000000,0.118166,3,0
810000,-0.014196,20.796455,-0.004429,-0.059495,25.523403,-0.034261,0.001485,0.013528,1.569758,-0.034815,0.001980,-0.001040,-0.000200,-0.003228,0.000036,0.003517,0.014661,0.140476,0.042830,0.189384,0.189387,0.172884,0.686387,0.000000,0.000000,0.000000,0.000000,0.000000,0.000000,0.000000,0.000000,0.000000,0.000000,0.000000,0.000000,0.136782,3,0
820000,-0.014333,21.056120,-0.005439,-0.059587,25.533455,-0.035816,0.001532,0.013900,1.569740,-0.035607,0.002064,-0.000902,-0.000211,-0.003334,0.000037,0.003248,0.014801,0.139214,-0.022869,0.189924,0.189927,0.172967,0.678728,0.000000,0.000000,0.000000,0.000000,0.000000,0.000000,0.000000,0.000000,0.000000,0.000000,0.000000,0.000000,0.135565,3,0
830000,-0.014465,21.318378,-0.007080,-0.059683,25.547874,-0.038435,0.001583,0.014476,1.569706,-0.036856,0.002150,-0.000634,-0.000222,-0.003504,0.000039,0.007977,0.014938,0.217390,-0.044063,0.190453,0.190456,0.173038,0.671125,0.000000,0.000000,0.000000,0.000000,0.000000,0.000000,0.000000,0.000000,0.000000,0.000000,0.000000,0.000000,0.210986,3,0
840000,-0.014590,21.581306,-0.007270,-0.059720,25.563328,-0.038671,0.001633,0.015086,1.569686,-0.038209,0.002237,-0.000682,-0.000234,-0.003690,0.000041,0.008827,0.015070,0.233290,0.007121,0.190970,0.190973,0.173095,0.663583,0.000000,0.000000,0.000000,0.000000,0.000000,0.000000,0.000000,0.000000,0.000000,0.000000,0.000000,0.000000,0.226335,3,0
850000,-0.014712,21.843626,-0.008304,-0.059741,25.577423,-0.040085,0.001677,0.015651,1.569659,-0.039430,0.002326,-0.000546,-0.000246,-0.003861,0.000043,0.007148,0.015196,0.208755,-0.022113,0.191474,0.191477,0.173139,0.656106,0.000000,0.000000,0.000000,0.000000,0.000000,0.000000,0.000000,0.000000,0.000000,0.000000,0.000000,0.000000,0.202628,3,0
860000,-0.014828,22.102160,-0.009827,-0.059682,25.584717,-0.042139,0.001718,0.015907,1.569642,-0.039935,0.002416,-0.000300,-0.000259,-0.003933,0.000044,0.001458,0.015317,0.085445,-0.038650,0.191966,0.191969,0.173169,0.648698,0.000000,0.000000,0.000000,0.000000,0.000000,0.000000,0.000000,0.000000,0.000000,0.000000,0.000000,0.000000,0.084029,3,0
870000,-0.014939,22.364594,-0.011029,-0.059655,25.598852,-0.043794,0.001767,0.016478,1.569618,-0.041152,0.002508,-0.000131,-0.000272,-0.004110,0.000046,0.006903,0.015434,0.204538,-0.026685,0.192445,0.192447,0.173185,0.641364,0.000000,0.000000,0.000000,0.000000,0.000000,0.000000,0.000000,0.000000,0.000000,0.000000,0.000000,0.000000,0.198540,3,0
880000,-0.015043,22.627048,-0.009795,-0.059650,25.612768,-0.042037,0.001819,0.017044,1.569603,-0.042353,0.002600,-0.000517,-0.000286,-0.004286,0.000048,0.007068,0.015545,0.200388,0.058370,0.192910,0.192913,0.173187,0.634106,0.000000,0.000000,0.000000,0.000000,0.000000,0.000000,0.000000,0.000000,0.000000,0.000000,0.000000,0.000000,0.194529,3,0
890000,-0.015141,22.890165,-0.008805,-0.059512,25.627684,-0.040723,0.001866,0.017666,1.569580,-0.043657,0.002694,-0.000848,-0.000301,-0.004480,0.000050,0.007966,0.015647,0.216097,0.049327,0.193362,0.193365,0.173174,0.626929,0.000000,0.000000,0.000000,0.000000,0.000000,0.000000,0.000000,0.000000,0.000000,0.000000,0.000000,0.000000,0.209682,3,0
900000,-0.015234,23.152649,-0.007654,-0.059508,25.641266,-0.039036,0.001919,0.018230,1.569546,-0.044821,0.002788,-0.001216,-0.000316,-0.004656,0.000052,0.006426,0.015745,0.191380,0.054397,0.193800,0.193803,0.173148,0.619836,0.000000,0.000000,0.000000,0.000000,0.000000,0.000000,0.000000,0.000000,0.000000,0.000000,0.000000,0.000000,0.185825,3,0
910000,-0.015324,23.413862,-0.007278,-0.059436,25.652527,-0.038451,0.001983,0.018680,1.569524,-0.045724,0.002885,-0.001402,-0.000331,-0.004795,0.000054,0.003663,0.015837,0.147427,0.026908,0.194225,0.194228,0.173107,0.612829,0.000000,0.000000,0.000000,0.000000,0.000000,0.000000,0.000000,0.000000,0.000000,0.000000,0.000000,0.000000,0.143475,3,0
920000,-0.015411,23.676395,-0.008863,-0.059403,25.665951,-0.040677,0.002044,0.019243,1.569497,-0.046860,0.002983,-0.001124,-0.000346,-0.004973,0.000056,0.005793,0.015927,0.184284,-0.041240,0.194637,0.194639,0.173052,0.605911,0.000000,0.000000,0.000000,0.000000,0.000000,0.000000,0.000000,0.000000,0.000000,0.000000,0.000000,0.000000,0.178969,3,0
930000,-0.015492,23.936996,-0.008279,-0.059334,25.675806,-0.039840,0.002097,0.019647,1.569485,-0.047606,0.003082,-0.001367,-0.000362,-0.005091,0.000057,0.002574,0.016014,0.120405,0.034714,0.195036,0.195038,0.172984,0.599085,0.000000,0.000000,0.000000,0.000000,0.000000,0.000000,0.000000,0.000000,0.000000,0.000000,0.000000,0.000000,0.117519,3,0
940000,-0.015570,24.199574,-0.009657,-0.059153,25.688885,-0.041778,0.002158,0.020210,1.569470,-0.048716,0.003182,-0.001137,-0.000377,-0.005270,0.000059,0.005320,0.016093,0.177771,-0.033595,0.195421,0.195423,0.172901,0.592353,0.000000,0.000000,0.000000,0.000000,0.000000,0.000000,0.000000,0.000000,0.000000,0.000000,0.000000,0.000000,0.172683,3,0
950000,-0.015642,24.462803,-0.009731,-0.059124,25.703011,-0.041976,0.002217,0.020831,1.569447,-0.049929,0.003283,-0.001230,-0.000394,-0.005469,0.000062,0.006095,0.016170,0.193363,0.012416,0.195793,0.195795,0.172804,0.585717,0.000000,0.000000,0.000000,0.000000,0.000000,0.000000,0.000000,0.000000,0.000000,0.000000,0.000000,0.000000,0.187707,3,0
960000,-0.015711,24.720825,-0.010167,-0.059092,25.707750,-0.042387,0.002279,0.020970,1.569436,-0.050114,0.003385,-0.001228,-0.000411,-0.005500,0.000062,0.000182,0.016242,0.029387,-0.000415,0.196153,0.196154,0.172694,0.579178,0.000000,0.000000,0.000000,0.000000,0.000000,0.000000,0.000000,0.000000,0.000000,0.000000,0.000000,0.000000,0.032478,3,0
970000,-0.015776,24.984116,-0.010577,-0.058971,25.721794,-0.042818,0.002332,0.021592,1.569406,-0.051310,0.003488,-0.001241,-0.000429,-0.005702,0.000064,0.005788,0.016310,0.188774,0.000925,0.196500,0.196502,0.172571,0.572739,0.000000,0.000000,0.000000,0.000000,0.000000,0.000000,0.000000,0.000000,0.000000,0.000000,0.000000,0.000000,0.183273,3,0
980000,-0.015835,25.246740,-0.009896,-0.058857,25.734501,-0.041900,0.002398,0.022159,1.569380,-0.052353,0.003591,-0.001529,-0.000447,-0.005880,0.000066,0.004620,0.016374,0.163891,0.039060,0.196835,0.196837,0.172435,0.566401,0.000000,0.000000,0.000000,0.000000,0.000000,0.000000,0.000000,0.000000,0.000000,0.000000,0.000000,0.000000,0.159305,3,0
990000,-0.015891,25.508055,-0.010261,-0.058651,25.744661,-0.042304,0.002466,0.022588,1.569355,-0.053119,0.003696,-0.001549,-0.000465,-0.006013,0.000068,0.002358,0.016431,0.119806,0.002220,0.197159,0.197160,0.172286,0.560164,0.000000,0.000000,0.000000,0.000000,0.000000,0.000000,0.000000,0.000000,0.000000,0.000000,0.000000,0.000000,0.116954,3,0
1000000,-0.015941,25.771339,-0.009374,-0.058513,25.758255,-0.040889,0.002529,0.023204,1.569322,-0.054251,0.003800,-0.001894,-0.000484,-0.006213,0.000070,0.005406,0.016486,0.176449,0.046062,0.197471,0.197471,0.172125,0.554030,0.000000,0.000000,0.000000,0.000000,0.000000,0.000000,0.000000,0.000000,0.000000,0.000000,0.000000,0.000000,0.171388,3,0
1010000,-0.015988,26.031330,-0.009118,-0.058399,25.765863,-0.040516,0.002594,0.023497,1.569298,-0.054714,0.003906,-0.002072,-0.000504,-0.006296,0.000071,0.000971,0.016534,0.072062,0.023521,0.197772,0.197772,0.171952,0.548000,0.000000,0.000000,0.000000,0.000000,0.000000,0.000000,0.000000,0.000000,0.000000,0.000000,0.000000,0.000000,0.071497,3,0
1020000,-0.016032,26.292004,-0.009189,-0.058221,25.774582,-0.040591,0.002658,0.023865,1.569272,-0.055298,0.004013,-0.002165,-0.000523,-0.006402,0.000072,0.001382,0.016580,0.090296,0.011984,0.198062,0.198062,0.171767,0.542074,0.000000,0.000000,0.000000,0.000000,0.000000,0.000000,0.000000,0.000000,0.000000,0.000000,0.000000,0.000000,0.088776,3,0
1030000,-0.016071,26.551376,-0.008347,-0.058023,25.780920,-0.039297,0.002718,0.024089,1.569267,-0.055610,0.004120,-0.002498,-0.000544,-0.006459,0.000073,0.000731,0.016622,0.048204,0.043870,0.198342,0.198342,0.171570,0.536253,0.000000,0.000000,0.000000,0.000000,0.000000,0.000000,0.000000,0.000000,0.000000,0.000000,0.000000,0.000000,0.049306,3,0
1040000,-0.016107,26.811441,-0.008470,-0.057868,25.788393,-0.039472,0.002780,0.024386,1.569243,-0.056046,0.004228,-0.002575,-0.000564,-0.006540,0.000074,0.000785,0.016659,0.067076,0.009771,0.198612,0.198612,0.171363,0.530537,0.000000,0.000000,0.000000,0.000000,0.000000,0.000000,0.000000,0.000000,0.000000,0.000000,0.000000,0.000000,0.066826,3,0
1050000,-0.016142,27.071529,-0.009895,-0.057734,25.795662,-0.041262,0.002852,0.024682,1.569228,-0.056474,0.004337,-0.002303,-0.000584,-0.006622,0.000075,0.000942,0.016694,0.065359,-0.035898,0.198873,0.198872,0.171145,0.524926,0.000000,0.000000,0.000000,0.000000,0.000000,0.000000,0.000000,0.000000,0.000000,0.000000,0.000000,0.000000,0.065220,3,0
1060000,-0.016173,27.332294,-0.010903,-0.057495,25.804029,-0.042484,0.002914,0.025031,1.569209,-0.057020,0.004447,-0.002147,-0.000605,-0.006728,0.000077,0.001237,0.016727,0.083504,-0.020600,0.199125,0.199124,0.170918,0.519420,0.000000,0.000000,0.000000,0.000000,0.000000,0.000000,0.000000,0.000000,0.000000,0.000000,0.000000,0.000000,0.082334,3,0
1070000,-0.016199,27.591745,-0.011269,-0.057321,25.810118,-0.042844,0.002982,0.025241,1.569191,-0.057291,0.004556,-0.002166,-0.000627,-0.006782,0.000077,0.000321,0.016756,0.041321,0.002261,0.199369,0.199367,0.170680,0.514021,0.000000,0.000000,0.000000,0.000000,0.000000,0.000000,0.000000,0.000000,0.000000,0.000000,0.000000,0.000000,0.043107,3,0
1080000,-0.016218,27.850557,-0.009987,-0.057041,25.815016,-0.041018,0.003049,0.025385,1.569179,-0.057424,0.004665,-0.002642,-0.000649,-0.006807,0.000078,0.000704,0.016779,0.020357,0.060438,0.199605,0.199602,0.170433,0.508726,0.000000,0.000000,0.000000,0.000000,0.000000,0.000000,0.000000,0.000000,0.000000,0.000000,0.000000,0.000000,0.025504,3,0
1090000,-0.016234,28.109406,-0.009035,-0.056761,25.819883,-0.039604,0.003129,0.025533,1.569171,-0.057554,0.004775,-0.003024,-0.000672,-0.006832,0.000078,0.000486,0.016795,0.019922,0.048196,0.199832,0.199830,0.170177,0.503536,0.000000,0.000000,0.000000,0.000000,0.000000,0.000000,0.000000,0.000000,0.000000,0.000000,0.000000,0.000000,0.025191,3,0
1100000,-0.016249,28.372931,-0.009546,-0.056565,25.832813,-0.040478,0.003212,0.026178,1.569150,-0.058599,0.004885,-0.003005,-0.000695,-0.007047,0.000081,0.004100,0.016809,0.158604,-0.003461,0.200053,0.200050,0.169913,0.498451,0.000000,0.000000,0.000000,0.000000,0.000000,0.000000,0.000000,0.000000,0.000000,0.000000,0.000000,0.000000,0.154173,3,0
1110000,-0.016259,28.635752,-0.010056,-0.056187,25.844469,-0.041328,0.003295,0.026740,1.569137,-0.059481,0.004996,-0.002987,-0.000718,-0.007230,0.000083,0.002918,0.016820,0.133495,-0.003153,0.200267,0.200264,0.169640,0.493469,0.000000,0.000000,0.000000,0.000000,0.000000,0.000000,0.000000,0.000000,0.000000,0.000000,0.000000,0.000000,0.130060,3,0
1120000,-0.016264,28.897217,-0.010542,-0.055789,25.853592,-0.042136,0.003380,0.027147,1.569129,-0.060071,0.005107,-0.002975,-0.000741,-0.007355,0.000084,0.001329,0.016827,0.089224,-0.002123,0.200475,0.200471,0.169360,0.488591,0.000000,0.000000,0.000000,0.000000,0.000000,0.000000,0.000000,0.000000,0.000000,0.000000,0.000000,0.000000,0.087763,3,0
1130000,-0.016265,29.158005,-0.010609,-0.055401,25.861279,-0.042106,0.003463,0.027476,1.569124,-0.060509,0.005217,-0.003084,-0.000765,-0.007448,0.000086,0.000779,0.016828,0.066216,0.012899,0.200677,0.200672,0.169072,0.483816,0.000000,0.000000,0.000000,0.000000,0.000000,0.000000,0.000000,0.000000,0.000000,0.000000,0.000000,0.000000,0.066035,3,0
1140000,-0.016261,29.420122,-0.010717,-0.055011,25.871162,-0.042138,0.003543,0.027947,1.569106,-0.061194,0.005328,-0.003185,-0.000790,-0.007597,0.000087,0.001794,0.016825,0.103533,0.011563,0.200874,0.200868,0.168777,0.479142,0.000000,0.000000,0.000000,0.000000,0.000000,0.000000,0.000000,0.000000,0.000000,0.000000,0.000000,0.000000,0.101380,3,0
1150000,-0.016250,29.681543,-0.009443,-0.054638,25.879803,-0.040497,0.003618,0.028330,1.569099,-0.061721,0.005438,-0.003692,-0.000815,-0.007712,0.000089,0.001672,0.016817,0.079865,0.060807,0.201065,0.201059,0.168476,0.474570,0.000000,0.000000,0.000000,0.000000,0.000000,0.000000,0.000000,0.000000,0.000000,0.000000,0.000000,0.000000,0.078886,3,0
1160000,-0.016237,29.939619,-0.008862,-0.054232,25.882404,-0.039564,0.003695,0.028331,1.569097,-0.061570,0.005548,-0.003983,-0.000840,-0.007677,0.000089,0.000328,0.016802,-0.022612,0.035196,0.201252,0.201246,0.168169,0.470097,0.000000,0.000000,0.000000,0.000000,0.000000,0.000000,0.000000,0.000000,0.000000,0.000000,0.000000,0.000000,0.027223,3,0
1170000,-0.016218,30.199066,-0.007923,-0.053771,25.887474,-0.038491,0.003775,0.028482,1.569086,-0.061685,0.005658,-0.004386,-0.000866,-0.007702,0.000089,0.000467,0.016785,0.017469,0.047976,0.201436,0.201428,0.167856,0.465724,0.000000,0.000000,0.000000,0.000000,0.000000,0.000000,0.000000,0.000000,0.000000,0.000000,0.000000,0.000000,0.023414,3,0
1180000,-0.016200,30.459869,-0.009221,-0.053332,25.894705,-0.040230,0.003850,0.028788,1.569080,-0.062058,0.005770,-0.004117,-0.000891,-0.007789,0.000090,0.000723,0.016762,0.056158,-0.032361,0.201615,0.201607,0.167537,0.461449,0.000000,0.000000,0.000000,0.000000,0.000000,0.000000,0.000000,0.000000,0.000000,0.000000,0.000000,0.000000,0.056634,3,0
1190000,-0.016173,30.718653,-0.008224,-0.052868,25.898298,-0.038975,0.003938,0.028850,1.569067,-0.062017,0.005880,-0.004543,-0.000918,-0.007778,0.000091,0.000462,0.016739,-0.005930,0.050361,0.201791,0.201782,0.167214,0.457271,0.000000,0.000000,0.000000,0.000000,0.000000,0.000000,0.000000,0.000000,0.000000,0.000000,0.000000,0.000000,0.017157,3,0
1200000,-0.016146,30.978804,-0.009195,-0.052464,25.904419,-0.040213,0.004013,0.029063,1.569048,-0.062239,0.005991,-0.004370,-0.000944,-0.007831,0.000091,0.000294,0.016707,0.033434,-0.020629,0.201964,0.201954,0.166886,0.453189,0.000000,0.000000,0.000000,0.000000,0.000000,0.000000,0.000000,0.000000,0.000000,0.000000,0.000000,0.000000,0.036117,3,0
1210000,-0.016112,31.242298,-0.008341,-0.052058,25.916166,-0.039032,0.004091,0.029677,1.569029,-0.063105,0.006099,-0.004773,-0.000971,-0.008038,0.000094,0.003151,0.016677,0.131042,0.045858,0.202134,0.202124,0.166554,0.449201,0.000000,0.000000,0.000000,0.000000,0.000000,0.000000,0.000000,0.000000,0.000000,0.000000,0.000000,0.000000,0.127654,3,0
1220000,-0.016074,31.500378,-0.007438,-0.051587,25.918236,-0.037710,0.004181,0.029611,1.569022,-0.062884,0.006208,-0.005173,-0.000999,-0.007983,0.000094,0.000574,0.016638,-0.033175,0.046647,0.202303,0.202292,0.166218,0.445307,0.000000,0.000000,0.000000,0.000000,0.000000,0.000000,0.000000,0.000000,0.000000,0.000000,0.000000,0.000000,0.035856,3,0
1230000,-0.016035,31.760504,-0.007589,-0.051087,25.923990,-0.037792,0.004261,0.029800,1.569020,-0.063061,0.006317,-0.005248,-0.001026,-0.008027,0.000094,0.000171,0.016595,0.026787,0.008413,0.202469,0.202457,0.165878,0.441506,0.000000,0.000000,0.000000,0.000000,0.000000,0.000000,0.000000,0.000000,0.000000,0.000000,0.000000,0.000000,0.030449,3,0
1240000,-0.015995,32.022648,-0.009017,-0.050737,25.933174,-0.039838,0.004353,0.030251,1.568996,-0.063621,0.006427,-0.004928,-0.001053,-0.008168,0.000096,0.001427,0.016552,0.084667,-0.037539,0.202634,0.202622,0.165535,0.437795,0.000000,0.000000,0.000000,0.000000,0.000000,0.000000,0.000000,0.000000,0.000000,0.000000,0.000000,0.000000,0.083351,3,0
1250000,-0.015949,32.282066,-0.009430,-0.050237,25.937420,-0.040205,0.004442,0.030345,1.568982,-0.063630,0.006536,-0.004924,-0.001080,-0.008171,0.000096,0.000044,0.016507,0.001339,-0.000404,0.202798,0.202785,0.165189,0.434174,0.000000,0.000000,0.000000,0.000000,0.000000,0.000000,0.000000,0.000000,0.000000,0.000000,0.000000,0.000000,0.016001,3,0
1260000,-0.015899,32.540821,-0.009214,-0.049796,25.940504,-0.040099,0.004535,0.030335,1.568978,-0.063500,0.006643,-0.005122,-0.001109,-0.008137,0.000096,0.000188,0.016457,-0.019581,0.022608,0.202961,0.202947,0.164841,0.430642,0.000000,0.000000,0.000000,0.000000,0.000000,0.000000,0.000000,0.000000,0.000000,0.000000,0.000000,0.000000,0.024711,3,0
1270000,-0.015846,32.802952,-0.008966,-0.049390,25.949383,-0.039990,0.004621,0.030759,1.568964,-0.064021,0.006750,-0.005345,-0.001137,-0.008272,0.000098,0.001156,0.016403,0.079460,0.024264,0.203124,0.203108,0.164490,0.427195,0.000000,0.000000,0.000000,0.000000,0.000000,0.000000,0.000000,0.000000,0.000000,0.000000,0.000000,0.000000,0.078393,3,0
1280000,-0.015789,33.063702,-0.008641,-0.048854,25.955774,-0.039579,0.004717,0.031004,1.568958,-0.064255,0.006855,-0.005588,-0.001166,-0.008334,0.000099,0.000367,0.016344,0.035908,0.026819,0.203285,0.203269,0.164138,0.423835,0.000000,0.000000,0.000000,0.000000,0.000000,0.000000,0.000000,0.000000,0.000000,0.000000,0.000000,0.000000,0.038118,3,0
1290000,-0.015727,33.324436,-0.007963,-0.048341,25.962133,-0.038886,0.004805,0.031240,1.568939,-0.064473,0.006960,-0.005949,-0.001195,-0.008391,0.000100,0.000479,0.016282,0.033516,0.039693,0.203447,0.203430,0.163784,0.420559,0.000000,0.000000,0.000000,0.000000,0.000000,0.000000,0.000000,0.000000,0.000000,0.000000,0.000000,0.000000,0.036000,3,0
1300000,-0.015667,33.586510,-0.009135,-0.047887,25.970701,-0.040268,0.004904,0.031653,1.568925,-0.064936,0.007067,-0.005700,-0.001224,-0.008519,0.000101,0.000982,0.016216,0.070908,-0.028312,0.203609,0.203590,0.163428,0.417365,0.000000,0.000000,0.000000,0.000000,0.000000,0.000000,0.000000,0.000000,0.000000,0.000000,0.000000,0.000000,0.070266,3,0
1310000,-0.015599,33.847183,-0.008119,-0.047334,25.976616,-0.039120,0.005005,0.031866,1.568903,-0.065112,0.007170,-0.006180,-0.001254,-0.008566,0.000102,0.000611,0.016150,0.027416,0.052541,0.203771,0.203752,0.163072,0.414253,0.000000,0.000000,0.000000,0.000000,0.000000,0.000000,0.000000,0.000000,0.000000,0.000000,0.000000,0.000000,0.030744,3,0
1320000,-0.015532,34.105827,-0.009347,-0.046788,25.978930,-0.040798,0.005104,0.031793,1.568906,-0.064890,0.007275,-0.005894,-0.001283,-0.008505,0.000102,0.000388,0.016076,-0.034531,-0.030844,0.203934,0.203913,0.162714,0.411220,0.000000,0.000000,0.000000,0.000000,0.000000,0.000000,0.000000,0.000000,0.000000,0.000000,0.000000,0.000000,0.036801,3,0
1330000,-0.015460,34.363804,-0.010069,-0.046246,25.980082,-0.041607,0.005194,0.031629,1.568905,-0.064537,0.007379,-0.005779,-0.001312,-0.008404,0.000101,0.000545,0.016004,-0.054653,-0.011753,0.204097,0.204076,0.162356,0.408266,0.000000,0.000000,0.000000,0.000000,0.000000,0.000000,0.000000,0.000000,0.000000,0.000000,0.000000,0.000000,0.055013,3,0
1340000,-0.015382,34.625179,-0.008916,-0.045832,25.987116,-0.040235,0.005282,0.031923,1.568896,-0.064826,0.007479,-0.006326,-0.001343,-0.008486,0.000102,0.000926,0.015928,0.045181,0.058550,0.204261,0.204239,0.161998,0.405389,0.000000,0.000000,0.000000,0.000000,0.000000,0.000000,0.000000,0.000000,0.000000,0.000000,0.000000,0.000000,0.046283,3,0
1350000,-0.015302,34.886524,-0.008009,-0.045358,25.994009,-0.039103,0.005390,0.032199,1.568882,-0.065095,0.007579,-0.006786,-0.001374,-0.008563,0.000104,0.000716,0.015846,0.042160,0.048975,0.204427,0.204403,0.161640,0.402586,0.000000,0.000000,0.000000,0.000000,0.000000,0.000000,0.000000,0.000000,0.000000,0.000000,0.000000,0.000000,0.043509,3,0
1360000,-0.015223,35.145809,-0.008443,-0.044877,25.997252,-0.039477,0.005484,0.032185,1.568876,-0.064964,0.007680,-0.006768,-0.001404,-0.008524,0.000103,0.000108,0.015761,-0.020462,-0.001618,0.204594,0.204569,0.161282,0.399859,0.000000,0.000000,0.000000,0.000000,0.000000,0.000000,0.000000,0.000000,0.000000,0.000000,0.000000,0.000000,0.024947,3,0
1370000,-0.015140,35.403736,-0.007922,-0.044357,25.997875,-0.038863,0.005592,0.031984,1.568876,-0.064574,0.007779,-0.007079,-0.001435,-0.008404,0.000103,0.000828,0.015677,-0.061115,0.033943,0.204762,0.204736,0.160924,0.397202,0.000000,0.000000,0.000000,0.000000,0.000000,0.000000,0.000000,0.000000,0.000000,0.000000,0.000000,0.000000,0.060935,3,0
1380000,-0.015053,35.667110,-0.007243,-0.043917,26.008181,-0.038055,0.005687,0.032539,1.568849,-0.065197,0.007875,-0.007475,-0.001465,-0.008594,0.000105,0.001866,0.015588,0.098412,0.040647,0.204932,0.204905,0.160567,0.394617,0.000000,0.000000,0.000000,0.000000,0.000000,0.000000,0.000000,0.000000,0.000000,0.000000,0.000000,0.000000,0.096243,3,0
1390000,-0.014966,35.925667,-0.007043,-0.043440,26.009714,-0.037682,0.005793,0.032411,1.568852,-0.064907,0.007973,-0.007673,-0.001496,-0.008503,0.000104,0.000451,0.015497,-0.045792,0.021553,0.205103,0.205075,0.160211,0.392101,0.000000,0.000000,0.000000,0.000000,0.000000,0.000000,0.000000,0.000000,0.000000,0.000000,0.000000,0.000000,0.046687,3,0
1400000,-0.014877,36.184917,-0.007460,-0.042893,26.012594,-0.038398,0.005883,0.032376,1.568854,-0.064743,0.008070,-0.007655,-0.001527,-0.008451,0.000104,0.000148,0.015404,-0.026062,-0.001464,0.205276,0.205247,0.159856,0.389654,0.000000,0.000000,0.000000,0.000000,0.000000,0.000000,0.000000,0.000000,0.000000,0.000000,0.000000,0.000000,0.029237,3,0
1410000,-0.014784,36.445522,-0.006979,-0.042341,26.017752,-0.037988,0.005993,0.032522,1.568850,-0.064822,0.008164,-0.007971,-0.001558,-0.008475,0.000105,0.000239,0.015310,0.012844,0.032821,0.205451,0.205420,0.159502,0.387272,0.000000,0.000000,0.000000,0.000000,0.000000,0.000000,0.000000,0.000000,0.000000,0.000000,0.000000,0.000000,0.019301,3,0
1420000,-0.014691,36.706116,-0.008123,-0.041790,26.022894,-0.039411,0.006100,0.032673,1.568842,-0.064890,0.008260,-0.007697,-0.001589,-0.008498,0.000105,0.000188,0.015211,0.010612,-0.028577,0.205628,0.205596,0.159149,0.384957,0.000000,0.000000,0.000000,0.000000,0.000000,0.000000,0.000000,0.000000,0.000000,0.000000,0.000000,0.000000,0.017909,3,0
1430000,-0.014592,36.967350,-0.007130,-0.041305,26.028952,-0.038390,0.006208,0.032893,1.568839,-0.065063,0.008351,-0.008212,-0.001621,-0.008553,0.000106,0.000618,0.015114,0.028275,0.052811,0.205806,0.205773,0.158798,0.382704,0.000000,0.000000,0.000000,0.000000,0.000000,0.000000,0.000000,0.000000,0.000000,0.000000,0.000000,0.000000,0.030967,3,0
1440000,-0.014493,37.229916,-0.007072,-0.040823,26.037401,-0.038343,0.006299,0.033312,1.568829,-0.065465,0.008443,-0.008391,-0.001652,-0.008687,0.000108,0.000769,0.015009,0.065163,0.017354,0.205987,0.205952,0.158449,0.380514,0.000000,0.000000,0.000000,0.000000,0.000000,0.000000,0.000000,0.000000,0.000000,0.000000,0.000000,0.000000,0.064578,3,0
1450000,-0.014394,37.488335,-0.008247,-0.040172,26.038225,-0.039904,0.006406,0.033115,1.568835,-0.065108,0.008536,-0.008086,-0.001682,-0.008567,0.000107,0.000732,0.014904,-0.058334,-0.030259,0.206169,0.206133,0.158102,0.378384,0.000000,0.000000,0.000000,0.000000,0.000000,0.000000,0.000000,0.000000,0.000000,0.000000,0.000000,0.000000,0.058145,3,0
1460000,-0.014291,37.749493,-0.009297,-0.039557,26.044069,-0.041203,0.006506,0.033306,1.568818,-0.065238,0.008627,-0.007848,-0.001713,-0.008613,0.000108,0.000205,0.014798,0.021179,-0.024469,0.206353,0.206316,0.157757,0.376315,0.000000,0.000000,0.000000,0.000000,0.000000,0.000000,0.000000,0.000000,0.000000,0.000000,0.000000,0.000000,0.024946,3,0
1470000,-0.014181,38.011284,-0.008328,-0.039033,26.050871,-0.039891,0.006613,0.033592,1.568806,-0.065468,0.008713,-0.008378,-0.001745,-0.008691,0.000109,0.000728,0.014691,0.038269,0.053066,0.206540,0.206501,0.157414,0.374303,0.000000,0.000000,0.000000,0.000000,0.000000,0.000000,0.000000,0.000000,0.000000,0.000000,0.000000,0.000000,0.039591,3,0
1480000,-0.014074,38.274410,-0.008881,-0.038529,26.060040,-0.040504,0.006706,0.034077,1.568785,-0.065918,0.008801,-0.008339,-0.001776,-0.008851,0.000111,0.000934,0.014576,0.074593,-0.005180,0.206728,0.206688,0.157074,0.372349,0.000000,0.000000,0.000000,0.000000,0.000000,0.000000,0.000000,0.000000,0.000000,0.000000,0.000000,0.000000,0.073384,3,0
1490000,-0.013966,38.532673,-0.010134,-0.037958,26.060303,-0.041962,0.006816,0.033820,1.568772,-0.065504,0.008890,-0.007999,-0.001807,-0.008703,0.000110,0.000984,0.014462,-0.069351,-0.032913,0.206918,0.206877,0.156736,0.370450,0.000000,0.000000,0.000000,0.000000,0.000000,0.000000,0.000000,0.000000,0.000000,0.000000,0.000000,0.000000,0.068408,3,0
1500000,-0.013849,38.792980,-0.009506,-0.037267,26.064201,-0.041071,0.006928,0.033859,1.568773,-0.065446,0.008973,-0.008399,-0.001839,-0.008680,0.000110,0.000310,0.014348,-0.009556,0.040217,0.207111,0.207068,0.156400,0.368605,0.000000,0.000000,0.000000,0.000000,0.000000,0.000000,0.000000,0.000000,0.000000,0.000000,0.000000,0.000000,0.016636,3,0
1510000,-0.013733,39.051895,-0.009607,-0.036698,26.065556,-0.041021,0.007026,0.033675,1.568768,-0.065143,0.009057,-0.008506,-0.001870,-0.008567,0.000110,0.000477,0.014225,-0.051235,0.011586,0.207305,0.207261,0.156068,0.366813,0.000000,0.000000,0.000000,0.000000,0.000000,0.000000,0.000000,0.000000,0.000000,0.000000,0.000000,0.000000,0.051333,3,0
1520000,-0.013613,39.310795,-0.008794,-0.036141,26.066811,-0.039958,0.007137,0.033478,1.568761,-0.064838,0.009138,-0.008969,-0.001903,-0.008449,0.000109,0.000818,0.014104,-0.051735,0.046796,0.207501,0.207456,0.155738,0.365072,0.000000,0.000000,0.000000,0.000000,0.000000,0.000000,0.000000,0.000000,0.000000,0.000000,0.000000,0.000000,0.051757,3,0
1530000,-0.013495,39.572460,-0.009952,-0.035565,26.073114,-0.041247,0.007229,0.033712,1.568750,-0.064998,0.009221,-0.008680,-0.001933,-0.008512,0.000110,0.000287,0.013977,0.027290,-0.028947,0.207700,0.207653,0.155411,0.363381,0.000000,0.000000,0.000000,0.000000,0.000000,0.000000,0.000000,0.000000,0.000000,0.000000,0.000000,0.000000,0.029596,3,0
1540000,-0.013376,39.830631,-0.011137,-0.034938,26.072914,-0.042564,0.007334,0.033395,1.568744,-0.064562,0.009303,-0.008355,-0.001964,-0.008345,0.000109,0.001096,0.013853,-0.075405,-0.030433,0.207899,0.207851,0.155087,0.361738,0.000000,0.000000,0.000000,0.000000,0.000000,0.000000,0.000000,0.000000,0.000000,0.000000,0.000000,0.000000,0.074018,3,0
1550000,-0.013253,40.092251,-0.011825,-0.034399,26.079023,-0.043419,0.007446,0.033607,1.568739,-0.064702,0.009382,-0.008259,-0.001995,-0.008400,0.000110,0.000140,0.013728,0.024246,-0.009767,0.208101,0.208051,0.154767,0.360144,0.000000,0.000000,0.000000,0.000000,0.000000,0.000000,0.000000,0.000000,0.000000,0.000000,0.000000,0.000000,0.026895,3,0
1560000,-0.013123,40.354496,-0.011072,-0.033681,26.086134,-0.042737,0.007557,0.033904,1.568732,-0.064933,0.009457,-0.008747,-0.002026,-0.008490,0.000111,0.000653,0.013598,0.040871,0.046742,0.208304,0.208253,0.154449,0.358595,0.000000,0.000000,0.000000,0.000000,0.000000,0.000000,0.000000,0.000000,0.000000,0.000000,0.000000,0.000000,0.041588,3,0
1570000,-0.012996,40.614620,-0.012140,-0.033110,26.089230,-0.043800,0.007663,0.033876,1.568729,-0.064806,0.009534,-0.008484,-0.002057,-0.008440,0.000111,0.000214,0.013462,-0.022655,-0.025076,0.208508,0.208455,0.154135,0.357091,0.000000,0.000000,0.000000,0.000000,0.000000,0.000000,0.000000,0.000000,0.000000,0.000000,0.000000,0.000000,0.025443,3,0
1580000,-0.012866,40.874023,-0.012752,-0.032460,26.091076,-0.044401,0.007773,0.033725,1.568717,-0.064558,0.009610,-0.008401,-0.002088,-0.008338,0.000110,0.000352,0.013329,-0.044266,-0.007100,0.208714,0.208660,0.153825,0.355632,0.000000,0.000000,0.000000,0.000000,0.000000,0.000000,0.000000,0.000000,0.000000,0.000000,0.000000,0.000000,0.044624,3,0
1590000,-0.012735,41.133404,-0.013300,-0.031878,26.092758,-0.044879,0.007876,0.033552,1.568710,-0.064307,0.009684,-0.008344,-0.002119,-0.008233,0.000110,0.000361,0.013193,-0.045261,-0.004441,0.208921,0.208865,0.153518,0.354214,0.000000,0.000000,0.000000,0.000000,0.000000,0.000000,0.000000,0.000000,0.000000,0.000000,0.000000,0.000000,0.045504,3,0
1600000,-0.012599,41.393452,-0.013373,-0.031213,26.095575,-0.044734,0.007985,0.033479,1.568699,-0.064162,0.009755,-0.008490,-0.002149,-0.008170,0.000109,0.000173,0.013055,-0.026348,0.014556,0.209129,0.209072,0.153214,0.352838,0.000000,0.000000,0.000000,0.000000,0.000000,0.000000,0.000000,0.000000,0.000000,0.000000,0.000000,0.000000,0.028375,3,0
1610000,-0.012465,41.654175,-0.014407,-0.030664,26.099493,-0.046032,0.008097,0.033526,1.568695,-0.064118,0.009827,-0.008248,-0.002180,-0.008153,0.000110,0.000123,0.012914,-0.008125,-0.022914,0.209339,0.209280,0.152914,0.351500,0.000000,0.000000,0.000000,0.000000,0.000000,0.000000,0.000000,0.000000,0.000000,0.000000,0.000000,0.000000,0.014729,3,0
1620000,-0.012327,41.912769,-0.015027,-0.029943,26.099562,-0.046589,0.008204,0.033220,1.568699,-0.063739,0.009897,-0.008159,-0.002210,-0.007988,0.000109,0.000824,0.012773,-0.070095,-0.006915,0.209549,0.209488,0.152618,0.350203,0.000000,0.000000,0.000000,0.000000,0.000000,0.000000,0.000000,0.000000,0.000000,0.000000,0.000000,0.000000,0.068764,3,0
1630000,-0.012185,42.170650,-0.014770,-0.029245,26.098320,-0.046288,0.008312,0.032788,1.568691,-0.063256,0.009964,-0.008431,-0.002241,-0.007770,0.000107,0.001457,0.012628,-0.090141,0.027659,0.209760,0.209698,0.152325,0.348944,0.000000,0.000000,0.000000,0.000000,0.000000,0.000000,0.000000,0.000000,0.000000,0.000000,0.000000,0.000000,0.087832,3,0
1640000,-0.012039,42.432014,-0.014686,-0.028496,26.103285,-0.046163,0.008421,0.032931,1.568673,-0.063307,0.010028,-0.008664,-0.002271,-0.007792,0.000108,0.000118,0.012478,0.009808,0.021855,0.209971,0.209907,0.152037,0.347720,0.000000,0.000000,0.000000,0.000000,0.000000,0.000000,0.000000,0.000000,0.000000,0.000000,0.000000,0.000000,0.015319,3,0
1650000,-0.011895,42.689857,-0.015643,-0.027828,26.101723,-0.047254,0.008527,0.032479,1.568672,-0.062821,0.010095,-0.008424,-0.002301,-0.007570,0.000106,0.001471,0.012325,-0.092575,-0.020449,0.210183,0.210118,0.151752,0.346531,0.000000,0.000000,0.000000,0.000000,0.000000,0.000000,0.000000,0.000000,0.000000,0.000000,0.000000,0.000000,0.090129,3,0
1660000,-0.011744,42.951859,-0.014647,-0.027132,26.107801,-0.045942,0.008627,0.032715,1.568663,-0.062963,0.010154,-0.009057,-0.002331,-0.007632,0.000107,0.000702,0.012175,0.027298,0.058622,0.210394,0.210328,0.151471,0.345377,0.000000,0.000000,0.000000,0.000000,0.000000,0.000000,0.000000,0.000000,0.000000,0.000000,0.000000,0.000000,0.028857,3,0
1670000,-0.011591,43.213795,-0.013833,-0.026496,26.113632,-0.044860,0.008732,0.032925,1.568649,-0.063084,0.010212,-0.009610,-0.002361,-0.007685,0.000108,0.000535,0.012016,0.023666,0.050960,0.210607,0.210539,0.151193,0.344256,0.000000,0.000000,0.000000,0.000000,0.000000,0.000000,0.000000,0.000000,0.000000,0.000000,0.000000,0.000000,0.025622,3,0
1680000,-0.011439,43.470791,-0.014017,-0.025766,26.110298,-0.044727,0.008826,0.032295,1.568640,-0.062478,0.010273,-0.009678,-0.002391,-0.007392,0.000105,0.002315,0.011856,-0.119057,0.009123,0.210819,0.210749,0.150920,0.343168,0.000000,0.000000,0.000000,0.000000,0.000000,0.000000,0.000000,0.000000,0.000000,0.000000,0.000000,0.000000,0.115440,3,0
1690000,-0.011285,43.731987,-0.013829,-0.025124,26.114754,-0.044435,0.008931,0.032370,1.568627,-0.062486,0.010330,-0.009954,-0.002420,-0.007394,0.000106,0.000128,0.011698,0.001678,0.025462,0.211031,0.210960,0.150651,0.342111,0.000000,0.000000,0.000000,0.000000,0.000000,0.000000,0.000000,0.000000,0.000000,0.000000,0.000000,0.000000,0.011402,3,0
1700000,-0.011131,43.991035,-0.013917,-0.024525,26.115175,-0.044393,0.009033,0.032072,1.568613,-0.062183,0.010387,-0.010085,-0.002449,-0.007242,0.000105,0.000645,0.011538,-0.060776,0.013595,0.211243,0.211170,0.150385,0.341085,0.000000,0.000000,0.000000,0.000000,0.000000,0.000000,0.000000,0.000000,0.000000,0.000000,0.000000,0.000000,0.059679,3,0
1710000,-0.010974,44.252159,-0.013709,-0.023910,26.119328,-0.044049,0.009135,0.032126,1.568601,-0.062175,0.010441,-0.010369,-0.002478,-0.007235,0.000105,0.000133,0.011377,-0.001762,0.026161,0.211454,0.211380,0.150124,0.340087,0.000000,0.000000,0.000000,0.000000,0.000000,0.000000,0.000000,0.000000,0.000000,0.000000,0.000000,0.000000,0.011104,3,0
