time_us,pos_x,pos_y,pos_z,vel_x,vel_y,vel_z,roll,pitch,yaw,bias_ax,bias_ay,bias_az,bias_gx,bias_gy,bias_gz,nis,innov_x,innov_y,innov_z,cov_pos_x,cov_pos_y,cov_pos_z,cov_yaw,des_speed,des_heading,des_climb,pid_speed,pid_yaw,pid_alt,speed_meas,yaw_meas,climb_meas,fwd_accel,yaw_rate,vert_accel,drift_m,nav_mode,mission_state
0,-0.000004,0.149991,-0.000000,-0.000750,24.998585,-0.000001,-0.000017,0.000006,1.570786,0.000000,0.000000,0.000000,0.000000,0.000000,0.000000,0.006249,0.000007,-0.249988,0.000000,2.400038,2.400038,3.600017,1.000518,0.000000,0.000000,0.000000,0.000000,0.000000,0.000000,0.000000,0.000000,0.000000,0.000000,0.000000,0.000000,0.149991,1,0
10000,-0.000013,0.342482,-0.000280,-0.001377,24.997002,0.000274,-0.000043,0.000005,1.570777,0.000001,0.000000,0.000000,0.000000,0.000000,0.000000,0.004818,0.000018,-0.201176,-0.000755,1.714420,1.714420,2.250079,1.001073,0.000000,0.000000,0.000000,0.000000,0.000000,0.000000,0.000000,0.000000,0.000000,0.000000,0.000000,0.000000,0.143693,3,0
20000,-0.000027,0.580057,-0.004364,-0.002163,24.995611,0.000205,-0.000074,-0.000003,1.570768,0.000001,0.000000,0.000000,0.000000,0.000000,-0.000000,0.000429,0.000035,-0.055709,-0.014979,1.333616,1.333616,1.636554,1.001655,0.000000,0.000000,0.000000,0.000000,0.000000,0.000000,0.000000,0.000000,0.000000,0.000000,0.000000,0.000000,0.043326,3,0
30000,-0.000046,0.823662,-0.011156,-0.002883,24.994131,0.000124,-0.000102,-0.000008,1.570762,0.000002,0.000000,0.000001,0.000000,0.000000,-0.000000,0.000297,0.000056,-0.034843,-0.031701,1.091392,1.091392,1.286065,1.002257,0.000000,0.000000,0.000000,0.000000,0.000000,0.000000,0.000000,0.000000,0.000000,0.000000,0.000000,0.000000,0.028505,3,0
40000,-0.000069,1.076631,-0.003705,-0.003543,24.992954,0.000562,-0.000135,-0.000014,1.570755,0.000001,0.000000,-0.000001,-0.000000,-0.000000,0.000000,0.000299,0.000081,0.019750,0.042178,0.923811,0.923811,1.059385,1.002869,0.000000,0.000000,0.000000,0.000000,0.000000,0.000000,0.000000,0.000000,0.000000,0.000000,0.000000,0.000000,0.016709,3,0
50000,-0.000097,1.313991,-0.004927,-0.004299,24.991089,0.000569,-0.000154,-0.000012,1.570753,0.000005,0.000000,-0.000000,-0.000000,0.000000,-0.000000,0.001287,0.000112,-0.094055,-0.008179,0.801036,0.801036,0.900822,1.003485,0.000000,0.000000,0.000000,0.000000,0.000000,0.000000,0.000000,0.000000,0.000000,0.000000,0.000000,0.000000,0.081498,3,0
60000,-0.000129,1.555287,0.000967,-0.004993,24.989393,0.001069,-0.000173,-0.000013,1.570747,0.000010,0.000000,-0.000003,-0.000000,0.000000,-0.000000,0.001077,0.000147,-0.072970,0.045060,0.707270,0.707270,0.783741,1.004094,0.000000,0.000000,0.000000,0.000000,0.000000,0.000000,0.000000,0.000000,0.000000,0.000000,0.000000,0.000000,0.064369,3,0
70000,-0.000167,1.795078,-0.001921,-0.005780,24.987366,0.000824,-0.000202,-0.000025,1.570738,0.000017,0.000000,-0.000001,-0.000000,0.000000,-0.000000,0.001454,0.000187,-0.095581,-0.025058,0.633370,0.633370,0.693801,1.004689,0.000000,0.000000,0.000000,0.000000,0.000000,0.000000,0.000000,0.000000,0.000000,0.000000,0.000000,0.000000,0.085491,3,0
80000,-0.000210,2.048988,0.000751,-0.006525,24.986401,0.001276,-0.000230,-0.000018,1.570731,0.000013,0.000000,-0.000003,-0.000000,0.000000,-0.000000,0.000369,0.000233,0.042347,0.025641,0.573673,0.573673,0.622594,1.005261,0.000000,0.000000,0.000000,0.000000,0.000000,0.000000,0.000000,0.000000,0.000000,0.000000,0.000000,0.000000,0.038299,3,0
90000,-0.000258,2.304674,-0.000481,-0.007231,24.985710,0.001459,-0.000263,-0.000008,1.570726,0.000004,0.000000,-0.000002,-0.000000,-0.000000,0.000000,0.000704,0.000283,0.066752,-0.013251,0.524488,0.524488,0.564865,1.005802,0.000000,0.000000,0.000000,0.000000,0.000000,0.000000,0.000000,0.000000,0.000000,0.000000,0.000000,0.000000,0.060918,3,0
100000,-0.000310,2.560117,0.002348,-0.007886,24.985146,0.001835,-0.000278,-0.000010,1.570717,-0.000006,0.000000,-0.000007,-0.000000,-0.000000,0.000000,0.000902,0.000337,0.069498,0.032644,0.483304,0.483304,0.517162,1.006303,0.000000,0.000000,0.000000,0.000000,0.000000,0.000000,0.000000,0.000000,0.000000,0.000000,0.000000,0.000000,0.063901,3,0
110000,-0.000367,2.809431,0.002595,-0.008690,24.983875,0.002107,-0.000305,-0.000004,1.570706,-0.000005,0.000000,-0.000007,-0.000000,-0.000000,0.000000,0.000009,0.000397,-0.007029,0.002847,0.448354,0.448354,0.477121,1.006756,0.000000,0.000000,0.000000,0.000000,0.000000,0.000000,0.000000,0.000000,0.000000,0.000000,0.000000,0.000000,0.006514,3,0
120000,-0.000430,3.064947,0.000299,-0.009465,24.983490,0.001863,-0.000329,0.000005,1.570705,-0.000023,0.000000,-0.000000,-0.000000,-0.000000,0.000000,0.001185,0.000462,0.081612,-0.031390,0.418359,0.418359,0.443071,1.007152,0.000000,0.000000,0.000000,0.000000,0.000000,0.000000,0.000000,0.000000,0.000000,0.000000,0.000000,0.000000,0.075923,3,0
130000,-0.000497,3.317698,-0.002426,-0.010235,24.982861,0.001395,-0.000352,0.000016,1.570689,-0.000035,0.000000,0.000009,-0.000000,-0.000001,0.000000,0.000558,0.000532,0.044767,-0.039788,0.392369,0.392369,0.413797,1.007483,0.000000,0.000000,0.000000,0.000000,0.000000,0.000000,0.000000,0.000000,0.000000,0.000000,0.000000,0.000000,0.041842,3,0
140000,-0.000569,3.569397,-0.000759,-0.010870,24.981918,0.001671,-0.000384,0.000016,1.570686,-0.000044,0.000001,0.000002,-0.000000,-0.000001,0.000000,0.000248,0.000606,0.030571,0.025552,0.369667,0.369667,0.388393,1.007742,0.000000,0.000000,0.000000,0.000000,0.000000,0.000000,0.000000,0.000000,0.000000,0.000000,0.000000,0.000000,0.028693,3,0
150000,-0.000645,3.820218,0.002159,-0.011633,24.980837,0.002414,-0.000412,0.000019,1.570669,-0.000049,0.000001,-0.000013,-0.000000,-0.000001,0.000000,0.000401,0.000685,0.017428,0.047514,0.349695,0.349695,0.366172,1.007919,0.000000,0.000000,0.000000,0.000000,0.000000,0.000000,0.000000,0.000000,0.000000,0.000000,0.000000,0.000000,0.016425,3,0
160000,-0.000727,4.073600,0.002262,-0.012417,24.980545,0.002403,-0.000434,0.000014,1.570663,-0.000074,0.000001,-0.000014,-0.000000,-0.000001,0.000000,0.000662,0.000769,0.064801,0.001369,0.332021,0.332021,0.346600,1.008006,0.000000,0.000000,0.000000,0.000000,0.000000,0.000000,0.000000,0.000000,0.000000,0.000000,0.000000,0.000000,0.061219,3,0
170000,-0.000813,4.328122,0.004018,-0.013167,24.980629,0.002995,-0.000449,0.000031,1.570654,-0.000112,0.000002,-0.000027,-0.000000,-0.000002,0.000000,0.001428,0.000859,0.089727,0.031545,0.316298,0.316298,0.329260,1.007996,0.000000,0.000000,0.000000,0.000000,0.000000,0.000000,0.000000,0.000000,0.000000,0.000000,0.000000,0.000000,0.085001,3,0
180000,-0.000904,4.578627,0.001463,-0.013796,24.979620,0.002176,-0.000474,0.000030,1.570638,-0.000119,0.000002,-0.000004,-0.000000,-0.000003,0.000000,0.000417,0.000952,0.014113,-0.049418,0.302247,0.302247,0.313817,1.007881,0.000000,0.000000,0.000000,0.000000,0.000000,0.000000,0.000000,0.000000,0.000000,0.000000,0.000000,0.000000,0.013433,3,0
190000,-0.000997,4.831395,0.001646,-0.014415,24.979467,0.002416,-0.000507,0.000044,1.570620,-0.000152,0.000003,-0.000006,-0.000000,-0.000003,0.000000,0.000608,0.001048,0.061802,0.003180,0.289642,0.289642,0.300003,1.007652,0.000000,0.000000,0.000000,0.000000,0.000000,0.000000,0.000000,0.000000,0.000000,0.000000,0.000000,0.000000,0.058827,3,0
200000,-0.001095,5.082462,0.001959,-0.015042,24.978704,0.002604,-0.000536,0.000056,1.570611,-0.000168,0.000003,-0.000009,-0.000000,-0.000004,0.000000,0.000128,0.001148,0.027705,0.006015,0.278296,0.278296,0.287598,1.007302,0.000000,0.000000,0.000000,0.000000,0.000000,0.000000,0.000000,0.000000,0.000000,0.000000,0.000000,0.000000,0.026442,3,0
210000,-0.001196,5.336466,0.004151,-0.015728,24.979166,0.003621,-0.000560,0.000071,1.570602,-0.000229,0.000004,-0.000039,-0.000000,-0.000006,0.000000,0.001779,0.001252,0.094709,0.046970,0.268055,0.268055,0.276421,1.006824,0.000000,0.000000,0.000000,0.000000,0.000000,0.000000,0.000000,0.000000,0.000000,0.000000,0.000000,0.000000,0.090486,3,0
220000,-0.001302,5.589664,0.003971,-0.016383,24.979557,0.003780,-0.000585,0.000081,1.570584,-0.000284,0.000005,-0.000035,-0.000000,-0.000007,0.000000,0.001006,0.001360,0.079245,-0.004930,0.258788,0.258788,0.266321,1.006211,0.000000,0.000000,0.000000,0.000000,0.000000,0.000000,0.000000,0.000000,0.000000,0.000000,0.000000,0.000000,0.075838,3,0
230000,-0.001411,5.842972,0.003146,-0.017027,24.980051,0.003308,-0.000614,0.000093,1.570570,-0.000348,0.000006,-0.000020,-0.000000,-0.000009,0.000000,0.001204,0.001472,0.084470,-0.020093,0.250387,0.250387,0.257172,1.005456,0.000000,0.000000,0.000000,0.000000,0.000000,0.000000,0.000000,0.000000,0.000000,0.000000,0.000000,0.000000,0.080957,3,0
240000,-0.001524,6.096385,0.004239,-0.017741,24.980808,0.003817,-0.000646,0.000117,1.570564,-0.000422,0.000007,-0.000041,-0.000000,-0.000012,0.000000,0.001388,0.001589,0.089582,0.025548,0.242757,0.242757,0.248866,1.004551,0.000000,0.000000,0.000000,0.000000,0.000000,0.000000,0.000000,0.000000,0.000000,0.000000,0.000000,0.000000,0.085972,3,0
250000,-0.001642,6.347555,0.005505,-0.018408,24.980385,0.004508,-0.000666,0.000127,1.570560,-0.000453,0.000009,-0.000068,-0.000000,-0.000013,0.000000,0.000345,0.001709,0.034951,0.030515,0.235820,0.235820,0.241314,1.003492,0.000000,0.000000,0.000000,0.000000,0.000000,0.000000,0.000000,0.000000,0.000000,0.000000,0.000000,0.000000,0.033617,3,0
260000,-0.001762,6.602003,0.006786,-0.019042,24.982073,0.005486,-0.000694,0.000152,1.570544,-0.000570,0.000011,-0.000098,-0.000000,-0.000017,0.000000,0.002535,0.001832,0.121727,0.031553,0.229507,0.229506,0.234436,1.002270,0.000000,0.000000,0.000000,0.000000,0.000000,0.000000,0.000000,0.000000,0.000000,0.000000,0.000000,0.000000,0.117084,3,0
270000,-0.001887,6.858724,0.008027,-0.019701,24.985418,0.006245,-0.000717,0.000205,1.570536,-0.000761,0.000013,-0.000130,-0.000000,-0.000025,0.000000,0.005667,0.001960,0.185324,0.031174,0.223757,0.223757,0.228165,1.000882,0.000000,0.000000,0.000000,0.000000,0.000000,0.000000,0.000000,0.000000,0.000000,0.000000,0.000000,0.000000,0.178422,3,0
280000,-0.002015,7.112481,0.009439,-0.020368,24.986979,0.007001,-0.000731,0.000246,1.570524,-0.000880,0.000015,-0.000169,-0.000001,-0.000029,0.000000,0.002069,0.002091,0.107480,0.036424,0.218519,0.218519,0.222443,0.999321,0.000000,0.000000,0.000000,0.000000,0.000000,0.000000,0.000000,0.000000,0.000000,0.000000,0.000000,0.000000,0.103585,3,0
290000,-0.002147,7.364209,0.010253,-0.021111,24.987137,0.007657,-0.000744,0.000261,1.570511,-0.000942,0.000018,-0.000193,-0.000001,-0.000032,0.000000,0.000511,0.002226,0.052497,0.020505,0.213748,0.213748,0.217219,0.997582,0.000000,0.000000,0.000000,0.000000,0.000000,0.000000,0.000000,0.000000,0.000000,0.000000,0.000000,0.000000,0.050673,3,0
300000,-0.002283,7.617521,0.009281,-0.021752,24.988518,0.006988,-0.000774,0.000293,1.570492,-0.001066,0.000021,-0.000156,-0.000001,-0.000037,0.000000,0.001717,0.002365,0.098952,-0.029621,0.209403,0.209402,0.212447,0.995660,0.000000,0.000000,0.000000,0.000000,0.000000,0.000000,0.000000,0.000000,0.000000,0.000000,0.000000,0.000000,0.095526,3,0
310000,-0.002422,7.869596,0.010428,-0.022436,24.989157,0.007994,-0.000802,0.000322,1.570491,-0.001152,0.000024,-0.000197,-0.000001,-0.000041,0.000000,0.000821,0.002508,0.064293,0.030997,0.205448,0.205448,0.208087,0.993552,0.000000,0.000000,0.000000,0.000000,0.000000,0.000000,0.000000,0.000000,0.000000,0.000000,0.000000,0.000000,0.062139,3,0
320000,-0.002565,8.125196,0.009495,-0.023131,24.992804,0.007202,-0.000832,0.000388,1.570471,-0.001393,0.000028,-0.000156,-0.000001,-0.000052,0.000000,0.004801,0.002654,0.170033,-0.029812,0.201853,0.201853,0.204105,0.991254,0.000000,0.000000,0.000000,0.000000,0.000000,0.000000,0.000000,0.000000,0.000000,0.000000,0.000000,0.000000,0.164332,3,0
330000,-0.002712,8.381489,0.008592,-0.023902,24.997210,0.006642,-0.000848,0.000478,1.570468,-0.001681,0.000032,-0.000112,-0.000001,-0.000066,0.000000,0.006123,0.002805,0.192702,-0.029246,0.198588,0.198588,0.200469,0.988761,0.000000,0.000000,0.000000,0.000000,0.000000,0.000000,0.000000,0.000000,0.000000,0.000000,0.000000,0.000000,0.186344,3,0
340000,-0.002863,8.633262,0.008686,-0.024660,24.997601,0.006622,-0.000866,0.000497,1.570462,-0.001769,0.000036,-0.000113,-0.000002,-0.000070,0.000000,0.000501,0.002959,0.055638,0.000844,0.195629,0.195628,0.197151,0.986072,0.000000,0.000000,0.000000,0.000000,0.000000,0.000000,0.000000,0.000000,0.000000,0.000000,0.000000,0.000000,0.053901,3,0
350000,-0.003017,8.885227,0.009056,-0.025316,24.998259,0.006850,-0.000893,0.000530,1.570457,-0.001873,0.000042,-0.000129,-0.000002,-0.000075,0.000001,0.000642,0.003117,0.062287,0.009382,0.192951,0.192951,0.194126,0.983184,0.000000,0.000000,0.000000,0.000000,0.000000,0.000000,0.000000,0.000000,0.000000,0.000000,0.000000,0.000000,0.060360,3,0
360000,-0.003174,9.138644,0.008144,-0.026028,25.000584,0.005934,-0.000924,0.000589,1.570439,-0.002064,0.000047,-0.000075,-0.000002,-0.000085,0.000001,0.002054,0.003278,0.108498,-0.030718,0.190535,0.190535,0.191370,0.980094,0.000000,0.000000,0.000000,0.000000,0.000000,0.000000,0.000000,0.000000,0.000000,0.000000,0.000000,0.000000,0.105100,3,0
370000,-0.003335,9.395946,0.008196,-0.026755,25.007059,0.005899,-0.000952,0.000737,1.570419,-0.002493,0.000054,-0.000075,-0.000002,-0.000108,0.000001,0.008748,0.003443,0.232757,-0.000276,0.188362,0.188362,0.188863,0.976801,0.000000,0.000000,0.000000,0.000000,0.000000,0.000000,0.000000,0.000000,0.000000,0.000000,0.000000,0.000000,0.225474,3,0
380000,-0.003497,9.648947,0.007686,-0.027325,25.009142,0.005447,-0.000983,0.000795,1.570417,-0.002676,0.000061,-0.000040,-0.000003,-0.000118,0.000001,0.001503,0.003609,0.094664,-0.018317,0.186414,0.186414,0.186587,0.973305,0.000000,0.000000,0.000000,0.000000,0.000000,0.000000,0.000000,0.000000,0.000000,0.000000,0.000000,0.000000,0.091789,3,0
390000,-0.003661,9.902719,0.008491,-0.027902,25.012127,0.006475,-0.001005,0.000876,1.570409,-0.002919,0.000068,-0.000089,-0.000003,-0.000132,0.000001,0.002422,0.003777,0.119946,0.024282,0.184676,0.184675,0.184523,0.969604,0.000000,0.000000,0.000000,0.000000,0.000000,0.000000,0.000000,0.000000,0.000000,0.000000,0.000000,0.000000,0.116312,3,0
400000,-0.003827,10.159059,0.007368,-0.028526,25.018204,0.005169,-0.001029,0.001017,1.570391,-0.003351,0.000076,-0.000006,-0.000004,-0.000157,0.000001,0.006978,0.003948,0.204086,-0.039004,0.183132,0.183132,0.182656,0.965700,0.000000,0.000000,0.000000,0.000000,0.000000,0.000000,0.000000,0.000000,0.000000,0.000000,0.000000,0.000000,0.197894,3,0
410000,-0.003996,10.414872,0.007854,-0.029212,25.023834,0.005689,-0.001046,0.001150,1.570369,-0.003762,0.000086,-0.000038,-0.000004,-0.000182,0.000001,0.005641,0.004121,0.186233,0.014359,0.181770,0.181770,0.180972,0.961592,0.000000,0.000000,0.000000,0.000000,0.000000,0.000000,0.000000,0.000000,0.000000,0.000000,0.000000,0.000000,0.180635,3,0
420000,-0.004166,10.671380,0.007516,-0.029743,25.030396,0.005258,-0.001070,0.001319,1.570353,-0.004243,0.000095,-0.000008,-0.000005,-0.000211,0.000001,0.007070,0.004295,0.208667,-0.013249,0.180577,0.180576,0.179456,0.957281,0.000000,0.000000,0.000000,0.000000,0.000000,0.000000,0.000000,0.000000,0.000000,0.000000,0.000000,0.000000,0.202430,3,0
430000,-0.004336,10.928567,0.008132,-0.030276,25.037880,0.006147,-0.001087,0.001494,1.570331,-0.004795,0.000106,-0.000053,-0.000005,-0.000246,0.000002,0.008643,0.004470,0.230399,0.018869,0.179542,0.179541,0.178097,0.952770,0.000000,0.000000,0.000000,0.000000,0.000000,0.000000,0.000000,0.000000,0.000000,0.000000,0.000000,0.000000,0.223547,3,0
440000,-0.004510,11.183463,0.009477,-0.030981,25.042652,0.007784,-0.001104,0.001626,1.570310,-0.005175,0.000118,-0.000161,-0.000006,-0.000271,0.000002,0.004047,0.004648,0.152046,0.043458,0.178652,0.178651,0.176883,0.948061,0.000000,0.000000,0.000000,0.000000,0.000000,0.000000,0.000000,0.000000,0.000000,0.000000,0.000000,0.000000,0.147588,3,0
450000,-0.004684,11.436723,0.010479,-0.031629,25.045385,0.008797,-0.001131,0.001711,1.570305,-0.005423,0.000130,-0.000243,-0.000007,-0.000287,0.000002,0.001652,0.004828,0.095891,0.031542,0.177900,0.177899,0.175803,0.943155,0.000000,0.000000,0.000000,0.000000,0.000000,0.000000,0.000000,0.000000,0.000000,0.000000,0.000000,0.000000,0.093166,3,0
460000,-0.004860,11.691914,0.011168,-0.032179,25.050678,0.009611,-0.001156,0.001855,1.570297,-0.005855,0.000144,-0.000298,-0.000008,-0.000317,0.000002,0.004248,0.005008,0.160667,0.020569,0.177274,0.177273,0.174848,0.938057,0.000000,0.000000,0.000000,0.000000,0.000000,0.000000,0.000000,0.000000,0.000000,0.000000,0.000000,0.000000,0.155996,3,0
470000,-0.005038,11.946065,0.010135,-0.032813,25.054594,0.008246,-0.001184,0.001965,1.570275,-0.006200,0.000158,-0.000189,-0.000009,-0.000341,0.000002,0.002741,0.005190,0.124093,-0.038986,0.176767,0.176765,0.174007,0.932770,0.000000,0.000000,0.000000,0.000000,0.000000,0.000000,0.000000,0.000000,0.000000,0.000000,0.000000,0.000000,0.120543,3,0
480000,-0.005217,12.202711,0.009419,-0.033481,25.062157,0.007449,-0.001208,0.002179,1.570261,-0.006799,0.000173,-0.000109,-0.000010,-0.000383,0.000003,0.007118,0.005375,0.207842,-0.027765,0.176369,0.176368,0.173272,0.927298,0.000000,0.000000,0.000000,0.000000,0.000000,0.000000,0.000000,0.000000,0.000000,0.000000,0.000000,0.000000,0.201800,3,0
490000,-0.005398,12.459472,0.007890,-0.034143,25.069918,0.005368,-0.001233,0.002394,1.570237,-0.007423,0.000190,0.000058,-0.000011,-0.000428,0.000003,0.007613,0.005561,0.209546,-0.055803,0.176073,0.176072,0.172635,0.921645,0.000000,0.000000,0.000000,0.000000,0.000000,0.000000,0.000000,0.000000,0.000000,0.000000,0.000000,0.000000,0.203469,3,0
500000,-0.005580,12.714019,0.006625,-0.034754,25.074532,0.003704,-0.001254,0.002537,1.570216,-0.007827,0.000207,0.000200,-0.000012,-0.000458,0.000003,0.003151,0.005748,0.131618,-0.046040,0.175872,0.175870,0.172088,0.915817,0.000000,0.000000,0.000000,0.000000,0.000000,0.000000,0.000000,0.000000,0.000000,0.000000,0.000000,0.000000,0.127883,3,0
510000,-0.005762,12.972217,0.005212,-0.035336,25.084545,0.001735,-0.001272,0.002828,1.570190,-0.008635,0.000226,0.000362,-0.000014,-0.000519,0.000004,0.010920,0.005935,0.254725,-0.050730,0.175758,0.175756,0.171623,0.909819,0.000000,0.000000,0.000000,0.000000,0.000000,0.000000,0.000000,0.000000,0.000000,0.000000,0.000000,0.000000,0.247330,3,0
520000,-0.005943,13.230516,0.004987,-0.035808,25.094740,0.001346,-0.001290,0.003127,1.570170,-0.009469,0.000246,0.000390,-0.000015,-0.000584,0.000004,0.010526,0.006123,0.254852,-0.008586,0.175725,0.175723,0.171235,0.903656,0.000000,0.000000,0.000000,0.000000,0.000000,0.000000,0.000000,0.000000,0.000000,0.000000,0.000000,0.000000,0.247460,3,0
530000,-0.006125,13.487175,0.003564,-0.036334,25.102543,-0.000683,-0.001305,0.003368,1.570156,-0.010126,0.000267,0.000561,-0.000017,-0.000636,0.000004,0.006586,0.006310,0.195239,-0.050460,0.175766,0.175764,0.170915,0.897334,0.000000,0.000000,0.000000,0.000000,0.000000,0.000000,0.000000,0.000000,0.000000,0.000000,0.000000,0.000000,0.189619,3,0
540000,-0.006305,13.742217,0.004387,-0.036775,25.107941,0.000668,-0.001315,0.003534,1.570132,-0.010601,0.000289,0.000459,-0.000019,-0.000674,0.000005,0.003193,0.006496,0.137291,0.029059,0.175876,0.175874,0.170659,0.890861,0.000000,0.000000,0.000000,0.000000,0.000000,0.000000,0.000000,0.000000,0.000000,0.000000,0.000000,0.000000,0.133416,3,0
550000,-0.006484,13.999748,0.004616,-0.037204,25.117184,0.001155,-0.001329,0.003820,1.570125,-0.011384,0.000313,0.000432,-0.000021,-0.000739,0.000005,0.007856,0.006680,0.220137,0.007682,0.176049,0.176046,0.170461,0.884243,0.000000,0.000000,0.000000,0.000000,0.000000,0.000000,0.000000,0.000000,0.000000,0.000000,0.000000,0.000000,0.213776,3,0
560000,-0.006662,14.255651,0.003502,-0.037607,25.123863,-0.000226,-0.001339,0.004039,1.570100,-0.011973,0.000338,0.000579,-0.000023,-0.000789,0.000005,0.004473,0.006863,0.161302,-0.039795,0.176278,0.176276,0.170315,0.877486,0.000000,0.000000,0.000000,0.000000,0.000000,0.000000,0.000000,0.000000,0.000000,0.000000,0.000000,0.000000,0.156704,3,0
570000,-0.006839,14.511701,0.003865,-0.038116,25.130693,0.000575,-0.001357,0.004264,1.570092,-0.012587,0.000364,0.000530,-0.000025,-0.000841,0.000006,0.004372,0.007047,0.163758,0.012677,0.176560,0.176558,0.170216,0.870599,0.000000,0.000000,0.000000,0.000000,0.000000,0.000000,0.000000,0.000000,0.000000,0.000000,0.000000,0.000000,0.159086,3,0
580000,-0.007016,14.768482,0.003025,-0.038602,25.138773,-0.000592,-0.001364,0.004521,1.570084,-0.013301,0.000391,0.000647,-0.000027,-0.000904,0.000006,0.005746,0.007229,0.185946,-0.029918,0.176890,0.176887,0.170159,0.863588,0.000000,0.000000,0.000000,0.000000,0.000000,0.000000,0.000000,0.000000,0.000000,0.000000,0.000000,0.000000,0.180600,3,0
590000,-0.007192,15.027165,0.002246,-0.039119,25.149948,-0.001437,-0.001374,0.004883,1.570059,-0.014273,0.000420,0.000757,-0.000030,-0.000991,0.000007,0.010011,0.007411,0.247145,-0.027482,0.177262,0.177259,0.170139,0.856461,0.000000,0.000000,0.000000,0.000000,0.000000,0.000000,0.000000,0.000000,0.000000,0.000000,0.000000,0.000000,0.239951,3,0
600000,-0.007366,15.285967,0.002608,-0.039555,25.161280,-0.000889,-0.001396,0.005245,1.570042,-0.015267,0.000451,0.000703,-0.000033,-0.001082,0.000007,0.009886,0.007591,0.246776,0.013146,0.177673,0.177670,0.170153,0.849226,0.000000,0.000000,0.000000,0.000000,0.000000,0.000000,0.000000,0.000000,0.000000,0.000000,0.000000,0.000000,0.239581,3,0
610000,-0.007540,15.545475,0.002477,-0.040000,25.173639,-0.000867,-0.001410,0.005661,1.570026,-0.016362,0.000482,0.000721,-0.000036,-0.001184,0.000008,0.011470,0.007770,0.266165,-0.004521,0.178117,0.178114,0.170197,0.841892,0.000000,0.000000,0.000000,0.000000,0.000000,0.000000,0.000000,0.000000,0.000000,0.000000,0.000000,0.000000,0.258374,3,0
620000,-0.007711,15.802727,0.003514,-0.040474,25.182268,0.000908,-0.001422,0.005950,1.570011,-0.017142,0.000516,0.000564,-0.000039,-0.001258,0.000009,0.005788,0.007948,0.185442,0.036624,0.178592,0.178589,0.170266,0.834465,0.000000,0.000000,0.000000,0.000000,0.000000,0.000000,0.000000,0.000000,0.000000,0.000000,0.000000,0.000000,0.180087,3,0
630000,-0.007883,16.058922,0.002193,-0.040930,25.188948,-0.000981,-0.001443,0.006192,1.569998,-0.017773,0.000550,0.000770,-0.000042,-0.001318,0.000009,0.003851,0.008125,0.146774,-0.046943,0.179094,0.179091,0.170357,0.826954,0.000000,0.000000,0.000000,0.000000,0.000000,0.000000,0.000000,0.000000,0.000000,0.000000,0.000000,0.000000,0.142613,3,0
640000,-0.008053,16.316454,0.001453,-0.041393,25.197851,-0.001848,-0.001457,0.006519,1.569977,-0.018599,0.000586,0.000886,-0.000046,-0.001400,0.000010,0.005876,0.008301,0.188694,-0.025897,0.179619,0.179616,0.170467,0.819368,0.000000,0.000000,0.000000,0.000000,0.000000,0.000000,0.000000,0.000000,0.000000,0.000000,0.000000,0.000000,0.183223,3,0
650000,-0.008220,16.576506,0.002529,-0.041756,25.210993,-0.000257,-0.001470,0.006974,1.569947,-0.019801,0.000624,0.000710,-0.000049,-0.001520,0.000010,0.011949,0.008475,0.269014,0.038324,0.180164,0.180161,0.170593,0.811714,0.000000,0.000000,0.000000,0.000000,0.000000,0.000000,0.000000,0.000000,0.000000,0.000000,0.000000,0.000000,0.261066,3,0
660000,-0.008385,16.834866,0.002069,-0.042071,25.221233,-0.000908,-0.001479,0.007348,1.569934,-0.020746,0.000663,0.000786,-0.000053,-0.001617,0.000011,0.007023,0.008645,0.207621,-0.016224,0.180725,0.180722,0.170731,0.804000,0.000000,0.000000,0.000000,0.000000,0.000000,0.000000,0.000000,0.000000,0.000000,0.000000,0.000000,0.000000,0.201541,3,0
670000,-0.008548,17.093946,0.001562,-0.042438,25.232527,-0.001629,-0.001481,0.007766,1.569905,-0.021801,0.000704,0.000870,-0.000058,-0.001727,0.000012,0.008426,0.008814,0.227461,-0.017658,0.181301,0.181297,0.170879,0.796235,0.000000,0.000000,0.000000,0.000000,0.000000,0.000000,0.000000,0.000000,0.000000,0.000000,0.000000,0.000000,0.220754,3,0
680000,-0.008709,17.350126,0.000825,-0.042844,25.238773,-0.002735,-0.001479,0.008011,1.569893,-0.022402,0.000746,0.000993,-0.000062,-0.001790,0.000012,0.002736,0.008981,0.127300,-0.025352,0.181887,0.181883,0.171035,0.788426,0.000000,0.000000,0.000000,0.000000,0.000000,0.000000,0.000000,0.000000,0.000000,0.000000,0.000000,0.000000,0.123749,3,0
690000,-0.008867,17.607056,0.001152,-0.043170,25.246311,-0.002005,-0.001477,0.008303,1.569883,-0.023118,0.000790,0.000932,-0.000067,-0.001867,0.000013,0.003643,0.009146,0.149361,0.012221,0.182482,0.182478,0.171196,0.780582,0.000000,0.000000,0.000000,0.000000,0.000000,0.000000,0.000000,0.000000,0.000000,0.000000,0.000000,0.000000,0.145089,3,0
700000,-0.009023,17.864119,0.001978,-0.043560,25.253963,-0.000503,-0.001473,0.008615,1.569874,-0.023853,0.000835,0.000783,-0.000072,-0.001948,0.000013,0.003828,0.009308,0.150782,0.029426,0.183083,0.183079,0.171359,0.772710,0.000000,0.000000,0.000000,0.000000,0.000000,0.000000,0.000000,0.000000,0.000000,0.000000,0.000000,0.000000,0.146457,3,0
710000,-0.009179,18.121313,0.001398,-0.043954,25.261889,-0.001350,-0.001488,0.008934,1.569848,-0.024606,0.000881,0.000887,-0.000077,-0.002032,0.000014,0.003817,0.009468,0.152067,-0.020240,0.183688,0.183684,0.171524,0.764818,0.000000,0.000000,0.000000,0.000000,0.000000,0.000000,0.000000,0.000000,0.000000,0.000000,0.000000,0.000000,0.147697,3,0
720000,-0.009329,18.381081,0.002600,-0.044189,25.274195,0.000559,-0.001491,0.009419,1.569823,-0.025776,0.000930,0.000665,-0.000083,-0.002165,0.000015,0.009054,0.009626,0.232735,0.042260,0.184295,0.184291,0.171688,0.756913,0.000000,0.000000,0.000000,0.000000,0.000000,0.000000,0.000000,0.000000,0.000000,0.000000,0.000000,0.000000,0.225779,3,0
730000,-0.009478,18.639727,0.003597,-0.044551,25.284431,0.002047,-0.001487,0.009835,1.569798,-0.026753,0.000979,0.000481,-0.000089,-0.002279,0.000016,0.006132,0.009780,0.191509,0.034437,0.184902,0.184898,0.171849,0.749004,0.000000,0.000000,0.000000,0.000000,0.000000,0.000000,0.000000,0.000000,0.000000,0.000000,0.000000,0.000000,0.185848,3,0
740000,-0.009624,18.900326,0.003867,-0.044780,25.297888,0.002446,-0.001483,0.010369,1.569776,-0.028050,0.001030,0.000434,-0.000095,-0.002431,0.000017,0.010189,0.009931,0.250826,0.008459,0.185507,0.185503,0.172006,0.741095,0.000000,0.000000,0.000000,0.000000,0.000000,0.000000,0.000000,0.000000,0.000000,0.000000,0.000000,0.000000,0.243261,3,0
750000,-0.009769,19.160397,0.003180,-0.045102,25.310202,0.001664,-0.001476,0.010872,1.569745,-0.029250,0.001083,0.000572,-0.000101,-0.002575,0.000018,0.008561,0.010081,0.228640,-0.025094,0.186109,0.186105,0.172157,0.733196,0.000000,0.000000,0.000000,0.000000,0.000000,0.000000,0.000000,0.000000,0.000000,0.000000,0.000000,0.000000,0.221763,3,0
760000,-0.009911,19.418703,0.002088,-0.045418,25.319307,-0.000054,-0.001478,0.011250,1.569731,-0.030138,0.001137,0.000788,-0.000107,-0.002682,0.000018,0.004776,0.010228,0.167233,-0.038730,0.186706,0.186702,0.172301,0.725312,0.000000,0.000000,0.000000,0.000000,0.000000,0.000000,0.000000,0.000000,0.000000,0.000000,0.000000,0.000000,0.162332,3,0
770000,-0.010049,19.679602,0.002270,-0.045637,25.332876,0.000380,-0.001471,0.011808,1.569717,-0.031466,0.001192,0.000753,-0.000114,-0.002847,0.000019,0.009856,0.010373,0.246777,0.006051,0.187297,0.187293,0.172438,0.717451,0.000000,0.000000,0.000000,0.000000,0.000000,0.000000,0.000000,0.000000,0.000000,0.000000,0.000000,0.000000,0.239284,3,0
780000,-0.010186,19.941824,0.001647,-0.045969,25.348696,-0.000523,-0.001476,0.012479,1.569698,-0.033011,0.001249,0.000879,-0.000121,-0.003041,0.000021,0.013112,0.010515,0.283924,-0.022082,0.187881,0.187876,0.172565,0.709617,0.000000,0.000000,0.000000,0.000000,0.000000,0.000000,0.000000,0.000000,0.000000,0.000000,0.000000,0.000000,0.275223,3,0
790000,-0.010321,20.202858,0.000375,-0.046233,25.362173,-0.002174,-0.001473,0.013054,1.569678,-0.034334,0.001307,0.001137,-0.000128,-0.003210,0.000022,0.009651,0.010654,0.240211,-0.044332,0.188456,0.188452,0.172682,0.701818,0.000000,0.000000,0.000000,0.000000,0.000000,0.000000,0.000000,0.000000,0.000000,0.000000,0.000000,0.000000,0.232897,3,0
800000,-0.010450,20.460209,0.001194,-0.046380,25.369110,-0.000691,-0.001469,0.013362,1.569662,-0.034992,0.001367,0.000964,-0.000136,-0.003296,0.000023,0.002410,0.010791,0.118195,0.028999,0.189022,0.189018,0.172789,0.694059,0.000000,0.000000,0.000000,0.000000,0.000000,0.000000,0.000000,0.000000,0.000000,0.000000,0.000000,0.000000,0.114946,3,0
810000,-0.010577,20.718298,0.001705,-0.046662,25.377165,0.000014,-0.001457,0.013719,1.569651,-0.035774,0.001428,0.000856,-0.000144,-0.003399,0.000023,0.003193,0.010923,0.139078,0.017863,0.189578,0.189574,0.172884,0.686345,0.000000,0.000000,0.000000,0.000000,0.000000,0.000000,0.000000,0.000000,0.000000,0.000000,0.000000,0.000000,0.135098,3,0
820000,-0.010702,20.980900,0.002841,-0.046898,25.393200,0.001896,-0.001461,0.014414,1.569630,-0.037357,0.001490,0.000617,-0.000153,-0.003612,0.000025,0.012782,0.011053,0.278486,0.039022,0.190123,0.190119,0.172967,0.678683,0.000000,0.000000,0.000000,0.000000,0.000000,0.000000,0.000000,0.000000,0.000000,0.000000,0.000000,0.000000,0.269873,3,0
830000,-0.010825,21.241652,0.001668,-0.047089,25.405643,0.000403,-0.001448,0.014975,1.569602,-0.038588,0.001554,0.000873,-0.000161,-0.003780,0.000026,0.007727,0.011179,0.214514,-0.041661,0.190657,0.190652,0.173037,0.671076,0.000000,0.000000,0.000000,0.000000,0.000000,0.000000,0.000000,0.000000,0.000000,0.000000,0.000000,0.000000,0.207981,3,0
840000,-0.010943,21.501205,0.002557,-0.047246,25.415842,0.001903,-0.001432,0.015433,1.569586,-0.039586,0.001619,0.000682,-0.000171,-0.003919,0.000027,0.004961,0.011304,0.172304,0.030428,0.191179,0.191174,0.173094,0.663529,0.000000,0.000000,0.000000,0.000000,0.000000,0.000000,0.000000,0.000000,0.000000,0.000000,0.000000,0.000000,0.167171,3,0
850000,-0.011058,21.760202,0.003096,-0.047413,25.425003,0.002573,-0.001422,0.015845,1.569574,-0.040470,0.001686,0.000568,-0.000180,-0.004043,0.000028,0.003761,0.011423,0.151194,0.017884,0.191688,0.191683,0.173138,0.656048,0.000000,0.000000,0.000000,0.000000,0.000000,0.000000,0.000000,0.000000,0.000000,0.000000,0.000000,0.000000,0.146779,3,0
860000,-0.011171,22.020554,0.003450,-0.047656,25.436338,0.003171,-0.001415,0.016382,1.569552,-0.041591,0.001753,0.000496,-0.000190,-0.004204,0.000029,0.005883,0.011541,0.190292,0.011130,0.192184,0.192180,0.173168,0.648635,0.000000,0.000000,0.000000,0.000000,0.000000,0.000000,0.000000,0.000000,0.000000,0.000000,0.000000,0.000000,0.184535,3,0
870000,-0.011282,22.279055,0.004283,-0.047876,25.444334,0.004503,-0.001414,0.016756,1.569526,-0.042355,0.001822,0.000316,-0.000200,-0.004315,0.000029,0.002813,0.011657,0.128616,0.027571,0.192668,0.192663,0.173184,0.641296,0.000000,0.000000,0.000000,0.000000,0.000000,0.000000,0.000000,0.000000,0.000000,0.000000,0.000000,0.000000,0.124995,3,0
880000,-0.011391,22.542118,0.002891,-0.047939,25.460398,0.002594,-0.001402,0.017508,1.569500,-0.043959,0.001892,0.000642,-0.000210,-0.004552,0.000031,0.011981,0.011768,0.267611,-0.050159,0.193138,0.193133,0.173186,0.634034,0.000000,0.000000,0.000000,0.000000,0.000000,0.000000,0.000000,0.000000,0.000000,0.000000,0.000000,0.000000,0.259249,3,0
890000,-0.011495,22.800081,0.003900,-0.048137,25.467287,0.004246,-0.001388,0.017839,1.569486,-0.044584,0.001963,0.000418,-0.000221,-0.004646,0.000032,0.001945,0.011879,0.103779,0.033844,0.193594,0.193590,0.173173,0.626851,0.000000,0.000000,0.000000,0.000000,0.000000,0.000000,0.000000,0.000000,0.000000,0.000000,0.000000,0.000000,0.101085,3,0
900000,-0.011597,23.061991,0.003953,-0.048308,25.481024,0.004164,-0.001376,0.018505,1.569461,-0.045942,0.002036,0.000415,-0.000232,-0.004854,0.000033,0.008076,0.011985,0.223448,0.000147,0.194037,0.194033,0.173147,0.619753,0.000000,0.000000,0.000000,0.000000,0.000000,0.000000,0.000000,0.000000,0.000000,0.000000,0.000000,0.000000,0.216532,3,0
910000,-0.011698,23.323290,0.002681,-0.048454,25.493357,0.002393,-0.001367,0.019106,1.569441,-0.047167,0.002109,0.000723,-0.000243,-0.005043,0.000035,0.006810,0.012089,0.199947,-0.045807,0.194467,0.194462,0.173106,0.612740,0.000000,0.000000,0.000000,0.000000,0.000000,0.000000,0.000000,0.000000,0.000000,0.000000,0.000000,0.000000,0.193821,3,0
920000,-0.011795,23.584631,0.002361,-0.048493,25.505619,0.002175,-0.001359,0.019719,1.569416,-0.048380,0.002184,0.000804,-0.000255,-0.005234,0.000036,0.006303,0.012190,0.196949,-0.012243,0.194883,0.194879,0.173051,0.605817,0.000000,0.000000,0.000000,0.000000,0.000000,0.000000,0.000000,0.000000,0.000000,0.000000,0.000000,0.000000,0.190916,3,0
930000,-0.011888,23.846010,0.002158,-0.048583,25.517948,0.001891,-0.001335,0.020337,1.569399,-0.049581,0.002259,0.000858,-0.000267,-0.005426,0.000037,0.006098,0.012288,0.193913,-0.008033,0.195286,0.195282,0.172982,0.598984,0.000000,0.000000,0.000000,0.000000,0.000000,0.000000,0.000000,0.000000,0.000000,0.000000,0.000000,0.000000,0.187977,3,0
940000,-0.011978,24.108723,0.001900,-0.048567,25.532526,0.001625,-0.001318,0.021069,1.569375,-0.051018,0.002336,0.000924,-0.000279,-0.005659,0.000039,0.008614,0.012381,0.230589,-0.009948,0.195676,0.195671,0.172899,0.592246,0.000000,0.000000,0.000000,0.000000,0.000000,0.000000,0.000000,0.000000,0.000000,0.000000,0.000000,0.000000,0.223391,3,0
950000,-0.012066,24.371450,0.000622,-0.048683,25.546844,-0.000307,-0.001312,0.021800,1.569357,-0.052436,0.002413,0.001239,-0.000292,-0.005892,0.000040,0.008601,0.012472,0.226156,-0.045174,0.196053,0.196048,0.172802,0.585603,0.000000,0.000000,0.000000,0.000000,0.000000,0.000000,0.000000,0.000000,0.000000,0.000000,0.000000,0.000000,0.219100,3,0
960000,-0.012150,24.632887,-0.000015,-0.048756,25.558643,-0.001210,-0.001301,0.022394,1.569329,-0.053583,0.002492,0.001395,-0.000305,-0.006084,0.000042,0.005443,0.012561,0.181955,-0.022219,0.196417,0.196412,0.172692,0.579058,0.000000,0.000000,0.000000,0.000000,0.000000,0.000000,0.000000,0.000000,0.000000,0.000000,0.000000,0.000000,0.176419,3,0
970000,-0.012230,24.893702,0.000178,-0.048756,25.569298,-0.000798,-0.001283,0.022937,1.569310,-0.054588,0.002571,0.001343,-0.000318,-0.006255,0.000043,0.004106,0.012645,0.158945,0.006887,0.196768,0.196764,0.172568,0.572611,0.000000,0.000000,0.000000,0.000000,0.000000,0.000000,0.000000,0.000000,0.000000,0.000000,0.000000,0.000000,0.154218,3,0
980000,-0.012307,25.153244,0.000262,-0.048722,25.577633,-0.000546,-0.001267,0.023354,1.569298,-0.055330,0.002652,0.001320,-0.000332,-0.006383,0.000044,0.002223,0.012725,0.116692,0.003022,0.197107,0.197103,0.172432,0.566265,0.000000,0.000000,0.000000,0.000000,0.000000,0.000000,0.000000,0.000000,0.000000,0.000000,0.000000,0.000000,0.113527,3,0
990000,-0.012381,25.412838,0.000605,-0.048823,25.585949,-0.000145,-0.001251,0.023772,1.569288,-0.056067,0.002733,0.001230,-0.000347,-0.006512,0.000045,0.002200,0.012803,0.115490,0.012034,0.197435,0.197430,0.172283,0.560021,0.000000,0.000000,0.000000,0.000000,0.000000,0.000000,0.000000,0.000000,0.000000,0.000000,0.000000,0.000000,0.112373,3,0
1000000,-0.012452,25.674444,0.000792,-0.048797,25.597614,0.000335,-0.001231,0.024389,1.569263,-0.057181,0.002815,0.001181,-0.000361,-0.006711,0.000046,0.004906,0.012877,0.173878,0.006287,0.197751,0.197746,0.172121,0.553879,0.000000,0.000000,0.000000,0.000000,0.000000,0.000000,0.000000,0.000000,0.000000,0.000000,0.000000,0.000000,0.168607,3,0
1010000,-0.012519,25.938038,0.001773,-0.048799,25.612621,0.001927,-0.001217,0.025202,1.569247,-0.058661,0.002898,0.000926,-0.000377,-0.006978,0.000048,0.008753,0.012948,0.230215,0.033776,0.198055,0.198051,0.171948,0.547841,0.000000,0.000000,0.000000,0.000000,0.000000,0.000000,0.000000,0.000000,0.000000,0.000000,0.000000,0.000000,0.222966,3,0
1020000,-0.012585,26.200960,0.002244,-0.048911,25.626253,0.002776,-0.001195,0.025930,1.569231,-0.059984,0.002981,0.000807,-0.000392,-0.007221,0.000050,0.006840,0.013016,0.205019,0.015447,0.198350,0.198345,0.171763,0.541907,0.000000,0.000000,0.000000,0.000000,0.000000,0.000000,0.000000,0.000000,0.000000,0.000000,0.000000,0.000000,0.198639,3,0
1030000,-0.012650,26.460585,0.002163,-0.048953,25.634029,0.002783,-0.001168,0.026339,1.569207,-0.060638,0.003065,0.000835,-0.000408,-0.007343,0.000050,0.001674,0.013083,0.100992,-0.003970,0.198633,0.198629,0.171566,0.536078,0.000000,0.000000,0.000000,0.000000,0.000000,0.000000,0.000000,0.000000,0.000000,0.000000,0.000000,0.000000,0.098465,3,0
1040000,-0.012713,26.718933,0.001612,-0.049051,25.639523,0.002173,-0.001144,0.026608,1.569201,-0.061028,0.003151,0.000989,-0.000424,-0.007416,0.000051,0.000674,0.013148,0.059954,-0.020400,0.198907,0.198903,0.171359,0.530354,0.000000,0.000000,0.000000,0.000000,0.000000,0.000000,0.000000,0.000000,0.000000,0.000000,0.000000,0.000000,0.059344,3,0
1050000,-0.012775,26.982616,0.000849,-0.049131,25.654264,0.001053,-0.001130,0.027428,1.569166,-0.062456,0.003236,0.001198,-0.000440,-0.007690,0.000053,0.007882,0.013212,0.219009,-0.027732,0.199172,0.199168,0.171141,0.524735,0.000000,0.000000,0.000000,0.000000,0.000000,0.000000,0.000000,0.000000,0.000000,0.000000,0.000000,0.000000,0.212125,3,0
1060000,-0.012834,27.242975,0.000261,-0.049151,25.662973,0.000412,-0.001109,0.027887,1.569156,-0.063202,0.003322,0.001359,-0.000456,-0.007835,0.000054,0.002203,0.013274,0.114210,-0.021207,0.199428,0.199423,0.170912,0.519221,0.000000,0.000000,0.000000,0.000000,0.000000,0.000000,0.000000,0.000000,0.000000,0.000000,0.000000,0.000000,0.111158,3,0
1070000,-0.012890,27.504683,-0.000209,-0.049148,25.674013,-0.000309,-0.001078,0.028498,1.569141,-0.064198,0.003409,0.001487,-0.000473,-0.008031,0.000055,0.003794,0.013333,0.151947,-0.016825,0.199675,0.199671,0.170674,0.513813,0.000000,0.000000,0.000000,0.000000,0.000000,0.000000,0.000000,0.000000,0.000000,0.000000,0.000000,0.000000,0.147455,3,0
1080000,-0.012941,27.765070,0.000779,-0.049104,25.682507,0.001256,-0.001046,0.028964,1.569123,-0.064909,0.003496,0.001212,-0.000491,-0.008174,0.000056,0.002131,0.013389,0.108797,0.034713,0.199913,0.199909,0.170427,0.508509,0.000000,0.000000,0.000000,0.000000,0.000000,0.000000,0.000000,0.000000,0.000000,0.000000,0.000000,0.000000,0.105964,3,0
1090000,-0.012990,28.024153,0.001610,-0.048970,25.688604,0.002444,-0.001015,0.029286,1.569101,-0.065348,0.003584,0.000983,-0.000509,-0.008264,0.000056,0.000886,0.013439,0.066992,0.028730,0.200144,0.200141,0.170171,0.503310,0.000000,0.000000,0.000000,0.000000,0.000000,0.000000,0.000000,0.000000,0.000000,0.000000,0.000000,0.000000,0.066046,3,0
1100000,-0.013038,28.287920,0.000273,-0.048905,25.702854,0.000547,-0.000989,0.030115,1.569079,-0.066702,0.003672,0.001362,-0.000527,-0.008543,0.000058,0.007204,0.013487,0.205425,-0.048226,0.200368,0.200365,0.169906,0.498216,0.000000,0.000000,0.000000,0.000000,0.000000,0.000000,0.000000,0.000000,0.000000,0.000000,0.000000,0.000000,0.198994,3,0
1110000,-0.013080,28.547005,0.001419,-0.048790,25.708706,0.002095,-0.000950,0.030412,1.569061,-0.067101,0.003761,0.001037,-0.000546,-0.008627,0.000059,0.000887,0.013534,0.060789,0.040247,0.200586,0.200582,0.169633,0.493225,0.000000,0.000000,0.000000,0.000000,0.000000,0.000000,0.000000,0.000000,0.000000,0.000000,0.000000,0.000000,0.060194,3,0
1120000,-0.013123,28.808121,0.001036,-0.048816,25.718060,0.001565,-0.000915,0.030938,1.569048,-0.067891,0.003850,0.001150,-0.000565,-0.008794,0.000060,0.002372,0.013576,0.119709,-0.014427,0.200796,0.200793,0.169352,0.488338,0.000000,0.000000,0.000000,0.000000,0.000000,0.000000,0.000000,0.000000,0.000000,0.000000,0.000000,0.000000,0.116445,3,0
1130000,-0.013161,29.067245,0.001644,-0.048741,25.723957,0.002483,-0.000881,0.031238,1.569027,-0.068268,0.003940,0.000978,-0.000585,-0.008876,0.000060,0.000629,0.013618,0.057285,0.020924,0.201001,0.200997,0.169064,0.483554,0.000000,0.000000,0.000000,0.000000,0.000000,0.000000,0.000000,0.000000,0.000000,0.000000,0.000000,0.000000,0.056909,3,0
1140000,-0.013197,29.328405,0.002646,-0.048721,25.733246,0.003673,-0.000854,0.031774,1.569009,-0.069033,0.004029,0.000691,-0.000605,-0.009044,0.000061,0.002398,0.013657,0.116167,0.034661,0.201201,0.201197,0.168769,0.478871,0.000000,0.000000,0.000000,0.000000,0.000000,0.000000,0.000000,0.000000,0.000000,0.000000,0.000000,0.000000,0.113043,3,0
1150000,-0.013231,29.586901,0.003846,-0.048702,25.737816,0.005436,-0.000810,0.031996,1.568995,-0.069254,0.004119,0.000348,-0.000625,-0.009094,0.000062,0.000491,0.013692,0.033821,0.041333,0.201395,0.201391,0.168467,0.474290,0.000000,0.000000,0.000000,0.000000,0.000000,0.000000,0.000000,0.000000,0.000000,0.000000,0.000000,0.000000,0.035261,3,0
1160000,-0.013264,29.848108,0.003877,-0.048639,25.747057,0.005388,-0.000779,0.032518,1.568984,-0.070003,0.004210,0.000352,-0.000646,-0.009262,0.000063,0.002095,0.013725,0.113222,-0.000939,0.201585,0.201581,0.168159,0.469808,0.000000,0.000000,0.000000,0.000000,0.000000,0.000000,0.000000,0.000000,0.000000,0.000000,0.000000,0.000000,0.110220,3,0
1170000,-0.013293,30.109985,0.004880,-0.048437,25.757494,0.006647,-0.000748,0.033115,1.568972,-0.070862,0.004300,0.000065,-0.000667,-0.009459,0.000064,0.002947,0.013757,0.130224,0.033841,0.201771,0.201767,0.167846,0.465426,0.000000,0.000000,0.000000,0.000000,0.000000,0.000000,0.000000,0.000000,0.000000,0.000000,0.000000,0.000000,0.126545,3,0
1180000,-0.013319,30.369175,0.005958,-0.048385,25.763008,0.008197,-0.000704,0.033391,1.568960,-0.071171,0.004390,-0.000241,-0.000688,-0.009531,0.000064,0.000600,0.013785,0.047155,0.036084,0.201953,0.201949,0.167527,0.461142,0.000000,0.000000,0.000000,0.000000,0.000000,0.000000,0.000000,0.000000,0.000000,0.000000,0.000000,0.000000,0.047475,3,0
1190000,-0.013347,30.628391,0.004655,-0.048241,25.768394,0.006294,-0.000675,0.033665,1.568943,-0.071481,0.004482,0.000179,-0.000709,-0.009603,0.000065,0.000777,0.013810,0.046337,-0.049714,0.202131,0.202127,0.167203,0.456955,0.000000,0.000000,0.000000,0.000000,0.000000,0.000000,0.000000,0.000000,0.000000,0.000000,0.000000,0.000000,0.046724,3,0
1200000,-0.013370,30.888979,0.004729,-0.048086,25.776321,0.006501,-0.000636,0.034107,1.568918,-0.072044,0.004573,0.000173,-0.000731,-0.009738,0.000066,0.001201,0.013836,0.085247,0.000295,0.202307,0.202303,0.166875,0.452864,0.000000,0.000000,0.000000,0.000000,0.000000,0.000000,0.000000,0.000000,0.000000,0.000000,0.000000,0.000000,0.083451,3,0
1210000,-0.013389,31.150913,0.006022,-0.048031,25.786547,0.008317,-0.000590,0.034695,1.568902,-0.072851,0.004663,-0.000211,-0.000753,-0.009934,0.000067,0.002773,0.013858,0.122763,0.044100,0.202480,0.202476,0.166542,0.448868,0.000000,0.000000,0.000000,0.000000,0.000000,0.000000,0.000000,0.000000,0.000000,0.000000,0.000000,0.000000,0.119373,3,0
1220000,-0.013407,31.410147,0.006095,-0.047835,25.791842,0.008236,-0.000556,0.034963,1.568886,-0.073112,0.004755,-0.000209,-0.000776,-0.009998,0.000067,0.000284,0.013875,0.039639,-0.000408,0.202651,0.202647,0.166205,0.444965,0.000000,0.000000,0.000000,0.000000,0.000000,0.000000,0.000000,0.000000,0.000000,0.000000,0.000000,0.000000,0.040578,3,0
1230000,-0.013421,31.669405,0.006721,-0.047647,25.797026,0.008874,-0.000509,0.035222,1.568877,-0.073366,0.004846,-0.000381,-0.000799,-0.010062,0.000068,0.000336,0.013892,0.038776,0.019678,0.202819,0.202815,0.165865,0.441154,0.000000,0.000000,0.000000,0.000000,0.000000,0.000000,0.000000,0.000000,0.000000,0.000000,0.000000,0.000000,0.039797,3,0
1240000,-0.013435,31.933393,0.006281,-0.047514,25.810503,0.008221,-0.000478,0.036071,1.568859,-0.074531,0.004936,-0.000222,-0.000822,-0.010357,0.000070,0.005139,0.013904,0.177046,-0.019226,0.202987,0.202982,0.165521,0.437434,0.000000,0.000000,0.000000,0.000000,0.000000,0.000000,0.000000,0.000000,0.000000,0.000000,0.000000,0.000000,0.171584,3,0
1250000,-0.013447,32.195312,0.006260,-0.047402,25.820162,0.008219,-0.000437,0.036654,1.568843,-0.075265,0.005027,-0.000194,-0.000845,-0.010545,0.000071,0.002043,0.013917,0.111713,-0.003820,0.203152,0.203148,0.165175,0.433804,0.000000,0.000000,0.000000,0.000000,0.000000,0.000000,0.000000,0.000000,0.000000,0.000000,0.000000,0.000000,0.108764,3,0
1260000,-0.013456,32.456535,0.006201,-0.047286,25.828499,0.008066,-0.000398,0.037126,1.568829,-0.075844,0.005118,-0.000152,-0.000869,-0.010696,0.000072,0.001289,0.013928,0.088242,-0.005187,0.203317,0.203313,0.164826,0.430263,0.000000,0.000000,0.000000,0.000000,0.000000,0.000000,0.000000,0.000000,0.000000,0.000000,0.000000,0.000000,0.086306,3,0
1270000,-0.013462,32.719769,0.007004,-0.047145,25.840271,0.008933,-0.000352,0.037863,1.568799,-0.076790,0.005208,-0.000394,-0.000893,-0.010946,0.000074,0.003529,0.013936,0.144997,0.026362,0.203481,0.203477,0.164475,0.426808,0.000000,0.000000,0.000000,0.000000,0.000000,0.000000,0.000000,0.000000,0.000000,0.000000,0.000000,0.000000,0.140725,3,0
1280000,-0.013469,32.978233,0.005725,-0.046889,25.843628,0.007414,-0.000298,0.037974,1.568786,-0.076800,0.005300,0.000054,-0.000917,-0.010948,0.000073,0.000439,0.013939,0.000919,-0.050117,0.203645,0.203640,0.164122,0.423439,0.000000,0.000000,0.000000,0.000000,0.000000,0.000000,0.000000,0.000000,0.000000,0.000000,0.000000,0.000000,0.013498,3,0
1290000,-0.013470,33.241459,0.006094,-0.046665,25.855227,0.007719,-0.000255,0.038694,1.568767,-0.077711,0.005390,-0.000051,-0.000941,-0.011196,0.000075,0.003206,0.013944,0.139999,0.010833,0.203809,0.203804,0.163767,0.420154,0.000000,0.000000,0.000000,0.000000,0.000000,0.000000,0.000000,0.000000,0.000000,0.000000,0.000000,0.000000,0.135912,3,0
1300000,-0.013470,33.504639,0.005348,-0.046431,25.866728,0.006778,-0.000208,0.039407,1.568757,-0.078591,0.005480,0.000214,-0.000966,-0.011438,0.000077,0.003117,0.013942,0.135082,-0.030238,0.203972,0.203967,0.163411,0.416952,0.000000,0.000000,0.000000,0.000000,0.000000,0.000000,0.000000,0.000000,0.000000,0.000000,0.000000,0.000000,0.131183,3,0
1310000,-0.013468,33.763035,0.005058,-0.046269,25.869610,0.006244,-0.000160,0.039478,1.568757,-0.078534,0.005570,0.000335,-0.000991,-0.011422,0.000077,0.000072,0.013941,-0.008938,-0.013181,0.204136,0.204131,0.163054,0.413832,0.000000,0.000000,0.000000,0.000000,0.000000,0.000000,0.000000,0.000000,0.000000,0.000000,0.000000,0.000000,0.015997,3,0
1320000,-0.013462,34.022137,0.005320,-0.046087,25.873634,0.006523,-0.000105,0.039648,1.568750,-0.078604,0.005660,0.000268,-0.001016,-0.011442,0.000076,0.000059,0.013937,0.010941,0.007329,0.204301,0.204295,0.162696,0.410791,0.000000,0.000000,0.000000,0.000000,0.000000,0.000000,0.000000,0.000000,0.000000,0.000000,0.000000,0.000000,0.017114,3,0
1330000,-0.013455,34.283287,0.005334,-0.045923,25.881304,0.006273,-0.000057,0.040083,1.568728,-0.079054,0.005750,0.000280,-0.001042,-0.011572,0.000077,0.000818,0.013930,0.069862,-0.001803,0.204466,0.204460,0.162337,0.407828,0.000000,0.000000,0.000000,0.000000,0.000000,0.000000,0.000000,0.000000,0.000000,0.000000,0.000000,0.000000,0.068810,3,0
1340000,-0.013449,34.545101,0.004151,-0.045763,25.890049,0.004715,-0.000001,0.040596,1.568708,-0.079617,0.005839,0.000700,-0.001067,-0.011736,0.000078,0.001593,0.013921,0.086937,-0.046124,0.204632,0.204625,0.161978,0.404943,0.000000,0.000000,0.000000,0.000000,0.000000,0.000000,0.000000,0.000000,0.000000,0.000000,0.000000,0.000000,0.085039,3,0
1350000,-0.013441,34.806206,0.003016,-0.045576,25.897419,0.003386,0.000043,0.041004,1.568694,-0.080027,0.005928,0.001104,-0.001093,-0.011857,0.000079,0.000994,0.013913,0.063583,-0.043890,0.204798,0.204792,0.161619,0.402133,0.000000,0.000000,0.000000,0.000000,0.000000,0.000000,0.000000,0.000000,0.000000,0.000000,0.000000,0.000000,0.062866,3,0
1360000,-0.013429,35.065937,0.002763,-0.045348,25.902321,0.003047,0.000105,0.041225,1.568693,-0.080163,0.006017,0.001203,-0.001120,-0.011898,0.000079,0.000121,0.013903,0.021072,-0.010694,0.204967,0.204960,0.161260,0.399398,0.000000,0.000000,0.000000,0.000000,0.000000,0.000000,0.000000,0.000000,0.000000,0.000000,0.000000,0.000000,0.024382,3,0
1370000,-0.013412,35.324310,0.003649,-0.045177,25.904760,0.004058,0.000163,0.041246,1.568686,-0.080033,0.006105,0.000905,-0.001147,-0.011858,0.000079,0.000260,0.013889,-0.020042,0.031874,0.205136,0.205129,0.160902,0.396735,0.000000,0.000000,0.000000,0.000000,0.000000,0.000000,0.000000,0.000000,0.000000,0.000000,0.000000,0.000000,0.023548,3,0
1380000,-0.013393,35.588150,0.004470,-0.044830,25.916912,0.005000,0.000211,0.042022,1.568673,-0.080908,0.006191,0.000618,-0.001174,-0.012130,0.000081,0.003281,0.013869,0.139019,0.029319,0.205307,0.205299,0.160544,0.394143,0.000000,0.000000,0.000000,0.000000,0.000000,0.000000,0.000000,0.000000,0.000000,0.000000,0.000000,0.000000,0.134928,3,0
1390000,-0.013370,35.851242,0.005663,-0.044507,25.927515,0.006520,0.000274,0.042688,1.568650,-0.081619,0.006277,0.000202,-0.001202,-0.012353,0.000082,0.002407,0.013846,0.113605,0.042904,0.205479,0.205471,0.160187,0.391621,0.000000,0.000000,0.000000,0.000000,0.000000,0.000000,0.000000,0.000000,0.000000,0.000000,0.000000,0.000000,0.110530,3,0
1400000,-0.013348,36.112923,0.005753,-0.044319,25.935545,0.006452,0.000326,0.043151,1.568644,-0.082051,0.006363,0.000186,-0.001230,-0.012491,0.000083,0.000799,0.013821,0.069073,0.001020,0.205653,0.205645,0.159832,0.389167,0.000000,0.000000,0.000000,0.000000,0.000000,0.000000,0.000000,0.000000,0.000000,0.000000,0.000000,0.000000,0.068026,3,0
1410000,-0.013321,36.373890,0.006901,-0.044030,25.942205,0.007614,0.000382,0.043500,1.568632,-0.082333,0.006448,-0.000209,-0.001258,-0.012583,0.000084,0.000640,0.013796,0.045856,0.040869,0.205829,0.205820,0.159477,0.386781,0.000000,0.000000,0.000000,0.000000,0.000000,0.000000,0.000000,0.000000,0.000000,0.000000,0.000000,0.000000,0.046245,3,0
1420000,-0.013292,36.634834,0.007864,-0.043729,25.948694,0.008824,0.000447,0.043844,1.568617,-0.082598,0.006533,-0.000535,-0.001287,-0.012670,0.000084,0.000513,0.013767,0.043251,0.033446,0.206006,0.205997,0.159124,0.384459,0.000000,0.000000,0.000000,0.000000,0.000000,0.000000,0.000000,0.000000,0.000000,0.000000,0.000000,0.000000,0.043831,3,0
1430000,-0.013262,36.897804,0.008199,-0.043384,25.958778,0.009214,0.000514,0.044466,1.568606,-0.083216,0.006617,-0.000635,-0.001315,-0.012876,0.000086,0.001664,0.013734,0.100304,0.009432,0.206185,0.206176,0.158772,0.382202,0.000000,0.000000,0.000000,0.000000,0.000000,0.000000,0.000000,0.000000,0.000000,0.000000,0.000000,0.000000,0.097763,3,0
1440000,-0.013232,37.157307,0.007275,-0.043061,25.962450,0.007885,0.000568,0.044577,1.568603,-0.083198,0.006701,-0.000260,-0.001343,-0.012869,0.000085,0.000273,0.013701,-0.003738,-0.038487,0.206366,0.206357,0.158422,0.380007,0.000000,0.000000,0.000000,0.000000,0.000000,0.000000,0.000000,0.000000,0.000000,0.000000,0.000000,0.000000,0.013716,3,0
1450000,-0.013202,37.418175,0.006036,-0.042871,25.968525,0.006262,0.000619,0.044888,1.568583,-0.083416,0.006786,0.000226,-0.001370,-0.012943,0.000086,0.000631,0.013669,0.034908,-0.049964,0.206549,0.206539,0.158074,0.377873,0.000000,0.000000,0.000000,0.000000,0.000000,0.000000,0.000000,0.000000,0.000000,0.000000,0.000000,0.000000,0.036196,3,0
1460000,-0.013164,37.680382,0.006833,-0.042502,25.976974,0.007305,0.000689,0.045393,1.568578,-0.083851,0.006867,-0.000056,-0.001400,-0.013095,0.000087,0.000995,0.013635,0.072163,0.027999,0.206734,0.206724,0.157728,0.375799,0.000000,0.000000,0.000000,0.000000,0.000000,0.000000,0.000000,0.000000,0.000000,0.000000,0.000000,0.000000,0.070912,3,0
1470000,-0.013124,37.938435,0.007270,-0.042164,25.977877,0.007985,0.000753,0.045251,1.568571,-0.083542,0.006949,-0.000185,-0.001429,-0.012986,0.000086,0.000478,0.013594,-0.050980,0.013634,0.206921,0.206910,0.157385,0.373784,0.000000,0.000000,0.000000,0.000000,0.000000,0.000000,0.000000,0.000000,0.000000,0.000000,0.000000,0.000000,0.050941,3,0
1480000,-0.013085,38.199940,0.006470,-0.041769,25.984962,0.007097,0.000821,0.045626,1.568551,-0.083839,0.007031,0.000143,-0.001457,-0.013092,0.000086,0.000596,0.013550,0.048782,-0.033599,0.207110,0.207098,0.157044,0.371826,0.000000,0.000000,0.000000,0.000000,0.000000,0.000000,0.000000,0.000000,0.000000,0.000000,0.000000,0.000000,0.048880,3,0
1490000,-0.013044,38.457977,0.005305,-0.041480,25.985714,0.005665,0.000889,0.045471,1.568543,-0.083524,0.007113,0.000623,-0.001486,-0.012977,0.000085,0.000861,0.013508,-0.053764,-0.047501,0.207301,0.207289,0.156705,0.369924,0.000000,0.000000,0.000000,0.000000,0.000000,0.000000,0.000000,0.000000,0.000000,0.000000,0.000000,0.000000,0.053524,3,0
1500000,-0.013002,38.720154,0.004002,-0.041143,25.993826,0.004116,0.000946,0.045941,1.568526,-0.083920,0.007193,0.001137,-0.001514,-0.013123,0.000086,0.001168,0.013464,0.065891,-0.052058,0.207494,0.207481,0.156369,0.368075,0.000000,0.000000,0.000000,0.000000,0.000000,0.000000,0.000000,0.000000,0.000000,0.000000,0.000000,0.000000,0.064925,3,0
1510000,-0.012956,38.979534,0.002939,-0.040798,25.996832,0.002880,0.001006,0.045988,1.568511,-0.083822,0.007273,0.001568,-0.001543,-0.013086,0.000086,0.000372,0.013418,-0.017456,-0.042587,0.207688,0.207675,0.156035,0.366279,0.000000,0.000000,0.000000,0.000000,0.000000,0.000000,0.000000,0.000000,0.000000,0.000000,0.000000,0.000000,0.021261,3,0
1520000,-0.012908,39.243042,0.002028,-0.040418,26.007282,0.001695,0.001063,0.046655,1.568499,-0.084415,0.007352,0.001918,-0.001572,-0.013311,0.000087,0.001873,0.013369,0.100830,-0.035883,0.207885,0.207871,0.155705,0.364535,0.000000,0.000000,0.000000,0.000000,0.000000,0.000000,0.000000,0.000000,0.000000,0.000000,0.000000,0.000000,0.098184,3,0
1530000,-0.012858,39.506481,0.000888,-0.040058,26.017588,0.000194,0.001117,0.047314,1.568473,-0.084975,0.007429,0.002357,-0.001601,-0.013526,0.000089,0.001820,0.013317,0.095642,-0.044368,0.208083,0.208068,0.155377,0.362842,0.000000,0.000000,0.000000,0.000000,0.000000,0.000000,0.000000,0.000000,0.000000,0.000000,0.000000,0.000000,0.093211,3,0
1540000,-0.012804,39.766392,0.001090,-0.039800,26.021255,0.000271,0.001191,0.047395,1.568474,-0.084923,0.007505,0.002279,-0.001631,-0.013506,0.000089,0.000051,0.013265,-0.008869,0.007770,0.208283,0.208267,0.155053,0.361198,0.000000,0.000000,0.000000,0.000000,0.000000,0.000000,0.000000,0.000000,0.000000,0.000000,0.000000,0.000000,0.015402,3,0
1550000,-0.012746,40.026279,0.001963,-0.039492,26.024828,0.001228,0.001256,0.047467,1.568473,-0.084860,0.007580,0.001937,-0.001661,-0.013481,0.000088,0.000230,0.013207,-0.010387,0.033694,0.208484,0.208467,0.154732,0.359602,0.000000,0.000000,0.000000,0.000000,0.000000,0.000000,0.000000,0.000000,0.000000,0.000000,0.000000,0.000000,0.016214,3,0
1560000,-0.012687,40.286156,0.002451,-0.039128,26.028297,0.001749,0.001320,0.047541,1.568471,-0.084790,0.007654,0.001749,-0.001692,-0.013453,0.000088,0.000106,0.013145,-0.011887,0.018430,0.208686,0.208669,0.154414,0.358052,0.000000,0.000000,0.000000,0.000000,0.000000,0.000000,0.000000,0.000000,0.000000,0.000000,0.000000,0.000000,0.017104,3,0
1570000,-0.012630,40.549480,0.001319,-0.038694,26.038139,0.000390,0.001380,0.048145,1.568454,-0.085279,0.007728,0.002197,-0.001721,-0.013653,0.000089,0.001538,0.013082,0.086025,-0.044432,0.208890,0.208872,0.154099,0.356548,0.000000,0.000000,0.000000,0.000000,0.000000,0.000000,0.000000,0.000000,0.000000,0.000000,0.000000,0.000000,0.083982,3,0
1580000,-0.012566,40.807877,0.002040,-0.038345,26.038673,0.001185,0.001457,0.047961,1.568449,-0.084952,0.007800,0.001918,-0.001752,-0.013517,0.000088,0.000695,0.013022,-0.058128,0.027697,0.209095,0.209076,0.153788,0.355087,0.000000,0.000000,0.000000,0.000000,0.000000,0.000000,0.000000,0.000000,0.000000,0.000000,0.000000,0.000000,0.057489,3,0
1590000,-0.012503,41.069748,0.001413,-0.037888,26.045555,0.000500,0.001514,0.048325,1.568437,-0.085183,0.007872,0.002172,-0.001782,-0.013615,0.000089,0.000402,0.012953,0.041294,-0.024859,0.209302,0.209282,0.153480,0.353668,0.000000,0.000000,0.000000,0.000000,0.000000,0.000000,0.000000,0.000000,0.000000,0.000000,0.000000,0.000000,0.041767,3,0
1600000,-0.012435,41.328785,0.002086,-0.037525,26.047251,0.001365,0.001575,0.048224,1.568434,-0.084951,0.007942,0.001907,-0.001812,-0.013516,0.000088,0.000416,0.012886,-0.041737,0.025920,0.209509,0.209488,0.153176,0.352293,0.000000,0.000000,0.000000,0.000000,0.000000,0.000000,0.000000,0.000000,0.000000,0.000000,0.000000,0.000000,0.042151,3,0
1610000,-0.012364,41.590595,0.003190,-0.037163,26.054028,0.002558,0.001652,0.048560,1.568413,-0.085148,0.008010,0.001452,-0.001843,-0.013601,0.000088,0.000548,0.012815,0.037148,0.042969,0.209717,0.209696,0.152876,0.350958,0.000000,0.000000,0.000000,0.000000,0.000000,0.000000,0.000000,0.000000,0.000000,0.000000,0.000000,0.000000,0.037926,3,0
1620000,-0.012295,41.848186,0.002728,-0.036726,26.052803,0.002149,0.001729,0.048211,1.568404,-0.084691,0.008080,0.001673,-0.001873,-0.013399,0.000087,0.001267,0.012739,-0.085575,-0.019716,0.209926,0.209904,0.152579,0.349660,0.000000,0.000000,0.000000,0.000000,0.000000,0.000000,0.000000,0.000000,0.000000,0.000000,0.000000,0.000000,0.083495,3,0
1630000,-0.012221,42.109264,0.003529,-0.036411,26.057999,0.003167,0.001801,0.048426,1.568400,-0.084765,0.008146,0.001346,-0.001904,-0.013433,0.000087,0.000214,0.012667,0.014664,0.030741,0.210136,0.210112,0.152286,0.348402,0.000000,0.000000,0.000000,0.000000,0.000000,0.000000,0.000000,0.000000,0.000000,0.000000,0.000000,0.000000,0.018702,3,0
1640000,-0.012150,42.371704,0.003147,-0.036081,26.065630,0.002667,0.001871,0.048862,1.568396,-0.085039,0.008213,0.001509,-0.001934,-0.013558,0.000088,0.000498,0.012590,0.051720,-0.016075,0.210346,0.210322,0.151996,0.347180,0.000000,0.000000,0.000000,0.000000,0.000000,0.000000,0.000000,0.000000,0.000000,0.000000,0.000000,0.000000,0.051362,3,0
1650000,-0.012074,42.634075,0.003545,-0.035604,26.073057,0.003169,0.001936,0.049270,1.568383,-0.085286,0.008277,0.001343,-0.001965,-0.013672,0.000089,0.000426,0.012514,0.047630,0.014871,0.210557,0.210531,0.151711,0.345994,0.000000,0.000000,0.000000,0.000000,0.000000,0.000000,0.000000,0.000000,0.000000,0.000000,0.000000,0.000000,0.047519,3,0
1660000,-0.011999,42.896389,0.002548,-0.035119,26.080332,0.001718,0.001996,0.049656,1.568370,-0.085516,0.008342,0.001769,-0.001994,-0.013781,0.000089,0.000596,0.012433,0.043610,-0.040434,0.210768,0.210741,0.151429,0.344844,0.000000,0.000000,0.000000,0.000000,0.000000,0.000000,0.000000,0.000000,0.000000,0.000000,0.000000,0.000000,0.043750,3,0
1670000,-0.011918,43.157230,0.003079,-0.034655,26.084707,0.002291,0.002065,0.049788,1.568370,-0.085513,0.008405,0.001551,-0.002025,-0.013779,0.000089,0.000092,0.012354,-0.000111,0.020397,0.210979,0.210951,0.151151,0.343726,0.000000,0.000000,0.000000,0.000000,0.000000,0.000000,0.000000,0.000000,0.000000,0.000000,0.000000,0.000000,0.011918,3,0
1680000,-0.011838,43.418736,0.002601,-0.034267,26.090405,0.001656,0.002137,0.050029,1.568362,-0.085603,0.008467,0.001762,-0.002054,-0.013823,0.000089,0.000136,0.012269,0.017311,-0.019841,0.211189,0.211161,0.150877,0.342643,0.000000,0.000000,0.000000,0.000000,0.000000,0.000000,0.000000,0.000000,0.000000,0.000000,0.000000,0.000000,0.020468,3,0
1690000,-0.011754,43.681580,0.003271,-0.033934,26.098328,0.002306,0.002209,0.050474,1.568346,-0.085870,0.008527,0.001468,-0.002085,-0.013955,0.000090,0.000605,0.012185,0.053932,0.026388,0.211400,0.211371,0.150608,0.341591,0.000000,0.000000,0.000000,0.000000,0.000000,0.000000,0.000000,0.000000,0.000000,0.000000,0.000000,0.000000,0.053347,3,0
1700000,-0.011668,43.940842,0.004070,-0.033497,26.099546,0.003291,0.002271,0.050313,1.568335,-0.085619,0.008586,0.001145,-0.002116,-0.013829,0.000089,0.000577,0.012097,-0.049961,0.030588,0.211610,0.211580,0.150342,0.340569,0.000000,0.000000,0.000000,0.000000,0.000000,0.000000,0.000000,0.000000,0.000000,0.000000,0.000000,0.000000,0.049587,3,0
1710000,-0.011586,44.200096,0.002839,-0.033036,26.100758,0.001713,0.002331,0.050150,1.568324,-0.085378,0.008647,0.001710,-0.002145,-0.013705,0.000088,0.000860,0.012006,-0.050808,-0.050910,0.211820,0.211788,0.150080,0.339577,0.000000,0.000000,0.000000,0.000000,0.000000,0.000000,0.000000,0.000000,0.000000,0.000000,0.000000,0.000000,0.050373,3,0
1720000,-0.011496,44.460018,0.003956,-0.032676,26.103142,0.003076,0.002399,0.050092,1.568310,-0.085219,0.008703,0.001238,-0.002175,-0.013623,0.000088,0.000496,0.011921,-0.031769,0.043757,0.212029,0.211996,0.149822,0.338613,0.000000,0.000000,0.000000,0.000000,0.000000,0.000000,0.000000,0.000000,0.000000,0.000000,0.000000,0.000000,0.032725,3,0
