time_us,pos_x,pos_y,pos_z,vel_x,vel_y,vel_z,roll,pitch,yaw,bias_ax,bias_ay,bias_az,bias_gx,bias_gy,bias_gz,nis,innov_x,innov_y,innov_z,cov_pos_x,cov_pos_y,cov_pos_z,cov_yaw,des_speed,des_heading,des_climb,pid_speed,pid_yaw,pid_alt,speed_meas,yaw_meas,climb_meas,fwd_accel,yaw_rate,vert_accel,drift_m,nav_mode,mission_state
0,-0.000004,0.149996,0.000004,-0.000715,24.999369,0.000907,0.000001,0.000005,1.570812,0.000000,0.000000,0.000000,0.000000,0.000000,0.000000,0.006250,0.000007,-0.249996,-0.000009,2.400038,2.400038,3.600017,1.000518,0.000000,0.000000,0.000000,0.000000,0.000000,0.000000,0.000000,0.000000,0.000000,0.000000,0.000000,0.000000,0.149996,1,0
10000,-0.000013,0.353858,-0.006464,-0.001452,24.998753,0.001639,0.000003,0.000020,1.570829,0.000000,0.000000,0.000000,0.000000,0.000000,0.000000,0.003134,0.000019,-0.161440,-0.017291,1.714420,1.714420,2.250079,1.001073,0.000000,0.000000,0.000000,0.000000,0.000000,0.000000,0.000000,0.000000,0.000000,0.000000,0.000000,0.000000,0.115311,3,0
20000,-0.000028,0.571250,-0.006612,-0.002205,24.997913,0.002572,-0.000002,0.000015,1.570834,0.000002,0.000000,0.000000,-0.000000,0.000000,-0.000000,0.002787,0.000035,-0.146626,-0.000637,1.333616,1.333616,1.636554,1.001655,0.000000,0.000000,0.000000,0.000000,0.000000,0.000000,0.000000,0.000000,0.000000,0.000000,0.000000,0.000000,0.114035,3,0
30000,-0.000046,0.798404,-0.010233,-0.002834,24.997007,0.003467,-0.000005,0.000025,1.570844,0.000004,0.000000,0.000000,0.000000,0.000000,-0.000000,0.002184,0.000056,-0.125463,-0.017056,1.091392,1.091392,1.286065,1.002257,0.000000,0.000000,0.000000,0.000000,0.000000,0.000000,0.000000,0.000000,0.000000,0.000000,0.000000,0.000000,0.102641,3,0
40000,-0.000069,1.046113,-0.007230,-0.003590,24.996670,0.004358,-0.000003,0.000033,1.570854,0.000004,0.000000,-0.000000,-0.000000,0.000000,-0.000000,0.000069,0.000082,-0.014667,0.016766,0.923811,0.923811,1.059385,1.002869,0.000000,0.000000,0.000000,0.000000,0.000000,0.000000,0.000000,0.000000,0.000000,0.000000,0.000000,0.000000,0.012409,3,0
50000,-0.000096,1.290242,-0.014447,-0.004160,24.996155,0.004781,0.000003,0.000028,1.570869,0.000006,0.000000,0.000002,0.000000,0.000000,-0.000000,0.000608,0.000111,-0.043705,-0.048404,0.801036,0.801036,0.900822,1.003484,0.000000,0.000000,0.000000,0.000000,0.000000,0.000000,0.000000,0.000000,0.000000,0.000000,0.000000,0.000000,0.037870,3,0
60000,-0.000128,1.536734,-0.012734,-0.004906,24.995649,0.005699,-0.000005,0.000030,1.570888,0.000008,0.000000,0.000001,-0.000000,0.000000,-0.000000,0.000150,0.000145,-0.029402,0.012678,0.707270,0.707270,0.783741,1.004094,0.000000,0.000000,0.000000,0.000000,0.000000,0.000000,0.000000,0.000000,0.000000,0.000000,0.000000,0.000000,0.025937,3,0
70000,-0.000164,1.784844,-0.017850,-0.005589,24.995255,0.006176,-0.000010,0.000030,1.570890,0.000009,0.000000,0.000005,0.000000,0.000000,-0.000000,0.000341,0.000184,-0.017464,-0.044802,0.633370,0.633370,0.693801,1.004688,0.000000,0.000000,0.000000,0.000000,0.000000,0.000000,0.000000,0.000000,0.000000,0.000000,0.000000,0.000000,0.015622,3,0
80000,-0.000205,2.028408,-0.018043,-0.006179,24.994297,0.006823,-0.000022,0.000034,1.570898,0.000016,0.000000,0.000005,-0.000000,0.000000,-0.000000,0.000673,0.000226,-0.066780,-0.002515,0.573673,0.573673,0.622594,1.005260,0.000000,0.000000,0.000000,0.000000,0.000000,0.000000,0.000000,0.000000,0.000000,0.000000,0.000000,0.000000,0.060395,3,0
90000,-0.000249,2.272072,-0.021815,-0.006801,24.993380,0.007125,-0.000025,0.000044,1.570908,0.000025,0.000000,0.000010,-0.000000,0.000000,-0.000000,0.001036,0.000273,-0.071788,-0.040860,0.524488,0.524488,0.564865,1.005801,0.000000,0.000000,0.000000,0.000000,0.000000,0.000000,0.000000,0.000000,0.000000,0.000000,0.000000,0.000000,0.065513,3,0
100000,-0.000297,2.530219,-0.018394,-0.007442,24.993904,0.008249,-0.000033,0.000055,1.570914,0.000010,0.000000,0.000004,-0.000000,0.000000,-0.000000,0.001824,0.000323,0.102015,0.038772,0.483304,0.483304,0.517162,1.006301,0.000000,0.000000,0.000000,0.000000,0.000000,0.000000,0.000000,0.000000,0.000000,0.000000,0.000000,0.000000,0.093799,3,0
110000,-0.000350,2.783341,-0.020243,-0.008102,24.993986,0.008803,-0.000039,0.000058,1.570920,0.000002,0.000000,0.000008,-0.000000,-0.000000,0.000000,0.000372,0.000378,0.042652,-0.024392,0.448354,0.448354,0.477121,1.006754,0.000000,0.000000,0.000000,0.000000,0.000000,0.000000,0.000000,0.000000,0.000000,0.000000,0.000000,0.000000,0.039466,3,0
120000,-0.000407,3.032463,-0.017518,-0.008790,24.993418,0.009904,-0.000035,0.000064,1.570939,0.000004,0.000000,0.000001,-0.000000,-0.000000,0.000000,0.000217,0.000438,-0.011682,0.035614,0.418359,0.418359,0.443071,1.007150,0.000000,0.000000,0.000000,0.000000,0.000000,0.000000,0.000000,0.000000,0.000000,0.000000,0.000000,0.000000,0.010875,3,0
130000,-0.000470,3.286138,-0.019331,-0.009521,24.993765,0.010506,-0.000043,0.000073,1.570940,-0.000010,0.000000,0.000008,-0.000000,-0.000000,0.000000,0.000631,0.000503,0.057265,-0.027858,0.392370,0.392370,0.413797,1.007481,0.000000,0.000000,0.000000,0.000000,0.000000,0.000000,0.000000,0.000000,0.000000,0.000000,0.000000,0.000000,0.053522,3,0
140000,-0.000536,3.542342,-0.015533,-0.010130,24.994682,0.012019,-0.000049,0.000079,1.570956,-0.000040,0.000001,-0.000009,-0.000000,-0.000001,0.000000,0.002125,0.000571,0.101770,0.056933,0.369667,0.369667,0.388393,1.007739,0.000000,0.000000,0.000000,0.000000,0.000000,0.000000,0.000000,0.000000,0.000000,0.000000,0.000000,0.000000,0.095501,3,0
150000,-0.000606,3.793710,-0.013157,-0.010742,24.994610,0.013435,-0.000046,0.000091,1.570967,-0.000049,0.000001,-0.000021,-0.000000,-0.000001,0.000000,0.000306,0.000643,0.024468,0.036802,0.349696,0.349696,0.366172,1.007915,0.000000,0.000000,0.000000,0.000000,0.000000,0.000000,0.000000,0.000000,0.000000,0.000000,0.000000,0.000000,0.023050,3,0
160000,-0.000679,4.043198,-0.011324,-0.011313,24.994146,0.014615,-0.000046,0.000098,1.570968,-0.000046,0.000001,-0.000032,-0.000000,-0.000001,0.000000,0.000145,0.000719,-0.008233,0.029281,0.332022,0.332022,0.346600,1.008002,0.000000,0.000000,0.000000,0.000000,0.000000,0.000000,0.000000,0.000000,0.000000,0.000000,0.000000,0.000000,0.007807,3,0
170000,-0.000757,4.299460,-0.013415,-0.011927,24.995562,0.014594,-0.000056,0.000127,1.570977,-0.000097,0.000001,-0.000015,-0.000000,-0.000002,0.000000,0.002536,0.000799,0.119985,-0.040887,0.316299,0.316299,0.329260,1.007991,0.000000,0.000000,0.000000,0.000000,0.000000,0.000000,0.000000,0.000000,0.000000,0.000000,0.000000,0.000000,0.113662,3,0
180000,-0.000838,4.552559,-0.011923,-0.012556,24.996153,0.015712,-0.000050,0.000148,1.570990,-0.000127,0.000002,-0.000026,-0.000000,-0.000003,0.000000,0.000722,0.000882,0.062498,0.025600,0.302248,0.302248,0.313817,1.007875,0.000000,0.000000,0.000000,0.000000,0.000000,0.000000,0.000000,0.000000,0.000000,0.000000,0.000000,0.000000,0.059355,3,0
190000,-0.000924,4.803873,-0.009422,-0.013241,24.996374,0.017274,-0.000060,0.000166,1.571000,-0.000141,0.000002,-0.000051,-0.000000,-0.000003,0.000000,0.000471,0.000971,0.028059,0.046716,0.289643,0.289643,0.300003,1.007646,0.000000,0.000000,0.000000,0.000000,0.000000,0.000000,0.000000,0.000000,0.000000,0.000000,0.000000,0.000000,0.026720,3,0
200000,-0.001014,5.053621,-0.007969,-0.013915,24.996006,0.018584,-0.000060,0.000168,1.571005,-0.000139,0.000003,-0.000066,-0.000000,-0.000003,0.000000,0.000115,0.001063,-0.004589,0.026543,0.278298,0.278298,0.287598,1.007296,0.000000,0.000000,0.000000,0.000000,0.000000,0.000000,0.000000,0.000000,0.000000,0.000000,0.000000,0.000000,0.004492,3,0
210000,-0.001108,5.309978,-0.006303,-0.014587,24.998484,0.019724,-0.000066,0.000194,1.571016,-0.000230,0.000004,-0.000086,-0.000000,-0.000006,0.000000,0.003430,0.001160,0.143244,0.031991,0.268057,0.268057,0.276421,1.006817,0.000000,0.000000,0.000000,0.000000,0.000000,0.000000,0.000000,0.000000,0.000000,0.000000,0.000000,0.000000,0.136849,3,0
220000,-0.001206,5.567083,-0.007126,-0.015213,25.001354,0.020096,-0.000063,0.000236,1.571019,-0.000346,0.000005,-0.000070,-0.000000,-0.000010,0.000000,0.004436,0.001260,0.165169,-0.023150,0.258791,0.258791,0.266321,1.006204,0.000000,0.000000,0.000000,0.000000,0.000000,0.000000,0.000000,0.000000,0.000000,0.000000,0.000000,0.000000,0.158049,3,0
230000,-0.001308,5.817404,-0.008647,-0.015889,25.001242,0.020163,-0.000059,0.000251,1.571023,-0.000352,0.000006,-0.000040,-0.000000,-0.000010,0.000000,0.000269,0.001365,0.007429,-0.040373,0.250390,0.250390,0.257172,1.005448,0.000000,0.000000,0.000000,0.000000,0.000000,0.000000,0.000000,0.000000,0.000000,0.000000,0.000000,0.000000,0.007238,3,0
240000,-0.001415,6.071258,-0.007979,-0.016587,25.002869,0.020972,-0.000066,0.000281,1.571032,-0.000430,0.000007,-0.000049,-0.000000,-0.000012,0.000000,0.001465,0.001474,0.095052,0.011096,0.242761,0.242761,0.248866,1.004543,0.000000,0.000000,0.000000,0.000000,0.000000,0.000000,0.000000,0.000000,0.000000,0.000000,0.000000,0.000000,0.091218,3,0
250000,-0.001524,6.324418,-0.009554,-0.017144,25.004419,0.020794,-0.000062,0.000305,1.571050,-0.000501,0.000008,-0.000010,-0.000000,-0.000015,0.000000,0.001336,0.001587,0.079728,-0.044564,0.235825,0.235825,0.241314,1.003482,0.000000,0.000000,0.000000,0.000000,0.000000,0.000000,0.000000,0.000000,0.000000,0.000000,0.000000,0.000000,0.076609,3,0
260000,-0.001636,6.576188,-0.009030,-0.017672,25.005043,0.021891,-0.000063,0.000318,1.571066,-0.000545,0.000010,-0.000017,-0.000000,-0.000017,0.000000,0.000338,0.001701,0.045221,0.007836,0.229512,0.229512,0.234436,1.002261,0.000000,0.000000,0.000000,0.000000,0.000000,0.000000,0.000000,0.000000,0.000000,0.000000,0.000000,0.000000,0.043522,3,0
270000,-0.001752,6.831134,-0.008410,-0.018311,25.007807,0.022770,-0.000066,0.000359,1.571068,-0.000680,0.000012,-0.000028,-0.000000,-0.000022,0.000000,0.002788,0.001820,0.131387,0.010398,0.223763,0.223763,0.228165,1.000871,0.000000,0.000000,0.000000,0.000000,0.000000,0.000000,0.000000,0.000000,0.000000,0.000000,0.000000,0.000000,0.126499,3,0
280000,-0.001870,7.087567,-0.008777,-0.018860,25.011795,0.023044,-0.000061,0.000435,1.571085,-0.000873,0.000014,-0.000010,-0.000000,-0.000030,0.000000,0.004939,0.001941,0.174597,-0.016243,0.218526,0.218526,0.222443,0.999310,0.000000,0.000000,0.000000,0.000000,0.000000,0.000000,0.000000,0.000000,0.000000,0.000000,0.000000,0.000000,0.168248,3,0
290000,-0.001992,7.339723,-0.008115,-0.019519,25.013052,0.024025,-0.000070,0.000457,1.571094,-0.000940,0.000016,-0.000024,-0.000001,-0.000032,0.000000,0.000550,0.002066,0.057274,0.011744,0.213756,0.213756,0.217219,0.997570,0.000000,0.000000,0.000000,0.000000,0.000000,0.000000,0.000000,0.000000,0.000000,0.000000,0.000000,0.000000,0.055270,3,0
300000,-0.002118,7.596231,-0.007114,-0.020173,25.017630,0.025271,-0.000063,0.000541,1.571096,-0.001170,0.000019,-0.000050,-0.000001,-0.000042,0.000000,0.005449,0.002195,0.182806,0.021270,0.209412,0.209412,0.212446,0.995648,0.000000,0.000000,0.000000,0.000000,0.000000,0.000000,0.000000,0.000000,0.000000,0.000000,0.000000,0.000000,0.176438,3,0
310000,-0.002246,7.853408,-0.008499,-0.020717,25.022928,0.024730,-0.000061,0.000642,1.571099,-0.001443,0.000022,0.000012,-0.000001,-0.000055,0.000000,0.007098,0.002326,0.204558,-0.047404,0.205459,0.205459,0.208087,0.993539,0.000000,0.000000,0.000000,0.000000,0.000000,0.000000,0.000000,0.000000,0.000000,0.000000,0.000000,0.000000,0.197566,3,0
320000,-0.002378,8.107880,-0.009094,-0.021382,25.026152,0.024827,-0.000053,0.000710,1.571111,-0.001622,0.000026,0.000048,-0.000001,-0.000063,0.000000,0.002668,0.002461,0.126239,-0.025003,0.201864,0.201865,0.204105,0.991240,0.000000,0.000000,0.000000,0.000000,0.000000,0.000000,0.000000,0.000000,0.000000,0.000000,0.000000,0.000000,0.122015,3,0
330000,-0.002512,8.360473,-0.008795,-0.021893,25.027931,0.025536,-0.000049,0.000750,1.571124,-0.001727,0.000030,0.000046,-0.000001,-0.000068,0.000000,0.000803,0.002598,0.070522,0.001308,0.198601,0.198601,0.200469,0.988747,0.000000,0.000000,0.000000,0.000000,0.000000,0.000000,0.000000,0.000000,0.000000,0.000000,0.000000,0.000000,0.068234,3,0
340000,-0.002649,8.616479,-0.009973,-0.022513,25.032949,0.025061,-0.000052,0.000851,1.571126,-0.002005,0.000034,0.000114,-0.000001,-0.000082,0.000001,0.005290,0.002738,0.175732,-0.043838,0.195643,0.195643,0.197151,0.986057,0.000000,0.000000,0.000000,0.000000,0.000000,0.000000,0.000000,0.000000,0.000000,0.000000,0.000000,0.000000,0.170023,3,0
350000,-0.002788,8.869338,-0.010344,-0.023163,25.035219,0.025272,-0.000051,0.000900,1.571133,-0.002137,0.000039,0.000147,-0.000002,-0.000088,0.000001,0.001061,0.002881,0.078705,-0.019439,0.192967,0.192968,0.194125,0.983167,0.000000,0.000000,0.000000,0.000000,0.000000,0.000000,0.000000,0.000000,0.000000,0.000000,0.000000,0.000000,0.076225,3,0
360000,-0.002930,9.122363,-0.011143,-0.023641,25.037609,0.025180,-0.000052,0.000948,1.571137,-0.002284,0.000044,0.000205,-0.000002,-0.000096,0.000001,0.001326,0.003026,0.084251,-0.033267,0.190553,0.190554,0.191370,0.980077,0.000000,0.000000,0.000000,0.000000,0.000000,0.000000,0.000000,0.000000,0.000000,0.000000,0.000000,0.000000,0.081628,3,0
370000,-0.003073,9.378672,-0.011336,-0.024213,25.043526,0.025671,-0.000061,0.001058,1.571136,-0.002633,0.000050,0.000231,-0.000002,-0.000115,0.000001,0.005803,0.003173,0.189022,-0.014426,0.188382,0.188382,0.188863,0.976783,0.000000,0.000000,0.000000,0.000000,0.000000,0.000000,0.000000,0.000000,0.000000,0.000000,0.000000,0.000000,0.183113,3,0
380000,-0.003218,9.633806,-0.010582,-0.024689,25.048370,0.026755,-0.000070,0.001165,1.571141,-0.002925,0.000057,0.000201,-0.000003,-0.000131,0.000001,0.003740,0.003321,0.151322,0.015797,0.186436,0.186436,0.186586,0.973286,0.000000,0.000000,0.000000,0.000000,0.000000,0.000000,0.000000,0.000000,0.000000,0.000000,0.000000,0.000000,0.146656,3,0
390000,-0.003365,9.887821,-0.009503,-0.025253,25.052008,0.028437,-0.000073,0.001250,1.571137,-0.003158,0.000064,0.000148,-0.000003,-0.000144,0.000001,0.002241,0.003472,0.114808,0.026092,0.184700,0.184700,0.184522,0.969585,0.000000,0.000000,0.000000,0.000000,0.000000,0.000000,0.000000,0.000000,0.000000,0.000000,0.000000,0.000000,0.111325,3,0
400000,-0.003513,10.144405,-0.008512,-0.025761,25.058815,0.029869,-0.000063,0.001402,1.571144,-0.003578,0.000072,0.000099,-0.000003,-0.000169,0.000001,0.006467,0.003624,0.198696,0.022984,0.183159,0.183159,0.182656,0.965680,0.000000,0.000000,0.000000,0.000000,0.000000,0.000000,0.000000,0.000000,0.000000,0.000000,0.000000,0.000000,0.192663,3,0
410000,-0.003663,10.400464,-0.007210,-0.026302,25.065083,0.031802,-0.000056,0.001550,1.571154,-0.003977,0.000080,0.000027,-0.000004,-0.000193,0.000001,0.005449,0.003778,0.180592,0.032955,0.181799,0.181799,0.180971,0.961571,0.000000,0.000000,0.000000,0.000000,0.000000,0.000000,0.000000,0.000000,0.000000,0.000000,0.000000,0.000000,0.175158,3,0
420000,-0.003815,10.654823,-0.007095,-0.026910,25.069469,0.032213,-0.000046,0.001646,1.571167,-0.004261,0.000089,0.000043,-0.000005,-0.000210,0.000001,0.002466,0.003934,0.123259,-0.006987,0.180608,0.180609,0.179456,0.957260,0.000000,0.000000,0.000000,0.000000,0.000000,0.000000,0.000000,0.000000,0.000000,0.000000,0.000000,0.000000,0.119610,3,0
430000,-0.003969,10.912300,-0.005930,-0.027467,25.077734,0.033809,-0.000049,0.001844,1.571161,-0.004805,0.000099,-0.000025,-0.000005,-0.000245,0.000002,0.008438,0.004091,0.226677,0.028147,0.179575,0.179576,0.178097,0.952748,0.000000,0.000000,0.000000,0.000000,0.000000,0.000000,0.000000,0.000000,0.000000,0.000000,0.000000,0.000000,0.219928,3,0
440000,-0.004124,11.165708,-0.005598,-0.028006,25.080914,0.034646,-0.000055,0.001934,1.571172,-0.005025,0.000110,-0.000024,-0.000006,-0.000259,0.000002,0.001266,0.004250,0.088391,-0.000496,0.178689,0.178689,0.176883,0.948038,0.000000,0.000000,0.000000,0.000000,0.000000,0.000000,0.000000,0.000000,0.000000,0.000000,0.000000,0.000000,0.085858,3,0
450000,-0.004280,11.419285,-0.005775,-0.028543,25.084394,0.034902,-0.000058,0.002033,1.571177,-0.005267,0.000121,0.000023,-0.000007,-0.000275,0.000002,0.001467,0.004411,0.093377,-0.018180,0.177939,0.177940,0.175803,0.943132,0.000000,0.000000,0.000000,0.000000,0.000000,0.000000,0.000000,0.000000,0.000000,0.000000,0.000000,0.000000,0.090709,3,0
460000,-0.004438,11.673617,-0.006616,-0.029116,25.088989,0.034150,-0.000064,0.002157,1.571183,-0.005585,0.000133,0.000134,-0.000007,-0.000297,0.000002,0.002531,0.004573,0.118070,-0.041069,0.177317,0.177317,0.174847,0.938033,0.000000,0.000000,0.000000,0.000000,0.000000,0.000000,0.000000,0.000000,0.000000,0.000000,0.000000,0.000000,0.114666,3,0
470000,-0.004597,11.929276,-0.007222,-0.029636,25.095354,0.033565,-0.000069,0.002327,1.571185,-0.006035,0.000147,0.000225,-0.000008,-0.000328,0.000002,0.004417,0.004737,0.161875,-0.032893,0.176813,0.176813,0.174006,0.932745,0.000000,0.000000,0.000000,0.000000,0.000000,0.000000,0.000000,0.000000,0.000000,0.000000,0.000000,0.000000,0.157172,3,0
480000,-0.004757,12.184483,-0.006345,-0.030176,25.101192,0.034896,-0.000070,0.002469,1.571199,-0.006452,0.000161,0.000172,-0.000009,-0.000358,0.000002,0.003446,0.004901,0.144700,0.018515,0.176419,0.176419,0.173271,0.927272,0.000000,0.000000,0.000000,0.000000,0.000000,0.000000,0.000000,0.000000,0.000000,0.000000,0.000000,0.000000,0.140526,3,0
490000,-0.004918,12.438666,-0.006757,-0.030729,25.105591,0.034692,-0.000070,0.002579,1.571196,-0.006774,0.000176,0.000252,-0.000010,-0.000382,0.000003,0.002011,0.005066,0.108103,-0.026750,0.176126,0.176127,0.172634,0.921618,0.000000,0.000000,0.000000,0.000000,0.000000,0.000000,0.000000,0.000000,0.000000,0.000000,0.000000,0.000000,0.105045,3,0
500000,-0.005077,12.697094,-0.005441,-0.031110,25.116102,0.036563,-0.000070,0.002856,1.571201,-0.007547,0.000192,0.000148,-0.000012,-0.000440,0.000003,0.010416,0.005231,0.251453,0.033560,0.175929,0.175929,0.172087,0.915789,0.000000,0.000000,0.000000,0.000000,0.000000,0.000000,0.000000,0.000000,0.000000,0.000000,0.000000,0.000000,0.244133,3,0
510000,-0.005238,12.951543,-0.006603,-0.031598,25.120949,0.035111,-0.000064,0.002988,1.571197,-0.007903,0.000209,0.000319,-0.000013,-0.000467,0.000003,0.002507,0.005396,0.112193,-0.053619,0.175818,0.175819,0.171622,0.909790,0.000000,0.000000,0.000000,0.000000,0.000000,0.000000,0.000000,0.000000,0.000000,0.000000,0.000000,0.000000,0.109032,3,0
520000,-0.005397,13.208485,-0.007725,-0.031952,25.129591,0.033982,-0.000063,0.003228,1.571192,-0.008542,0.000228,0.000490,-0.000014,-0.000517,0.000003,0.006634,0.005560,0.195636,-0.051928,0.175789,0.175790,0.171234,0.903627,0.000000,0.000000,0.000000,0.000000,0.000000,0.000000,0.000000,0.000000,0.000000,0.000000,0.000000,0.000000,0.189981,3,0
530000,-0.005556,13.466139,-0.006461,-0.032398,25.139311,0.036078,-0.000059,0.003493,1.571197,-0.009272,0.000247,0.000380,-0.000016,-0.000575,0.000004,0.007784,0.005724,0.216913,0.032127,0.175835,0.175835,0.170915,0.897305,0.000000,0.000000,0.000000,0.000000,0.000000,0.000000,0.000000,0.000000,0.000000,0.000000,0.000000,0.000000,0.210629,3,0
540000,-0.005714,13.725079,-0.006754,-0.032817,25.150911,0.036035,-0.000059,0.003828,1.571192,-0.010163,0.000268,0.000461,-0.000017,-0.000647,0.000004,0.010808,0.005887,0.257345,-0.023329,0.175948,0.175949,0.170659,0.890831,0.000000,0.000000,0.000000,0.000000,0.000000,0.000000,0.000000,0.000000,0.000000,0.000000,0.000000,0.000000,0.249864,3,0
550000,-0.005871,13.983541,-0.005805,-0.033130,25.161808,0.037421,-0.000063,0.004146,1.571197,-0.011005,0.000289,0.000387,-0.000019,-0.000718,0.000005,0.009148,0.006048,0.236836,0.020470,0.176125,0.176126,0.170460,0.884212,0.000000,0.000000,0.000000,0.000000,0.000000,0.000000,0.000000,0.000000,0.000000,0.000000,0.000000,0.000000,0.229959,3,0
560000,-0.006026,14.238613,-0.005118,-0.033560,25.167433,0.038539,-0.000060,0.004302,1.571208,-0.011434,0.000312,0.000347,-0.000021,-0.000754,0.000005,0.002255,0.006209,0.117415,0.010778,0.176359,0.176360,0.170314,0.877455,0.000000,0.000000,0.000000,0.000000,0.000000,0.000000,0.000000,0.000000,0.000000,0.000000,0.000000,0.000000,0.114123,3,0
570000,-0.006181,14.496183,-0.003844,-0.033981,25.176931,0.040501,-0.000052,0.004584,1.571215,-0.012184,0.000336,0.000229,-0.000023,-0.000819,0.000005,0.006648,0.006369,0.200231,0.031049,0.176646,0.176647,0.170215,0.870567,0.000000,0.000000,0.000000,0.000000,0.000000,0.000000,0.000000,0.000000,0.000000,0.000000,0.000000,0.000000,0.194434,3,0
580000,-0.006336,14.755642,-0.003129,-0.034367,25.189442,0.041675,-0.000049,0.004957,1.571209,-0.013184,0.000361,0.000187,-0.000026,-0.000907,0.000006,0.011012,0.006528,0.260627,0.010641,0.176980,0.176981,0.170158,0.863556,0.000000,0.000000,0.000000,0.000000,0.000000,0.000000,0.000000,0.000000,0.000000,0.000000,0.000000,0.000000,0.253019,3,0
590000,-0.006489,15.012858,-0.002581,-0.034784,25.198307,0.042425,-0.000036,0.005230,1.571209,-0.013892,0.000388,0.000169,-0.000028,-0.000971,0.000006,0.005248,0.006687,0.179954,0.004403,0.177357,0.177357,0.170138,0.856429,0.000000,0.000000,0.000000,0.000000,0.000000,0.000000,0.000000,0.000000,0.000000,0.000000,0.000000,0.000000,0.174755,3,0
600000,-0.006641,15.268441,-0.001931,-0.035199,25.204355,0.043663,-0.000019,0.005420,1.571210,-0.014381,0.000416,0.000138,-0.000031,-0.001016,0.000007,0.002402,0.006844,0.121438,0.007612,0.177772,0.177773,0.170152,0.849194,0.000000,0.000000,0.000000,0.000000,0.000000,0.000000,0.000000,0.000000,0.000000,0.000000,0.000000,0.000000,0.118027,3,0
610000,-0.006791,15.527719,-0.000897,-0.035417,25.216486,0.045370,-0.000009,0.005801,1.571203,-0.015383,0.000445,0.000050,-0.000033,-0.001110,0.000007,0.009665,0.006999,0.243494,0.020722,0.178221,0.178222,0.170196,0.841859,0.000000,0.000000,0.000000,0.000000,0.000000,0.000000,0.000000,0.000000,0.000000,0.000000,0.000000,0.000000,0.236359,3,0
620000,-0.006939,15.785334,-0.002151,-0.035730,25.225767,0.043770,0.000005,0.006102,1.571205,-0.016152,0.000475,0.000310,-0.000036,-0.001184,0.000008,0.006010,0.007152,0.182882,-0.060518,0.178701,0.178702,0.170265,0.834432,0.000000,0.000000,0.000000,0.000000,0.000000,0.000000,0.000000,0.000000,0.000000,0.000000,0.000000,0.000000,0.177572,3,0
630000,-0.007086,16.043671,-0.003144,-0.036103,25.236206,0.042397,0.000015,0.006443,1.571207,-0.017026,0.000506,0.000532,-0.000039,-0.001268,0.000008,0.007119,0.007304,0.203482,-0.050686,0.179208,0.179209,0.170356,0.826921,0.000000,0.000000,0.000000,0.000000,0.000000,0.000000,0.000000,0.000000,0.000000,0.000000,0.000000,0.000000,0.197532,3,0
640000,-0.007231,16.302727,-0.004020,-0.036318,25.247799,0.041160,0.000015,0.006834,1.571210,-0.018004,0.000539,0.000738,-0.000042,-0.001365,0.000009,0.008417,0.007453,0.223345,-0.046059,0.179738,0.179739,0.170466,0.819335,0.000000,0.000000,0.000000,0.000000,0.000000,0.000000,0.000000,0.000000,0.000000,0.000000,0.000000,0.000000,0.216774,3,0
650000,-0.007373,16.563091,-0.004873,-0.036616,25.261517,0.040104,0.000035,0.007302,1.571216,-0.019176,0.000574,0.000943,-0.000045,-0.001484,0.000010,0.011462,0.007600,0.262356,-0.044814,0.180288,0.180289,0.170591,0.811680,0.000000,0.000000,0.000000,0.000000,0.000000,0.000000,0.000000,0.000000,0.000000,0.000000,0.000000,0.000000,0.254580,3,0
660000,-0.007511,16.819962,-0.003323,-0.036791,25.269285,0.042698,0.000041,0.007573,1.571219,-0.019817,0.000609,0.000755,-0.000049,-0.001550,0.000010,0.003483,0.007745,0.141003,0.040037,0.180854,0.180856,0.170729,0.803967,0.000000,0.000000,0.000000,0.000000,0.000000,0.000000,0.000000,0.000000,0.000000,0.000000,0.000000,0.000000,0.136959,3,0
670000,-0.007648,17.076366,-0.004379,-0.037103,25.276093,0.041228,0.000051,0.007812,1.571229,-0.020386,0.000646,0.001004,-0.000053,-0.001609,0.000011,0.002883,0.007886,0.122604,-0.052358,0.181435,0.181436,0.170877,0.796201,0.000000,0.000000,0.000000,0.000000,0.000000,0.000000,0.000000,0.000000,0.000000,0.000000,0.000000,0.000000,0.119142,3,0
680000,-0.007783,17.335928,-0.004316,-0.037377,25.288296,0.041442,0.000066,0.008245,1.571219,-0.021442,0.000684,0.001065,-0.000057,-0.001722,0.000011,0.008141,0.008026,0.223949,-0.012550,0.182026,0.182028,0.171033,0.788393,0.000000,0.000000,0.000000,0.000000,0.000000,0.000000,0.000000,0.000000,0.000000,0.000000,0.000000,0.000000,0.217295,3,0
690000,-0.007915,17.596201,-0.005053,-0.037645,25.301662,0.040274,0.000075,0.008715,1.571216,-0.022605,0.000723,0.001265,-0.000061,-0.001848,0.000012,0.009786,0.008163,0.242569,-0.040585,0.182627,0.182628,0.171194,0.780549,0.000000,0.000000,0.000000,0.000000,0.000000,0.000000,0.000000,0.000000,0.000000,0.000000,0.000000,0.000000,0.235319,3,0
700000,-0.008045,17.855358,-0.004864,-0.037875,25.312899,0.040641,0.000098,0.009125,1.571218,-0.023584,0.000764,0.001303,-0.000065,-0.001956,0.000013,0.006538,0.008298,0.200832,-0.007749,0.183233,0.183234,0.171357,0.772677,0.000000,0.000000,0.000000,0.000000,0.000000,0.000000,0.000000,0.000000,0.000000,0.000000,0.000000,0.000000,0.194864,3,0
710000,-0.008172,18.112186,-0.004897,-0.038088,25.320078,0.040595,0.000108,0.009377,1.571224,-0.024180,0.000806,0.001383,-0.000070,-0.002023,0.000013,0.002396,0.008430,0.120470,-0.015627,0.183843,0.183845,0.171522,0.764786,0.000000,0.000000,0.000000,0.000000,0.000000,0.000000,0.000000,0.000000,0.000000,0.000000,0.000000,0.000000,0.117065,3,0
720000,-0.008298,18.369144,-0.005636,-0.038376,25.327290,0.039467,0.000119,0.009638,1.571234,-0.024794,0.000849,0.001593,-0.000075,-0.002093,0.000014,0.002679,0.008561,0.121998,-0.040254,0.184456,0.184457,0.171686,0.756881,0.000000,0.000000,0.000000,0.000000,0.000000,0.000000,0.000000,0.000000,0.000000,0.000000,0.000000,0.000000,0.118539,3,0
730000,-0.008420,18.626232,-0.005246,-0.038563,25.334808,0.040130,0.000143,0.009922,1.571240,-0.025423,0.000894,0.001595,-0.000080,-0.002167,0.000014,0.002472,0.008688,0.123392,-0.000418,0.185068,0.185069,0.171847,0.748972,0.000000,0.000000,0.000000,0.000000,0.000000,0.000000,0.000000,0.000000,0.000000,0.000000,0.000000,0.000000,0.119883,3,0
740000,-0.008539,18.885292,-0.003757,-0.038695,25.345568,0.042292,0.000156,0.010322,1.571239,-0.026375,0.000939,0.001389,-0.000086,-0.002280,0.000015,0.005728,0.008812,0.184292,0.037710,0.185678,0.185680,0.172004,0.741064,0.000000,0.000000,0.000000,0.000000,0.000000,0.000000,0.000000,0.000000,0.000000,0.000000,0.000000,0.000000,0.178793,3,0
750000,-0.008655,19.147543,-0.002352,-0.038880,25.361904,0.044332,0.000171,0.010960,1.571233,-0.027858,0.000986,0.001201,-0.000091,-0.002458,0.000016,0.013128,0.008933,0.282944,0.033968,0.186285,0.186287,0.172155,0.733166,0.000000,0.000000,0.000000,0.000000,0.000000,0.000000,0.000000,0.000000,0.000000,0.000000,0.000000,0.000000,0.274295,3,0
760000,-0.008769,19.407385,-0.002267,-0.039120,25.373856,0.044690,0.000179,0.011417,1.571237,-0.028916,0.001035,0.001271,-0.000097,-0.002588,0.000017,0.006463,0.009051,0.199438,-0.012818,0.186888,0.186889,0.172299,0.725283,0.000000,0.000000,0.000000,0.000000,0.000000,0.000000,0.000000,0.000000,0.000000,0.000000,0.000000,0.000000,0.193425,3,0
770000,-0.008879,19.667318,-0.000973,-0.039209,25.385801,0.046563,0.000203,0.011884,1.571235,-0.029980,0.001084,0.001103,-0.000104,-0.002720,0.000018,0.006476,0.009166,0.197903,0.029242,0.187484,0.187486,0.172436,0.717421,0.000000,0.000000,0.000000,0.000000,0.000000,0.000000,0.000000,0.000000,0.000000,0.000000,0.000000,0.000000,0.191925,3,0
780000,-0.008988,19.925472,-0.000797,-0.039405,25.394447,0.046850,0.000227,0.012222,1.571234,-0.030723,0.001135,0.001162,-0.000110,-0.002814,0.000019,0.003045,0.009279,0.136639,-0.010356,0.188073,0.188075,0.172563,0.709589,0.000000,0.000000,0.000000,0.000000,0.000000,0.000000,0.000000,0.000000,0.000000,0.000000,0.000000,0.000000,0.132660,3,0
790000,-0.009094,20.184355,-0.000702,-0.039556,25.404150,0.047027,0.000254,0.012618,1.571229,-0.031585,0.001187,0.001238,-0.000117,-0.002926,0.000019,0.004007,0.009389,0.156702,-0.013288,0.188654,0.188655,0.172680,0.701790,0.000000,0.000000,0.000000,0.000000,0.000000,0.000000,0.000000,0.000000,0.000000,0.000000,0.000000,0.000000,0.152048,3,0
800000,-0.009196,20.443333,0.000000,-0.039654,25.414045,0.048153,0.000269,0.013020,1.571239,-0.032454,0.001240,0.001191,-0.000124,-0.003039,0.000020,0.003960,0.009495,0.156149,0.007756,0.189225,0.189227,0.172787,0.694032,0.000000,0.000000,0.000000,0.000000,0.000000,0.000000,0.000000,0.000000,0.000000,0.000000,0.000000,0.000000,0.151503,3,0
810000,-0.009296,20.703032,0.000576,-0.039824,25.425009,0.049054,0.000284,0.013480,1.571231,-0.033440,0.001294,0.001171,-0.000131,-0.003170,0.000021,0.004980,0.009599,0.175377,0.002966,0.189786,0.189788,0.172882,0.686320,0.000000,0.000000,0.000000,0.000000,0.000000,0.000000,0.000000,0.000000,0.000000,0.000000,0.000000,0.000000,0.170085,3,0
820000,-0.009393,20.962183,0.000093,-0.039872,25.434835,0.048202,0.000301,0.013891,1.571232,-0.034315,0.001350,0.001377,-0.000138,-0.003289,0.000022,0.004035,0.009700,0.154116,-0.033993,0.190336,0.190338,0.172965,0.678658,0.000000,0.000000,0.000000,0.000000,0.000000,0.000000,0.000000,0.000000,0.000000,0.000000,0.000000,0.000000,0.149522,3,0
830000,-0.009485,21.223318,0.001169,-0.039908,25.448048,0.049762,0.000324,0.014455,1.571239,-0.035536,0.001406,0.001249,-0.000146,-0.003457,0.000023,0.007398,0.009798,0.212927,0.020313,0.190875,0.190877,0.173035,0.671052,0.000000,0.000000,0.000000,0.000000,0.000000,0.000000,0.000000,0.000000,0.000000,0.000000,0.000000,0.000000,0.206372,3,0
840000,-0.009575,21.482611,0.000842,-0.039904,25.457840,0.049319,0.000354,0.014881,1.571234,-0.036407,0.001464,0.001428,-0.000154,-0.003578,0.000024,0.003803,0.009890,0.150450,-0.028861,0.191401,0.191404,0.173092,0.663507,0.000000,0.000000,0.000000,0.000000,0.000000,0.000000,0.000000,0.000000,0.000000,0.000000,0.000000,0.000000,0.145965,3,0
850000,-0.009662,21.742620,0.001009,-0.039997,25.468849,0.049352,0.000389,0.015350,1.571231,-0.037396,0.001522,0.001498,-0.000162,-0.003719,0.000025,0.004665,0.009981,0.169361,-0.011510,0.191916,0.191918,0.173136,0.656027,0.000000,0.000000,0.000000,0.000000,0.000000,0.000000,0.000000,0.000000,0.000000,0.000000,0.000000,0.000000,0.164229,3,0
860000,-0.009745,22.005251,0.000464,-0.039954,25.484406,0.048682,0.000415,0.016033,1.571228,-0.038852,0.001582,0.001728,-0.000170,-0.003929,0.000026,0.010087,0.010067,0.247183,-0.036330,0.192417,0.192419,0.173166,0.648616,0.000000,0.000000,0.000000,0.000000,0.000000,0.000000,0.000000,0.000000,0.000000,0.000000,0.000000,0.000000,0.239454,3,0
870000,-0.009824,22.265362,0.002017,-0.040036,25.495335,0.050952,0.000447,0.016512,1.571225,-0.039821,0.001643,0.001488,-0.000179,-0.004071,0.000027,0.004536,0.010151,0.163305,0.036687,0.192905,0.192907,0.173182,0.641279,0.000000,0.000000,0.000000,0.000000,0.000000,0.000000,0.000000,0.000000,0.000000,0.000000,0.000000,0.000000,0.158359,3,0
880000,-0.009899,22.524895,0.003374,-0.039961,25.504990,0.052781,0.000478,0.016944,1.571224,-0.040668,0.001704,0.001295,-0.000189,-0.004197,0.000028,0.003390,0.010229,0.141634,0.029117,0.193380,0.193382,0.173183,0.634018,0.000000,0.000000,0.000000,0.000000,0.000000,0.000000,0.000000,0.000000,0.000000,0.000000,0.000000,0.000000,0.137427,3,0
890000,-0.009972,22.783857,0.003447,-0.039961,25.513605,0.052778,0.000511,0.017328,1.571220,-0.041394,0.001766,0.001399,-0.000198,-0.004307,0.000029,0.002402,0.010305,0.120548,-0.015989,0.193841,0.193843,0.173171,0.626837,0.000000,0.000000,0.000000,0.000000,0.000000,0.000000,0.000000,0.000000,0.000000,0.000000,0.000000,0.000000,0.117079,3,0
900000,-0.010042,23.044827,0.002874,-0.039915,25.525629,0.051709,0.000546,0.017863,1.571224,-0.042485,0.001830,0.001653,-0.000208,-0.004474,0.000030,0.005455,0.010377,0.179564,-0.038337,0.194289,0.194291,0.173145,0.619741,0.000000,0.000000,0.000000,0.000000,0.000000,0.000000,0.000000,0.000000,0.000000,0.000000,0.000000,0.000000,0.174038,3,0
910000,-0.010108,23.307779,0.002541,-0.039831,25.541056,0.051280,0.000571,0.018581,1.571217,-0.043931,0.001894,0.001850,-0.000217,-0.004700,0.000031,0.009183,0.010446,0.236534,-0.029750,0.194723,0.194725,0.173104,0.612730,0.000000,0.000000,0.000000,0.000000,0.000000,0.000000,0.000000,0.000000,0.000000,0.000000,0.000000,0.000000,0.229080,3,0
920000,-0.010172,23.568165,0.001943,-0.039849,25.551775,0.050461,0.000608,0.019072,1.571214,-0.044868,0.001959,0.002113,-0.000227,-0.004849,0.000032,0.004004,0.010512,0.152338,-0.038829,0.195144,0.195146,0.173049,0.605809,0.000000,0.000000,0.000000,0.000000,0.000000,0.000000,0.000000,0.000000,0.000000,0.000000,0.000000,0.000000,0.147733,3,0
930000,-0.010232,23.827303,0.001122,-0.039754,25.560125,0.049230,0.000639,0.019453,1.571215,-0.045553,0.002025,0.002430,-0.000238,-0.004959,0.000033,0.002333,0.010575,0.110512,-0.046198,0.195551,0.195553,0.172980,0.598979,0.000000,0.000000,0.000000,0.000000,0.000000,0.000000,0.000000,0.000000,0.000000,0.000000,0.000000,0.000000,0.107399,3,0
940000,-0.010289,24.089754,0.000175,-0.039700,25.574255,0.047980,0.000678,0.020120,1.571220,-0.046855,0.002092,0.002776,-0.000248,-0.005172,0.000035,0.007477,0.010635,0.209108,-0.050251,0.195945,0.195947,0.172897,0.592243,0.000000,0.000000,0.000000,0.000000,0.000000,0.000000,0.000000,0.000000,0.000000,0.000000,0.000000,0.000000,0.202542,3,0
950000,-0.010344,24.350273,-0.000908,-0.039696,25.584736,0.046325,0.000700,0.020612,1.571229,-0.047765,0.002160,0.003156,-0.000259,-0.005323,0.000036,0.003902,0.010692,0.145306,-0.054440,0.196326,0.196328,0.172800,0.585603,0.000000,0.000000,0.000000,0.000000,0.000000,0.000000,0.000000,0.000000,0.000000,0.000000,0.000000,0.000000,0.140931,3,0
960000,-0.010394,24.611485,-0.000865,-0.039645,25.596268,0.046507,0.000737,0.021160,1.571235,-0.048790,0.002228,0.003258,-0.000270,-0.005496,0.000037,0.004337,0.010746,0.162989,-0.014885,0.196694,0.196697,0.172690,0.579060,0.000000,0.000000,0.000000,0.000000,0.000000,0.000000,0.000000,0.000000,0.000000,0.000000,0.000000,0.000000,0.157988,3,0
970000,-0.010443,24.870768,-0.001794,-0.039533,25.604216,0.045066,0.000776,0.021534,1.571236,-0.049426,0.002296,0.003605,-0.000282,-0.005604,0.000037,0.002029,0.010796,0.100452,-0.048667,0.197050,0.197052,0.172567,0.572616,0.000000,0.000000,0.000000,0.000000,0.000000,0.000000,0.000000,0.000000,0.000000,0.000000,0.000000,0.000000,0.097712,3,0
980000,-0.010488,25.130760,-0.002714,-0.039471,25.613462,0.043877,0.000813,0.021970,1.571239,-0.050185,0.002366,0.003949,-0.000293,-0.005736,0.000038,0.002688,0.010844,0.119390,-0.047931,0.197394,0.197396,0.172430,0.566273,0.000000,0.000000,0.000000,0.000000,0.000000,0.000000,0.000000,0.000000,0.000000,0.000000,0.000000,0.000000,0.115939,3,0
990000,-0.010529,25.389488,-0.001811,-0.039375,25.620327,0.045313,0.000855,0.022270,1.571246,-0.050681,0.002435,0.003831,-0.000306,-0.005824,0.000039,0.001040,0.010888,0.077972,0.015876,0.197725,0.197727,0.172281,0.560032,0.000000,0.000000,0.000000,0.000000,0.000000,0.000000,0.000000,0.000000,0.000000,0.000000,0.000000,0.000000,0.076135,3,0
1000000,-0.010567,25.652214,-0.002071,-0.039199,25.634201,0.044835,0.000884,0.022961,1.571248,-0.051941,0.002506,0.004010,-0.000318,-0.006050,0.000040,0.006367,0.010927,0.196875,-0.024984,0.198046,0.198047,0.172120,0.553894,0.000000,0.000000,0.000000,0.000000,0.000000,0.000000,0.000000,0.000000,0.000000,0.000000,0.000000,0.000000,0.190669,3,0
1010000,-0.010601,25.912971,-0.001149,-0.039009,25.644457,0.046014,0.000922,0.023457,1.571254,-0.052793,0.002576,0.003885,-0.000331,-0.006205,0.000041,0.002905,0.010964,0.132801,0.016369,0.198354,0.198356,0.171946,0.547859,0.000000,0.000000,0.000000,0.000000,0.000000,0.000000,0.000000,0.000000,0.000000,0.000000,0.000000,0.000000,0.128847,3,0
1020000,-0.010632,26.177048,-0.000158,-0.038884,25.660288,0.047342,0.000958,0.024270,1.571250,-0.054273,0.002647,0.003741,-0.000344,-0.006478,0.000043,0.008581,0.010996,0.229759,0.018389,0.198652,0.198654,0.171761,0.541928,0.000000,0.000000,0.000000,0.000000,0.000000,0.000000,0.000000,0.000000,0.000000,0.000000,0.000000,0.000000,0.222407,3,0
1030000,-0.010662,26.437807,-0.000648,-0.038818,25.670216,0.046457,0.000985,0.024762,1.571243,-0.055079,0.002719,0.003992,-0.000357,-0.006629,0.000044,0.002704,0.011026,0.124556,-0.033800,0.198940,0.198942,0.171565,0.536102,0.000000,0.000000,0.000000,0.000000,0.000000,0.000000,0.000000,0.000000,0.000000,0.000000,0.000000,0.000000,0.120897,3,0
1040000,-0.010687,26.700571,0.000550,-0.038613,25.683544,0.048186,0.001022,0.025442,1.571238,-0.056257,0.002791,0.003793,-0.000371,-0.006853,0.000046,0.005448,0.011054,0.181761,0.025460,0.199218,0.199219,0.171358,0.530381,0.000000,0.000000,0.000000,0.000000,0.000000,0.000000,0.000000,0.000000,0.000000,0.000000,0.000000,0.000000,0.176051,3,0
1050000,-0.010709,26.963327,0.001109,-0.038432,25.696636,0.048891,0.001058,0.026111,1.571231,-0.057409,0.002863,0.003767,-0.000385,-0.007075,0.000047,0.005085,0.011077,0.177286,0.002554,0.199486,0.199487,0.171140,0.524765,0.000000,0.000000,0.000000,0.000000,0.000000,0.000000,0.000000,0.000000,0.000000,0.000000,0.000000,0.000000,0.171727,3,0
1060000,-0.010729,27.226074,0.001707,-0.038356,25.709593,0.049510,0.001098,0.026786,1.571235,-0.058535,0.002936,0.003732,-0.000399,-0.007296,0.000049,0.004835,0.011099,0.172827,0.003752,0.199745,0.199746,0.170911,0.519255,0.000000,0.000000,0.000000,0.000000,0.000000,0.000000,0.000000,0.000000,0.000000,0.000000,0.000000,0.000000,0.167418,3,0
1070000,-0.010747,27.486162,0.002422,-0.038226,25.717762,0.050580,0.001134,0.027176,1.571232,-0.059115,0.003009,0.003671,-0.000414,-0.007411,0.000049,0.001301,0.011118,0.088858,0.007499,0.199995,0.199996,0.170674,0.513851,0.000000,0.000000,0.000000,0.000000,0.000000,0.000000,0.000000,0.000000,0.000000,0.000000,0.000000,0.000000,0.086565,3,0
1080000,-0.010763,27.747604,0.003214,-0.038050,25.728230,0.051576,0.001176,0.027694,1.571223,-0.059945,0.003082,0.003588,-0.000429,-0.007579,0.000051,0.002629,0.011134,0.126871,0.009931,0.200237,0.200238,0.170426,0.508551,0.000000,0.000000,0.000000,0.000000,0.000000,0.000000,0.000000,0.000000,0.000000,0.000000,0.000000,0.000000,0.123108,3,0
1090000,-0.010777,28.007725,0.001930,-0.037823,25.736229,0.049681,0.001217,0.028069,1.571221,-0.060498,0.003156,0.004088,-0.000443,-0.007692,0.000051,0.001812,0.011147,0.083992,-0.063631,0.200472,0.200472,0.170170,0.503357,0.000000,0.000000,0.000000,0.000000,0.000000,0.000000,0.000000,0.000000,0.000000,0.000000,0.000000,0.000000,0.081897,3,0
1100000,-0.010787,28.271858,0.002376,-0.037664,25.751184,0.050244,0.001268,0.028882,1.571218,-0.061820,0.003230,0.004095,-0.000458,-0.007967,0.000053,0.006561,0.011160,0.201490,-0.001871,0.200699,0.200699,0.169905,0.498266,0.000000,0.000000,0.000000,0.000000,0.000000,0.000000,0.000000,0.000000,0.000000,0.000000,0.000000,0.000000,0.195048,3,0
1110000,-0.010796,28.531960,0.002013,-0.037534,25.758793,0.049715,0.001305,0.029248,1.571228,-0.062323,0.003303,0.004340,-0.000474,-0.008073,0.000054,0.001113,0.011169,0.076359,-0.030822,0.200919,0.200919,0.169632,0.493280,0.000000,0.000000,0.000000,0.000000,0.000000,0.000000,0.000000,0.000000,0.000000,0.000000,0.000000,0.000000,0.074586,3,0
1120000,-0.010802,28.795412,0.002063,-0.037411,25.772236,0.049546,0.001352,0.029975,1.571227,-0.063468,0.003378,0.004460,-0.000489,-0.008319,0.000055,0.004938,0.011177,0.174004,-0.015865,0.201133,0.201133,0.169352,0.488397,0.000000,0.000000,0.000000,0.000000,0.000000,0.000000,0.000000,0.000000,0.000000,0.000000,0.000000,0.000000,0.168518,3,0
1130000,-0.010808,29.054832,0.000824,-0.037179,25.778431,0.047911,0.001391,0.030254,1.571228,-0.063797,0.003452,0.004961,-0.000505,-0.008390,0.000056,0.001034,0.011181,0.049566,-0.061765,0.201341,0.201341,0.169064,0.483617,0.000000,0.000000,0.000000,0.000000,0.000000,0.000000,0.000000,0.000000,0.000000,0.000000,0.000000,0.000000,0.049105,3,0
1140000,-0.010809,29.316950,0.000558,-0.036965,25.789309,0.047488,0.001429,0.030830,1.571223,-0.064642,0.003526,0.005173,-0.000521,-0.008577,0.000057,0.002775,0.011184,0.128027,-0.026578,0.201543,0.201543,0.168769,0.478939,0.000000,0.000000,0.000000,0.000000,0.000000,0.000000,0.000000,0.000000,0.000000,0.000000,0.000000,0.000000,0.124197,3,0
1150000,-0.010809,29.577047,0.000635,-0.036826,25.796421,0.047593,0.001475,0.031170,1.571220,-0.065068,0.003600,0.005288,-0.000537,-0.008672,0.000058,0.000725,0.011184,0.064589,-0.014361,0.201741,0.201740,0.168467,0.474362,0.000000,0.000000,0.000000,0.000000,0.000000,0.000000,0.000000,0.000000,0.000000,0.000000,0.000000,0.000000,0.063345,3,0
1160000,-0.010807,29.841177,-0.000469,-0.036571,25.810572,0.046227,0.001531,0.031980,1.571222,-0.066271,0.003675,0.005748,-0.000553,-0.008946,0.000060,0.005878,0.011181,0.182117,-0.056445,0.201933,0.201933,0.168160,0.469885,0.000000,0.000000,0.000000,0.000000,0.000000,0.000000,0.000000,0.000000,0.000000,0.000000,0.000000,0.000000,0.176317,3,0
1170000,-0.010802,30.100567,-0.000686,-0.036387,25.816143,0.045834,0.001587,0.032214,1.571220,-0.066517,0.003749,0.005951,-0.000570,-0.009002,0.000060,0.000339,0.011177,0.037121,-0.024440,0.202122,0.202121,0.167847,0.465507,0.000000,0.000000,0.000000,0.000000,0.000000,0.000000,0.000000,0.000000,0.000000,0.000000,0.000000,0.000000,0.037461,3,0
1180000,-0.010793,30.364000,0.000828,-0.036273,25.828913,0.047762,0.001636,0.032925,1.571221,-0.067539,0.003823,0.005624,-0.000588,-0.009241,0.000062,0.004139,0.011171,0.155375,0.037795,0.202306,0.202305,0.167528,0.461228,0.000000,0.000000,0.000000,0.000000,0.000000,0.000000,0.000000,0.000000,0.000000,0.000000,0.000000,0.000000,0.150524,3,0
1190000,-0.010783,30.628067,0.001813,-0.036118,25.842669,0.048843,0.001684,0.033708,1.571223,-0.068659,0.003896,0.005459,-0.000605,-0.009506,0.000063,0.004735,0.011161,0.170115,0.018279,0.202488,0.202486,0.167204,0.457046,0.000000,0.000000,0.000000,0.000000,0.000000,0.000000,0.000000,0.000000,0.000000,0.000000,0.000000,0.000000,0.164727,3,0
1200000,-0.010774,30.889399,0.001632,-0.035999,25.851480,0.048558,0.001739,0.034151,1.571226,-0.069218,0.003970,0.005661,-0.000623,-0.009641,0.000064,0.001273,0.011150,0.084820,-0.024172,0.202666,0.202664,0.166876,0.452961,0.000000,0.000000,0.000000,0.000000,0.000000,0.000000,0.000000,0.000000,0.000000,0.000000,0.000000,0.000000,0.082658,3,0
1210000,-0.010763,31.151388,0.001363,-0.035810,25.861231,0.048235,0.001785,0.034661,1.571228,-0.069889,0.004044,0.005888,-0.000641,-0.009805,0.000065,0.001806,0.011139,0.101707,-0.027274,0.202841,0.202839,0.166543,0.448969,0.000000,0.000000,0.000000,0.000000,0.000000,0.000000,0.000000,0.000000,0.000000,0.000000,0.000000,0.000000,0.098856,3,0
1220000,-0.010748,31.409990,0.002514,-0.035522,25.864920,0.049823,0.001831,0.034758,1.571234,-0.069879,0.004117,0.005683,-0.000659,-0.009802,0.000065,0.000113,0.011125,-0.001350,0.023872,0.203014,0.203011,0.166207,0.445072,0.000000,0.000000,0.000000,0.000000,0.000000,0.000000,0.000000,0.000000,0.000000,0.000000,0.000000,0.000000,0.010827,3,0
1230000,-0.010732,31.670645,0.002646,-0.035321,25.872200,0.049839,0.001885,0.035100,1.571235,-0.070260,0.004190,0.005795,-0.000677,-0.009898,0.000066,0.000592,0.011108,0.058071,-0.013356,0.203185,0.203182,0.165867,0.441267,0.000000,0.000000,0.000000,0.000000,0.000000,0.000000,0.000000,0.000000,0.000000,0.000000,0.000000,0.000000,0.057122,3,0
1240000,-0.010714,31.931969,0.003496,-0.035143,25.880583,0.050678,0.001941,0.035531,1.571248,-0.070755,0.004263,0.005679,-0.000696,-0.010024,0.000067,0.000967,0.011090,0.075649,0.012706,0.203355,0.203351,0.165524,0.437553,0.000000,0.000000,0.000000,0.000000,0.000000,0.000000,0.000000,0.000000,0.000000,0.000000,0.000000,0.000000,0.073867,3,0
1250000,-0.010696,32.191933,0.002872,-0.034973,25.886522,0.049762,0.001992,0.035779,1.571259,-0.070973,0.004336,0.006039,-0.000714,-0.010081,0.000067,0.000469,0.011070,0.032906,-0.041200,0.203523,0.203518,0.165177,0.433929,0.000000,0.000000,0.000000,0.000000,0.000000,0.000000,0.000000,0.000000,0.000000,0.000000,0.000000,0.000000,0.033539,3,0
1260000,-0.010675,32.453922,0.003935,-0.034786,25.895796,0.051111,0.002035,0.036285,1.571252,-0.071566,0.004408,0.005851,-0.000733,-0.010236,0.000068,0.001420,0.011051,0.090950,0.020513,0.203690,0.203685,0.164829,0.430392,0.000000,0.000000,0.000000,0.000000,0.000000,0.000000,0.000000,0.000000,0.000000,0.000000,0.000000,0.000000,0.088510,3,0
1270000,-0.010654,32.715210,0.002845,-0.034463,25.903736,0.049679,0.002086,0.036678,1.571250,-0.072009,0.004481,0.006366,-0.000752,-0.010355,0.000069,0.001306,0.011026,0.067417,-0.058525,0.203856,0.203850,0.164478,0.426943,0.000000,0.000000,0.000000,0.000000,0.000000,0.000000,0.000000,0.000000,0.000000,0.000000,0.000000,0.000000,0.065990,3,0
1280000,-0.010629,32.976482,0.002315,-0.034140,25.911661,0.049009,0.002132,0.037063,1.571260,-0.072430,0.004554,0.006698,-0.000771,-0.010469,0.000070,0.000918,0.011002,0.064472,-0.037637,0.204021,0.204015,0.164125,0.423580,0.000000,0.000000,0.000000,0.000000,0.000000,0.000000,0.000000,0.000000,0.000000,0.000000,0.000000,0.000000,0.063179,3,0
1290000,-0.010602,33.237732,0.002480,-0.033904,25.919418,0.049072,0.002191,0.037439,1.571261,-0.072830,0.004625,0.006801,-0.000790,-0.010579,0.000071,0.000652,0.010975,0.061546,-0.011952,0.204187,0.204180,0.163770,0.420300,0.000000,0.000000,0.000000,0.000000,0.000000,0.000000,0.000000,0.000000,0.000000,0.000000,0.000000,0.000000,0.060390,3,0
1300000,-0.010576,33.496937,0.001261,-0.033734,25.923410,0.047582,0.002236,0.037541,1.571261,-0.072827,0.004697,0.007371,-0.000809,-0.010579,0.000071,0.000664,0.010946,-0.000996,-0.063050,0.204352,0.204345,0.163415,0.417104,0.000000,0.000000,0.000000,0.000000,0.000000,0.000000,0.000000,0.000000,0.000000,0.000000,0.000000,0.000000,0.010620,3,0
1310000,-0.010546,33.759541,0.001053,-0.033469,25.933496,0.047315,0.002282,0.038085,1.571260,-0.073458,0.004768,0.007592,-0.000829,-0.010757,0.000072,0.001654,0.010917,0.097580,-0.025137,0.204518,0.204510,0.163058,0.413989,0.000000,0.000000,0.000000,0.000000,0.000000,0.000000,0.000000,0.000000,0.000000,0.000000,0.000000,0.000000,0.094842,3,0
1320000,-0.010516,34.021427,-0.000164,-0.033230,25.942200,0.045706,0.002333,0.038527,1.571270,-0.073935,0.004840,0.008156,-0.000848,-0.010894,0.000073,0.001517,0.010885,0.073421,-0.062351,0.204684,0.204676,0.162700,0.410955,0.000000,0.000000,0.000000,0.000000,0.000000,0.000000,0.000000,0.000000,0.000000,0.000000,0.000000,0.000000,0.071687,3,0
1330000,-0.010482,34.283958,-0.000585,-0.032875,25.951836,0.044976,0.002395,0.039049,1.571272,-0.074512,0.004910,0.008445,-0.000868,-0.011062,0.000074,0.001485,0.010852,0.089756,-0.032331,0.204851,0.204842,0.162342,0.407998,0.000000,0.000000,0.000000,0.000000,0.000000,0.000000,0.000000,0.000000,0.000000,0.000000,0.000000,0.000000,0.087320,3,0
1340000,-0.010444,34.544403,0.000571,-0.032572,25.957630,0.046321,0.002446,0.039285,1.571289,-0.074676,0.004979,0.008202,-0.000889,-0.011110,0.000074,0.000237,0.010815,0.025917,0.026032,0.205018,0.205008,0.161983,0.405118,0.000000,0.000000,0.000000,0.000000,0.000000,0.000000,0.000000,0.000000,0.000000,0.000000,0.000000,0.000000,0.027123,3,0
1350000,-0.010404,34.805511,0.001874,-0.032291,25.964520,0.047768,0.002506,0.039601,1.571289,-0.074952,0.005047,0.007908,-0.000910,-0.011192,0.000075,0.000484,0.010774,0.043720,0.031144,0.205187,0.205176,0.161624,0.402314,0.000000,0.000000,0.000000,0.000000,0.000000,0.000000,0.000000,0.000000,0.000000,0.000000,0.000000,0.000000,0.043491,3,0
1360000,-0.010365,35.065243,0.001650,-0.032085,25.968880,0.047460,0.002569,0.039722,1.571297,-0.074962,0.005116,0.008155,-0.000930,-0.011195,0.000075,0.000131,0.010731,0.001205,-0.026337,0.205356,0.205345,0.161266,0.399584,0.000000,0.000000,0.000000,0.000000,0.000000,0.000000,0.000000,0.000000,0.000000,0.000000,0.000000,0.000000,0.010430,3,0
1370000,-0.010322,35.325649,0.002453,-0.031725,25.974464,0.048239,0.002633,0.039926,1.571296,-0.075086,0.005183,0.008038,-0.000951,-0.011233,0.000075,0.000105,0.010689,0.019737,0.012183,0.205527,0.205514,0.160908,0.396927,0.000000,0.000000,0.000000,0.000000,0.000000,0.000000,0.000000,0.000000,0.000000,0.000000,0.000000,0.000000,0.021677,3,0
1380000,-0.010278,35.585365,0.002652,-0.031404,25.978569,0.048296,0.002695,0.040032,1.571301,-0.075073,0.005250,0.008140,-0.000972,-0.011229,0.000075,0.000038,0.010643,-0.002178,-0.010776,0.205699,0.205686,0.160550,0.394340,0.000000,0.000000,0.000000,0.000000,0.000000,0.000000,0.000000,0.000000,0.000000,0.000000,0.000000,0.000000,0.010492,3,0
1390000,-0.010233,35.847805,0.002785,-0.031155,25.987637,0.048438,0.002757,0.040515,1.571304,-0.075550,0.005317,0.008256,-0.000993,-0.011380,0.000076,0.000975,0.010596,0.076008,-0.013047,0.205872,0.205858,0.160194,0.391824,0.000000,0.000000,0.000000,0.000000,0.000000,0.000000,0.000000,0.000000,0.000000,0.000000,0.000000,0.000000,0.074109,3,0
1400000,-0.010185,36.109509,0.004171,-0.030890,25.995249,0.050220,0.002826,0.040886,1.571311,-0.075872,0.005382,0.007928,-0.001014,-0.011483,0.000077,0.000638,0.010549,0.052021,0.033763,0.206047,0.206032,0.159838,0.389376,0.000000,0.000000,0.000000,0.000000,0.000000,0.000000,0.000000,0.000000,0.000000,0.000000,0.000000,0.000000,0.051262,3,0
1410000,-0.010138,36.367767,0.003747,-0.030542,25.996590,0.049554,0.002875,0.040756,1.571325,-0.075559,0.005448,0.008272,-0.001035,-0.011382,0.000076,0.000634,0.010497,-0.050728,-0.035257,0.206224,0.206208,0.159484,0.386995,0.000000,0.000000,0.000000,0.000000,0.000000,0.000000,0.000000,0.000000,0.000000,0.000000,0.000000,0.000000,0.050026,3,0
1420000,-0.010088,36.629459,0.003439,-0.030160,26.003965,0.049009,0.002940,0.041124,1.571336,-0.075863,0.005514,0.008559,-0.001056,-0.011483,0.000077,0.000550,0.010446,0.048824,-0.030290,0.206402,0.206385,0.159131,0.384678,0.000000,0.000000,0.000000,0.000000,0.000000,0.000000,0.000000,0.000000,0.000000,0.000000,0.000000,0.000000,0.048209,3,0
1430000,-0.010035,36.891792,0.004010,-0.029889,26.012384,0.049686,0.002995,0.041575,1.571333,-0.076264,0.005577,0.008520,-0.001077,-0.011618,0.000078,0.000707,0.010393,0.065365,0.003139,0.206582,0.206564,0.158780,0.382426,0.000000,0.000000,0.000000,0.000000,0.000000,0.000000,0.000000,0.000000,0.000000,0.000000,0.000000,0.000000,0.063907,3,0
1440000,-0.009981,37.154079,0.004208,-0.029554,26.020636,0.049805,0.003062,0.042000,1.571347,-0.076640,0.005641,0.008622,-0.001099,-0.011746,0.000079,0.000644,0.010337,0.061371,-0.011242,0.206764,0.206745,0.158431,0.380236,0.000000,0.000000,0.000000,0.000000,0.000000,0.000000,0.000000,0.000000,0.000000,0.000000,0.000000,0.000000,0.060089,3,0
1450000,-0.009926,37.414940,0.004382,-0.029184,26.026281,0.049977,0.003126,0.042205,1.571363,-0.076748,0.005704,0.008742,-0.001120,-0.011783,0.000079,0.000092,0.010280,0.017670,-0.012454,0.206948,0.206928,0.158083,0.378107,0.000000,0.000000,0.000000,0.000000,0.000000,0.000000,0.000000,0.000000,0.000000,0.000000,0.000000,0.000000,0.019737,3,0
1460000,-0.009866,37.675079,0.005695,-0.028822,26.030537,0.051567,0.003186,0.042306,1.571369,-0.076717,0.005765,0.008441,-0.001142,-0.011772,0.000079,0.000173,0.010220,-0.004700,0.030670,0.207133,0.207112,0.157738,0.376039,0.000000,0.000000,0.000000,0.000000,0.000000,0.000000,0.000000,0.000000,0.000000,0.000000,0.000000,0.000000,0.010857,3,0
1470000,-0.009810,37.933155,0.004619,-0.028571,26.030943,0.050250,0.003241,0.042097,1.571371,-0.076325,0.005827,0.009055,-0.001163,-0.011634,0.000078,0.001329,0.010158,-0.066093,-0.061277,0.207321,0.207298,0.157394,0.374028,0.000000,0.000000,0.000000,0.000000,0.000000,0.000000,0.000000,0.000000,0.000000,0.000000,0.000000,0.000000,0.064569,3,0
1480000,-0.009752,38.191242,0.003737,-0.028234,26.031342,0.048996,0.003295,0.041875,1.571375,-0.075937,0.005889,0.009595,-0.001184,-0.011495,0.000077,0.001176,0.010099,-0.065746,-0.053456,0.207510,0.207487,0.157054,0.372074,0.000000,0.000000,0.000000,0.000000,0.000000,0.000000,0.000000,0.000000,0.000000,0.000000,0.000000,0.000000,0.064225,3,0
1490000,-0.009689,38.453465,0.004374,-0.027799,26.039276,0.049600,0.003353,0.042283,1.571375,-0.076256,0.005948,0.009530,-0.001206,-0.011611,0.000078,0.000488,0.010036,0.053856,0.005758,0.207701,0.207676,0.156715,0.370176,0.000000,0.000000,0.000000,0.000000,0.000000,0.000000,0.000000,0.000000,0.000000,0.000000,0.000000,0.000000,0.052889,3,0
1500000,-0.009626,38.712196,0.003743,-0.027500,26.040716,0.048804,0.003422,0.042138,1.571379,-0.075968,0.006008,0.009975,-0.001227,-0.011506,0.000078,0.000720,0.009970,-0.049408,-0.043753,0.207894,0.207868,0.156380,0.368331,0.000000,0.000000,0.000000,0.000000,0.000000,0.000000,0.000000,0.000000,0.000000,0.000000,0.000000,0.000000,0.048664,3,0
1510000,-0.009561,38.975754,0.003732,-0.027101,26.050900,0.048693,0.003492,0.042740,1.571385,-0.076492,0.006067,0.010152,-0.001249,-0.011704,0.000079,0.001360,0.009904,0.089424,-0.018894,0.208088,0.208061,0.156047,0.366540,0.000000,0.000000,0.000000,0.000000,0.000000,0.000000,0.000000,0.000000,0.000000,0.000000,0.000000,0.000000,0.086847,3,0
1520000,-0.009496,39.233719,0.002976,-0.026778,26.050831,0.047898,0.003550,0.042462,1.571389,-0.076061,0.006125,0.010655,-0.001270,-0.011540,0.000078,0.001301,0.009835,-0.074844,-0.048643,0.208284,0.208256,0.155717,0.364800,0.000000,0.000000,0.000000,0.000000,0.000000,0.000000,0.000000,0.000000,0.000000,0.000000,0.000000,0.000000,0.072876,3,0
1530000,-0.009426,39.493755,0.004341,-0.026478,26.054482,0.049580,0.003609,0.042501,1.571398,-0.075974,0.006181,0.010314,-0.001293,-0.011505,0.000078,0.000237,0.009767,-0.014748,0.033881,0.208482,0.208453,0.155390,0.363111,0.000000,0.000000,0.000000,0.000000,0.000000,0.000000,0.000000,0.000000,0.000000,0.000000,0.000000,0.000000,0.017068,3,0
1540000,-0.009355,39.754463,0.005548,-0.026115,26.059332,0.051031,0.003681,0.042643,1.571413,-0.075992,0.006235,0.010035,-0.001315,-0.011512,0.000078,0.000138,0.009693,0.003487,0.027296,0.208682,0.208651,0.155066,0.361471,0.000000,0.000000,0.000000,0.000000,0.000000,0.000000,0.000000,0.000000,0.000000,0.000000,0.000000,0.000000,0.009943,3,0
1550000,-0.009287,40.014462,0.004573,-0.025784,26.062773,0.049917,0.003739,0.042666,1.571418,-0.075890,0.006292,0.010632,-0.001336,-0.011472,0.000078,0.000618,0.009619,-0.018723,-0.058024,0.208883,0.208851,0.154745,0.359878,0.000000,0.000000,0.000000,0.000000,0.000000,0.000000,0.000000,0.000000,0.000000,0.000000,0.000000,0.000000,0.020327,3,0
1560000,-0.009213,40.273037,0.005557,-0.025326,26.063446,0.051010,0.003810,0.042455,1.571432,-0.075550,0.006345,0.010456,-0.001358,-0.011334,0.000077,0.000649,0.009546,-0.060085,0.018213,0.209085,0.209052,0.154427,0.358330,0.000000,0.000000,0.000000,0.000000,0.000000,0.000000,0.000000,0.000000,0.000000,0.000000,0.000000,0.000000,0.058714,3,0
1570000,-0.009141,40.535091,0.004791,-0.025030,26.070564,0.049946,0.003881,0.042801,1.571443,-0.075772,0.006399,0.010961,-0.001379,-0.011427,0.000078,0.000661,0.009469,0.039150,-0.049612,0.209289,0.209254,0.154113,0.356828,0.000000,0.000000,0.000000,0.000000,0.000000,0.000000,0.000000,0.000000,0.000000,0.000000,0.000000,0.000000,0.038867,3,0
1580000,-0.009064,40.793610,0.005954,-0.024575,26.071177,0.051489,0.003939,0.042559,1.571460,-0.075417,0.006450,0.010712,-0.001401,-0.011277,0.000077,0.000774,0.009393,-0.063946,0.025099,0.209494,0.209458,0.153802,0.355371,0.000000,0.000000,0.000000,0.000000,0.000000,0.000000,0.000000,0.000000,0.000000,0.000000,0.000000,0.000000,0.062372,3,0
1590000,-0.008986,41.053520,0.006359,-0.024136,26.074171,0.052103,0.003998,0.042549,1.571470,-0.075284,0.006501,0.010767,-0.001423,-0.011220,0.000077,0.000113,0.009311,-0.024284,-0.004780,0.209700,0.209662,0.153495,0.353955,0.000000,0.000000,0.000000,0.000000,0.000000,0.000000,0.000000,0.000000,0.000000,0.000000,0.000000,0.000000,0.025101,3,0
1600000,-0.008908,41.313412,0.006381,-0.023840,26.077105,0.052081,0.004053,0.042514,1.571471,-0.075145,0.006552,0.010981,-0.001445,-0.011161,0.000076,0.000186,0.009230,-0.025799,-0.020005,0.209907,0.209868,0.153191,0.352581,0.000000,0.000000,0.000000,0.000000,0.000000,0.000000,0.000000,0.000000,0.000000,0.000000,0.000000,0.000000,0.026448,3,0
1610000,-0.008830,41.573280,0.006057,-0.023444,26.080019,0.051743,0.004116,0.042477,1.571481,-0.075000,0.006603,0.011339,-0.001466,-0.011099,0.000076,0.000317,0.009149,-0.027294,-0.033650,0.210115,0.210075,0.152891,0.351248,0.000000,0.000000,0.000000,0.000000,0.000000,0.000000,0.000000,0.000000,0.000000,0.000000,0.000000,0.000000,0.027785,3,0
1620000,-0.008749,41.836605,0.006282,-0.023011,26.089117,0.051897,0.004188,0.042999,1.571487,-0.075378,0.006652,0.011443,-0.001487,-0.011268,0.000077,0.000836,0.009066,0.070633,-0.011143,0.210324,0.210282,0.152595,0.349952,0.000000,0.000000,0.000000,0.000000,0.000000,0.000000,0.000000,0.000000,0.000000,0.000000,0.000000,0.000000,0.068713,3,0
1630000,-0.008665,42.099144,0.007169,-0.022603,26.096657,0.052986,0.004251,0.043376,1.571498,-0.075619,0.006699,0.011280,-0.001509,-0.011376,0.000078,0.000384,0.008981,0.045761,0.014603,0.210533,0.210490,0.152302,0.348695,0.000000,0.000000,0.000000,0.000000,0.000000,0.000000,0.000000,0.000000,0.000000,0.000000,0.000000,0.000000,0.045001,3,0
1640000,-0.008582,42.358135,0.006642,-0.022125,26.097639,0.052467,0.004306,0.043157,1.571515,-0.075319,0.006747,0.011743,-0.001530,-0.011240,0.000077,0.000844,0.008892,-0.057823,-0.042507,0.210743,0.210699,0.152013,0.347476,0.000000,0.000000,0.000000,0.000000,0.000000,0.000000,0.000000,0.000000,0.000000,0.000000,0.000000,0.000000,0.056457,3,0
1650000,-0.008494,42.620594,0.007544,-0.021666,26.104906,0.053225,0.004371,0.043515,1.571528,-0.075531,0.006792,0.011573,-0.001552,-0.011338,0.000078,0.000320,0.008804,0.040997,0.015148,0.210954,0.210908,0.151728,0.346292,0.000000,0.000000,0.000000,0.000000,0.000000,0.000000,0.000000,0.000000,0.000000,0.000000,0.000000,0.000000,0.040460,3,0
1660000,-0.008407,42.882996,0.007418,-0.021298,26.112061,0.052979,0.004442,0.043856,1.571541,-0.075722,0.006838,0.011844,-0.001573,-0.011430,0.000079,0.000341,0.008712,0.036888,-0.026003,0.211164,0.211117,0.151447,0.345143,0.000000,0.000000,0.000000,0.000000,0.000000,0.000000,0.000000,0.000000,0.000000,0.000000,0.000000,0.000000,0.036563,3,0
1670000,-0.008321,43.145336,0.006409,-0.020911,26.119015,0.051733,0.004505,0.044188,1.571542,-0.075892,0.006884,0.012492,-0.001593,-0.011515,0.000079,0.000789,0.008622,0.032841,-0.060981,0.211374,0.211326,0.151169,0.344028,0.000000,0.000000,0.000000,0.000000,0.000000,0.000000,0.000000,0.000000,0.000000,0.000000,0.000000,0.000000,0.032745,3,0
1680000,-0.008230,43.403385,0.007146,-0.020507,26.117952,0.052462,0.004576,0.043781,1.571560,-0.075438,0.006926,0.012429,-0.001614,-0.011292,0.000078,0.001336,0.008532,-0.090416,0.007653,0.211585,0.211534,0.150896,0.342947,0.000000,0.000000,0.000000,0.000000,0.000000,0.000000,0.000000,0.000000,0.000000,0.000000,0.000000,0.000000,0.087614,3,0
1690000,-0.008138,43.663536,0.008129,-0.020043,26.120729,0.053736,0.004636,0.043707,1.571579,-0.075286,0.006967,0.012246,-0.001635,-0.011215,0.000078,0.000210,0.008436,-0.030392,0.017644,0.211795,0.211743,0.150626,0.341896,0.000000,0.000000,0.000000,0.000000,0.000000,0.000000,0.000000,0.000000,0.000000,0.000000,0.000000,0.000000,0.030424,3,0
1700000,-0.008047,43.922966,0.007485,-0.019607,26.122141,0.052867,0.004703,0.043530,1.571585,-0.075035,0.007010,0.012777,-0.001655,-0.011089,0.000077,0.000819,0.008339,-0.052021,-0.047890,0.212004,0.211951,0.150361,0.340875,0.000000,0.000000,0.000000,0.000000,0.000000,0.000000,0.000000,0.000000,0.000000,0.000000,0.000000,0.000000,0.050839,3,0
1710000,-0.007955,44.181667,0.007037,-0.019201,26.122160,0.052362,0.004763,0.043211,1.571594,-0.074684,0.007052,0.013231,-0.001675,-0.010910,0.000076,0.001127,0.008244,-0.072922,-0.040073,0.212213,0.212159,0.150099,0.339884,0.000000,0.000000,0.000000,0.000000,0.000000,0.000000,0.000000,0.000000,0.000000,0.000000,0.000000,0.000000,0.070803,3,0
1720000,-0.007862,44.440357,0.006608,-0.018757,26.122122,0.051717,0.004833,0.042889,1.571601,-0.074336,0.007092,0.013676,-0.001695,-0.010730,0.000075,0.001121,0.008148,-0.073196,-0.039101,0.212422,0.212365,0.149842,0.338921,0.000000,0.000000,0.000000,0.000000,0.000000,0.000000,0.000000,0.000000,0.000000,0.000000,0.000000,0.000000,0.071054,3,0
