time_us,pos_x,pos_y,pos_z,vel_x,vel_y,vel_z,roll,pitch,yaw,bias_ax,bias_ay,bias_az,bias_gx,bias_gy,bias_gz,nis,innov_x,innov_y,innov_z,cov_pos_x,cov_pos_y,cov_pos_z,cov_yaw,des_speed,des_heading,des_climb,pid_speed,pid_yaw,pid_alt,speed_meas,yaw_meas,climb_meas,fwd_accel,yaw_rate,vert_accel,drift_m,nav_mode,mission_state
0,0.000001,0.149999,0.000002,0.000176,24.999859,0.000455,-0.000021,0.000010,1.570791,0.000000,0.000000,0.000000,0.000000,0.000000,0.000000,0.006250,-0.000002,-0.250001,-0.000005,2.400038,2.400038,3.600017,1.000518,0.000000,0.000000,0.000000,0.000000,0.000000,0.000000,0.000000,0.000000,0.000000,0.000000,0.000000,0.000000,0.149999,1,0
10000,0.000002,0.336825,0.020109,0.000178,24.999403,0.001051,-0.000044,0.000025,1.570790,0.000001,-0.000000,-0.000000,0.000000,0.000000,0.000000,0.006118,-0.000003,-0.221087,0.053591,1.714420,1.714420,2.250079,1.001073,0.000000,0.000000,0.000000,0.000000,0.000000,0.000000,0.000000,0.000000,0.000000,0.000000,0.000000,0.000000,0.157914,3,0
20000,0.000004,0.584522,0.015405,0.000293,24.999319,0.001295,-0.000085,0.000047,1.570779,0.000001,-0.000000,-0.000000,0.000000,0.000000,0.000000,0.000050,-0.000005,-0.010329,-0.017295,1.333616,1.333616,1.636554,1.001655,0.000000,0.000000,0.000000,0.000000,0.000000,0.000000,0.000000,0.000000,0.000000,0.000000,0.000000,0.000000,0.008034,3,0
30000,0.000006,0.823740,0.007975,0.000340,24.999069,0.001562,-0.000121,0.000062,1.570773,0.000002,-0.000000,0.000001,-0.000000,0.000000,0.000000,0.000636,-0.000007,-0.059237,-0.034741,1.091392,1.091392,1.286065,1.002257,0.000000,0.000000,0.000000,0.000000,0.000000,0.000000,0.000000,0.000000,0.000000,0.000000,0.000000,0.000000,0.048462,3,0
40000,0.000008,1.073689,0.011841,0.000347,24.999025,0.001993,-0.000147,0.000081,1.570770,0.000002,-0.000000,-0.000000,0.000000,0.000000,0.000000,0.000065,-0.000009,-0.000269,0.021791,0.923811,0.923811,1.059385,1.002869,0.000000,0.000000,0.000000,0.000000,0.000000,0.000000,0.000000,0.000000,0.000000,0.000000,0.000000,0.000000,0.000227,3,0
50000,0.000010,1.319468,0.007267,0.000375,24.998922,0.002277,-0.000188,0.000098,1.570766,0.000003,-0.000000,0.000001,0.000000,0.000000,0.000000,0.000277,-0.000012,-0.031550,-0.030631,0.801036,0.801036,0.900822,1.003484,0.000000,0.000000,0.000000,0.000000,0.000000,0.000000,0.000000,0.000000,0.000000,0.000000,0.000000,0.000000,0.027338,3,0
60000,0.000013,1.560199,0.010629,0.000429,24.998447,0.003043,-0.000212,0.000107,1.570749,0.000008,-0.000000,-0.000000,0.000000,0.000000,0.000000,0.001001,-0.000014,-0.078538,0.025519,0.707270,0.707270,0.783741,1.004094,0.000000,0.000000,0.000000,0.000000,0.000000,0.000000,0.000000,0.000000,0.000000,0.000000,0.000000,0.000000,0.069280,3,0
70000,0.000015,1.810056,0.014813,0.000406,24.998407,0.003600,-0.000235,0.000117,1.570736,0.000008,-0.000000,-0.000003,0.000000,0.000000,0.000000,0.000190,-0.000017,-0.001202,0.035886,0.633370,0.633370,0.693801,1.004688,0.000000,0.000000,0.000000,0.000000,0.000000,0.000000,0.000000,0.000000,0.000000,0.000000,0.000000,0.000000,0.001075,3,0
80000,0.000017,2.066447,0.011035,0.000393,24.999025,0.003833,-0.000258,0.000129,1.570726,0.000001,-0.000000,0.000001,0.000000,-0.000000,-0.000000,0.000879,-0.000019,0.067003,-0.036798,0.573673,0.573673,0.622594,1.005260,0.000000,0.000000,0.000000,0.000000,0.000000,0.000000,0.000000,0.000000,0.000000,0.000000,0.000000,0.000000,0.060596,3,0
90000,0.000019,2.322472,0.010237,0.000362,24.999622,0.004098,-0.000298,0.000142,1.570708,-0.000008,-0.000000,0.000002,0.000000,-0.000000,-0.000000,0.000737,-0.000021,0.069032,-0.008923,0.524488,0.524488,0.564865,1.005801,0.000000,0.000000,0.000000,0.000000,0.000000,0.000000,0.000000,0.000000,0.000000,0.000000,0.000000,0.000000,0.062998,3,0
100000,0.000021,2.570215,0.010260,0.000378,24.999315,0.004695,-0.000320,0.000148,1.570689,-0.000003,-0.000000,0.000002,0.000000,-0.000000,-0.000000,0.000120,-0.000023,-0.027967,-0.000274,0.483304,0.483304,0.517162,1.006301,0.000000,0.000000,0.000000,0.000000,0.000000,0.000000,0.000000,0.000000,0.000000,0.000000,0.000000,0.000000,0.025714,3,0
110000,0.000022,2.815947,0.006988,0.000333,24.998808,0.004551,-0.000354,0.000155,1.570678,0.000007,-0.000000,0.000009,0.000000,0.000000,0.000000,0.000769,-0.000024,-0.057040,-0.041776,0.448354,0.448354,0.477121,1.006754,0.000000,0.000000,0.000000,0.000000,0.000000,0.000000,0.000000,0.000000,0.000000,0.000000,0.000000,0.000000,0.052778,3,0
120000,0.000025,3.071161,0.004150,0.000465,24.999771,0.004517,-0.000391,0.000186,1.570670,-0.000009,-0.000000,0.000018,0.000000,-0.000000,-0.000000,0.001106,-0.000027,0.074933,-0.039096,0.418359,0.418359,0.443071,1.007150,0.000000,0.000000,0.000000,0.000000,0.000000,0.000000,0.000000,0.000000,0.000000,0.000000,0.000000,0.000000,0.069708,3,0
130000,0.000029,3.328869,0.001829,0.000558,25.001280,0.004492,-0.000412,0.000214,1.570662,-0.000039,-0.000000,0.000026,0.000000,-0.000001,-0.000000,0.002348,-0.000031,0.117893,-0.034362,0.392369,0.392369,0.413797,1.007481,0.000000,0.000000,0.000000,0.000000,0.000000,0.000000,0.000000,0.000000,0.000000,0.000000,0.000000,0.000000,0.110183,3,0
140000,0.000033,3.581290,-0.000430,0.000591,25.001812,0.004524,-0.000446,0.000239,1.570645,-0.000051,-0.000000,0.000036,0.000000,-0.000001,-0.000000,0.000437,-0.000035,0.039081,-0.035664,0.369667,0.369667,0.388393,1.007739,0.000000,0.000000,0.000000,0.000000,0.000000,0.000000,0.000000,0.000000,0.000000,0.000000,0.000000,0.000000,0.036673,3,0
150000,0.000036,3.837412,-0.003010,0.000591,25.003311,0.004522,-0.000483,0.000268,1.570635,-0.000086,-0.000000,0.000051,0.000000,-0.000002,-0.000000,0.002012,-0.000038,0.104717,-0.043104,0.349696,0.349696,0.366172,1.007915,0.000000,0.000000,0.000000,0.000000,0.000000,0.000000,0.000000,0.000000,0.000000,0.000000,0.000000,0.000000,0.098614,3,0
160000,0.000039,4.090067,-0.000706,0.000544,25.004156,0.005538,-0.000517,0.000283,1.570626,-0.000104,-0.000000,0.000036,0.000000,-0.000002,-0.000000,0.000592,-0.000042,0.047369,0.039008,0.332021,0.332021,0.346600,1.008002,0.000000,0.000000,0.000000,0.000000,0.000000,0.000000,0.000000,0.000000,0.000000,0.000000,0.000000,0.000000,0.044747,3,0
170000,0.000042,4.338718,-0.002802,0.000492,25.003757,0.005420,-0.000541,0.000300,1.570625,-0.000093,-0.000000,0.000053,0.000000,-0.000002,-0.000000,0.000353,-0.000044,-0.026384,-0.039285,0.316298,0.316298,0.329260,1.007991,0.000000,0.000000,0.000000,0.000000,0.000000,0.000000,0.000000,0.000000,0.000000,0.000000,0.000000,0.000000,0.024993,3,0
180000,0.000044,4.589923,-0.004518,0.000424,25.004265,0.005177,-0.000569,0.000325,1.570612,-0.000104,-0.000000,0.000068,0.000000,-0.000002,-0.000000,0.000266,-0.000046,0.023152,-0.033905,0.302247,0.302247,0.313817,1.007875,0.000000,0.000000,0.000000,0.000000,0.000000,0.000000,0.000000,0.000000,0.000000,0.000000,0.000000,0.000000,0.021986,3,0
190000,0.000046,4.845271,-0.001994,0.000424,25.006245,0.006259,-0.000590,0.000358,1.570592,-0.000162,-0.000000,0.000043,0.000000,-0.000004,-0.000000,0.002302,-0.000048,0.109884,0.049402,0.289642,0.289642,0.300003,1.007645,0.000000,0.000000,0.000000,0.000000,0.000000,0.000000,0.000000,0.000000,0.000000,0.000000,0.000000,0.000000,0.104579,3,0
200000,0.000048,5.102417,-0.003808,0.000446,25.009125,0.006094,-0.000613,0.000397,1.570587,-0.000251,-0.000000,0.000065,0.000000,-0.000006,-0.000000,0.003951,-0.000050,0.152700,-0.039269,0.278297,0.278297,0.287598,1.007295,0.000000,0.000000,0.000000,0.000000,0.000000,0.000000,0.000000,0.000000,0.000000,0.000000,0.000000,0.000000,0.145617,3,0
210000,0.000051,5.354057,-0.001197,0.000498,25.009789,0.007438,-0.000642,0.000416,1.570570,-0.000273,-0.000000,0.000030,0.000000,-0.000007,-0.000000,0.000678,-0.000053,0.034678,0.055290,0.268056,0.268056,0.276421,1.006816,0.000000,0.000000,0.000000,0.000000,0.000000,0.000000,0.000000,0.000000,0.000000,0.000000,0.000000,0.000000,0.033129,3,0
220000,0.000053,5.609374,-0.000791,0.000458,25.012318,0.007872,-0.000673,0.000460,1.570552,-0.000358,-0.000000,0.000025,0.000000,-0.000009,-0.000000,0.002343,-0.000055,0.120972,0.007404,0.258789,0.258789,0.266321,1.006202,0.000000,0.000000,0.000000,0.000000,0.000000,0.000000,0.000000,0.000000,0.000000,0.000000,0.000000,0.000000,0.115754,3,0
230000,0.000055,5.863015,-0.001263,0.000433,25.014118,0.008122,-0.000704,0.000496,1.570548,-0.000422,-0.000000,0.000035,0.000000,-0.000011,-0.000000,0.001162,-0.000057,0.084299,-0.012968,0.250388,0.250388,0.257172,1.005446,0.000000,0.000000,0.000000,0.000000,0.000000,0.000000,0.000000,0.000000,0.000000,0.000000,0.000000,0.000000,0.080781,3,0
240000,0.000057,6.115153,-0.000046,0.000458,25.015350,0.009193,-0.000735,0.000533,1.570547,-0.000463,-0.000000,0.000013,0.000000,-0.000013,-0.000000,0.000508,-0.000059,0.049306,0.027261,0.242759,0.242759,0.248866,1.004541,0.000000,0.000000,0.000000,0.000000,0.000000,0.000000,0.000000,0.000000,0.000000,0.000000,0.000000,0.000000,0.047311,3,0
250000,0.000059,6.370617,-0.000922,0.000461,25.018461,0.009140,-0.000770,0.000595,1.570539,-0.000583,-0.000000,0.000034,0.000000,-0.000017,-0.000000,0.003016,-0.000062,0.135098,-0.024188,0.235822,0.235822,0.241314,1.003481,0.000000,0.000000,0.000000,0.000000,0.000000,0.000000,0.000000,0.000000,0.000000,0.000000,0.000000,0.000000,0.129788,3,0
260000,0.000062,6.627604,0.000017,0.000563,25.022720,0.010217,-0.000801,0.000658,1.570524,-0.000754,-0.000001,0.000014,0.000000,-0.000023,-0.000000,0.005141,-0.000065,0.177786,0.021531,0.229509,0.229509,0.234436,1.002258,0.000000,0.000000,0.000000,0.000000,0.000000,0.000000,0.000000,0.000000,0.000000,0.000000,0.000000,0.000000,0.170986,3,0
270000,0.000065,6.882289,-0.000951,0.000498,25.025629,0.010050,-0.000836,0.000704,1.570515,-0.000877,-0.000001,0.000042,0.000000,-0.000028,-0.000000,0.002421,-0.000067,0.119548,-0.028267,0.223760,0.223760,0.228165,1.000869,0.000000,0.000000,0.000000,0.000000,0.000000,0.000000,0.000000,0.000000,0.000000,0.000000,0.000000,0.000000,0.115089,3,0
280000,0.000068,7.135587,0.000829,0.000554,25.027744,0.011445,-0.000875,0.000742,1.570498,-0.000969,-0.000001,-0.000007,0.000000,-0.000032,-0.000000,0.001448,-0.000070,0.083500,0.045218,0.218522,0.218522,0.222443,0.999307,0.000000,0.000000,0.000000,0.000000,0.000000,0.000000,0.000000,0.000000,0.000000,0.000000,0.000000,0.000000,0.080459,3,0
290000,0.000070,7.388315,-0.000191,0.000489,25.029676,0.011150,-0.000911,0.000793,1.570485,-0.001050,-0.000001,0.000030,0.000000,-0.000035,-0.000000,0.000918,-0.000073,0.068727,-0.031452,0.213751,0.213751,0.217219,0.997567,0.000000,0.000000,0.000000,0.000000,0.000000,0.000000,0.000000,0.000000,0.000000,0.000000,0.000000,0.000000,0.066278,3,0
300000,0.000073,7.643984,-0.000231,0.000546,25.033867,0.011414,-0.000935,0.000881,1.570475,-0.001243,-0.000001,0.000035,0.000000,-0.000044,-0.000000,0.003814,-0.000076,0.153923,-0.004393,0.209407,0.209407,0.212446,0.995645,0.000000,0.000000,0.000000,0.000000,0.000000,0.000000,0.000000,0.000000,0.000000,0.000000,0.000000,0.000000,0.148551,3,0
310000,0.000075,7.896284,0.000955,0.000463,25.035543,0.012650,-0.000963,0.000932,1.570462,-0.001320,-0.000001,-0.000006,0.000000,-0.000047,-0.000000,0.000680,-0.000078,0.057242,0.030765,0.205453,0.205453,0.208087,0.993536,0.000000,0.000000,0.000000,0.000000,0.000000,0.000000,0.000000,0.000000,0.000000,0.000000,0.000000,0.000000,0.055282,3,0
320000,0.000076,8.152115,-0.000422,0.000377,25.040255,0.012013,-0.000991,0.001016,1.570460,-0.001550,-0.000001,0.000057,0.000000,-0.000058,-0.000000,0.004582,-0.000079,0.162747,-0.044338,0.201858,0.201858,0.204105,0.991236,0.000000,0.000000,0.000000,0.000000,0.000000,0.000000,0.000000,0.000000,0.000000,0.000000,0.000000,0.000000,0.157272,3,0
330000,0.000078,8.406674,-0.000697,0.000444,25.044144,0.011994,-0.001012,0.001094,1.570441,-0.001738,-0.000001,0.000074,0.000000,-0.000067,-0.000000,0.002562,-0.000081,0.125536,-0.011912,0.198594,0.198594,0.200469,0.988743,0.000000,0.000000,0.000000,0.000000,0.000000,0.000000,0.000000,0.000000,0.000000,0.000000,0.000000,0.000000,0.121381,3,0
340000,0.000079,8.658743,-0.001830,0.000421,25.045887,0.011193,-0.001036,0.001133,1.570433,-0.001817,-0.000001,0.000134,0.000000,-0.000070,-0.000000,0.000636,-0.000082,0.049848,-0.038215,0.195635,0.195635,0.197151,0.986053,0.000000,0.000000,0.000000,0.000000,0.000000,0.000000,0.000000,0.000000,0.000000,0.000000,0.000000,0.000000,0.048223,3,0
350000,0.000081,8.914207,-0.002027,0.000408,25.050863,0.011501,-0.001072,0.001228,1.570415,-0.002077,-0.000002,0.000150,0.000000,-0.000084,-0.000000,0.003920,-0.000084,0.155582,-0.009754,0.192959,0.192959,0.194125,0.983163,0.000000,0.000000,0.000000,0.000000,0.000000,0.000000,0.000000,0.000000,0.000000,0.000000,0.000000,0.000000,0.150579,3,0
360000,0.000083,9.169120,-0.001373,0.000464,25.055399,0.012357,-0.001108,0.001329,1.570398,-0.002320,-0.000002,0.000121,0.000000,-0.000096,-0.000000,0.003146,-0.000086,0.138616,0.016783,0.190544,0.190544,0.191370,0.980072,0.000000,0.000000,0.000000,0.000000,0.000000,0.000000,0.000000,0.000000,0.000000,0.000000,0.000000,0.000000,0.134213,3,0
370000,0.000085,9.426634,-0.002531,0.000447,25.062901,0.011613,-0.001138,0.001483,1.570384,-0.002729,-0.000002,0.000196,0.000000,-0.000118,-0.000000,0.008197,-0.000087,0.221598,-0.040847,0.188371,0.188371,0.188863,0.976778,0.000000,0.000000,0.000000,0.000000,0.000000,0.000000,0.000000,0.000000,0.000000,0.000000,0.000000,0.000000,0.214641,3,0
380000,0.000086,9.680470,-0.000784,0.000432,25.066549,0.013559,-0.001164,0.001557,1.570364,-0.002928,-0.000002,0.000095,0.000000,-0.000129,-0.000000,0.002161,-0.000089,0.103162,0.052332,0.186424,0.186424,0.186586,0.973281,0.000000,0.000000,0.000000,0.000000,0.000000,0.000000,0.000000,0.000000,0.000000,0.000000,0.000000,0.000000,0.099957,3,0
390000,0.000088,9.937512,0.001049,0.000483,25.073757,0.015559,-0.001195,0.001710,1.570350,-0.003347,-0.000002,-0.000016,0.000000,-0.000153,-0.000000,0.007419,-0.000091,0.207110,0.055098,0.184687,0.184687,0.184522,0.969579,0.000000,0.000000,0.000000,0.000000,0.000000,0.000000,0.000000,0.000000,0.000000,0.000000,0.000000,0.000000,0.200735,3,0
400000,0.000089,10.194615,-0.000044,0.000394,25.081367,0.014525,-0.001220,0.001875,1.570332,-0.003788,-0.000003,0.000070,0.000000,-0.000179,-0.000000,0.007292,-0.000092,0.208420,-0.041114,0.183144,0.183144,0.182656,0.965674,0.000000,0.000000,0.000000,0.000000,0.000000,0.000000,0.000000,0.000000,0.000000,0.000000,0.000000,0.000000,0.202058,3,0
410000,0.000090,10.452386,-0.001219,0.000368,25.089893,0.013520,-0.001243,0.002056,1.570322,-0.004296,-0.000003,0.000167,0.000000,-0.000209,-0.000000,0.008827,-0.000093,0.229547,-0.043898,0.181784,0.181784,0.180971,0.961565,0.000000,0.000000,0.000000,0.000000,0.000000,0.000000,0.000000,0.000000,0.000000,0.000000,0.000000,0.000000,0.222592,3,0
420000,0.000091,10.709017,-0.001852,0.000382,25.097128,0.013263,-0.001269,0.002224,1.570315,-0.004734,-0.000003,0.000226,0.000000,-0.000236,-0.000000,0.005966,-0.000094,0.190359,-0.025903,0.180592,0.180592,0.179456,0.957254,0.000000,0.000000,0.000000,0.000000,0.000000,0.000000,0.000000,0.000000,0.000000,0.000000,0.000000,0.000000,0.184629,3,0
430000,0.000093,10.965738,-0.002316,0.000416,25.104572,0.013177,-0.001309,0.002401,1.570308,-0.005195,-0.000004,0.000275,0.000000,-0.000265,-0.000000,0.006032,-0.000095,0.192081,-0.020278,0.179557,0.179557,0.178097,0.952742,0.000000,0.000000,0.000000,0.000000,0.000000,0.000000,0.000000,0.000000,0.000000,0.000000,0.000000,0.000000,0.186334,3,0
440000,0.000094,11.222557,-0.003242,0.000397,25.112366,0.012417,-0.001335,0.002578,1.570297,-0.005678,-0.000004,0.000364,0.000000,-0.000297,-0.000000,0.006278,-0.000097,0.193709,-0.036056,0.178669,0.178669,0.176883,0.948031,0.000000,0.000000,0.000000,0.000000,0.000000,0.000000,0.000000,0.000000,0.000000,0.000000,0.000000,0.000000,0.187941,3,0
450000,0.000095,11.480652,-0.002651,0.000382,25.121742,0.013525,-0.001356,0.002801,1.570296,-0.006287,-0.000004,0.000323,0.000000,-0.000337,-0.000000,0.008971,-0.000098,0.234998,0.015768,0.177918,0.177918,0.175803,0.943124,0.000000,0.000000,0.000000,0.000000,0.000000,0.000000,0.000000,0.000000,0.000000,0.000000,0.000000,0.000000,0.228029,3,0
460000,0.000096,11.734125,-0.002448,0.000404,25.125154,0.014189,-0.001386,0.002886,1.570287,-0.006491,-0.000005,0.000318,0.000000,-0.000351,-0.000000,0.000940,-0.000099,0.076203,0.002109,0.177294,0.177294,0.174847,0.938025,0.000000,0.000000,0.000000,0.000000,0.000000,0.000000,0.000000,0.000000,0.000000,0.000000,0.000000,0.000000,0.073952,3,0
470000,0.000097,11.990699,-0.002572,0.000389,25.132788,0.014092,-0.001425,0.003086,1.570267,-0.006994,-0.000005,0.000343,0.000000,-0.000386,-0.000000,0.005285,-0.000100,0.180516,-0.009245,0.176788,0.176788,0.174006,0.932737,0.000000,0.000000,0.000000,0.000000,0.000000,0.000000,0.000000,0.000000,0.000000,0.000000,0.000000,0.000000,0.175198,3,0
480000,0.000098,12.245637,-0.002498,0.000367,25.138250,0.014412,-0.001449,0.003219,1.570264,-0.007347,-0.000005,0.000350,0.000000,-0.000411,-0.000000,0.002435,-0.000101,0.122655,-0.002446,0.176392,0.176392,0.173271,0.927264,0.000000,0.000000,0.000000,0.000000,0.000000,0.000000,0.000000,0.000000,0.000000,0.000000,0.000000,0.000000,0.119049,3,0
490000,0.000097,12.504225,-0.000805,0.000252,25.148880,0.016630,-0.001486,0.003491,1.570251,-0.008078,-0.000006,0.000189,0.000000,-0.000464,-0.000000,0.010207,-0.000100,0.245362,0.053748,0.176098,0.176098,0.172634,0.921610,0.000000,0.000000,0.000000,0.000000,0.000000,0.000000,0.000000,0.000000,0.000000,0.000000,0.000000,0.000000,0.238161,3,0
500000,0.000095,12.760572,-0.000807,0.000103,25.156395,0.016657,-0.001526,0.003693,1.570246,-0.008587,-0.000006,0.000207,0.000000,-0.000502,-0.000000,0.004441,-0.000098,0.165577,-0.005961,0.175899,0.175899,0.172087,0.915781,0.000000,0.000000,0.000000,0.000000,0.000000,0.000000,0.000000,0.000000,0.000000,0.000000,0.000000,0.000000,0.160723,3,0
510000,0.000093,13.015304,0.000227,0.000047,25.161509,0.018314,-0.001561,0.003826,1.570238,-0.008929,-0.000007,0.000111,0.000000,-0.000529,-0.000000,0.002032,-0.000096,0.107944,0.030151,0.175787,0.175787,0.171622,0.909781,0.000000,0.000000,0.000000,0.000000,0.000000,0.000000,0.000000,0.000000,0.000000,0.000000,0.000000,0.000000,0.104782,3,0
520000,0.000091,13.274268,-0.000519,0.000016,25.172865,0.017504,-0.001591,0.004135,1.570232,-0.009749,-0.000007,0.000218,0.000000,-0.000592,-0.000000,0.010345,-0.000093,0.250740,-0.032711,0.175755,0.175755,0.171234,0.903618,0.000000,0.000000,0.000000,0.000000,0.000000,0.000000,0.000000,0.000000,0.000000,0.000000,0.000000,0.000000,0.243395,3,0
530000,0.000088,13.529253,0.000111,-0.000019,25.178350,0.018475,-0.001627,0.004288,1.570221,-0.010122,-0.000007,0.000164,0.000000,-0.000622,-0.000000,0.002032,-0.000090,0.110934,0.015848,0.175799,0.175799,0.170914,0.897295,0.000000,0.000000,0.000000,0.000000,0.000000,0.000000,0.000000,0.000000,0.000000,0.000000,0.000000,0.000000,0.107684,3,0
540000,0.000084,13.785559,-0.000240,-0.000079,25.185768,0.018009,-0.001652,0.004494,1.570219,-0.010655,-0.000008,0.000230,0.000000,-0.000665,-0.000000,0.003899,-0.000087,0.154079,-0.018920,0.175910,0.175910,0.170658,0.890822,0.000000,0.000000,0.000000,0.000000,0.000000,0.000000,0.000000,0.000000,0.000000,0.000000,0.000000,0.000000,0.149562,3,0
550000,0.000081,14.040837,0.000537,-0.000138,25.191635,0.019281,-0.001692,0.004661,1.570213,-0.011069,-0.000008,0.000154,0.000000,-0.000700,-0.000000,0.002261,-0.000083,0.116366,0.020868,0.176085,0.176085,0.170460,0.884203,0.000000,0.000000,0.000000,0.000000,0.000000,0.000000,0.000000,0.000000,0.000000,0.000000,0.000000,0.000000,0.112951,3,0
560000,0.000076,14.296853,0.001848,-0.000266,25.198559,0.021137,-0.001718,0.004863,1.570205,-0.011578,-0.000009,0.000009,0.000001,-0.000743,-0.000000,0.003390,-0.000078,0.139334,0.039269,0.176317,0.176317,0.170314,0.877445,0.000000,0.000000,0.000000,0.000000,0.000000,0.000000,0.000000,0.000000,0.000000,0.000000,0.000000,0.000000,0.135240,3,0
570000,0.000071,14.554185,0.001841,-0.000310,25.207582,0.021419,-0.001742,0.005141,1.570188,-0.012258,-0.000009,0.000038,0.000001,-0.000801,-0.000000,0.005335,-0.000073,0.181433,-0.007895,0.176601,0.176601,0.170214,0.870557,0.000000,0.000000,0.000000,0.000000,0.000000,0.000000,0.000000,0.000000,0.000000,0.000000,0.000000,0.000000,0.176092,3,0
580000,0.000064,14.811061,0.001846,-0.000471,25.215937,0.021599,-0.001765,0.005393,1.570171,-0.012882,-0.000009,0.000067,0.000001,-0.000856,-0.000000,0.004283,-0.000066,0.162556,-0.007533,0.176933,0.176933,0.170157,0.863546,0.000000,0.000000,0.000000,0.000000,0.000000,0.000000,0.000000,0.000000,0.000000,0.000000,0.000000,0.000000,0.157763,3,0
590000,0.000057,15.066899,0.003031,-0.000506,25.222633,0.023458,-0.001794,0.005604,1.570162,-0.013371,-0.000010,-0.000069,0.000001,-0.000900,-0.000000,0.002685,-0.000059,0.124265,0.034022,0.177307,0.177307,0.170138,0.856419,0.000000,0.000000,0.000000,0.000000,0.000000,0.000000,0.000000,0.000000,0.000000,0.000000,0.000000,0.000000,0.120593,3,0
600000,0.000049,15.323478,0.002147,-0.000686,25.230469,0.022437,-0.001825,0.005839,1.570149,-0.013961,-0.000010,0.000093,0.000001,-0.000954,-0.000000,0.003733,-0.000050,0.146664,-0.039654,0.177720,0.177720,0.170152,0.849184,0.000000,0.000000,0.000000,0.000000,0.000000,0.000000,0.000000,0.000000,0.000000,0.000000,0.000000,0.000000,0.142320,3,0
610000,0.000039,15.581378,0.001556,-0.000856,25.240299,0.021517,-0.001855,0.006152,1.570133,-0.014736,-0.000011,0.000213,0.000001,-0.001027,-0.000000,0.005862,-0.000040,0.188191,-0.028838,0.178167,0.178167,0.170195,0.841849,0.000000,0.000000,0.000000,0.000000,0.000000,0.000000,0.000000,0.000000,0.000000,0.000000,0.000000,0.000000,0.182603,3,0
620000,0.000028,15.838221,0.002404,-0.001009,25.248446,0.023019,-0.001886,0.006406,1.570119,-0.015362,-0.000011,0.000117,0.000001,-0.001086,-0.000000,0.003662,-0.000029,0.148860,0.022094,0.178645,0.178645,0.170264,0.834422,0.000000,0.000000,0.000000,0.000000,0.000000,0.000000,0.000000,0.000000,0.000000,0.000000,0.000000,0.000000,0.144428,3,0
630000,0.000017,16.096390,0.001609,-0.001028,25.258638,0.021981,-0.001926,0.006744,1.570118,-0.016178,-0.000011,0.000276,0.000001,-0.001166,-0.000000,0.006057,-0.000018,0.190119,-0.036249,0.179149,0.179149,0.170355,0.826911,0.000000,0.000000,0.000000,0.000000,0.000000,0.000000,0.000000,0.000000,0.000000,0.000000,0.000000,0.000000,0.184443,3,0
640000,0.000006,16.352301,0.000633,-0.001165,25.264967,0.020732,-0.001957,0.006961,1.570104,-0.016663,-0.000012,0.000465,0.000001,-0.001214,-0.000001,0.002273,-0.000006,0.110760,-0.042261,0.179676,0.179676,0.170465,0.819324,0.000000,0.000000,0.000000,0.000000,0.000000,0.000000,0.000000,0.000000,0.000000,0.000000,0.000000,0.000000,0.107443,3,0
650000,-0.000006,16.608957,0.000788,-0.001182,25.272648,0.020884,-0.001992,0.007219,1.570096,-0.017258,-0.000012,0.000473,0.000001,-0.001273,-0.000001,0.002864,0.000006,0.133087,-0.001912,0.180223,0.180223,0.170591,0.811670,0.000000,0.000000,0.000000,0.000000,0.000000,0.000000,0.000000,0.000000,0.000000,0.000000,0.000000,0.000000,0.129089,3,0
660000,-0.000019,16.866951,0.001333,-0.001330,25.282406,0.021755,-0.002018,0.007550,1.570080,-0.018052,-0.000012,0.000417,0.000001,-0.001355,-0.000001,0.004947,0.000019,0.174540,0.011705,0.180787,0.180787,0.170729,0.803956,0.000000,0.000000,0.000000,0.000000,0.000000,0.000000,0.000000,0.000000,0.000000,0.000000,0.000000,0.000000,0.169281,3,0
670000,-0.000033,17.124468,0.002651,-0.001506,25.291296,0.023943,-0.002044,0.007853,1.570060,-0.018770,-0.000012,0.000233,0.000001,-0.001430,-0.000001,0.004122,0.000034,0.154995,0.038437,0.181365,0.181365,0.170877,0.796191,0.000000,0.000000,0.000000,0.000000,0.000000,0.000000,0.000000,0.000000,0.000000,0.000000,0.000000,0.000000,0.150311,3,0
680000,-0.000049,17.383924,0.003233,-0.001714,25.303482,0.024857,-0.002072,0.008266,1.570046,-0.019786,-0.000012,0.000173,0.000001,-0.001538,-0.000001,0.007525,0.000050,0.215448,0.011910,0.181954,0.181954,0.171033,0.788383,0.000000,0.000000,0.000000,0.000000,0.000000,0.000000,0.000000,0.000000,0.000000,0.000000,0.000000,0.000000,0.208916,3,0
690000,-0.000066,17.642281,0.003404,-0.001904,25.313641,0.025325,-0.002095,0.008618,1.570040,-0.020624,-0.000012,0.000187,0.000001,-0.001628,-0.000001,0.004924,0.000068,0.174540,-0.002905,0.182552,0.182552,0.171193,0.780539,0.000000,0.000000,0.000000,0.000000,0.000000,0.000000,0.000000,0.000000,0.000000,0.000000,0.000000,0.000000,0.169230,3,0
700000,-0.000083,17.901968,0.002986,-0.002008,25.326029,0.024877,-0.002118,0.009064,1.570022,-0.021668,-0.000012,0.000305,0.000001,-0.001743,-0.000001,0.007509,0.000086,0.214266,-0.023681,0.183156,0.183155,0.171357,0.772668,0.000000,0.000000,0.000000,0.000000,0.000000,0.000000,0.000000,0.000000,0.000000,0.000000,0.000000,0.000000,0.207726,3,0
710000,-0.000100,18.160543,0.003631,-0.002036,25.336374,0.025973,-0.002148,0.009440,1.570012,-0.022525,-0.000011,0.000233,0.000001,-0.001840,-0.000001,0.004873,0.000103,0.173120,0.013707,0.183763,0.183763,0.171521,0.764776,0.000000,0.000000,0.000000,0.000000,0.000000,0.000000,0.000000,0.000000,0.000000,0.000000,0.000000,0.000000,0.167818,3,0
720000,-0.000119,18.420452,0.004477,-0.002260,25.348782,0.027449,-0.002186,0.009893,1.570006,-0.023594,-0.000011,0.000125,0.000001,-0.001961,-0.000001,0.007370,0.000123,0.212627,0.020306,0.184373,0.184373,0.171685,0.756872,0.000000,0.000000,0.000000,0.000000,0.000000,0.000000,0.000000,0.000000,0.000000,0.000000,0.000000,0.000000,0.206093,3,0
730000,-0.000139,18.680458,0.004349,-0.002382,25.361303,0.027415,-0.002226,0.010365,1.569997,-0.024670,-0.000011,0.000199,0.000001,-0.002086,-0.000001,0.007225,0.000143,0.211018,-0.014224,0.184983,0.184983,0.171846,0.748963,0.000000,0.000000,0.000000,0.000000,0.000000,0.000000,0.000000,0.000000,0.000000,0.000000,0.000000,0.000000,0.204512,3,0
740000,-0.000158,18.940557,0.004641,-0.002478,25.373941,0.027828,-0.002255,0.010841,1.569985,-0.025753,-0.000010,0.000194,0.000000,-0.002214,-0.000001,0.007076,0.000164,0.209312,0.000537,0.185591,0.185591,0.172003,0.741056,0.000000,0.000000,0.000000,0.000000,0.000000,0.000000,0.000000,0.000000,0.000000,0.000000,0.000000,0.000000,0.202839,3,0
750000,-0.000179,19.199516,0.005510,-0.002610,25.384346,0.028956,-0.002280,0.011233,1.569971,-0.026632,-0.000009,0.000080,0.000000,-0.002320,-0.000001,0.004613,0.000185,0.167753,0.020535,0.186196,0.186195,0.172154,0.733158,0.000000,0.000000,0.000000,0.000000,0.000000,0.000000,0.000000,0.000000,0.000000,0.000000,0.000000,0.000000,0.162548,3,0
760000,-0.000201,19.461672,0.006799,-0.002832,25.400270,0.030885,-0.002303,0.011839,1.569968,-0.028047,-0.000008,-0.000117,0.000000,-0.002492,-0.000001,0.011664,0.000207,0.266510,0.034709,0.186796,0.186795,0.172299,0.725275,0.000000,0.000000,0.000000,0.000000,0.000000,0.000000,0.000000,0.000000,0.000000,0.000000,0.000000,0.000000,0.258213,3,0
770000,-0.000223,19.722029,0.006507,-0.002958,25.412760,0.030234,-0.002324,0.012336,1.569958,-0.029138,-0.000008,-0.000000,0.000000,-0.002628,-0.000001,0.006724,0.000231,0.202986,-0.020978,0.187390,0.187389,0.172435,0.717414,0.000000,0.000000,0.000000,0.000000,0.000000,0.000000,0.000000,0.000000,0.000000,0.000000,0.000000,0.000000,0.196646,3,0
780000,-0.000246,19.979975,0.006159,-0.003012,25.420897,0.029580,-0.002358,0.012652,1.569951,-0.029799,-0.000007,0.000129,0.000000,-0.002711,-0.000001,0.002463,0.000254,0.121412,-0.022696,0.187976,0.187976,0.172562,0.709582,0.000000,0.000000,0.000000,0.000000,0.000000,0.000000,0.000000,0.000000,0.000000,0.000000,0.000000,0.000000,0.117609,3,0
790000,-0.000269,20.238028,0.007302,-0.003163,25.429173,0.031284,-0.002390,0.012975,1.569933,-0.030469,-0.000005,-0.000044,-0.000000,-0.002797,-0.000001,0.002534,0.000278,0.121811,0.029322,0.188554,0.188554,0.172680,0.701784,0.000000,0.000000,0.000000,0.000000,0.000000,0.000000,0.000000,0.000000,0.000000,0.000000,0.000000,0.000000,0.117983,3,0
800000,-0.000293,20.497438,0.007111,-0.003344,25.439760,0.030980,-0.002412,0.013398,1.569926,-0.031370,-0.000004,0.000059,-0.000000,-0.002915,-0.000001,0.004279,0.000302,0.161858,-0.017626,0.189123,0.189123,0.172786,0.694027,0.000000,0.000000,0.000000,0.000000,0.000000,0.000000,0.000000,0.000000,0.000000,0.000000,0.000000,0.000000,0.156756,3,0
810000,-0.000317,20.760078,0.006931,-0.003470,25.455965,0.030482,-0.002440,0.014070,1.569914,-0.032834,-0.000003,0.000157,-0.000001,-0.003109,-0.000001,0.010971,0.000328,0.260160,-0.016998,0.189682,0.189682,0.172881,0.686315,0.000000,0.000000,0.000000,0.000000,0.000000,0.000000,0.000000,0.000000,0.000000,0.000000,0.000000,0.000000,0.251936,3,0
820000,-0.000343,21.017725,0.005801,-0.003633,25.463156,0.028614,-0.002469,0.014342,1.569900,-0.033384,-0.000001,0.000459,-0.000001,-0.003183,-0.000001,0.001912,0.000354,0.096754,-0.049818,0.190230,0.190230,0.172964,0.678654,0.000000,0.000000,0.000000,0.000000,0.000000,0.000000,0.000000,0.000000,0.000000,0.000000,0.000000,0.000000,0.093686,3,0
830000,-0.000369,21.277370,0.005358,-0.003854,25.473787,0.027935,-0.002501,0.014774,1.569888,-0.034285,0.000000,0.000613,-0.000001,-0.003307,-0.000001,0.004087,0.000381,0.157097,-0.025399,0.190766,0.190766,0.173034,0.671049,0.000000,0.000000,0.000000,0.000000,0.000000,0.000000,0.000000,0.000000,0.000000,0.000000,0.000000,0.000000,0.152102,3,0
840000,-0.000397,21.537092,0.005272,-0.004021,25.484270,0.027800,-0.002523,0.015215,1.569874,-0.035188,0.000002,0.000691,-0.000001,-0.003433,-0.000001,0.003941,0.000410,0.155771,-0.012739,0.191291,0.191290,0.173091,0.663505,0.000000,0.000000,0.000000,0.000000,0.000000,0.000000,0.000000,0.000000,0.000000,0.000000,0.000000,0.000000,0.150805,3,0
850000,-0.000425,21.797523,0.005705,-0.004208,25.496008,0.028292,-0.002559,0.015716,1.569869,-0.036205,0.000005,0.000654,-0.000002,-0.003577,-0.000001,0.004903,0.000439,0.174248,0.005324,0.191802,0.191802,0.173135,0.656026,0.000000,0.000000,0.000000,0.000000,0.000000,0.000000,0.000000,0.000000,0.000000,0.000000,0.000000,0.000000,0.168679,3,0
860000,-0.000455,22.060568,0.004909,-0.004444,25.512127,0.026933,-0.002583,0.016419,1.569855,-0.037689,0.000007,0.000889,-0.000002,-0.003790,-0.000001,0.010441,0.000470,0.251642,-0.037345,0.192301,0.192301,0.173165,0.648616,0.000000,0.000000,0.000000,0.000000,0.000000,0.000000,0.000000,0.000000,0.000000,0.000000,0.000000,0.000000,0.243576,3,0
870000,-0.000486,22.319168,0.005239,-0.004672,25.520157,0.027328,-0.002606,0.016750,1.569837,-0.038328,0.000009,0.000873,-0.000002,-0.003884,-0.000001,0.001872,0.000502,0.107708,0.002043,0.192787,0.192786,0.173181,0.641280,0.000000,0.000000,0.000000,0.000000,0.000000,0.000000,0.000000,0.000000,0.000000,0.000000,0.000000,0.000000,0.104249,3,0
880000,-0.000516,22.577850,0.006707,-0.004719,25.528278,0.029502,-0.002639,0.017094,1.569819,-0.038971,0.000013,0.000601,-0.000003,-0.003979,-0.000001,0.002138,0.000533,0.107452,0.041287,0.193260,0.193259,0.173183,0.634020,0.000000,0.000000,0.000000,0.000000,0.000000,0.000000,0.000000,0.000000,0.000000,0.000000,0.000000,0.000000,0.103994,3,0
890000,-0.000547,22.841103,0.008216,-0.004905,25.544308,0.031487,-0.002672,0.017819,1.569817,-0.040455,0.000016,0.000318,-0.000003,-0.004203,-0.000001,0.010068,0.000565,0.246269,0.042082,0.193719,0.193718,0.173171,0.626841,0.000000,0.000000,0.000000,0.000000,0.000000,0.000000,0.000000,0.000000,0.000000,0.000000,0.000000,0.000000,0.238320,3,0
900000,-0.000579,23.101160,0.009023,-0.005112,25.554663,0.032730,-0.002695,0.018263,1.569806,-0.041317,0.000019,0.000201,-0.000004,-0.004334,-0.000001,0.003293,0.000598,0.141884,0.016949,0.194164,0.194163,0.173144,0.619745,0.000000,0.000000,0.000000,0.000000,0.000000,0.000000,0.000000,0.000000,0.000000,0.000000,0.000000,0.000000,0.137294,3,0
910000,-0.000611,23.362566,0.007837,-0.005173,25.567265,0.031051,-0.002729,0.018820,1.569799,-0.042418,0.000022,0.000553,-0.000004,-0.004506,-0.000001,0.005666,0.000631,0.179907,-0.052539,0.194596,0.194595,0.173103,0.612736,0.000000,0.000000,0.000000,0.000000,0.000000,0.000000,0.000000,0.000000,0.000000,0.000000,0.000000,0.000000,0.174071,3,0
920000,-0.000642,23.624008,0.008759,-0.005251,25.579742,0.032364,-0.002754,0.019389,1.569790,-0.043505,0.000026,0.000404,-0.000005,-0.004678,-0.000001,0.005113,0.000664,0.176802,0.021148,0.195015,0.195014,0.173048,0.605816,0.000000,0.000000,0.000000,0.000000,0.000000,0.000000,0.000000,0.000000,0.000000,0.000000,0.000000,0.000000,0.171056,3,0
930000,-0.000673,23.886780,0.010146,-0.005379,25.594343,0.034367,-0.002775,0.020066,1.569781,-0.044825,0.000030,0.000145,-0.000006,-0.004889,-0.000001,0.007564,0.000696,0.213417,0.036839,0.195420,0.195419,0.172979,0.598987,0.000000,0.000000,0.000000,0.000000,0.000000,0.000000,0.000000,0.000000,0.000000,0.000000,0.000000,0.000000,0.206468,3,0
940000,-0.000706,24.146971,0.011626,-0.005575,25.604168,0.036335,-0.002798,0.020506,1.569774,-0.045630,0.000034,-0.000133,-0.000006,-0.005020,-0.000001,0.002951,0.000730,0.129408,0.039409,0.195812,0.195811,0.172896,0.592252,0.000000,0.000000,0.000000,0.000000,0.000000,0.000000,0.000000,0.000000,0.000000,0.000000,0.000000,0.000000,0.125187,3,0
950000,-0.000739,24.409809,0.011751,-0.005781,25.618628,0.036455,-0.002834,0.021185,1.569759,-0.046927,0.000038,-0.000080,-0.000007,-0.005235,-0.000001,0.006923,0.000764,0.207060,-0.008299,0.196191,0.196190,0.172800,0.585613,0.000000,0.000000,0.000000,0.000000,0.000000,0.000000,0.000000,0.000000,0.000000,0.000000,0.000000,0.000000,0.200290,3,0
960000,-0.000773,24.670050,0.011780,-0.005966,25.628416,0.036350,-0.002858,0.021633,1.569747,-0.047701,0.000043,-0.000001,-0.000008,-0.005365,-0.000001,0.002461,0.000799,0.122988,-0.011688,0.196558,0.196556,0.172690,0.579072,0.000000,0.000000,0.000000,0.000000,0.000000,0.000000,0.000000,0.000000,0.000000,0.000000,0.000000,0.000000,0.118962,3,0
970000,-0.000807,24.932943,0.011957,-0.006078,25.642731,0.036619,-0.002887,0.022326,1.569739,-0.048969,0.000048,0.000041,-0.000009,-0.005581,-0.000001,0.006493,0.000834,0.200588,-0.006531,0.196911,0.196910,0.172566,0.572631,0.000000,0.000000,0.000000,0.000000,0.000000,0.000000,0.000000,0.000000,0.000000,0.000000,0.000000,0.000000,0.194008,3,0
980000,-0.000841,25.196493,0.012726,-0.006254,25.657991,0.037444,-0.002915,0.023073,1.569721,-0.050339,0.000053,-0.000068,-0.000010,-0.005819,-0.000001,0.007543,0.000870,0.215858,0.014089,0.197253,0.197251,0.172430,0.566289,0.000000,0.000000,0.000000,0.000000,0.000000,0.000000,0.000000,0.000000,0.000000,0.000000,0.000000,0.000000,0.208765,3,0
990000,-0.000875,25.458071,0.012239,-0.006332,25.669544,0.036718,-0.002935,0.023626,1.569714,-0.051303,0.000058,0.000147,-0.000011,-0.005988,-0.000001,0.003819,0.000905,0.150946,-0.030043,0.197583,0.197581,0.172281,0.560050,0.000000,0.000000,0.000000,0.000000,0.000000,0.000000,0.000000,0.000000,0.000000,0.000000,0.000000,0.000000,0.145978,3,0
1000000,-0.000910,25.717701,0.011976,-0.006491,25.677578,0.036206,-0.002957,0.023993,1.569697,-0.051867,0.000063,0.000306,-0.000012,-0.006089,-0.000001,0.001328,0.000941,0.088037,-0.022016,0.197901,0.197899,0.172120,0.553913,0.000000,0.000000,0.000000,0.000000,0.000000,0.000000,0.000000,0.000000,0.000000,0.000000,0.000000,0.000000,0.085137,3,0
1010000,-0.000944,25.976713,0.012384,-0.006601,25.684332,0.036559,-0.002995,0.024286,1.569692,-0.052297,0.000069,0.000292,-0.000013,-0.006167,-0.000001,0.000721,0.000976,0.066877,0.001567,0.198208,0.198206,0.171946,0.547880,0.000000,0.000000,0.000000,0.000000,0.000000,0.000000,0.000000,0.000000,0.000000,0.000000,0.000000,0.000000,0.064676,3,0
1020000,-0.000978,26.237749,0.013099,-0.006723,25.694546,0.037571,-0.003026,0.024777,1.569675,-0.053108,0.000076,0.000197,-0.000014,-0.006316,-0.000001,0.002577,0.001012,0.125856,0.012144,0.198505,0.198502,0.171761,0.541951,0.000000,0.000000,0.000000,0.000000,0.000000,0.000000,0.000000,0.000000,0.000000,0.000000,0.000000,0.000000,0.121697,3,0
1030000,-0.001013,26.498804,0.012844,-0.006871,25.704765,0.037178,-0.003057,0.025262,1.569671,-0.053906,0.000082,0.000359,-0.000015,-0.006465,-0.000001,0.002523,0.001048,0.123144,-0.022117,0.198791,0.198788,0.171565,0.536127,0.000000,0.000000,0.000000,0.000000,0.000000,0.000000,0.000000,0.000000,0.000000,0.000000,0.000000,0.000000,0.119069,3,0
1040000,-0.001048,26.760536,0.014177,-0.006982,25.716051,0.038986,-0.003091,0.025819,1.569652,-0.054815,0.000089,0.000097,-0.000016,-0.006638,-0.000001,0.003355,0.001084,0.140291,0.033660,0.199067,0.199064,0.171357,0.530408,0.000000,0.000000,0.000000,0.000000,0.000000,0.000000,0.000000,0.000000,0.000000,0.000000,0.000000,0.000000,0.135641,3,0
1050000,-0.001083,27.019634,0.013731,-0.007183,25.722490,0.038021,-0.003113,0.026098,1.569641,-0.055189,0.000096,0.000320,-0.000018,-0.006710,-0.000001,0.000669,0.001120,0.057358,-0.029301,0.199334,0.199330,0.171140,0.524795,0.000000,0.000000,0.000000,0.000000,0.000000,0.000000,0.000000,0.000000,0.000000,0.000000,0.000000,0.000000,0.055461,3,0
1060000,-0.001118,27.281420,0.015070,-0.007267,25.733662,0.039642,-0.003135,0.026657,1.569631,-0.056076,0.000103,0.000053,-0.000019,-0.006883,-0.000001,0.003170,0.001156,0.136133,0.033708,0.199592,0.199588,0.170911,0.519287,0.000000,0.000000,0.000000,0.000000,0.000000,0.000000,0.000000,0.000000,0.000000,0.000000,0.000000,0.000000,0.131610,3,0
1070000,-0.001152,27.541883,0.014168,-0.007330,25.742340,0.038335,-0.003153,0.027061,1.569621,-0.056685,0.000110,0.000405,-0.000021,-0.007004,-0.000001,0.001729,0.001192,0.092905,-0.045693,0.199841,0.199837,0.170674,0.513884,0.000000,0.000000,0.000000,0.000000,0.000000,0.000000,0.000000,0.000000,0.000000,0.000000,0.000000,0.000000,0.089817,3,0
1080000,-0.001187,27.803690,0.015633,-0.007575,25.753290,0.040036,-0.003182,0.027612,1.569607,-0.057539,0.000118,0.000100,-0.000022,-0.007175,-0.000001,0.002982,0.001229,0.130537,0.038182,0.200081,0.200077,0.170426,0.508586,0.000000,0.000000,0.000000,0.000000,0.000000,0.000000,0.000000,0.000000,0.000000,0.000000,0.000000,0.000000,0.126192,3,0
1090000,-0.001222,28.064171,0.015567,-0.007629,25.761806,0.039762,-0.003206,0.028007,1.569596,-0.058112,0.000126,0.000226,-0.000024,-0.007293,-0.000001,0.001272,0.001265,0.087288,-0.016448,0.200315,0.200310,0.170170,0.503394,0.000000,0.000000,0.000000,0.000000,0.000000,0.000000,0.000000,0.000000,0.000000,0.000000,0.000000,0.000000,0.084382,3,0
1100000,-0.001258,28.323338,0.016211,-0.007818,25.767792,0.040641,-0.003234,0.028260,1.569585,-0.058410,0.000134,0.000155,-0.000026,-0.007354,-0.000001,0.000344,0.001301,0.045391,0.008551,0.200541,0.200536,0.169906,0.498306,0.000000,0.000000,0.000000,0.000000,0.000000,0.000000,0.000000,0.000000,0.000000,0.000000,0.000000,0.000000,0.043893,3,0
1110000,-0.001293,28.584541,0.015128,-0.007946,25.777431,0.038869,-0.003257,0.028742,1.569566,-0.059098,0.000142,0.000572,-0.000027,-0.007499,-0.000001,0.002198,0.001338,0.104225,-0.052592,0.200760,0.200754,0.169633,0.493322,0.000000,0.000000,0.000000,0.000000,0.000000,0.000000,0.000000,0.000000,0.000000,0.000000,0.000000,0.000000,0.100743,3,0
1120000,-0.001328,28.846409,0.016047,-0.008010,25.788048,0.039904,-0.003276,0.029275,1.569556,-0.059895,0.000151,0.000413,-0.000029,-0.007669,-0.000001,0.002426,0.001374,0.121233,0.018869,0.200973,0.200967,0.169352,0.488441,0.000000,0.000000,0.000000,0.000000,0.000000,0.000000,0.000000,0.000000,0.000000,0.000000,0.000000,0.000000,0.117182,3,0
1130000,-0.001363,29.107603,0.016838,-0.008133,25.797394,0.040844,-0.003295,0.029740,1.569547,-0.060540,0.000160,0.000294,-0.000031,-0.007809,-0.000001,0.001573,0.001410,0.097803,0.013923,0.201180,0.201173,0.169064,0.483664,0.000000,0.000000,0.000000,0.000000,0.000000,0.000000,0.000000,0.000000,0.000000,0.000000,0.000000,0.000000,0.094534,3,0
1140000,-0.001399,29.368132,0.018284,-0.008359,25.805431,0.042400,-0.003317,0.030119,1.569538,-0.061033,0.000170,-0.000013,-0.000033,-0.007917,-0.000001,0.001129,0.001448,0.075062,0.036955,0.201381,0.201375,0.168770,0.478988,0.000000,0.000000,0.000000,0.000000,0.000000,0.000000,0.000000,0.000000,0.000000,0.000000,0.000000,0.000000,0.072558,3,0
1150000,-0.001435,29.630005,0.018198,-0.008540,25.815634,0.041902,-0.003345,0.030650,1.569530,-0.061777,0.000179,0.000129,-0.000035,-0.008083,-0.000001,0.002096,0.001485,0.112638,-0.018011,0.201578,0.201571,0.168468,0.474413,0.000000,0.000000,0.000000,0.000000,0.000000,0.000000,0.000000,0.000000,0.000000,0.000000,0.000000,0.000000,0.108864,3,0
1160000,-0.001473,29.890528,0.018531,-0.008781,25.823372,0.042070,-0.003364,0.031016,1.569510,-0.062235,0.000189,0.000150,-0.000038,-0.008186,-0.000001,0.000776,0.001524,0.069330,-0.003036,0.201769,0.201762,0.168161,0.469938,0.000000,0.000000,0.000000,0.000000,0.000000,0.000000,0.000000,0.000000,0.000000,0.000000,0.000000,0.000000,0.067016,3,0
1170000,-0.001511,30.153070,0.017611,-0.008983,25.834698,0.040620,-0.003387,0.031619,1.569507,-0.063074,0.000198,0.000542,-0.000040,-0.008380,-0.000001,0.002959,0.001563,0.126789,-0.047791,0.201957,0.201949,0.167848,0.465563,0.000000,0.000000,0.000000,0.000000,0.000000,0.000000,0.000000,0.000000,0.000000,0.000000,0.000000,0.000000,0.122528,3,0
1180000,-0.001550,30.412909,0.017318,-0.009173,25.841133,0.039917,-0.003406,0.031899,1.569503,-0.063359,0.000208,0.000749,-0.000042,-0.008446,-0.000001,0.000400,0.001604,0.043041,-0.025003,0.202140,0.202132,0.167529,0.461286,0.000000,0.000000,0.000000,0.000000,0.000000,0.000000,0.000000,0.000000,0.000000,0.000000,0.000000,0.000000,0.041619,3,0
1190000,-0.001589,30.674101,0.017401,-0.009383,25.849806,0.039663,-0.003430,0.032331,1.569484,-0.063896,0.000218,0.000839,-0.000045,-0.008573,-0.000001,0.001086,0.001645,0.081324,-0.011223,0.202321,0.202312,0.167205,0.457107,0.000000,0.000000,0.000000,0.000000,0.000000,0.000000,0.000000,0.000000,0.000000,0.000000,0.000000,0.000000,0.078597,3,0
1200000,-0.001629,30.937302,0.016918,-0.009540,25.861967,0.038661,-0.003449,0.032998,1.569478,-0.064808,0.000228,0.001097,-0.000047,-0.008793,-0.000001,0.003231,0.001686,0.138107,-0.031364,0.202498,0.202488,0.166877,0.453023,0.000000,0.000000,0.000000,0.000000,0.000000,0.000000,0.000000,0.000000,0.000000,0.000000,0.000000,0.000000,0.133454,3,0
1210000,-0.001668,31.197773,0.017279,-0.009618,25.869034,0.038873,-0.003474,0.033318,1.569467,-0.065162,0.000240,0.001100,-0.000050,-0.008879,-0.000001,0.000465,0.001726,0.053698,-0.000870,0.202672,0.202662,0.166545,0.449034,0.000000,0.000000,0.000000,0.000000,0.000000,0.000000,0.000000,0.000000,0.000000,0.000000,0.000000,0.000000,0.051910,3,0
1220000,-0.001708,31.459593,0.016807,-0.009820,25.878513,0.037850,-0.003506,0.033800,1.569446,-0.065764,0.000250,0.001360,-0.000053,-0.009028,-0.000000,0.001498,0.001767,0.091337,-0.030888,0.202844,0.202834,0.166208,0.445139,0.000000,0.000000,0.000000,0.000000,0.000000,0.000000,0.000000,0.000000,0.000000,0.000000,0.000000,0.000000,0.088264,3,0
1230000,-0.001747,31.720722,0.015648,-0.009940,25.886646,0.036264,-0.003539,0.034191,1.569429,-0.066214,0.000261,0.001837,-0.000056,-0.009141,-0.000000,0.001245,0.001808,0.067970,-0.055583,0.203014,0.203003,0.165868,0.441336,0.000000,0.000000,0.000000,0.000000,0.000000,0.000000,0.000000,0.000000,0.000000,0.000000,0.000000,0.000000,0.065689,3,0
1240000,-0.001788,31.981840,0.014471,-0.010180,25.894539,0.034475,-0.003569,0.034587,1.569427,-0.066644,0.000272,0.002319,-0.000058,-0.009252,-0.000000,0.001187,0.001850,0.065184,-0.055701,0.203183,0.203171,0.165525,0.437624,0.000000,0.000000,0.000000,0.000000,0.000000,0.000000,0.000000,0.000000,0.000000,0.000000,0.000000,0.000000,0.062996,3,0
1250000,-0.001828,32.242268,0.014124,-0.010263,25.901192,0.033968,-0.003593,0.034877,1.569417,-0.066924,0.000284,0.002536,-0.000062,-0.009324,-0.000000,0.000394,0.001892,0.042534,-0.025133,0.203350,0.203337,0.165179,0.434001,0.000000,0.000000,0.000000,0.000000,0.000000,0.000000,0.000000,0.000000,0.000000,0.000000,0.000000,0.000000,0.041133,3,0
1260000,-0.001867,32.506062,0.014895,-0.010363,25.913696,0.034859,-0.003626,0.035590,1.569404,-0.067838,0.000297,0.002383,-0.000065,-0.009563,-0.000000,0.003192,0.001932,0.139858,0.016006,0.203516,0.203502,0.164831,0.430467,0.000000,0.000000,0.000000,0.000000,0.000000,0.000000,0.000000,0.000000,0.000000,0.000000,0.000000,0.000000,0.135129,3,0
1270000,-0.001906,32.767773,0.016274,-0.010564,25.922304,0.036510,-0.003650,0.036023,1.569390,-0.068324,0.000310,0.002041,-0.000068,-0.009691,-0.000000,0.001130,0.001974,0.074730,0.037691,0.203681,0.203667,0.164480,0.427020,0.000000,0.000000,0.000000,0.000000,0.000000,0.000000,0.000000,0.000000,0.000000,0.000000,0.000000,0.000000,0.072222,3,0
1280000,-0.001946,33.030140,0.015940,-0.010669,25.932041,0.035779,-0.003671,0.036539,1.569368,-0.068920,0.000322,0.002259,-0.000072,-0.009852,-0.000000,0.001445,0.002014,0.091236,-0.025309,0.203846,0.203831,0.164127,0.423659,0.000000,0.000000,0.000000,0.000000,0.000000,0.000000,0.000000,0.000000,0.000000,0.000000,0.000000,0.000000,0.088156,3,0
1290000,-0.001986,33.290443,0.016233,-0.010878,25.938040,0.035967,-0.003693,0.036777,1.569353,-0.069099,0.000335,0.002278,-0.000075,-0.009901,-0.000000,0.000124,0.002056,0.027557,-0.002407,0.204011,0.203995,0.163773,0.420383,0.000000,0.000000,0.000000,0.000000,0.000000,0.000000,0.000000,0.000000,0.000000,0.000000,0.000000,0.000000,0.026693,3,0
1300000,-0.002027,33.552101,0.014986,-0.011078,25.946411,0.034014,-0.003718,0.037191,1.569341,-0.069526,0.000348,0.002804,-0.000079,-0.010020,0.000000,0.001249,0.002098,0.065376,-0.058782,0.204175,0.204159,0.163417,0.417189,0.000000,0.000000,0.000000,0.000000,0.000000,0.000000,0.000000,0.000000,0.000000,0.000000,0.000000,0.000000,0.063177,3,0
1310000,-0.002068,33.815083,0.014554,-0.011191,25.957069,0.033379,-0.003734,0.037780,1.569327,-0.070186,0.000361,0.003050,-0.000083,-0.010206,0.000000,0.001798,0.002140,0.101818,-0.028155,0.204340,0.204323,0.163060,0.414077,0.000000,0.000000,0.000000,0.000000,0.000000,0.000000,0.000000,0.000000,0.000000,0.000000,0.000000,0.000000,0.098368,3,0
1320000,-0.002108,34.075974,0.015587,-0.011368,25.963768,0.034695,-0.003757,0.038072,1.569315,-0.070426,0.000375,0.002810,-0.000087,-0.010274,0.000000,0.000335,0.002183,0.037521,0.025761,0.204506,0.204487,0.162703,0.411045,0.000000,0.000000,0.000000,0.000000,0.000000,0.000000,0.000000,0.000000,0.000000,0.000000,0.000000,0.000000,0.036309,3,0
1330000,-0.002148,34.336857,0.014398,-0.011421,25.970446,0.033076,-0.003783,0.038358,1.569308,-0.070654,0.000388,0.003329,-0.000091,-0.010341,0.000000,0.000720,0.002224,0.034992,-0.056761,0.204672,0.204653,0.162345,0.408091,0.000000,0.000000,0.000000,0.000000,0.000000,0.000000,0.000000,0.000000,0.000000,0.000000,0.000000,0.000000,0.033859,3,0
1340000,-0.002189,34.595005,0.014097,-0.011649,25.972105,0.032603,-0.003809,0.038253,1.569293,-0.070354,0.000403,0.003553,-0.000095,-0.010254,0.000000,0.000448,0.002266,-0.047050,-0.023707,0.204838,0.204819,0.161986,0.405214,0.000000,0.000000,0.000000,0.000000,0.000000,0.000000,0.000000,0.000000,0.000000,0.000000,0.000000,0.000000,0.045501,3,0
1350000,-0.002230,34.856564,0.015112,-0.011869,25.979864,0.033761,-0.003824,0.038620,1.569287,-0.070689,0.000417,0.003308,-0.000099,-0.010353,0.000000,0.000553,0.002309,0.052608,0.025688,0.205006,0.204986,0.161628,0.402413,0.000000,0.000000,0.000000,0.000000,0.000000,0.000000,0.000000,0.000000,0.000000,0.000000,0.000000,0.000000,0.050864,3,0
1360000,-0.002271,35.117420,0.014764,-0.012010,25.986240,0.033196,-0.003838,0.038884,1.569280,-0.070878,0.000432,0.003543,-0.000104,-0.010410,0.000000,0.000246,0.002351,0.029514,-0.025475,0.205175,0.205154,0.161270,0.399685,0.000000,0.000000,0.000000,0.000000,0.000000,0.000000,0.000000,0.000000,0.000000,0.000000,0.000000,0.000000,0.028594,3,0
1370000,-0.002313,35.376213,0.015569,-0.012213,25.988873,0.033946,-0.003867,0.038852,1.569260,-0.070670,0.000448,0.003383,-0.000108,-0.010346,0.000000,0.000221,0.002395,-0.032619,0.017405,0.205346,0.205323,0.160912,0.397031,0.000000,0.000000,0.000000,0.000000,0.000000,0.000000,0.000000,0.000000,0.000000,0.000000,0.000000,0.000000,0.031587,3,0
1380000,-0.002354,35.638416,0.016629,-0.012385,25.997404,0.035109,-0.003893,0.039297,1.569249,-0.071087,0.000463,0.003119,-0.000113,-0.010475,0.000000,0.000830,0.002438,0.066387,0.027164,0.205517,0.205494,0.160555,0.394446,0.000000,0.000000,0.000000,0.000000,0.000000,0.000000,0.000000,0.000000,0.000000,0.000000,0.000000,0.000000,0.064161,3,0
1390000,-0.002396,35.899220,0.016306,-0.012481,26.003332,0.034512,-0.003916,0.039536,1.569230,-0.071232,0.000478,0.003355,-0.000118,-0.010522,0.000000,0.000188,0.002481,0.022770,-0.025230,0.205691,0.205666,0.160198,0.391932,0.000000,0.000000,0.000000,0.000000,0.000000,0.000000,0.000000,0.000000,0.000000,0.000000,0.000000,0.000000,0.022114,3,0
1400000,-0.002438,36.160679,0.016544,-0.012703,26.010450,0.034617,-0.003927,0.039860,1.569209,-0.071483,0.000494,0.003388,-0.000123,-0.010602,0.000001,0.000264,0.002524,0.040207,-0.003928,0.205865,0.205839,0.159843,0.389486,0.000000,0.000000,0.000000,0.000000,0.000000,0.000000,0.000000,0.000000,0.000000,0.000000,0.000000,0.000000,0.038902,3,0
1410000,-0.002480,36.420059,0.016456,-0.012881,26.013805,0.034344,-0.003950,0.039881,1.569195,-0.071344,0.000509,0.003549,-0.000128,-0.010557,0.000001,0.000127,0.002568,-0.022533,-0.016536,0.206042,0.206015,0.159489,0.387107,0.000000,0.000000,0.000000,0.000000,0.000000,0.000000,0.000000,0.000000,0.000000,0.000000,0.000000,0.000000,0.021904,3,0
1420000,-0.002523,36.682167,0.016756,-0.013077,26.022038,0.034443,-0.003965,0.040290,1.569180,-0.071691,0.000525,0.003555,-0.000133,-0.010672,0.000001,0.000506,0.002613,0.055992,-0.001401,0.206220,0.206192,0.159136,0.384794,0.000000,0.000000,0.000000,0.000000,0.000000,0.000000,0.000000,0.000000,0.000000,0.000000,0.000000,0.000000,0.054128,3,0
1430000,-0.002565,36.943542,0.017947,-0.013184,26.028799,0.035858,-0.003982,0.040576,1.569169,-0.071888,0.000542,0.003241,-0.000139,-0.010737,0.000001,0.000336,0.002656,0.032349,0.032017,0.206400,0.206370,0.158785,0.382545,0.000000,0.000000,0.000000,0.000000,0.000000,0.000000,0.000000,0.000000,0.000000,0.000000,0.000000,0.000000,0.031347,3,0
1440000,-0.002606,37.205566,0.018908,-0.013256,26.036499,0.036995,-0.003995,0.040955,1.569163,-0.072188,0.000559,0.003011,-0.000145,-0.010838,0.000001,0.000477,0.002699,0.049213,0.022960,0.206582,0.206551,0.158436,0.380357,0.000000,0.000000,0.000000,0.000000,0.000000,0.000000,0.000000,0.000000,0.000000,0.000000,0.000000,0.000000,0.047595,3,0
1450000,-0.002648,37.464130,0.018648,-0.013460,26.038025,0.036456,-0.004010,0.040813,1.569150,-0.071861,0.000575,0.003256,-0.000150,-0.010726,0.000001,0.000564,0.002742,-0.053860,-0.024315,0.206765,0.206733,0.158089,0.378232,0.000000,0.000000,0.000000,0.000000,0.000000,0.000000,0.000000,0.000000,0.000000,0.000000,0.000000,0.000000,0.052077,3,0
1460000,-0.002690,37.726131,0.018131,-0.013633,26.045713,0.035468,-0.004024,0.041176,1.569148,-0.072138,0.000591,0.003577,-0.000156,-0.010824,0.000001,0.000513,0.002786,0.045380,-0.033321,0.206951,0.206918,0.157743,0.376166,0.000000,0.000000,0.000000,0.000000,0.000000,0.000000,0.000000,0.000000,0.000000,0.000000,0.000000,0.000000,0.043891,3,0
1470000,-0.002732,37.985344,0.017028,-0.013689,26.048229,0.033807,-0.004048,0.041105,1.569134,-0.071914,0.000608,0.004134,-0.000162,-0.010746,0.000001,0.000737,0.002829,-0.037788,-0.055831,0.207138,0.207104,0.157400,0.374158,0.000000,0.000000,0.000000,0.000000,0.000000,0.000000,0.000000,0.000000,0.000000,0.000000,0.000000,0.000000,0.036597,3,0
1480000,-0.002774,38.243176,0.016410,-0.013898,26.048203,0.033141,-0.004055,0.040816,1.569130,-0.071448,0.000625,0.004515,-0.000168,-0.010580,0.000001,0.001215,0.002873,-0.078358,-0.037254,0.207327,0.207291,0.157060,0.372207,0.000000,0.000000,0.000000,0.000000,0.000000,0.000000,0.000000,0.000000,0.000000,0.000000,0.000000,0.000000,0.075708,3,0
1490000,-0.002814,38.506512,0.017352,-0.013940,26.057980,0.034078,-0.004076,0.041367,1.569116,-0.071929,0.000642,0.004265,-0.000174,-0.010755,0.000001,0.001157,0.002915,0.081272,0.023860,0.207518,0.207481,0.156722,0.370310,0.000000,0.000000,0.000000,0.000000,0.000000,0.000000,0.000000,0.000000,0.000000,0.000000,0.000000,0.000000,0.078515,3,0
1500000,-0.002855,38.769100,0.016390,-0.014052,26.066422,0.032577,-0.004093,0.041787,1.569114,-0.072265,0.000658,0.004752,-0.000180,-0.010881,0.000001,0.000912,0.002956,0.056385,-0.049612,0.207711,0.207673,0.156386,0.368468,0.000000,0.000000,0.000000,0.000000,0.000000,0.000000,0.000000,0.000000,0.000000,0.000000,0.000000,0.000000,0.054499,3,0
1510000,-0.002896,39.029560,0.015411,-0.014255,26.070908,0.031317,-0.004103,0.041870,1.569100,-0.072224,0.000675,0.005259,-0.000187,-0.010868,0.000001,0.000422,0.002999,-0.007500,-0.050343,0.207905,0.207866,0.156053,0.366680,0.000000,0.000000,0.000000,0.000000,0.000000,0.000000,0.000000,0.000000,0.000000,0.000000,0.000000,0.000000,0.007805,3,0
1520000,-0.002937,39.287235,0.014645,-0.014430,26.070169,0.030185,-0.004108,0.041524,1.569100,-0.071708,0.000693,0.005702,-0.000193,-0.010672,0.000001,0.001569,0.003042,-0.089096,-0.042308,0.208102,0.208060,0.155724,0.364943,0.000000,0.000000,0.000000,0.000000,0.000000,0.000000,0.000000,0.000000,0.000000,0.000000,0.000000,0.000000,0.086064,3,0
1530000,-0.002978,39.547680,0.014634,-0.014584,26.074471,0.030046,-0.004121,0.041601,1.569091,-0.071658,0.000710,0.005828,-0.000200,-0.010654,0.000001,0.000038,0.003085,-0.008820,-0.012243,0.208299,0.208257,0.155397,0.363256,0.000000,0.000000,0.000000,0.000000,0.000000,0.000000,0.000000,0.000000,0.000000,0.000000,0.000000,0.000000,0.009020,3,0
1540000,-0.003018,39.806728,0.013550,-0.014621,26.076204,0.028561,-0.004130,0.041463,1.569085,-0.071371,0.000728,0.006387,-0.000207,-0.010543,0.000001,0.000888,0.003126,-0.050644,-0.054018,0.208499,0.208455,0.155073,0.361617,0.000000,0.000000,0.000000,0.000000,0.000000,0.000000,0.000000,0.000000,0.000000,0.000000,0.000000,0.000000,0.048990,3,0
1550000,-0.003059,40.069221,0.012604,-0.014771,26.084095,0.027332,-0.004138,0.041849,1.569076,-0.071648,0.000745,0.006864,-0.000214,-0.010655,0.000001,0.000740,0.003168,0.048115,-0.047505,0.208700,0.208654,0.154752,0.360026,0.000000,0.000000,0.000000,0.000000,0.000000,0.000000,0.000000,0.000000,0.000000,0.000000,0.000000,0.000000,0.046533,3,0
1560000,-0.003099,40.328884,0.011920,-0.014947,26.086767,0.026564,-0.004143,0.041787,1.569061,-0.071449,0.000762,0.007257,-0.000221,-0.010577,0.000001,0.000435,0.003210,-0.035549,-0.037606,0.208902,0.208855,0.154435,0.358482,0.000000,0.000000,0.000000,0.000000,0.000000,0.000000,0.000000,0.000000,0.000000,0.000000,0.000000,0.000000,0.034460,3,0
1570000,-0.003139,40.587837,0.011100,-0.015031,26.088140,0.025535,-0.004151,0.041596,1.569045,-0.071134,0.000780,0.007711,-0.000229,-0.010449,0.000001,0.000817,0.003251,-0.056690,-0.042883,0.209106,0.209057,0.154121,0.356983,0.000000,0.000000,0.000000,0.000000,0.000000,0.000000,0.000000,0.000000,0.000000,0.000000,0.000000,0.000000,0.054816,3,0
1580000,-0.003177,40.848148,0.012146,-0.015118,26.091902,0.026764,-0.004169,0.041612,1.569026,-0.071035,0.000799,0.007397,-0.000236,-0.010406,0.000001,0.000203,0.003292,-0.017471,0.030605,0.209310,0.209260,0.153810,0.355527,0.000000,0.000000,0.000000,0.000000,0.000000,0.000000,0.000000,0.000000,0.000000,0.000000,0.000000,0.000000,0.017150,3,0
1590000,-0.003215,41.111214,0.012531,-0.015236,26.100540,0.026897,-0.004177,0.042060,1.569004,-0.071366,0.000817,0.007332,-0.000244,-0.010546,0.000001,0.000587,0.003331,0.060120,0.005107,0.209516,0.209465,0.153503,0.354113,0.000000,0.000000,0.000000,0.000000,0.000000,0.000000,0.000000,0.000000,0.000000,0.000000,0.000000,0.000000,0.058111,3,0
1600000,-0.003252,41.372810,0.013262,-0.015353,26.106468,0.027547,-0.004177,0.042264,1.568997,-0.071450,0.000836,0.007139,-0.000252,-0.010582,0.000002,0.000095,0.003371,0.015636,0.018209,0.209723,0.209670,0.153200,0.352742,0.000000,0.000000,0.000000,0.000000,0.000000,0.000000,0.000000,0.000000,0.000000,0.000000,0.000000,0.000000,0.015441,3,0
1610000,-0.003289,41.630878,0.013691,-0.015373,26.105770,0.027899,-0.004193,0.041889,1.568996,-0.070980,0.000855,0.007103,-0.000260,-0.010376,0.000001,0.001223,0.003408,-0.086987,0.005148,0.209931,0.209876,0.152900,0.351410,0.000000,0.000000,0.000000,0.000000,0.000000,0.000000,0.000000,0.000000,0.000000,0.000000,0.000000,0.000000,0.084007,3,0
1620000,-0.003326,41.888962,0.013341,-0.015534,26.105148,0.027367,-0.004206,0.041516,1.568978,-0.070517,0.000873,0.007392,-0.000269,-0.010171,0.000001,0.001316,0.003447,-0.086624,-0.025671,0.210139,0.210083,0.152604,0.350118,0.000000,0.000000,0.000000,0.000000,0.000000,0.000000,0.000000,0.000000,0.000000,0.000000,0.000000,0.000000,0.083665,3,0
1630000,-0.003364,42.150532,0.012382,-0.015642,26.110764,0.026077,-0.004217,0.041718,1.568971,-0.070590,0.000891,0.007902,-0.000277,-0.010207,0.000001,0.000411,0.003485,0.013123,-0.048486,0.210348,0.210290,0.152311,0.348862,0.000000,0.000000,0.000000,0.000000,0.000000,0.000000,0.000000,0.000000,0.000000,0.000000,0.000000,0.000000,0.013089,3,0
1640000,-0.003398,42.413418,0.013680,-0.015672,26.118773,0.027545,-0.004225,0.042117,1.568956,-0.070848,0.000910,0.007452,-0.000285,-0.010323,0.000002,0.000677,0.003523,0.049679,0.041354,0.210557,0.210497,0.152023,0.347644,0.000000,0.000000,0.000000,0.000000,0.000000,0.000000,0.000000,0.000000,0.000000,0.000000,0.000000,0.000000,0.048067,3,0
1650000,-0.003434,42.675537,0.014431,-0.015847,26.125378,0.028477,-0.004229,0.042374,1.568942,-0.070979,0.000929,0.007245,-0.000294,-0.010383,0.000002,0.000163,0.003559,0.025257,0.018890,0.210767,0.210705,0.151738,0.346463,0.000000,0.000000,0.000000,0.000000,0.000000,0.000000,0.000000,0.000000,0.000000,0.000000,0.000000,0.000000,0.024617,3,0
1660000,-0.003469,42.933403,0.014806,-0.015948,26.123953,0.029020,-0.004236,0.041917,1.568936,-0.070476,0.000948,0.007242,-0.000303,-0.010144,0.000002,0.001540,0.003596,-0.097775,0.002358,0.210977,0.210914,0.151457,0.345315,0.000000,0.000000,0.000000,0.000000,0.000000,0.000000,0.000000,0.000000,0.000000,0.000000,0.000000,0.000000,0.094401,3,0
1670000,-0.003503,43.190563,0.015895,-0.015996,26.121140,0.030407,-0.004247,0.041332,1.568933,-0.069878,0.000967,0.006945,-0.000312,-0.009855,0.000001,0.002355,0.003632,-0.117081,0.030271,0.211187,0.211122,0.151180,0.344200,0.000000,0.000000,0.000000,0.000000,0.000000,0.000000,0.000000,0.000000,0.000000,0.000000,0.000000,0.000000,0.113008,3,0
1680000,-0.003538,43.452656,0.015285,-0.016132,26.127491,0.029475,-0.004257,0.041598,1.568923,-0.069998,0.000985,0.007329,-0.000321,-0.009916,0.000002,0.000302,0.003667,0.023369,-0.036156,0.211397,0.211331,0.150906,0.343118,0.000000,0.000000,0.000000,0.000000,0.000000,0.000000,0.000000,0.000000,0.000000,0.000000,0.000000,0.000000,0.022813,3,0
1690000,-0.003572,43.713261,0.016410,-0.016208,26.130987,0.030747,-0.004263,0.041593,1.568906,-0.069896,0.001004,0.006980,-0.000330,-0.009863,0.000002,0.000241,0.003703,-0.020123,0.032744,0.211607,0.211539,0.150637,0.342067,0.000000,0.000000,0.000000,0.000000,0.000000,0.000000,0.000000,0.000000,0.000000,0.000000,0.000000,0.000000,0.019731,3,0
1700000,-0.003605,43.971733,0.016242,-0.016259,26.130520,0.030390,-0.004278,0.041218,1.568889,-0.069493,0.001023,0.007217,-0.000340,-0.009661,0.000002,0.001148,0.003737,-0.081974,-0.019983,0.211816,0.211746,0.150372,0.341047,0.000000,0.000000,0.000000,0.000000,0.000000,0.000000,0.000000,0.000000,0.000000,0.000000,0.000000,0.000000,0.079168,3,0
1710000,-0.003637,44.230183,0.017099,-0.016322,26.129972,0.031177,-0.004280,0.040836,1.568873,-0.069094,0.001042,0.007009,-0.000349,-0.009455,0.000001,0.001156,0.003771,-0.082012,0.021076,0.212025,0.211953,0.150110,0.340056,0.000000,0.000000,0.000000,0.000000,0.000000,0.000000,0.000000,0.000000,0.000000,0.000000,0.000000,0.000000,0.079193,3,0
1720000,-0.003668,44.490730,0.018034,-0.016361,26.133259,0.032334,-0.004290,0.040815,1.568860,-0.068985,0.001061,0.006746,-0.000359,-0.009397,0.000001,0.000181,0.003803,-0.022396,0.024530,0.212232,0.212160,0.149853,0.339092,0.000000,0.000000,0.000000,0.000000,0.000000,0.000000,0.000000,0.000000,0.000000,0.000000,0.000000,0.000000,0.021904,3,0
