time_us,pos_x,pos_y,pos_z,vel_x,vel_y,vel_z,roll,pitch,yaw,bias_ax,bias_ay,bias_az,bias_gx,bias_gy,bias_gz,nis,innov_x,innov_y,innov_z,cov_pos_x,cov_pos_y,cov_pos_z,cov_yaw,des_speed,des_heading,des_climb,pid_speed,pid_yaw,pid_alt,speed_meas,yaw_meas,climb_meas,fwd_accel,yaw_rate,vert_accel,drift_m,nav_mode,mission_state
0,-0.000002,0.150001,0.000001,-0.000359,25.000103,0.000372,0.000011,-0.000006,1.570798,0.000000,0.000000,0.000000,0.000000,0.000000,0.000000,0.006250,0.000004,-0.250004,-0.000004,2.400038,2.400038,3.600017,1.000518,0.000000,0.000000,0.000000,0.000000,0.000000,0.000000,0.000000,0.000000,0.000000,0.000000,0.000000,0.000000,0.150001,1,0
10000,-0.000007,0.359552,-0.014426,-0.000780,25.000307,0.000613,0.000026,-0.000017,1.570805,0.000000,0.000000,0.000000,0.000000,0.000000,0.000000,0.002541,0.000010,-0.141580,-0.038489,1.714420,1.714420,2.250079,1.001073,0.000000,0.000000,0.000000,0.000000,0.000000,0.000000,0.000000,0.000000,0.000000,0.000000,0.000000,0.000000,0.101126,3,0
20000,-0.000015,0.602208,-0.026697,-0.001199,25.000656,0.000623,0.000055,-0.000019,1.570815,0.000001,0.000000,0.000000,0.000000,0.000000,-0.000000,0.000387,0.000019,-0.033070,-0.045015,1.333616,1.333616,1.636554,1.001655,0.000000,0.000000,0.000000,0.000000,0.000000,0.000000,0.000000,0.000000,0.000000,0.000000,0.000000,0.000000,0.025720,3,0
30000,-0.000025,0.863535,-0.022316,-0.001530,25.001213,0.001034,0.000081,-0.000034,1.570817,-0.000000,0.000000,0.000000,-0.000000,-0.000000,0.000000,0.000582,0.000030,0.062212,0.020390,1.091392,1.091392,1.286065,1.002257,0.000000,0.000000,0.000000,0.000000,0.000000,0.000000,0.000000,0.000000,0.000000,0.000000,0.000000,0.000000,0.050896,3,0
40000,-0.000037,1.107378,-0.025216,-0.001848,25.001432,0.001315,0.000097,-0.000034,1.570814,0.000001,0.000000,0.000001,-0.000000,0.000000,-0.000000,0.000264,0.000043,-0.040089,-0.016499,0.923811,0.923811,1.059385,1.002869,0.000000,0.000000,0.000000,0.000000,0.000000,0.000000,0.000000,0.000000,0.000000,0.000000,0.000000,0.000000,0.033917,3,0
50000,-0.000051,1.348682,-0.026968,-0.002241,25.001415,0.001546,0.000110,-0.000037,1.570817,0.000004,0.000000,0.000001,-0.000000,0.000000,-0.000000,0.000635,0.000059,-0.065266,-0.011778,0.801036,0.801036,0.900822,1.003484,0.000000,0.000000,0.000000,0.000000,0.000000,0.000000,0.000000,0.000000,0.000000,0.000000,0.000000,0.000000,0.056553,3,0
60000,-0.000068,1.604743,-0.028344,-0.002601,25.002211,0.001760,0.000138,-0.000032,1.570814,0.000001,0.000000,0.000002,-0.000000,-0.000000,0.000000,0.000403,0.000077,0.051249,-0.010676,0.707270,0.707270,0.783741,1.004094,0.000000,0.000000,0.000000,0.000000,0.000000,0.000000,0.000000,0.000000,0.000000,0.000000,0.000000,0.000000,0.045208,3,0
70000,-0.000087,1.858330,-0.033249,-0.002950,25.002907,0.001632,0.000161,-0.000030,1.570815,-0.000002,0.000000,0.000005,0.000000,-0.000000,0.000000,0.000437,0.000097,0.033728,-0.042577,0.633370,0.633370,0.693801,1.004688,0.000000,0.000000,0.000000,0.000000,0.000000,0.000000,0.000000,0.000000,0.000000,0.000000,0.000000,0.000000,0.030168,3,0
80000,-0.000110,2.115850,-0.038403,-0.003390,25.003868,0.001465,0.000184,-0.000035,1.570815,-0.000010,0.000000,0.000010,0.000000,-0.000000,0.000000,0.001296,0.000121,0.078319,-0.049850,0.573673,0.573673,0.622594,1.005260,0.000000,0.000000,0.000000,0.000000,0.000000,0.000000,0.000000,0.000000,0.000000,0.000000,0.000000,0.000000,0.070830,3,0
90000,-0.000134,2.372818,-0.038060,-0.003696,25.004992,0.001571,0.000205,-0.000033,1.570822,-0.000020,0.000000,0.000009,-0.000000,-0.000000,0.000000,0.000956,0.000147,0.079213,0.003480,0.524488,0.524488,0.564865,1.005801,0.000000,0.000000,0.000000,0.000000,0.000000,0.000000,0.000000,0.000000,0.000000,0.000000,0.000000,0.000000,0.072289,3,0
100000,-0.000161,2.630971,-0.041554,-0.004086,25.006409,0.001518,0.000224,-0.000027,1.570829,-0.000036,0.000000,0.000016,-0.000000,-0.000000,0.000000,0.001802,0.000175,0.100539,-0.040753,0.483303,0.483303,0.517162,1.006301,0.000000,0.000000,0.000000,0.000000,0.000000,0.000000,0.000000,0.000000,0.000000,0.000000,0.000000,0.000000,0.092441,3,0
110000,-0.000190,2.887085,-0.044206,-0.004501,25.007605,0.001569,0.000238,-0.000036,1.570830,-0.000051,0.000000,0.000022,-0.000000,-0.000001,0.000000,0.001183,0.000206,0.080920,-0.033591,0.448354,0.448354,0.477121,1.006754,0.000000,0.000000,0.000000,0.000000,0.000000,0.000000,0.000000,0.000000,0.000000,0.000000,0.000000,0.000000,0.074874,3,0
120000,-0.000222,3.137424,-0.042726,-0.004863,25.008085,0.002097,0.000259,-0.000039,1.570844,-0.000052,0.000000,0.000017,-0.000000,-0.000001,0.000000,0.000063,0.000239,0.003703,0.019789,0.418359,0.418359,0.443071,1.007150,0.000000,0.000000,0.000000,0.000000,0.000000,0.000000,0.000000,0.000000,0.000000,0.000000,0.000000,0.000000,0.003452,3,0
130000,-0.000256,3.392179,-0.042304,-0.005137,25.009329,0.002409,0.000281,-0.000039,1.570853,-0.000070,0.000000,0.000016,-0.000000,-0.000001,0.000000,0.000800,0.000274,0.071423,0.005773,0.392369,0.392369,0.413797,1.007481,0.000000,0.000000,0.000000,0.000000,0.000000,0.000000,0.000000,0.000000,0.000000,0.000000,0.000000,0.000000,0.066753,3,0
140000,-0.000292,3.648128,-0.042350,-0.005555,25.011057,0.002653,0.000302,-0.000034,1.570853,-0.000098,0.000000,0.000016,-0.000000,-0.000002,0.000000,0.001411,0.000311,0.094959,-0.001119,0.369667,0.369667,0.388393,1.007739,0.000000,0.000000,0.000000,0.000000,0.000000,0.000000,0.000000,0.000000,0.000000,0.000000,0.000000,0.000000,0.089109,3,0
150000,-0.000330,3.899286,-0.041540,-0.005810,25.011696,0.003031,0.000313,-0.000030,1.570851,-0.000104,0.000000,0.000012,-0.000000,-0.000002,0.000000,0.000076,0.000350,0.017905,0.012812,0.349695,0.349695,0.366172,1.007915,0.000000,0.000000,0.000000,0.000000,0.000000,0.000000,0.000000,0.000000,0.000000,0.000000,0.000000,0.000000,0.016864,3,0
160000,-0.000370,4.150800,-0.044324,-0.006165,25.012569,0.002485,0.000338,-0.000029,1.570861,-0.000114,0.000001,0.000030,-0.000000,-0.000002,0.000000,0.000473,0.000392,0.025165,-0.048751,0.332021,0.332021,0.346600,1.008002,0.000000,0.000000,0.000000,0.000000,0.000000,0.000000,0.000000,0.000000,0.000000,0.000000,0.000000,0.000000,0.023776,3,0
170000,-0.000412,4.407859,-0.047132,-0.006518,25.014996,0.001907,0.000363,-0.000007,1.570866,-0.000170,0.000001,0.000052,-0.000000,-0.000003,0.000000,0.003149,0.000435,0.131464,-0.051655,0.316298,0.316298,0.329260,1.007991,0.000000,0.000000,0.000000,0.000000,0.000000,0.000000,0.000000,0.000000,0.000000,0.000000,0.000000,0.000000,0.124534,3,0
180000,-0.000456,4.656693,-0.045266,-0.006833,25.014999,0.002647,0.000380,-0.000011,1.570869,-0.000157,0.000001,0.000035,-0.000000,-0.000003,0.000000,0.000305,0.000481,-0.026227,0.035274,0.302247,0.302247,0.313817,1.007875,0.000000,0.000000,0.000000,0.000000,0.000000,0.000000,0.000000,0.000000,0.000000,0.000000,0.000000,0.000000,0.024909,3,0
190000,-0.000502,4.907963,-0.045495,-0.007143,25.015820,0.002846,0.000398,-0.000020,1.570872,-0.000170,0.000001,0.000038,-0.000000,-0.000003,0.000000,0.000089,0.000528,0.023125,-0.005162,0.289642,0.289642,0.300003,1.007645,0.000000,0.000000,0.000000,0.000000,0.000000,0.000000,0.000000,0.000000,0.000000,0.000000,0.000000,0.000000,0.022014,3,0
200000,-0.000551,5.164140,-0.043938,-0.007527,25.018600,0.003611,0.000420,-0.000009,1.570873,-0.000245,0.000002,0.000020,-0.000000,-0.000005,0.000000,0.002833,0.000578,0.129666,0.031852,0.278296,0.278296,0.287598,1.007295,0.000000,0.000000,0.000000,0.000000,0.000000,0.000000,0.000000,0.000000,0.000000,0.000000,0.000000,0.000000,0.123653,3,0
210000,-0.000602,5.420222,-0.045741,-0.007940,25.021486,0.003038,0.000441,0.000004,1.570877,-0.000330,0.000002,0.000045,-0.000000,-0.000008,0.000000,0.003023,0.000631,0.131888,-0.039954,0.268055,0.268055,0.276421,1.006816,0.000000,0.000000,0.000000,0.000000,0.000000,0.000000,0.000000,0.000000,0.000000,0.000000,0.000000,0.000000,0.125997,3,0
220000,-0.000656,5.671942,-0.047609,-0.008272,25.022635,0.002354,0.000469,0.000015,1.570882,-0.000354,0.000003,0.000074,-0.000000,-0.000009,0.000000,0.000485,0.000685,0.034808,-0.042802,0.258789,0.258789,0.266321,1.006202,0.000000,0.000000,0.000000,0.000000,0.000000,0.000000,0.000000,0.000000,0.000000,0.000000,0.000000,0.000000,0.033313,3,0
230000,-0.000710,5.925564,-0.049422,-0.008547,25.024748,0.001517,0.000492,0.000030,1.570893,-0.000416,0.000003,0.000106,-0.000000,-0.000011,0.000000,0.001347,0.000741,0.081260,-0.042842,0.250387,0.250387,0.257172,1.005446,0.000000,0.000000,0.000000,0.000000,0.000000,0.000000,0.000000,0.000000,0.000000,0.000000,0.000000,0.000000,0.077872,3,0
240000,-0.000766,6.181711,-0.050601,-0.008817,25.028416,0.001120,0.000517,0.000055,1.570895,-0.000536,0.000004,0.000130,-0.000000,-0.000015,0.000000,0.003527,0.000799,0.145679,-0.028836,0.242758,0.242758,0.248866,1.004541,0.000000,0.000000,0.000000,0.000000,0.000000,0.000000,0.000000,0.000000,0.000000,0.000000,0.000000,0.000000,0.139786,3,0
250000,-0.000825,6.437032,-0.052359,-0.009192,25.031700,0.000312,0.000540,0.000087,1.570898,-0.000650,0.000005,0.000169,-0.000000,-0.000019,0.000000,0.002935,0.000858,0.128044,-0.044023,0.235821,0.235821,0.241314,1.003481,0.000000,0.000000,0.000000,0.000000,0.000000,0.000000,0.000000,0.000000,0.000000,0.000000,0.000000,0.000000,0.123014,3,0
260000,-0.000884,6.692369,-0.051961,-0.009470,25.035275,0.000680,0.000561,0.000127,1.570911,-0.000776,0.000005,0.000159,-0.000000,-0.000023,0.000000,0.002772,0.000920,0.131114,0.010052,0.229508,0.229507,0.234436,1.002258,0.000000,0.000000,0.000000,0.000000,0.000000,0.000000,0.000000,0.000000,0.000000,0.000000,0.000000,0.000000,0.126102,3,0
270000,-0.000945,6.944024,-0.051397,-0.009670,25.036570,0.001326,0.000584,0.000131,1.570925,-0.000812,0.000006,0.000144,-0.000000,-0.000025,0.000000,0.000228,0.000981,0.034773,0.014569,0.223758,0.223758,0.228165,1.000869,0.000000,0.000000,0.000000,0.000000,0.000000,0.000000,0.000000,0.000000,0.000000,0.000000,0.000000,0.000000,0.033490,3,0
280000,-0.001007,7.200250,-0.052984,-0.010009,25.041033,0.000616,0.000605,0.000188,1.570937,-0.000989,0.000008,0.000191,-0.000000,-0.000032,0.000000,0.004453,0.001045,0.160805,-0.043241,0.218520,0.218520,0.222443,0.999307,0.000000,0.000000,0.000000,0.000000,0.000000,0.000000,0.000000,0.000000,0.000000,0.000000,0.000000,0.000000,0.154952,3,0
290000,-0.001071,7.452929,-0.051413,-0.010298,25.043135,0.001860,0.000629,0.000208,1.570950,-0.001064,0.000009,0.000141,-0.000000,-0.000035,0.000000,0.000949,0.001110,0.063565,0.043189,0.213749,0.213749,0.217219,0.997567,0.000000,0.000000,0.000000,0.000000,0.000000,0.000000,0.000000,0.000000,0.000000,0.000000,0.000000,0.000000,0.061310,3,0
300000,-0.001135,7.704396,-0.051912,-0.010490,25.044376,0.001633,0.000643,0.000214,1.570955,-0.001101,0.000010,0.000159,-0.000000,-0.000037,0.000000,0.000175,0.001176,0.029533,-0.014664,0.209404,0.209404,0.212446,0.995645,0.000000,0.000000,0.000000,0.000000,0.000000,0.000000,0.000000,0.000000,0.000000,0.000000,0.000000,0.000000,0.028525,3,0
310000,-0.001201,7.957455,-0.053125,-0.010844,25.046862,0.000952,0.000663,0.000249,1.570949,-0.001203,0.000012,0.000206,-0.000000,-0.000041,0.000000,0.001139,0.001244,0.076238,-0.035505,0.205450,0.205450,0.208087,0.993536,0.000000,0.000000,0.000000,0.000000,0.000000,0.000000,0.000000,0.000000,0.000000,0.000000,0.000000,0.000000,0.073637,3,0
320000,-0.001268,8.212679,-0.053903,-0.011055,25.051342,0.000522,0.000686,0.000301,1.570956,-0.001403,0.000014,0.000239,-0.000000,-0.000050,0.000000,0.003299,0.001312,0.141217,-0.023215,0.201855,0.201855,0.204105,0.991237,0.000000,0.000000,0.000000,0.000000,0.000000,0.000000,0.000000,0.000000,0.000000,0.000000,0.000000,0.000000,0.136472,3,0
330000,-0.001335,8.464685,-0.054662,-0.011225,25.053144,0.000268,0.000710,0.000310,1.570966,-0.001470,0.000016,0.000273,-0.000001,-0.000053,0.000000,0.000411,0.001381,0.044979,-0.022987,0.198590,0.198590,0.200469,0.988743,0.000000,0.000000,0.000000,0.000000,0.000000,0.000000,0.000000,0.000000,0.000000,0.000000,0.000000,0.000000,0.043511,3,0
340000,-0.001404,8.719488,-0.052847,-0.011548,25.057449,0.002041,0.000738,0.000368,1.570976,-0.001678,0.000018,0.000186,-0.000001,-0.000064,0.000000,0.003252,0.001451,0.130898,0.055098,0.195631,0.195631,0.197151,0.986053,0.000000,0.000000,0.000000,0.000000,0.000000,0.000000,0.000000,0.000000,0.000000,0.000000,0.000000,0.000000,0.126638,3,0
350000,-0.001472,8.972475,-0.051491,-0.011738,25.060316,0.003258,0.000765,0.000401,1.570976,-0.001802,0.000021,0.000118,-0.000001,-0.000070,0.000000,0.001178,0.001521,0.074839,0.041264,0.192954,0.192954,0.194125,0.983164,0.000000,0.000000,0.000000,0.000000,0.000000,0.000000,0.000000,0.000000,0.000000,0.000000,0.000000,0.000000,0.072447,3,0
360000,-0.001542,9.224999,-0.050460,-0.011936,25.062677,0.004558,0.000782,0.000437,1.570974,-0.001908,0.000024,0.000064,-0.000001,-0.000075,0.000000,0.000746,0.001592,0.060371,0.031188,0.190538,0.190538,0.191370,0.980073,0.000000,0.000000,0.000000,0.000000,0.000000,0.000000,0.000000,0.000000,0.000000,0.000000,0.000000,0.000000,0.058475,3,0
370000,-0.001613,9.480831,-0.049385,-0.012264,25.068584,0.005784,0.000798,0.000540,1.570984,-0.002214,0.000027,0.000004,-0.000001,-0.000092,0.000000,0.004602,0.001665,0.165644,0.032642,0.188365,0.188365,0.188863,0.976780,0.000000,0.000000,0.000000,0.000000,0.000000,0.000000,0.000000,0.000000,0.000000,0.000000,0.000000,0.000000,0.160451,3,0
380000,-0.001685,9.736128,-0.050329,-0.012533,25.073956,0.004929,0.000819,0.000635,1.570992,-0.002500,0.000030,0.000066,-0.000001,-0.000108,0.000000,0.003720,0.001739,0.148300,-0.032261,0.186418,0.186418,0.186586,0.973282,0.000000,0.000000,0.000000,0.000000,0.000000,0.000000,0.000000,0.000000,0.000000,0.000000,0.000000,0.000000,0.143703,3,0
390000,-0.001757,9.993368,-0.049335,-0.012730,25.081774,0.006058,0.000830,0.000778,1.570995,-0.002928,0.000034,0.000004,-0.000002,-0.000132,0.000000,0.007345,0.001812,0.211010,0.030666,0.184680,0.184680,0.184522,0.969581,0.000000,0.000000,0.000000,0.000000,0.000000,0.000000,0.000000,0.000000,0.000000,0.000000,0.000000,0.000000,0.204523,3,0
400000,-0.001829,10.247631,-0.047886,-0.012909,25.086180,0.007645,0.000842,0.000850,1.571006,-0.003166,0.000038,-0.000092,-0.000002,-0.000146,0.000001,0.002390,0.001886,0.112725,0.045585,0.183137,0.183137,0.182656,0.965676,0.000000,0.000000,0.000000,0.000000,0.000000,0.000000,0.000000,0.000000,0.000000,0.000000,0.000000,0.000000,0.109300,3,0
410000,-0.001902,10.505050,-0.047148,-0.013194,25.094519,0.008518,0.000860,0.000998,1.571007,-0.003644,0.000042,-0.000140,-0.000002,-0.000174,0.000001,0.007635,0.001961,0.216237,0.021880,0.181775,0.181775,0.180971,0.961567,0.000000,0.000000,0.000000,0.000000,0.000000,0.000000,0.000000,0.000000,0.000000,0.000000,0.000000,0.000000,0.209695,3,0
420000,-0.001975,10.760742,-0.046409,-0.013406,25.100910,0.009581,0.000887,0.001119,1.571006,-0.004007,0.000047,-0.000190,-0.000002,-0.000197,0.000001,0.004088,0.002037,0.157524,0.021764,0.180582,0.180582,0.179456,0.957256,0.000000,0.000000,0.000000,0.000000,0.000000,0.000000,0.000000,0.000000,0.000000,0.000000,0.000000,0.000000,0.152796,3,0
430000,-0.002049,11.014766,-0.046132,-0.013588,25.105206,0.009959,0.000912,0.001200,1.571014,-0.004248,0.000052,-0.000205,-0.000003,-0.000212,0.000001,0.001641,0.002112,0.100557,0.006032,0.179547,0.179547,0.178097,0.952744,0.000000,0.000000,0.000000,0.000000,0.000000,0.000000,0.000000,0.000000,0.000000,0.000000,0.000000,0.000000,0.097570,3,0
440000,-0.002123,11.273090,-0.047368,-0.013867,25.114988,0.008744,0.000938,0.001410,1.571014,-0.004857,0.000057,-0.000092,-0.000003,-0.000251,0.000001,0.009967,0.002188,0.244070,-0.045411,0.178658,0.178658,0.176883,0.948034,0.000000,0.000000,0.000000,0.000000,0.000000,0.000000,0.000000,0.000000,0.000000,0.000000,0.000000,0.000000,0.236812,3,0
450000,-0.002197,11.530894,-0.046456,-0.014001,25.124348,0.009903,0.000954,0.001600,1.571023,-0.005437,0.000063,-0.000164,-0.000003,-0.000290,0.000001,0.008257,0.002264,0.224193,0.028099,0.177906,0.177906,0.175803,0.943128,0.000000,0.000000,0.000000,0.000000,0.000000,0.000000,0.000000,0.000000,0.000000,0.000000,0.000000,0.000000,0.217557,3,0
460000,-0.002272,11.787610,-0.047337,-0.014272,25.132315,0.009051,0.000975,0.001759,1.571026,-0.005934,0.000070,-0.000074,-0.000004,-0.000323,0.000001,0.005718,0.002341,0.184962,-0.033730,0.177281,0.177281,0.174847,0.938029,0.000000,0.000000,0.000000,0.000000,0.000000,0.000000,0.000000,0.000000,0.000000,0.000000,0.000000,0.000000,0.179511,3,0
470000,-0.002347,12.042094,-0.048436,-0.014545,25.137266,0.007620,0.000987,0.001865,1.571026,-0.006232,0.000076,0.000041,-0.000004,-0.000344,0.000001,0.002128,0.002418,0.107078,-0.041005,0.176774,0.176774,0.174006,0.932741,0.000000,0.000000,0.000000,0.000000,0.000000,0.000000,0.000000,0.000000,0.000000,0.000000,0.000000,0.000000,0.103949,3,0
480000,-0.002423,12.300827,-0.049632,-0.014800,25.148264,0.006185,0.001001,0.002109,1.571029,-0.006953,0.000084,0.000168,-0.000005,-0.000395,0.000001,0.010436,0.002496,0.250122,-0.044117,0.176377,0.176377,0.173271,0.927268,0.000000,0.000000,0.000000,0.000000,0.000000,0.000000,0.000000,0.000000,0.000000,0.000000,0.000000,0.000000,0.242781,3,0
490000,-0.002499,12.554978,-0.050905,-0.015047,25.152796,0.004574,0.001027,0.002209,1.571030,-0.007223,0.000091,0.000307,-0.000005,-0.000415,0.000002,0.001680,0.002574,0.090673,-0.046425,0.176082,0.176082,0.172634,0.921614,0.000000,0.000000,0.000000,0.000000,0.000000,0.000000,0.000000,0.000000,0.000000,0.000000,0.000000,0.000000,0.088048,3,0
500000,-0.002575,12.809878,-0.051425,-0.015262,25.158354,0.004015,0.001040,0.002335,1.571036,-0.007576,0.000100,0.000368,-0.000006,-0.000441,0.000002,0.002196,0.002652,0.114781,-0.019764,0.175881,0.175881,0.172087,0.915785,0.000000,0.000000,0.000000,0.000000,0.000000,0.000000,0.000000,0.000000,0.000000,0.000000,0.000000,0.000000,0.111447,3,0
510000,-0.002649,13.069011,-0.051127,-0.015345,25.170227,0.004412,0.001068,0.002626,1.571030,-0.008392,0.000108,0.000339,-0.000007,-0.000503,0.000002,0.010734,0.002729,0.257404,0.009020,0.175768,0.175768,0.171622,0.909786,0.000000,0.000000,0.000000,0.000000,0.000000,0.000000,0.000000,0.000000,0.000000,0.000000,0.000000,0.000000,0.249878,3,0
520000,-0.002724,13.323578,-0.051312,-0.015589,25.175213,0.004204,0.001093,0.002744,1.571041,-0.008711,0.000118,0.000365,-0.000007,-0.000528,0.000002,0.001551,0.002806,0.097548,-0.008054,0.175736,0.175736,0.171234,0.903623,0.000000,0.000000,0.000000,0.000000,0.000000,0.000000,0.000000,0.000000,0.000000,0.000000,0.000000,0.000000,0.094730,3,0
530000,-0.002798,13.580636,-0.052421,-0.015723,25.183920,0.002862,0.001117,0.002954,1.571045,-0.009320,0.000127,0.000502,-0.000008,-0.000577,0.000002,0.005559,0.002883,0.180872,-0.040465,0.175778,0.175778,0.170914,0.897301,0.000000,0.000000,0.000000,0.000000,0.000000,0.000000,0.000000,0.000000,0.000000,0.000000,0.000000,0.000000,0.175596,3,0
540000,-0.002873,13.839570,-0.053073,-0.015957,25.195467,0.002117,0.001142,0.003241,1.571052,-0.010157,0.000138,0.000586,-0.000009,-0.000644,0.000002,0.009553,0.002959,0.241790,-0.023966,0.175888,0.175888,0.170658,0.890828,0.000000,0.000000,0.000000,0.000000,0.000000,0.000000,0.000000,0.000000,0.000000,0.000000,0.000000,0.000000,0.234720,3,0
550000,-0.002946,14.095109,-0.052622,-0.016076,25.201830,0.002740,0.001162,0.003399,1.571046,-0.010590,0.000149,0.000531,-0.000010,-0.000680,0.000002,0.002442,0.003035,0.121893,0.015149,0.176061,0.176061,0.170460,0.884209,0.000000,0.000000,0.000000,0.000000,0.000000,0.000000,0.000000,0.000000,0.000000,0.000000,0.000000,0.000000,0.118353,3,0
560000,-0.003017,14.351968,-0.052748,-0.016101,25.210199,0.002676,0.001186,0.003618,1.571048,-0.011191,0.000160,0.000551,-0.000011,-0.000731,0.000003,0.004382,0.003108,0.164474,-0.005419,0.176292,0.176292,0.170314,0.877452,0.000000,0.000000,0.000000,0.000000,0.000000,0.000000,0.000000,0.000000,0.000000,0.000000,0.000000,0.000000,0.159670,3,0
570000,-0.003086,14.607207,-0.053527,-0.016166,25.216000,0.001839,0.001203,0.003762,1.571055,-0.011589,0.000172,0.000659,-0.000012,-0.000765,0.000003,0.001962,0.003180,0.106319,-0.028501,0.176574,0.176574,0.170214,0.870564,0.000000,0.000000,0.000000,0.000000,0.000000,0.000000,0.000000,0.000000,0.000000,0.000000,0.000000,0.000000,0.103237,3,0
580000,-0.003156,14.863775,-0.054318,-0.016355,25.223934,0.001003,0.001225,0.003972,1.571056,-0.012162,0.000185,0.000771,-0.000013,-0.000816,0.000003,0.003736,0.003251,0.149205,-0.028649,0.176905,0.176904,0.170157,0.863553,0.000000,0.000000,0.000000,0.000000,0.000000,0.000000,0.000000,0.000000,0.000000,0.000000,0.000000,0.000000,0.144840,3,0
590000,-0.003224,15.123423,-0.054347,-0.016460,25.236887,0.001127,0.001242,0.004332,1.571050,-0.013147,0.000198,0.000776,-0.000014,-0.000904,0.000003,0.010142,0.003322,0.250378,-0.001363,0.177278,0.177277,0.170138,0.856426,0.000000,0.000000,0.000000,0.000000,0.000000,0.000000,0.000000,0.000000,0.000000,0.000000,0.000000,0.000000,0.243001,3,0
600000,-0.003290,15.382586,-0.054418,-0.016534,25.248816,0.001125,0.001258,0.004682,1.571054,-0.014070,0.000212,0.000787,-0.000015,-0.000988,0.000004,0.008496,0.003391,0.229149,-0.002913,0.177689,0.177689,0.170152,0.849192,0.000000,0.000000,0.000000,0.000000,0.000000,0.000000,0.000000,0.000000,0.000000,0.000000,0.000000,0.000000,0.222387,3,0
610000,-0.003357,15.640682,-0.054986,-0.016717,25.259089,0.000358,0.001283,0.004963,1.571047,-0.014846,0.000226,0.000872,-0.000017,-0.001061,0.000004,0.005818,0.003459,0.188533,-0.020423,0.178134,0.178134,0.170195,0.841857,0.000000,0.000000,0.000000,0.000000,0.000000,0.000000,0.000000,0.000000,0.000000,0.000000,0.000000,0.000000,0.182967,3,0
620000,-0.003421,15.897719,-0.056068,-0.016761,25.267509,-0.000970,0.001316,0.005200,1.571039,-0.015472,0.000241,0.001037,-0.000018,-0.001120,0.000004,0.003830,0.003526,0.149002,-0.038299,0.178610,0.178610,0.170264,0.834431,0.000000,0.000000,0.000000,0.000000,0.000000,0.000000,0.000000,0.000000,0.000000,0.000000,0.000000,0.000000,0.144607,3,0
630000,-0.003483,16.157265,-0.055772,-0.016734,25.279949,-0.000235,0.001349,0.005574,1.571042,-0.016459,0.000256,0.000989,-0.000019,-0.001216,0.000004,0.008561,0.003590,0.229822,0.010713,0.179113,0.179113,0.170356,0.826920,0.000000,0.000000,0.000000,0.000000,0.000000,0.000000,0.000000,0.000000,0.000000,0.000000,0.000000,0.000000,0.222989,3,0
640000,-0.003544,16.417515,-0.055823,-0.016877,25.293596,-0.000011,0.001381,0.005983,1.571046,-0.017548,0.000273,0.000996,-0.000021,-0.001323,0.000005,0.009983,0.003654,0.248455,-0.001732,0.179638,0.179638,0.170465,0.819334,0.000000,0.000000,0.000000,0.000000,0.000000,0.000000,0.000000,0.000000,0.000000,0.000000,0.000000,0.000000,0.241042,3,0
650000,-0.003603,16.676075,-0.055111,-0.016911,25.304255,0.001023,0.001400,0.006303,1.571048,-0.018383,0.000289,0.000880,-0.000023,-0.001407,0.000005,0.005749,0.003715,0.186857,0.025098,0.180184,0.180184,0.170591,0.811680,0.000000,0.000000,0.000000,0.000000,0.000000,0.000000,0.000000,0.000000,0.000000,0.000000,0.000000,0.000000,0.181282,3,0
660000,-0.003661,16.934752,-0.054213,-0.016999,25.315020,0.002441,0.001418,0.006629,1.571055,-0.019232,0.000306,0.000734,-0.000024,-0.001494,0.000005,0.005790,0.003775,0.186617,0.031213,0.180746,0.180746,0.170729,0.803967,0.000000,0.000000,0.000000,0.000000,0.000000,0.000000,0.000000,0.000000,0.000000,0.000000,0.000000,0.000000,0.181033,3,0
670000,-0.003717,17.195946,-0.053437,-0.016988,25.329918,0.003861,0.001453,0.007100,1.571049,-0.020464,0.000324,0.000607,-0.000026,-0.001622,0.000006,0.011532,0.003833,0.265776,0.026346,0.181322,0.181322,0.170877,0.796203,0.000000,0.000000,0.000000,0.000000,0.000000,0.000000,0.000000,0.000000,0.000000,0.000000,0.000000,0.000000,0.257771,3,0
680000,-0.003771,17.452406,-0.052890,-0.016982,25.336666,0.004869,0.001488,0.007297,1.571050,-0.020953,0.000343,0.000520,-0.000028,-0.001674,0.000006,0.001796,0.003889,0.103825,0.017781,0.181909,0.181909,0.171033,0.788395,0.000000,0.000000,0.000000,0.000000,0.000000,0.000000,0.000000,0.000000,0.000000,0.000000,0.000000,0.000000,0.100748,3,0
690000,-0.003823,17.712027,-0.052621,-0.016960,25.348787,0.005254,0.001521,0.007696,1.571041,-0.021937,0.000362,0.000480,-0.000030,-0.001780,0.000007,0.006811,0.003943,0.205116,0.007771,0.182505,0.182505,0.171194,0.780552,0.000000,0.000000,0.000000,0.000000,0.000000,0.000000,0.000000,0.000000,0.000000,0.000000,0.000000,0.000000,0.198914,3,0
700000,-0.003872,17.970533,-0.051156,-0.016982,25.358862,0.007476,0.001540,0.008009,1.571049,-0.022737,0.000381,0.000230,-0.000033,-0.001868,0.000007,0.004747,0.003995,0.164043,0.049480,0.183107,0.183107,0.171357,0.772681,0.000000,0.000000,0.000000,0.000000,0.000000,0.000000,0.000000,0.000000,0.000000,0.000000,0.000000,0.000000,0.159086,3,0
710000,-0.003921,18.230980,-0.051631,-0.017034,25.372078,0.006964,0.001575,0.008464,1.571046,-0.023844,0.000401,0.000328,-0.000035,-0.001992,0.000007,0.008133,0.004045,0.223499,-0.019277,0.183713,0.183712,0.171522,0.764790,0.000000,0.000000,0.000000,0.000000,0.000000,0.000000,0.000000,0.000000,0.000000,0.000000,0.000000,0.000000,0.216691,3,0
720000,-0.003967,18.492739,-0.052285,-0.016963,25.387526,0.006110,0.001604,0.008988,1.571055,-0.025157,0.000422,0.000458,-0.000037,-0.002141,0.000008,0.011119,0.004093,0.261103,-0.025261,0.184321,0.184320,0.171686,0.756886,0.000000,0.000000,0.000000,0.000000,0.000000,0.000000,0.000000,0.000000,0.000000,0.000000,0.000000,0.000000,0.253111,3,0
730000,-0.004011,18.753956,-0.051645,-0.016902,25.401876,0.007286,0.001637,0.009486,1.571057,-0.026369,0.000443,0.000349,-0.000040,-0.002281,0.000008,0.009198,0.004139,0.237736,0.020201,0.184928,0.184928,0.171847,0.748978,0.000000,0.000000,0.000000,0.000000,0.000000,0.000000,0.000000,0.000000,0.000000,0.000000,0.000000,0.000000,0.230445,3,0
740000,-0.004054,19.013407,-0.052836,-0.016986,25.412870,0.005696,0.001667,0.009864,1.571048,-0.027276,0.000465,0.000587,-0.000042,-0.002388,0.000009,0.005274,0.004183,0.175163,-0.044128,0.185535,0.185534,0.172003,0.741071,0.000000,0.000000,0.000000,0.000000,0.000000,0.000000,0.000000,0.000000,0.000000,0.000000,0.000000,0.000000,0.169795,3,0
750000,-0.004095,19.272335,-0.053749,-0.017006,25.422924,0.004588,0.001689,0.010212,1.571053,-0.028084,0.000488,0.000773,-0.000045,-0.002485,0.000009,0.004026,0.004226,0.154148,-0.033858,0.186137,0.186137,0.172155,0.733174,0.000000,0.000000,0.000000,0.000000,0.000000,0.000000,0.000000,0.000000,0.000000,0.000000,0.000000,0.000000,0.149423,3,0
760000,-0.004136,19.531981,-0.054778,-0.017058,25.434107,0.003246,0.001725,0.010596,1.571052,-0.029005,0.000511,0.000980,-0.000047,-0.002598,0.000009,0.005086,0.004268,0.173424,-0.037428,0.186735,0.186735,0.172299,0.725292,0.000000,0.000000,0.000000,0.000000,0.000000,0.000000,0.000000,0.000000,0.000000,0.000000,0.000000,0.000000,0.168077,3,0
770000,-0.004174,19.792332,-0.054500,-0.017040,25.446352,0.003741,0.001745,0.011045,1.571054,-0.030037,0.000534,0.000930,-0.000050,-0.002725,0.000010,0.005965,0.004308,0.191971,0.008569,0.187327,0.187327,0.172436,0.717432,0.000000,0.000000,0.000000,0.000000,0.000000,0.000000,0.000000,0.000000,0.000000,0.000000,0.000000,0.000000,0.186025,3,0
780000,-0.004210,20.054628,-0.054080,-0.016971,25.461754,0.004313,0.001770,0.011622,1.571051,-0.031396,0.000558,0.000851,-0.000053,-0.002896,0.000011,0.010087,0.004346,0.249561,0.013436,0.187912,0.187911,0.172563,0.709601,0.000000,0.000000,0.000000,0.000000,0.000000,0.000000,0.000000,0.000000,0.000000,0.000000,0.000000,0.000000,0.241782,3,0
790000,-0.004243,20.315105,-0.054119,-0.016845,25.473896,0.004364,0.001796,0.012078,1.571053,-0.032419,0.000582,0.000866,-0.000056,-0.003028,0.000011,0.005583,0.004381,0.185898,-0.002823,0.188489,0.188488,0.172680,0.701804,0.000000,0.000000,0.000000,0.000000,0.000000,0.000000,0.000000,0.000000,0.000000,0.000000,0.000000,0.000000,0.180108,3,0
800000,-0.004274,20.576279,-0.052492,-0.016833,25.487082,0.007039,0.001833,0.012567,1.571045,-0.033552,0.000606,0.000538,-0.000060,-0.003175,0.000012,0.007184,0.004414,0.203604,0.054997,0.189056,0.189055,0.172787,0.694047,0.000000,0.000000,0.000000,0.000000,0.000000,0.000000,0.000000,0.000000,0.000000,0.000000,0.000000,0.000000,0.197236,3,0
810000,-0.004303,20.833742,-0.052278,-0.016687,25.493490,0.007466,0.001856,0.012779,1.571056,-0.034010,0.000631,0.000507,-0.000063,-0.003235,0.000012,0.001078,0.004443,0.081450,0.004940,0.189613,0.189611,0.172882,0.686336,0.000000,0.000000,0.000000,0.000000,0.000000,0.000000,0.000000,0.000000,0.000000,0.000000,0.000000,0.000000,0.078994,3,0
820000,-0.004330,21.094458,-0.051520,-0.016656,25.505669,0.008464,0.001888,0.013251,1.571060,-0.035043,0.000657,0.000360,-0.000067,-0.003374,0.000012,0.005426,0.004472,0.181742,0.023846,0.190159,0.190157,0.172965,0.678676,0.000000,0.000000,0.000000,0.000000,0.000000,0.000000,0.000000,0.000000,0.000000,0.000000,0.000000,0.000000,0.176035,3,0
830000,-0.004355,21.352709,-0.052426,-0.016538,25.513271,0.007171,0.001923,0.013528,1.571054,-0.035616,0.000683,0.000571,-0.000070,-0.003453,0.000013,0.001802,0.004498,0.099815,-0.034345,0.190693,0.190692,0.173035,0.671072,0.000000,0.000000,0.000000,0.000000,0.000000,0.000000,0.000000,0.000000,0.000000,0.000000,0.000000,0.000000,0.096740,3,0
840000,-0.004379,21.612946,-0.051059,-0.016527,25.524372,0.009404,0.001950,0.013961,1.571059,-0.036540,0.000709,0.000288,-0.000074,-0.003581,0.000013,0.004437,0.004523,0.159552,0.044879,0.191216,0.191214,0.173092,0.663528,0.000000,0.000000,0.000000,0.000000,0.000000,0.000000,0.000000,0.000000,0.000000,0.000000,0.000000,0.000000,0.154531,3,0
850000,-0.004400,21.870708,-0.050717,-0.016404,25.530983,0.010085,0.001982,0.014197,1.571071,-0.036996,0.000736,0.000233,-0.000078,-0.003645,0.000013,0.001000,0.004545,0.078112,0.008521,0.191726,0.191724,0.173136,0.656050,0.000000,0.000000,0.000000,0.000000,0.000000,0.000000,0.000000,0.000000,0.000000,0.000000,0.000000,0.000000,0.075743,3,0
860000,-0.004420,22.131746,-0.050402,-0.016372,25.543272,0.010492,0.002023,0.014685,1.571064,-0.038046,0.000763,0.000183,-0.000081,-0.003796,0.000014,0.005130,0.004566,0.178102,0.007537,0.192223,0.192222,0.173166,0.648641,0.000000,0.000000,0.000000,0.000000,0.000000,0.000000,0.000000,0.000000,0.000000,0.000000,0.000000,0.000000,0.172454,3,0
870000,-0.004438,22.390917,-0.049030,-0.016374,25.552046,0.012527,0.002063,0.015025,1.571057,-0.038733,0.000790,-0.000103,-0.000086,-0.003896,0.000014,0.002476,0.004586,0.115732,0.043919,0.192708,0.192706,0.173182,0.641306,0.000000,0.000000,0.000000,0.000000,0.000000,0.000000,0.000000,0.000000,0.000000,0.000000,0.000000,0.000000,0.112105,3,0
880000,-0.004455,22.651438,-0.047394,-0.016273,25.563084,0.014785,0.002091,0.015464,1.571060,-0.039658,0.000817,-0.000449,-0.000090,-0.004032,0.000015,0.004307,0.004604,0.154657,0.052440,0.193178,0.193177,0.173184,0.634047,0.000000,0.000000,0.000000,0.000000,0.000000,0.000000,0.000000,0.000000,0.000000,0.000000,0.000000,0.000000,0.149745,3,0
890000,-0.004471,22.910088,-0.048303,-0.016181,25.570692,0.013207,0.002115,0.015759,1.571053,-0.040219,0.000845,-0.000209,-0.000094,-0.004117,0.000015,0.001609,0.004619,0.092815,-0.036532,0.193636,0.193634,0.173171,0.626868,0.000000,0.000000,0.000000,0.000000,0.000000,0.000000,0.000000,0.000000,0.000000,0.000000,0.000000,0.000000,0.089930,3,0
900000,-0.004485,23.170095,-0.047014,-0.016173,25.580534,0.014852,0.002153,0.016151,1.571059,-0.041022,0.000873,-0.000481,-0.000098,-0.004239,0.000015,0.003087,0.004635,0.132273,0.040244,0.194080,0.194078,0.173145,0.619774,0.000000,0.000000,0.000000,0.000000,0.000000,0.000000,0.000000,0.000000,0.000000,0.000000,0.000000,0.000000,0.128073,3,0
910000,-0.004497,23.432091,-0.047346,-0.016059,25.593788,0.014370,0.002194,0.016727,1.571052,-0.042186,0.000902,-0.000372,-0.000103,-0.004420,0.000016,0.005884,0.004648,0.190229,-0.016575,0.194510,0.194508,0.173104,0.612765,0.000000,0.000000,0.000000,0.000000,0.000000,0.000000,0.000000,0.000000,0.000000,0.000000,0.000000,0.000000,0.184118,3,0
920000,-0.004508,23.695404,-0.046379,-0.015965,25.609205,0.015548,0.002225,0.017400,1.571049,-0.043578,0.000931,-0.000573,-0.000107,-0.004639,0.000017,0.008394,0.004660,0.226284,0.028775,0.194927,0.194925,0.173049,0.605846,0.000000,0.000000,0.000000,0.000000,0.000000,0.000000,0.000000,0.000000,0.000000,0.000000,0.000000,0.000000,0.218980,3,0
930000,-0.004517,23.954193,-0.045511,-0.015856,25.616470,0.016637,0.002258,0.017669,1.571055,-0.044086,0.000959,-0.000746,-0.000112,-0.004720,0.000017,0.001189,0.004669,0.082090,0.024776,0.195331,0.195328,0.172980,0.599019,0.000000,0.000000,0.000000,0.000000,0.000000,0.000000,0.000000,0.000000,0.000000,0.000000,0.000000,0.000000,0.079547,3,0
940000,-0.004524,24.213696,-0.043963,-0.015731,25.624990,0.018923,0.002287,0.017998,1.571052,-0.044718,0.000988,-0.001083,-0.000117,-0.004823,0.000017,0.002038,0.004677,0.101530,0.047941,0.195721,0.195718,0.172898,0.592285,0.000000,0.000000,0.000000,0.000000,0.000000,0.000000,0.000000,0.000000,0.000000,0.000000,0.000000,0.000000,0.098323,3,0
950000,-0.004529,24.471951,-0.043228,-0.015620,25.631006,0.019893,0.002327,0.018217,1.571050,-0.045097,0.001018,-0.001217,-0.000122,-0.004885,0.000018,0.000654,0.004683,0.060612,0.018947,0.196098,0.196095,0.172801,0.585647,0.000000,0.000000,0.000000,0.000000,0.000000,0.000000,0.000000,0.000000,0.000000,0.000000,0.000000,0.000000,0.058807,3,0
960000,-0.004534,24.730276,-0.043878,-0.015543,25.637186,0.018749,0.002364,0.018439,1.571054,-0.045480,0.001047,-0.001010,-0.000127,-0.004949,0.000018,0.000738,0.004687,0.060722,-0.029437,0.196463,0.196460,0.172691,0.579107,0.000000,0.000000,0.000000,0.000000,0.000000,0.000000,0.000000,0.000000,0.000000,0.000000,0.000000,0.000000,0.058908,3,0
970000,-0.004537,24.988667,-0.043867,-0.015399,25.643322,0.018695,0.002402,0.018662,1.571063,-0.045865,0.001077,-0.000967,-0.000132,-0.005015,0.000018,0.000605,0.004691,0.060760,-0.006135,0.196815,0.196812,0.172568,0.572665,0.000000,0.000000,0.000000,0.000000,0.000000,0.000000,0.000000,0.000000,0.000000,0.000000,0.000000,0.000000,0.058942,3,0
980000,-0.004539,25.247778,-0.045119,-0.015314,25.650663,0.016666,0.002439,0.018951,1.571072,-0.046378,0.001107,-0.000608,-0.000137,-0.005104,0.000019,0.001455,0.004693,0.080612,-0.049972,0.197155,0.197151,0.172431,0.566324,0.000000,0.000000,0.000000,0.000000,0.000000,0.000000,0.000000,0.000000,0.000000,0.000000,0.000000,0.000000,0.078093,3,0
990000,-0.004540,25.508902,-0.045035,-0.015233,25.661390,0.016674,0.002478,0.019427,1.571080,-0.047268,0.001138,-0.000592,-0.000142,-0.005260,0.000019,0.003141,0.004694,0.139490,-0.002757,0.197483,0.197479,0.172282,0.560085,0.000000,0.000000,0.000000,0.000000,0.000000,0.000000,0.000000,0.000000,0.000000,0.000000,0.000000,0.000000,0.134976,3,0
1000000,-0.004538,25.772017,-0.046262,-0.014991,25.675531,0.014813,0.002519,0.020111,1.571084,-0.048526,0.001168,-0.000242,-0.000147,-0.005485,0.000020,0.006594,0.004693,0.196321,-0.048343,0.197800,0.197796,0.172121,0.553949,0.000000,0.000000,0.000000,0.000000,0.000000,0.000000,0.000000,0.000000,0.000000,0.000000,0.000000,0.000000,0.189902,3,0
1010000,-0.004536,26.035126,-0.047095,-0.014910,25.689632,0.013475,0.002563,0.020778,1.571082,-0.049758,0.001199,0.000005,-0.000153,-0.005708,0.000021,0.006100,0.004690,0.191490,-0.033994,0.198105,0.198101,0.171948,0.547917,0.000000,0.000000,0.000000,0.000000,0.000000,0.000000,0.000000,0.000000,0.000000,0.000000,0.000000,0.000000,0.185221,3,0
1020000,-0.004533,26.293625,-0.048356,-0.014846,25.695259,0.011627,0.002596,0.020979,1.571090,-0.050066,0.001230,0.000368,-0.000158,-0.005765,0.000021,0.000752,0.004687,0.047514,-0.048721,0.198400,0.198395,0.171763,0.541988,0.000000,0.000000,0.000000,0.000000,0.000000,0.000000,0.000000,0.000000,0.000000,0.000000,0.000000,0.000000,0.046163,3,0
1030000,-0.004527,26.554152,-0.048675,-0.014668,25.704430,0.010954,0.002634,0.021393,1.571090,-0.050759,0.001260,0.000478,-0.000164,-0.005894,0.000021,0.001886,0.004682,0.107019,-0.015036,0.198684,0.198679,0.171566,0.536164,0.000000,0.000000,0.000000,0.000000,0.000000,0.000000,0.000000,0.000000,0.000000,0.000000,0.000000,0.000000,0.103575,3,0
1040000,-0.004520,26.814703,-0.048861,-0.014557,25.713491,0.010651,0.002669,0.021804,1.571085,-0.051440,0.001291,0.000552,-0.000169,-0.006023,0.000022,0.001791,0.004675,0.104826,-0.010222,0.198958,0.198953,0.171359,0.530446,0.000000,0.000000,0.000000,0.000000,0.000000,0.000000,0.000000,0.000000,0.000000,0.000000,0.000000,0.000000,0.101450,3,0
1050000,-0.004512,27.077913,-0.048027,-0.014437,25.727118,0.011672,0.002708,0.022467,1.571085,-0.052625,0.001321,0.000347,-0.000175,-0.006251,0.000023,0.005456,0.004668,0.182127,0.025800,0.199223,0.199218,0.171141,0.524832,0.000000,0.000000,0.000000,0.000000,0.000000,0.000000,0.000000,0.000000,0.000000,0.000000,0.000000,0.000000,0.176139,3,0
1060000,-0.004503,27.341105,-0.047657,-0.014361,25.740576,0.012018,0.002750,0.023126,1.571079,-0.053782,0.001352,0.000269,-0.000181,-0.006476,0.000023,0.005077,0.004659,0.177204,0.009190,0.199479,0.199473,0.170913,0.519325,0.000000,0.000000,0.000000,0.000000,0.000000,0.000000,0.000000,0.000000,0.000000,0.000000,0.000000,0.000000,0.171373,3,0
1070000,-0.004493,27.602293,-0.048763,-0.014140,25.750336,0.010263,0.002789,0.023575,1.571077,-0.054520,0.001383,0.000598,-0.000187,-0.006622,0.000024,0.002346,0.004648,0.112669,-0.042864,0.199726,0.199720,0.170675,0.513922,0.000000,0.000000,0.000000,0.000000,0.000000,0.000000,0.000000,0.000000,0.000000,0.000000,0.000000,0.000000,0.109010,3,0
1080000,-0.004482,27.862164,-0.049046,-0.014025,25.757763,0.009704,0.002820,0.023876,1.571074,-0.054979,0.001414,0.000701,-0.000193,-0.006715,0.000024,0.000823,0.004636,0.070047,-0.013440,0.199965,0.199959,0.170428,0.508625,0.000000,0.000000,0.000000,0.000000,0.000000,0.000000,0.000000,0.000000,0.000000,0.000000,0.000000,0.000000,0.067861,3,0
1090000,-0.004469,28.120735,-0.048430,-0.013882,25.762850,0.010380,0.002860,0.024039,1.571076,-0.055168,0.001444,0.000554,-0.000199,-0.006753,0.000024,0.000191,0.004624,0.028769,0.018362,0.200197,0.200190,0.170172,0.503433,0.000000,0.000000,0.000000,0.000000,0.000000,0.000000,0.000000,0.000000,0.000000,0.000000,0.000000,0.000000,0.028166,3,0
1100000,-0.004455,28.381340,-0.047019,-0.013738,25.771309,0.012118,0.002901,0.024425,1.571087,-0.055747,0.001474,0.000181,-0.000206,-0.006872,0.000025,0.001605,0.004609,0.088211,0.046340,0.200420,0.200413,0.169908,0.498345,0.000000,0.000000,0.000000,0.000000,0.000000,0.000000,0.000000,0.000000,0.000000,0.000000,0.000000,0.000000,0.085384,3,0
1110000,-0.004438,28.645283,-0.046846,-0.013479,25.785490,0.012375,0.002932,0.025161,1.571094,-0.056967,0.001504,0.000154,-0.000212,-0.007128,0.000026,0.005538,0.004592,0.185343,0.002156,0.200638,0.200630,0.169635,0.493361,0.000000,0.000000,0.000000,0.000000,0.000000,0.000000,0.000000,0.000000,0.000000,0.000000,0.000000,0.000000,0.179201,3,0
1120000,-0.004421,28.905193,-0.046886,-0.013340,25.792505,0.012241,0.002967,0.025446,1.571094,-0.057365,0.001534,0.000198,-0.000219,-0.007212,0.000026,0.000597,0.004574,0.060411,-0.005730,0.200849,0.200840,0.169354,0.488481,0.000000,0.000000,0.000000,0.000000,0.000000,0.000000,0.000000,0.000000,0.000000,0.000000,0.000000,0.000000,0.058557,3,0
1130000,-0.004401,29.169119,-0.045484,-0.013065,25.806438,0.014185,0.003012,0.026182,1.571086,-0.058540,0.001564,-0.000184,-0.000225,-0.007465,0.000027,0.005454,0.004555,0.178127,0.045750,0.201053,0.201045,0.169067,0.483703,0.000000,0.000000,0.000000,0.000000,0.000000,0.000000,0.000000,0.000000,0.000000,0.000000,0.000000,0.000000,0.172217,3,0
1140000,-0.004381,29.428333,-0.044539,-0.012959,25.811897,0.015511,0.003055,0.026385,1.571080,-0.058759,0.001594,-0.000420,-0.000232,-0.007513,0.000027,0.000314,0.004534,0.033337,0.028537,0.201253,0.201244,0.168772,0.479027,0.000000,0.000000,0.000000,0.000000,0.000000,0.000000,0.000000,0.000000,0.000000,0.000000,0.000000,0.000000,0.032517,3,0
1150000,-0.004359,29.687580,-0.044675,-0.012687,25.817455,0.015370,0.003100,0.026580,1.571092,-0.058974,0.001624,-0.000336,-0.000239,-0.007561,0.000027,0.000191,0.004511,0.032490,-0.010410,0.201448,0.201438,0.168471,0.474452,0.000000,0.000000,0.000000,0.000000,0.000000,0.000000,0.000000,0.000000,0.000000,0.000000,0.000000,0.000000,0.031700,3,0
1160000,-0.004336,29.950193,-0.044720,-0.012490,25.828836,0.015146,0.003148,0.027162,1.571084,-0.059840,0.001653,-0.000288,-0.000245,-0.007756,0.000028,0.002775,0.004487,0.131010,-0.006754,0.201638,0.201628,0.168163,0.469978,0.000000,0.000000,0.000000,0.000000,0.000000,0.000000,0.000000,0.000000,0.000000,0.000000,0.000000,0.000000,0.126682,3,0
1170000,-0.004312,30.214121,-0.045391,-0.012251,25.842497,0.014216,0.003181,0.027882,1.571090,-0.060940,0.001684,-0.000055,-0.000252,-0.008009,0.000029,0.004603,0.004461,0.166466,-0.029047,0.201824,0.201813,0.167850,0.465603,0.000000,0.000000,0.000000,0.000000,0.000000,0.000000,0.000000,0.000000,0.000000,0.000000,0.000000,0.000000,0.160922,3,0
1180000,-0.004286,30.473312,-0.044973,-0.012085,25.847618,0.014796,0.003225,0.028039,1.571101,-0.061083,0.001713,-0.000139,-0.000259,-0.008042,0.000029,0.000095,0.004435,0.021673,0.009857,0.202006,0.201995,0.167531,0.461327,0.000000,0.000000,0.000000,0.000000,0.000000,0.000000,0.000000,0.000000,0.000000,0.000000,0.000000,0.000000,0.021379,3,0
1190000,-0.004258,30.733870,-0.045333,-0.011802,25.854937,0.014100,0.003263,0.028359,1.571102,-0.061484,0.001742,0.000010,-0.000266,-0.008136,0.000029,0.000648,0.004406,0.060616,-0.018041,0.202185,0.202173,0.167208,0.457147,0.000000,0.000000,0.000000,0.000000,0.000000,0.000000,0.000000,0.000000,0.000000,0.000000,0.000000,0.000000,0.058725,3,0
1200000,-0.004230,30.997112,-0.045848,-0.011657,25.867058,0.013375,0.003305,0.028989,1.571105,-0.062395,0.001772,0.000199,-0.000272,-0.008355,0.000030,0.003154,0.004377,0.137926,-0.023244,0.202361,0.202348,0.166880,0.453063,0.000000,0.000000,0.000000,0.000000,0.000000,0.000000,0.000000,0.000000,0.000000,0.000000,0.000000,0.000000,0.133339,3,0
1210000,-0.004201,31.256285,-0.046153,-0.011484,25.871778,0.012758,0.003349,0.029120,1.571115,-0.062486,0.001801,0.000333,-0.000279,-0.008377,0.000030,0.000074,0.004347,0.013712,-0.015758,0.202534,0.202521,0.166547,0.449074,0.000000,0.000000,0.000000,0.000000,0.000000,0.000000,0.000000,0.000000,0.000000,0.000000,0.000000,0.000000,0.013899,3,0
1220000,-0.004171,31.514807,-0.046275,-0.011319,25.875214,0.012663,0.003390,0.029175,1.571116,-0.062440,0.001829,0.000412,-0.000286,-0.008366,0.000030,0.000024,0.004317,-0.006960,-0.009117,0.202705,0.202691,0.166211,0.445179,0.000000,0.000000,0.000000,0.000000,0.000000,0.000000,0.000000,0.000000,0.000000,0.000000,0.000000,0.000000,0.007914,3,0
1230000,-0.004140,31.774706,-0.047024,-0.011128,25.881044,0.011534,0.003439,0.029385,1.571114,-0.062656,0.001858,0.000684,-0.000293,-0.008421,0.000030,0.000336,0.004285,0.032667,-0.031577,0.202874,0.202860,0.165871,0.441375,0.000000,0.000000,0.000000,0.000000,0.000000,0.000000,0.000000,0.000000,0.000000,0.000000,0.000000,0.000000,0.031829,3,0
1240000,-0.004109,32.037975,-0.046669,-0.010975,25.892870,0.011770,0.003488,0.030003,1.571116,-0.063514,0.001886,0.000594,-0.000300,-0.008638,0.000031,0.002760,0.004253,0.130527,0.009149,0.203041,0.203026,0.165528,0.437663,0.000000,0.000000,0.000000,0.000000,0.000000,0.000000,0.000000,0.000000,0.000000,0.000000,0.000000,0.000000,0.126177,3,0
1250000,-0.004075,32.300518,-0.045403,-0.010779,25.903130,0.013202,0.003537,0.030536,1.571119,-0.064206,0.001913,0.000215,-0.000308,-0.008815,0.000032,0.002089,0.004219,0.105690,0.042105,0.203207,0.203192,0.165182,0.434040,0.000000,0.000000,0.000000,0.000000,0.000000,0.000000,0.000000,0.000000,0.000000,0.000000,0.000000,0.000000,0.102197,3,0
1260000,-0.004041,32.562351,-0.044219,-0.010502,25.912050,0.014524,0.003584,0.030974,1.571111,-0.064739,0.001940,-0.000133,-0.000315,-0.008953,0.000032,0.001316,0.004183,0.081589,0.038572,0.203372,0.203356,0.164834,0.430506,0.000000,0.000000,0.000000,0.000000,0.000000,0.000000,0.000000,0.000000,0.000000,0.000000,0.000000,0.000000,0.078930,3,0
1270000,-0.004006,32.825516,-0.045274,-0.010309,25.923225,0.012908,0.003629,0.031580,1.571113,-0.065511,0.001968,0.000242,-0.000322,-0.009158,0.000033,0.002543,0.004146,0.117847,-0.043289,0.203536,0.203519,0.164483,0.427059,0.000000,0.000000,0.000000,0.000000,0.000000,0.000000,0.000000,0.000000,0.000000,0.000000,0.000000,0.000000,0.113916,3,0
1280000,-0.003969,33.087273,-0.043957,-0.010108,25.931828,0.014591,0.003662,0.031989,1.571119,-0.065987,0.001994,-0.000154,-0.000329,-0.009284,0.000033,0.001175,0.004110,0.073242,0.043608,0.203700,0.203682,0.164130,0.423698,0.000000,0.000000,0.000000,0.000000,0.000000,0.000000,0.000000,0.000000,0.000000,0.000000,0.000000,0.000000,0.070870,3,0
1290000,-0.003932,33.349678,-0.043233,-0.009844,25.941452,0.015327,0.003705,0.032465,1.571113,-0.066570,0.002020,-0.000356,-0.000337,-0.009442,0.000034,0.001373,0.004070,0.089703,0.021537,0.203863,0.203845,0.163776,0.420421,0.000000,0.000000,0.000000,0.000000,0.000000,0.000000,0.000000,0.000000,0.000000,0.000000,0.000000,0.000000,0.086748,3,0
1300000,-0.003894,33.613403,-0.044004,-0.009676,25.953320,0.014360,0.003736,0.033122,1.571112,-0.067385,0.002047,-0.000065,-0.000344,-0.009668,0.000035,0.002715,0.004031,0.125385,-0.033483,0.204027,0.204008,0.163420,0.417226,0.000000,0.000000,0.000000,0.000000,0.000000,0.000000,0.000000,0.000000,0.000000,0.000000,0.000000,0.000000,0.121179,3,0
1310000,-0.003856,33.873680,-0.044626,-0.009462,25.958910,0.013659,0.003773,0.033315,1.571111,-0.067520,0.002073,0.000190,-0.000351,-0.009707,0.000035,0.000200,0.003991,0.020573,-0.028191,0.204191,0.204171,0.163064,0.414114,0.000000,0.000000,0.000000,0.000000,0.000000,0.000000,0.000000,0.000000,0.000000,0.000000,0.000000,0.000000,0.020241,3,0
1320000,-0.003816,34.134628,-0.045033,-0.009201,25.965691,0.012941,0.003819,0.033576,1.571116,-0.067769,0.002099,0.000368,-0.000358,-0.009778,0.000035,0.000306,0.003950,0.038548,-0.019877,0.204355,0.204334,0.162706,0.411081,0.000000,0.000000,0.000000,0.000000,0.000000,0.000000,0.000000,0.000000,0.000000,0.000000,0.000000,0.000000,0.037426,3,0
1330000,-0.003775,34.392849,-0.046263,-0.008948,25.967428,0.011375,0.003851,0.033479,1.571128,-0.067491,0.002125,0.000836,-0.000365,-0.009700,0.000035,0.000721,0.003908,-0.043560,-0.050476,0.204520,0.204499,0.162348,0.408126,0.000000,0.000000,0.000000,0.000000,0.000000,0.000000,0.000000,0.000000,0.000000,0.000000,0.000000,0.000000,0.042249,3,0
1340000,-0.003732,34.655830,-0.046031,-0.008646,25.977570,0.011463,0.003890,0.034020,1.571139,-0.068105,0.002150,0.000781,-0.000372,-0.009879,0.000036,0.001483,0.003864,0.095779,0.004840,0.204687,0.204664,0.161990,0.405248,0.000000,0.000000,0.000000,0.000000,0.000000,0.000000,0.000000,0.000000,0.000000,0.000000,0.000000,0.000000,0.092589,3,0
1350000,-0.003689,34.918083,-0.046477,-0.008441,25.986420,0.010992,0.003927,0.034442,1.571146,-0.068561,0.002175,0.000965,-0.000380,-0.010015,0.000036,0.000888,0.003819,0.071243,-0.020566,0.204854,0.204830,0.161631,0.402446,0.000000,0.000000,0.000000,0.000000,0.000000,0.000000,0.000000,0.000000,0.000000,0.000000,0.000000,0.000000,0.068908,3,0
1360000,-0.003645,35.177578,-0.047123,-0.008248,25.990095,0.010251,0.003975,0.034479,1.571149,-0.068484,0.002200,0.001230,-0.000387,-0.009993,0.000036,0.000156,0.003774,-0.012188,-0.028255,0.205022,0.204997,0.161273,0.399718,0.000000,0.000000,0.000000,0.000000,0.000000,0.000000,0.000000,0.000000,0.000000,0.000000,0.000000,0.000000,0.012327,3,0
1370000,-0.003599,35.439789,-0.047598,-0.007899,25.998707,0.009438,0.004022,0.034895,1.571160,-0.068905,0.002224,0.001421,-0.000394,-0.010122,0.000037,0.000781,0.003726,0.066223,-0.021158,0.205192,0.205166,0.160915,0.397063,0.000000,0.000000,0.000000,0.000000,0.000000,0.000000,0.000000,0.000000,0.000000,0.000000,0.000000,0.000000,0.064058,3,0
1380000,-0.003552,35.703312,-0.047040,-0.007693,26.009443,0.010075,0.004071,0.035477,1.571162,-0.069549,0.002247,0.001241,-0.000401,-0.010321,0.000037,0.001732,0.003679,0.102108,0.017830,0.205363,0.205336,0.160558,0.394478,0.000000,0.000000,0.000000,0.000000,0.000000,0.000000,0.000000,0.000000,0.000000,0.000000,0.000000,0.000000,0.098682,3,0
1390000,-0.003504,35.966770,-0.046783,-0.007384,26.019915,0.010167,0.004113,0.036038,1.571161,-0.070158,0.002270,0.001168,-0.000408,-0.010512,0.000038,0.001520,0.003628,0.096905,0.006408,0.205535,0.205508,0.160202,0.391963,0.000000,0.000000,0.000000,0.000000,0.000000,0.000000,0.000000,0.000000,0.000000,0.000000,0.000000,0.000000,0.093652,3,0
1400000,-0.003456,36.225395,-0.047430,-0.007174,26.021585,0.009244,0.004148,0.035917,1.571169,-0.069863,0.002293,0.001445,-0.000415,-0.010419,0.000038,0.000494,0.003578,-0.047390,-0.028394,0.205709,0.205681,0.159846,0.389517,0.000000,0.000000,0.000000,0.000000,0.000000,0.000000,0.000000,0.000000,0.000000,0.000000,0.000000,0.000000,0.045899,3,0
1410000,-0.003406,36.485386,-0.046881,-0.006992,26.025806,0.010001,0.004198,0.035980,1.571177,-0.069813,0.002314,0.001283,-0.000423,-0.010403,0.000038,0.000059,0.003528,-0.007843,0.017065,0.205885,0.205855,0.159492,0.387138,0.000000,0.000000,0.000000,0.000000,0.000000,0.000000,0.000000,0.000000,0.000000,0.000000,0.000000,0.000000,0.008303,3,0
1420000,-0.003356,36.743313,-0.045807,-0.006690,26.026226,0.011248,0.004239,0.035730,1.571185,-0.069383,0.002335,0.000942,-0.000430,-0.010260,0.000037,0.000984,0.003476,-0.069088,0.036307,0.206063,0.206032,0.159140,0.384824,0.000000,0.000000,0.000000,0.000000,0.000000,0.000000,0.000000,0.000000,0.000000,0.000000,0.000000,0.000000,0.066796,3,0
1430000,-0.003304,37.006725,-0.045108,-0.006376,26.036444,0.012055,0.004274,0.036271,1.571186,-0.069940,0.002356,0.000710,-0.000437,-0.010445,0.000038,0.001402,0.003422,0.090439,0.022685,0.206242,0.206210,0.158789,0.382573,0.000000,0.000000,0.000000,0.000000,0.000000,0.000000,0.000000,0.000000,0.000000,0.000000,0.000000,0.000000,0.087396,3,0
1440000,-0.003251,37.265282,-0.044491,-0.006163,26.037863,0.012763,0.004311,0.036097,1.571195,-0.069610,0.002376,0.000538,-0.000444,-0.010332,0.000038,0.000523,0.003367,-0.053802,0.018401,0.206424,0.206391,0.158439,0.380386,0.000000,0.000000,0.000000,0.000000,0.000000,0.000000,0.000000,0.000000,0.000000,0.000000,0.000000,0.000000,0.052050,3,0
1450000,-0.003198,37.523170,-0.044926,-0.005819,26.037886,0.012341,0.004355,0.035829,1.571205,-0.069160,0.002396,0.000763,-0.000451,-0.010179,0.000037,0.000957,0.003311,-0.073830,-0.021923,0.206607,0.206573,0.158092,0.378258,0.000000,0.000000,0.000000,0.000000,0.000000,0.000000,0.000000,0.000000,0.000000,0.000000,0.000000,0.000000,0.071365,3,0
1460000,-0.003142,37.781757,-0.045201,-0.005459,26.039223,0.011939,0.004388,0.035656,1.571200,-0.068836,0.002416,0.000923,-0.000458,-0.010067,0.000037,0.000500,0.003254,-0.053413,-0.015526,0.206792,0.206757,0.157747,0.376190,0.000000,0.000000,0.000000,0.000000,0.000000,0.000000,0.000000,0.000000,0.000000,0.000000,0.000000,0.000000,0.051670,3,0
1470000,-0.003086,38.043087,-0.044936,-0.005215,26.045429,0.012214,0.004421,0.035890,1.571195,-0.068993,0.002436,0.000864,-0.000464,-0.010122,0.000037,0.000115,0.003197,0.025928,0.005671,0.206979,0.206942,0.157404,0.374180,0.000000,0.000000,0.000000,0.000000,0.000000,0.000000,0.000000,0.000000,0.000000,0.000000,0.000000,0.000000,0.025225,3,0
1480000,-0.003028,38.303684,-0.043566,-0.004865,26.050299,0.013634,0.004458,0.035994,1.571197,-0.069009,0.002453,0.000390,-0.000471,-0.010126,0.000037,0.000373,0.003137,0.003082,0.047723,0.207168,0.207130,0.157063,0.372228,0.000000,0.000000,0.000000,0.000000,0.000000,0.000000,0.000000,0.000000,0.000000,0.000000,0.000000,0.000000,0.004253,3,0
1490000,-0.002970,38.564255,-0.042507,-0.004670,26.054958,0.014795,0.004489,0.036088,1.571200,-0.069013,0.002471,0.000038,-0.000478,-0.010125,0.000037,0.000204,0.003076,0.000866,0.035299,0.207359,0.207320,0.156725,0.370330,0.000000,0.000000,0.000000,0.000000,0.000000,0.000000,0.000000,0.000000,0.000000,0.000000,0.000000,0.000000,0.003087,3,0
1500000,-0.002912,38.826183,-0.042777,-0.004434,26.062023,0.014441,0.004537,0.036394,1.571201,-0.069241,0.002489,0.000190,-0.000485,-0.010210,0.000038,0.000280,0.003016,0.038429,-0.015791,0.207552,0.207511,0.156390,0.368487,0.000000,0.000000,0.000000,0.000000,0.000000,0.000000,0.000000,0.000000,0.000000,0.000000,0.000000,0.000000,0.037212,3,0
1510000,-0.002854,39.088753,-0.043666,-0.004227,26.070211,0.013216,0.004574,0.036782,1.571209,-0.069564,0.002507,0.000576,-0.000491,-0.010333,0.000038,0.000734,0.002956,0.054737,-0.039319,0.207746,0.207704,0.156057,0.366697,0.000000,0.000000,0.000000,0.000000,0.000000,0.000000,0.000000,0.000000,0.000000,0.000000,0.000000,0.000000,0.052911,3,0
1520000,-0.002794,39.349876,-0.043470,-0.003874,26.075628,0.013490,0.004612,0.036942,1.571216,-0.069627,0.002524,0.000550,-0.000497,-0.010357,0.000038,0.000021,0.002895,0.010754,0.002437,0.207943,0.207899,0.155727,0.364958,0.000000,0.000000,0.000000,0.000000,0.000000,0.000000,0.000000,0.000000,0.000000,0.000000,0.000000,0.000000,0.010749,3,0
1530000,-0.002732,39.610950,-0.042379,-0.003500,26.080900,0.014904,0.004645,0.037088,1.571228,-0.069672,0.002540,0.000174,-0.000504,-0.010372,0.000038,0.000233,0.002831,0.007999,0.036888,0.208141,0.208096,0.155400,0.363270,0.000000,0.000000,0.000000,0.000000,0.000000,0.000000,0.000000,0.000000,0.000000,0.000000,0.000000,0.000000,0.008197,3,0
1540000,-0.002670,39.871998,-0.042869,-0.003158,26.085958,0.014338,0.004685,0.037218,1.571228,-0.069703,0.002556,0.000426,-0.000510,-0.010386,0.000038,0.000105,0.002766,0.005299,-0.024767,0.208340,0.208294,0.155077,0.361629,0.000000,0.000000,0.000000,0.000000,0.000000,0.000000,0.000000,0.000000,0.000000,0.000000,0.000000,0.000000,0.005764,3,0
1550000,-0.002608,40.130234,-0.042887,-0.002964,26.085899,0.014108,0.004732,0.036902,1.571230,-0.069265,0.002572,0.000510,-0.000516,-0.010212,0.000038,0.000960,0.002701,-0.076889,-0.006899,0.208542,0.208494,0.154756,0.360038,0.000000,0.000000,0.000000,0.000000,0.000000,0.000000,0.000000,0.000000,0.000000,0.000000,0.000000,0.000000,0.074265,3,0
1560000,-0.002546,40.390556,-0.043823,-0.002762,26.089651,0.013018,0.004771,0.036907,1.571244,-0.069169,0.002588,0.000945,-0.000522,-0.010176,0.000038,0.000335,0.002637,-0.017063,-0.042043,0.208744,0.208695,0.154439,0.358492,0.000000,0.000000,0.000000,0.000000,0.000000,0.000000,0.000000,0.000000,0.000000,0.000000,0.000000,0.000000,0.016675,3,0
1570000,-0.002481,40.652905,-0.042573,-0.002395,26.096928,0.014393,0.004813,0.037224,1.571246,-0.069396,0.002601,0.000484,-0.000528,-0.010266,0.000038,0.000580,0.002571,0.040642,0.043930,0.208949,0.208898,0.154125,0.356991,0.000000,0.000000,0.000000,0.000000,0.000000,0.000000,0.000000,0.000000,0.000000,0.000000,0.000000,0.000000,0.039316,3,0
1580000,-0.002418,40.915901,-0.043482,-0.002195,26.105429,0.013101,0.004860,0.037635,1.571242,-0.069712,0.002616,0.000894,-0.000534,-0.010400,0.000039,0.000782,0.002505,0.056526,-0.040560,0.209154,0.209102,0.153814,0.355534,0.000000,0.000000,0.000000,0.000000,0.000000,0.000000,0.000000,0.000000,0.000000,0.000000,0.000000,0.000000,0.054600,3,0
1590000,-0.002355,41.176044,-0.044086,-0.001981,26.108440,0.012379,0.004901,0.037589,1.571237,-0.069560,0.002631,0.001201,-0.000539,-0.010338,0.000039,0.000261,0.002439,-0.027645,-0.029055,0.209360,0.209307,0.153507,0.354120,0.000000,0.000000,0.000000,0.000000,0.000000,0.000000,0.000000,0.000000,0.000000,0.000000,0.000000,0.000000,0.026791,3,0
1600000,-0.002290,41.433384,-0.045233,-0.001612,26.106245,0.011051,0.004935,0.037086,1.571245,-0.068966,0.002645,0.001755,-0.000545,-0.010086,0.000038,0.002330,0.002372,-0.108910,-0.050885,0.209568,0.209513,0.153203,0.352746,0.000000,0.000000,0.000000,0.000000,0.000000,0.000000,0.000000,0.000000,0.000000,0.000000,0.000000,0.000000,0.105143,3,0
1610000,-0.002225,41.694191,-0.044381,-0.001409,26.110380,0.011809,0.004968,0.037129,1.571242,-0.068920,0.002656,0.001452,-0.000550,-0.010064,0.000038,0.000149,0.002306,-0.008404,0.029065,0.209777,0.209720,0.152903,0.351412,0.000000,0.000000,0.000000,0.000000,0.000000,0.000000,0.000000,0.000000,0.000000,0.000000,0.000000,0.000000,0.008402,3,0
1620000,-0.002161,41.954277,-0.045338,-0.001229,26.113178,0.010710,0.005015,0.037050,1.571247,-0.068756,0.002670,0.001907,-0.000556,-0.009994,0.000038,0.000448,0.002238,-0.030708,-0.042625,0.209986,0.209928,0.152607,0.350118,0.000000,0.000000,0.000000,0.000000,0.000000,0.000000,0.000000,0.000000,0.000000,0.000000,0.000000,0.000000,0.029723,3,0
1630000,-0.002095,42.215004,-0.044270,-0.000932,26.117018,0.011852,0.005046,0.037069,1.571249,-0.068688,0.002680,0.001511,-0.000561,-0.009961,0.000038,0.000257,0.002171,-0.012512,0.037733,0.210196,0.210136,0.152315,0.348861,0.000000,0.000000,0.000000,0.000000,0.000000,0.000000,0.000000,0.000000,0.000000,0.000000,0.000000,0.000000,0.012243,3,0
1640000,-0.002028,42.472218,-0.044219,-0.000569,26.114433,0.011865,0.005089,0.036508,1.571246,-0.068087,0.002691,0.001577,-0.000566,-0.009687,0.000037,0.002103,0.002102,-0.114254,-0.003894,0.210406,0.210345,0.152026,0.347642,0.000000,0.000000,0.000000,0.000000,0.000000,0.000000,0.000000,0.000000,0.000000,0.000000,0.000000,0.000000,0.110267,3,0
1650000,-0.001961,42.732220,-0.043123,-0.000344,26.116821,0.013140,0.005127,0.036396,1.571247,-0.067911,0.002701,0.001177,-0.000571,-0.009603,0.000037,0.000418,0.002033,-0.033493,0.038231,0.210616,0.210554,0.151741,0.346457,0.000000,0.000000,0.000000,0.000000,0.000000,0.000000,0.000000,0.000000,0.000000,0.000000,0.000000,0.000000,0.032366,3,0
1660000,-0.001894,42.992214,-0.043930,-0.000011,26.119169,0.012094,0.005168,0.036292,1.571255,-0.067731,0.002712,0.001586,-0.000576,-0.009520,0.000037,0.000428,0.001962,-0.035099,-0.037579,0.210827,0.210763,0.151460,0.345306,0.000000,0.000000,0.000000,0.000000,0.000000,0.000000,0.000000,0.000000,0.000000,0.000000,0.000000,0.000000,0.033931,3,0
1670000,-0.001826,43.250061,-0.043420,0.000267,26.117563,0.012805,0.005206,0.035815,1.571262,-0.067239,0.002721,0.001455,-0.000580,-0.009284,0.000036,0.001525,0.001893,-0.096325,0.014255,0.211038,0.210972,0.151183,0.344189,0.000000,0.000000,0.000000,0.000000,0.000000,0.000000,0.000000,0.000000,0.000000,0.000000,0.000000,0.000000,0.092952,3,0
1680000,-0.001758,43.511417,-0.043605,0.000527,26.122351,0.012569,0.005246,0.035933,1.571265,-0.067258,0.002731,0.001588,-0.000585,-0.009294,0.000036,0.000028,0.001822,0.003662,-0.012426,0.211249,0.211182,0.150909,0.343104,0.000000,0.000000,0.000000,0.000000,0.000000,0.000000,0.000000,0.000000,0.000000,0.000000,0.000000,0.000000,0.003942,3,0
1690000,-0.001688,43.772007,-0.042997,0.000863,26.125786,0.013277,0.005286,0.035895,1.571279,-0.067162,0.002739,0.001388,-0.000589,-0.009245,0.000036,0.000118,0.001750,-0.019196,0.018927,0.211460,0.211391,0.150640,0.342051,0.000000,0.000000,0.000000,0.000000,0.000000,0.000000,0.000000,0.000000,0.000000,0.000000,0.000000,0.000000,0.018590,3,0
1700000,-0.001620,44.031170,-0.044093,0.001107,26.126429,0.012030,0.005329,0.035618,1.571275,-0.066861,0.002748,0.001944,-0.000593,-0.009097,0.000036,0.001006,0.001678,-0.061146,-0.049858,0.211670,0.211600,0.150375,0.341028,0.000000,0.000000,0.000000,0.000000,0.000000,0.000000,0.000000,0.000000,0.000000,0.000000,0.000000,0.000000,0.059028,3,0
1710000,-0.001550,44.293095,-0.043367,0.001378,26.132149,0.012962,0.005356,0.035798,1.571286,-0.066946,0.002756,0.001675,-0.000597,-0.009139,0.000036,0.000147,0.001607,0.017624,0.024343,0.211880,0.211808,0.150113,0.340034,0.000000,0.000000,0.000000,0.000000,0.000000,0.000000,0.000000,0.000000,0.000000,0.000000,0.000000,0.000000,0.017080,3,0
1720000,-0.001481,44.554958,-0.043226,0.001571,26.137695,0.013021,0.005395,0.035970,1.571286,-0.067014,0.002763,0.001664,-0.000601,-0.009174,0.000036,0.000032,0.001535,0.014069,0.000623,0.212089,0.212016,0.149856,0.339069,0.000000,0.000000,0.000000,0.000000,0.000000,0.000000,0.000000,0.000000,0.000000,0.000000,0.000000,0.000000,0.013653,3,0
