time_us,pos_x,pos_y,pos_z,vel_x,vel_y,vel_z,roll,pitch,yaw,bias_ax,bias_ay,bias_az,bias_gx,bias_gy,bias_gz,nis,innov_x,innov_y,innov_z,cov_pos_x,cov_pos_y,cov_pos_z,cov_yaw,des_speed,des_heading,des_climb,pid_speed,pid_yaw,pid_alt,speed_meas,yaw_meas,climb_meas,fwd_accel,yaw_rate,vert_accel,drift_m,nav_mode,mission_state
0,-0.000002,0.150000,-0.000003,-0.000313,25.000025,-0.000724,0.000016,-0.000010,1.570784,0.000000,0.000000,0.000000,0.000000,0.000000,0.000000,0.006250,0.000003,-0.250003,0.000007,2.400038,2.400038,3.600017,1.000518,0.000000,0.000000,0.000000,0.000000,0.000000,0.000000,0.000000,0.000000,0.000000,0.000000,0.000000,0.000000,0.150000,1,0
10000,-0.000005,0.342508,-0.016229,-0.000553,24.999811,-0.001550,0.000020,-0.000015,1.570775,0.000001,0.000000,0.000000,0.000000,0.000000,0.000000,0.005014,0.000007,-0.201213,-0.043228,1.714420,1.714420,2.250079,1.001073,0.000000,0.000000,0.000000,0.000000,0.000000,0.000000,0.000000,0.000000,0.000000,0.000000,0.000000,0.000000,0.143719,3,0
20000,-0.000011,0.566855,-0.027704,-0.000851,24.999666,-0.002185,0.000025,-0.000025,1.570772,0.000002,0.000000,0.000000,0.000000,0.000000,-0.000000,0.001940,0.000014,-0.115414,-0.041994,1.333616,1.333616,1.636554,1.001655,0.000000,0.000000,0.000000,0.000000,0.000000,0.000000,0.000000,0.000000,0.000000,0.000000,0.000000,0.000000,0.089761,3,0
30000,-0.000019,0.794827,-0.036379,-0.001225,24.999386,-0.002997,0.000037,-0.000029,1.570761,0.000004,0.000000,0.000001,0.000000,0.000000,-0.000000,0.002212,0.000023,-0.121091,-0.040339,1.091392,1.091392,1.286065,1.002257,0.000000,0.000000,0.000000,0.000000,0.000000,0.000000,0.000000,0.000000,0.000000,0.000000,0.000000,0.000000,0.099065,3,0
40000,-0.000029,1.030868,-0.032236,-0.001582,24.999218,-0.003342,0.000041,-0.000028,1.570755,0.000006,0.000000,0.000000,-0.000000,0.000000,-0.000000,0.001235,0.000035,-0.090635,0.023659,0.923811,0.923811,1.059385,1.002869,0.000000,0.000000,0.000000,0.000000,0.000000,0.000000,0.000000,0.000000,0.000000,0.000000,0.000000,0.000000,0.076680,3,0
50000,-0.000042,1.277059,-0.040695,-0.001910,24.999290,-0.004330,0.000043,-0.000031,1.570737,0.000008,0.000000,0.000003,0.000000,0.000000,-0.000000,0.000563,0.000048,-0.028491,-0.056074,0.801036,0.801036,0.900822,1.003484,0.000000,0.000000,0.000000,0.000000,0.000000,0.000000,0.000000,0.000000,0.000000,0.000000,0.000000,0.000000,0.024687,3,0
60000,-0.000056,1.520451,-0.036533,-0.002209,24.999149,-0.004751,0.000042,-0.000037,1.570726,0.000011,0.000000,0.000001,-0.000000,0.000000,-0.000000,0.000612,0.000064,-0.056014,0.032246,0.707270,0.707270,0.783741,1.004094,0.000000,0.000000,0.000000,0.000000,0.000000,0.000000,0.000000,0.000000,0.000000,0.000000,0.000000,0.000000,0.049411,3,0
70000,-0.000073,1.772415,-0.042591,-0.002543,24.999535,-0.005536,0.000057,-0.000044,1.570713,0.000009,0.000000,0.000005,0.000000,0.000000,-0.000000,0.000450,0.000082,0.018658,-0.051946,0.633370,0.633370,0.693801,1.004688,0.000000,0.000000,0.000000,0.000000,0.000000,0.000000,0.000000,0.000000,0.000000,0.000000,0.000000,0.000000,0.016688,3,0
80000,-0.000092,2.017211,-0.047785,-0.002873,24.999287,-0.006677,0.000057,-0.000053,1.570695,0.000015,0.000000,0.000010,0.000000,0.000000,-0.000000,0.000811,0.000102,-0.054399,-0.049442,0.573673,0.573673,0.622594,1.005260,0.000000,0.000000,0.000000,0.000000,0.000000,0.000000,0.000000,0.000000,0.000000,0.000000,0.000000,0.000000,0.049198,3,0
90000,-0.000113,2.272330,-0.050082,-0.003150,24.999950,-0.007401,0.000067,-0.000064,1.570689,0.000008,0.000000,0.000013,0.000000,0.000000,-0.000000,0.000607,0.000124,0.058628,-0.023635,0.524488,0.524488,0.564865,1.005801,0.000000,0.000000,0.000000,0.000000,0.000000,0.000000,0.000000,0.000000,0.000000,0.000000,0.000000,0.000000,0.053503,3,0
100000,-0.000136,2.522516,-0.050059,-0.003446,25.000113,-0.008084,0.000080,-0.000081,1.570683,0.000007,0.000000,0.000012,-0.000000,0.000000,0.000000,0.000001,0.000147,0.002291,0.001206,0.483303,0.483303,0.517162,1.006301,0.000000,0.000000,0.000000,0.000000,0.000000,0.000000,0.000000,0.000000,0.000000,0.000000,0.000000,0.000000,0.002111,3,0
110000,-0.000161,2.780734,-0.049881,-0.003800,25.001570,-0.008732,0.000095,-0.000082,1.570662,-0.000013,0.000000,0.000012,-0.000000,-0.000000,0.000000,0.001865,0.000174,0.109923,0.003340,0.448353,0.448353,0.477121,1.006754,0.000000,0.000000,0.000000,0.000000,0.000000,0.000000,0.000000,0.000000,0.000000,0.000000,0.000000,0.000000,0.101709,3,0
120000,-0.000189,3.035658,-0.052890,-0.004210,25.002583,-0.009808,0.000106,-0.000076,1.570659,-0.000029,0.000000,0.000020,-0.000000,-0.000001,0.000000,0.001008,0.000203,0.070359,-0.039474,0.418358,0.418358,0.443071,1.007150,0.000000,0.000000,0.000000,0.000000,0.000000,0.000000,0.000000,0.000000,0.000000,0.000000,0.000000,0.000000,0.065453,3,0
130000,-0.000219,3.290515,-0.051760,-0.004603,25.003620,-0.010339,0.000116,-0.000081,1.570655,-0.000048,0.000000,0.000016,-0.000000,-0.000001,0.000000,0.000899,0.000235,0.073852,0.017919,0.392369,0.392369,0.413797,1.007481,0.000000,0.000000,0.000000,0.000000,0.000000,0.000000,0.000000,0.000000,0.000000,0.000000,0.000000,0.000000,0.069023,3,0
140000,-0.000252,3.547773,-0.049370,-0.004945,25.005426,-0.010560,0.000117,-0.000069,1.570645,-0.000082,0.000000,0.000005,-0.000000,-0.000002,0.000000,0.002379,0.000269,0.117167,0.038615,0.369666,0.369666,0.388393,1.007739,0.000000,0.000000,0.000000,0.000000,0.000000,0.000000,0.000000,0.000000,0.000000,0.000000,0.000000,0.000000,0.109948,3,0
150000,-0.000288,3.805884,-0.048467,-0.005317,25.007570,-0.010982,0.000130,-0.000065,1.570634,-0.000129,0.000000,-0.000001,-0.000000,-0.000002,0.000000,0.003041,0.000305,0.138196,0.016642,0.349695,0.349695,0.366172,1.007915,0.000000,0.000000,0.000000,0.000000,0.000000,0.000000,0.000000,0.000000,0.000000,0.000000,0.000000,0.000000,0.130142,3,0
160000,-0.000326,4.061425,-0.047570,-0.005715,25.009222,-0.011518,0.000130,-0.000059,1.570614,-0.000166,0.000001,-0.000007,-0.000000,-0.000003,0.000000,0.001583,0.000345,0.098732,0.017561,0.332020,0.332020,0.346600,1.008002,0.000000,0.000000,0.000000,0.000000,0.000000,0.000000,0.000000,0.000000,0.000000,0.000000,0.000000,0.000000,0.093269,3,0
170000,-0.000365,4.315828,-0.048030,-0.005991,25.010801,-0.012396,0.000143,-0.000057,1.570608,-0.000201,0.000001,-0.000005,-0.000000,-0.000004,0.000000,0.001060,0.000386,0.081720,-0.006153,0.316296,0.316296,0.329260,1.007991,0.000000,0.000000,0.000000,0.000000,0.000000,0.000000,0.000000,0.000000,0.000000,0.000000,0.000000,0.000000,0.077413,3,0
180000,-0.000407,4.569255,-0.046497,-0.006347,25.012096,-0.012538,0.000156,-0.000052,1.570597,-0.000233,0.000001,-0.000020,-0.000000,-0.000005,0.000000,0.000846,0.000429,0.065849,0.031802,0.302245,0.302245,0.313817,1.007875,0.000000,0.000000,0.000000,0.000000,0.000000,0.000000,0.000000,0.000000,0.000000,0.000000,0.000000,0.000000,0.062534,3,0
190000,-0.000451,4.819919,-0.049023,-0.006599,25.012510,-0.014035,0.000174,-0.000051,1.570575,-0.000238,0.000001,0.000005,-0.000000,-0.000005,0.000000,0.000383,0.000473,0.011199,-0.047862,0.289640,0.289640,0.300003,1.007645,0.000000,0.000000,0.000000,0.000000,0.000000,0.000000,0.000000,0.000000,0.000000,0.000000,0.000000,0.000000,0.010668,3,0
200000,-0.000495,5.076457,-0.049243,-0.006892,25.015215,-0.014596,0.000182,-0.000040,1.570564,-0.000319,0.000001,0.000006,-0.000000,-0.000007,0.000000,0.003037,0.000520,0.138231,-0.001550,0.278294,0.278294,0.287598,1.007295,0.000000,0.000000,0.000000,0.000000,0.000000,0.000000,0.000000,0.000000,0.000000,0.000000,0.000000,0.000000,0.131820,3,0
210000,-0.000542,5.328430,-0.047997,-0.007200,25.016256,-0.014746,0.000200,-0.000043,1.570553,-0.000345,0.000002,-0.000013,-0.000000,-0.000008,0.000000,0.000410,0.000568,0.040696,0.030366,0.268052,0.268052,0.276421,1.006816,0.000000,0.000000,0.000000,0.000000,0.000000,0.000000,0.000000,0.000000,0.000000,0.000000,0.000000,0.000000,0.038881,3,0
220000,-0.000590,5.584057,-0.047278,-0.007404,25.018934,-0.014994,0.000214,-0.000028,1.570540,-0.000434,0.000002,-0.000026,-0.000000,-0.000011,0.000000,0.002620,0.000616,0.126655,0.019655,0.258785,0.258785,0.266321,1.006202,0.000000,0.000000,0.000000,0.000000,0.000000,0.000000,0.000000,0.000000,0.000000,0.000000,0.000000,0.000000,0.121193,3,0
230000,-0.000640,5.840479,-0.045599,-0.007795,25.022314,-0.014781,0.000216,0.000004,1.570521,-0.000547,0.000003,-0.000059,-0.000000,-0.000014,0.000000,0.003853,0.000668,0.149304,0.042826,0.250383,0.250383,0.257172,1.005446,0.000000,0.000000,0.000000,0.000000,0.000000,0.000000,0.000000,0.000000,0.000000,0.000000,0.000000,0.000000,0.143075,3,0
240000,-0.000691,6.092000,-0.044333,-0.008000,25.023277,-0.014722,0.000230,0.000011,1.570507,-0.000574,0.000003,-0.000086,-0.000000,-0.000015,0.000000,0.000351,0.000720,0.032001,0.034245,0.242753,0.242753,0.248866,1.004541,0.000000,0.000000,0.000000,0.000000,0.000000,0.000000,0.000000,0.000000,0.000000,0.000000,0.000000,0.000000,0.030714,3,0
250000,-0.000743,6.345326,-0.045749,-0.008269,25.025221,-0.016087,0.000240,0.000020,1.570499,-0.000644,0.000004,-0.000059,-0.000000,-0.000018,0.000000,0.001148,0.000774,0.078655,-0.031374,0.235815,0.235815,0.241314,1.003481,0.000000,0.000000,0.000000,0.000000,0.000000,0.000000,0.000000,0.000000,0.000000,0.000000,0.000000,0.000000,0.075568,3,0
260000,-0.000798,6.597263,-0.044704,-0.008641,25.026546,-0.016127,0.000243,0.000025,1.570493,-0.000686,0.000005,-0.000088,-0.000000,-0.000019,0.000000,0.000464,0.000830,0.043977,0.031037,0.229500,0.229500,0.234436,1.002258,0.000000,0.000000,0.000000,0.000000,0.000000,0.000000,0.000000,0.000000,0.000000,0.000000,0.000000,0.000000,0.042303,3,0
270000,-0.000854,6.853119,-0.044649,-0.008899,25.030369,-0.016558,0.000249,0.000062,1.570482,-0.000840,0.000006,-0.000094,-0.000000,-0.000025,0.000000,0.003608,0.000888,0.149848,0.005851,0.223750,0.223750,0.228165,1.000869,0.000000,0.000000,0.000000,0.000000,0.000000,0.000000,0.000000,0.000000,0.000000,0.000000,0.000000,0.000000,0.144262,3,0
280000,-0.000912,7.105354,-0.046676,-0.009204,25.031878,-0.018426,0.000264,0.000071,1.570464,-0.000899,0.000007,-0.000040,-0.000000,-0.000027,0.000000,0.000853,0.000947,0.052986,-0.050037,0.218511,0.218511,0.222443,0.999307,0.000000,0.000000,0.000000,0.000000,0.000000,0.000000,0.000000,0.000000,0.000000,0.000000,0.000000,0.000000,0.051064,3,0
290000,-0.000971,7.360616,-0.045436,-0.009472,25.035746,-0.018141,0.000268,0.000110,1.570456,-0.001062,0.000008,-0.000086,-0.000000,-0.000034,0.000000,0.003342,0.001007,0.138676,0.039540,0.213738,0.213738,0.217219,0.997567,0.000000,0.000000,0.000000,0.000000,0.000000,0.000000,0.000000,0.000000,0.000000,0.000000,0.000000,0.000000,0.133739,3,0
300000,-0.001031,7.616619,-0.044272,-0.009671,25.040375,-0.017952,0.000285,0.000171,1.570439,-0.001266,0.000009,-0.000133,-0.000000,-0.000043,0.000000,0.004439,0.001068,0.161680,0.038199,0.209392,0.209392,0.212446,0.995645,0.000000,0.000000,0.000000,0.000000,0.000000,0.000000,0.000000,0.000000,0.000000,0.000000,0.000000,0.000000,0.156041,3,0
310000,-0.001092,7.869238,-0.043219,-0.009976,25.042356,-0.017755,0.000294,0.000190,1.570428,-0.001352,0.000011,-0.000180,-0.000000,-0.000047,0.000000,0.000879,0.001131,0.064663,0.035764,0.205436,0.205436,0.208087,0.993536,0.000000,0.000000,0.000000,0.000000,0.000000,0.000000,0.000000,0.000000,0.000000,0.000000,0.000000,0.000000,0.062459,3,0
320000,-0.001155,8.123372,-0.043244,-0.010273,25.045803,-0.018382,0.000305,0.000230,1.570407,-0.001508,0.000012,-0.000187,-0.000000,-0.000054,0.000000,0.001960,0.001195,0.110207,0.004707,0.201839,0.201839,0.204105,0.991236,0.000000,0.000000,0.000000,0.000000,0.000000,0.000000,0.000000,0.000000,0.000000,0.000000,0.000000,0.000000,0.106506,3,0
330000,-0.001219,8.375647,-0.042589,-0.010566,25.047600,-0.018400,0.000321,0.000254,1.570398,-0.001590,0.000014,-0.000225,-0.000001,-0.000058,0.000000,0.000588,0.001261,0.054829,0.025313,0.198572,0.198572,0.200469,0.988743,0.000000,0.000000,0.000000,0.000000,0.000000,0.000000,0.000000,0.000000,0.000000,0.000000,0.000000,0.000000,0.053028,3,0
340000,-0.001284,8.630057,-0.043274,-0.010744,25.051542,-0.019266,0.000334,0.000318,1.570380,-0.001781,0.000016,-0.000201,-0.000001,-0.000067,0.000000,0.002382,0.001327,0.120598,-0.015102,0.195611,0.195611,0.197151,0.986053,0.000000,0.000000,0.000000,0.000000,0.000000,0.000000,0.000000,0.000000,0.000000,0.000000,0.000000,0.000000,0.116673,3,0
350000,-0.001350,8.884582,-0.042400,-0.011005,25.055744,-0.019042,0.000347,0.000381,1.570374,-0.001989,0.000019,-0.000256,-0.000001,-0.000077,0.000000,0.002681,0.001395,0.124573,0.033194,0.192932,0.192932,0.194125,0.983163,0.000000,0.000000,0.000000,0.000000,0.000000,0.000000,0.000000,0.000000,0.000000,0.000000,0.000000,0.000000,0.120575,3,0
360000,-0.001417,9.137958,-0.042531,-0.011306,25.058865,-0.019607,0.000363,0.000425,1.570356,-0.002144,0.000021,-0.000260,-0.000001,-0.000085,0.000000,0.001270,0.001463,0.088675,0.002047,0.190514,0.190514,0.191370,0.980072,0.000000,0.000000,0.000000,0.000000,0.000000,0.000000,0.000000,0.000000,0.000000,0.000000,0.000000,0.000000,0.085872,3,0
370000,-0.001484,9.395858,-0.042550,-0.011498,25.066706,-0.019979,0.000372,0.000561,1.570346,-0.002574,0.000024,-0.000270,-0.000001,-0.000108,0.000000,0.008758,0.001532,0.232846,0.005816,0.188338,0.188339,0.188863,0.976778,0.000000,0.000000,0.000000,0.000000,0.000000,0.000000,0.000000,0.000000,0.000000,0.000000,0.000000,0.000000,0.225542,3,0
380000,-0.001553,9.653775,-0.042106,-0.011806,25.074883,-0.020057,0.000379,0.000709,1.570338,-0.003025,0.000027,-0.000310,-0.000001,-0.000133,0.000000,0.008860,0.001603,0.233293,0.020919,0.186388,0.186388,0.186586,0.973281,0.000000,0.000000,0.000000,0.000000,0.000000,0.000000,0.000000,0.000000,0.000000,0.000000,0.000000,0.000000,0.226051,3,0
390000,-0.001622,9.910496,-0.042259,-0.011982,25.081738,-0.020577,0.000391,0.000837,1.570320,-0.003417,0.000030,-0.000314,-0.000001,-0.000155,0.000001,0.006078,0.001673,0.193963,0.001733,0.184647,0.184647,0.184522,0.969580,0.000000,0.000000,0.000000,0.000000,0.000000,0.000000,0.000000,0.000000,0.000000,0.000000,0.000000,0.000000,0.188001,3,0
400000,-0.001692,10.167285,-0.043496,-0.012232,25.088814,-0.022222,0.000391,0.000962,1.570301,-0.003831,0.000034,-0.000243,-0.000002,-0.000179,0.000001,0.006366,0.001745,0.195600,-0.033659,0.183101,0.183101,0.182656,0.965674,0.000000,0.000000,0.000000,0.000000,0.000000,0.000000,0.000000,0.000000,0.000000,0.000000,0.000000,0.000000,0.189638,3,0
410000,-0.001761,10.422945,-0.042445,-0.012433,25.094885,-0.021496,0.000397,0.001062,1.570289,-0.004179,0.000038,-0.000336,-0.000002,-0.000200,0.000001,0.004296,0.001817,0.157406,0.042437,0.181736,0.181736,0.180971,0.961565,0.000000,0.000000,0.000000,0.000000,0.000000,0.000000,0.000000,0.000000,0.000000,0.000000,0.000000,0.000000,0.152649,3,0
420000,-0.001832,10.676921,-0.043741,-0.012703,25.098982,-0.023262,0.000400,0.001134,1.570275,-0.004411,0.000042,-0.000254,-0.000002,-0.000214,0.000001,0.001842,0.001889,0.100474,-0.035967,0.180540,0.180540,0.179456,0.957254,0.000000,0.000000,0.000000,0.000000,0.000000,0.000000,0.000000,0.000000,0.000000,0.000000,0.000000,0.000000,0.097468,3,0
430000,-0.001904,10.931051,-0.045350,-0.012966,25.103176,-0.025574,0.000404,0.001204,1.570253,-0.004662,0.000047,-0.000143,-0.000002,-0.000229,0.000001,0.002123,0.001963,0.104885,-0.046093,0.179501,0.179501,0.178097,0.952742,0.000000,0.000000,0.000000,0.000000,0.000000,0.000000,0.000000,0.000000,0.000000,0.000000,0.000000,0.000000,0.101765,3,0
440000,-0.001976,11.188887,-0.044182,-0.013227,25.112226,-0.024505,0.000421,0.001387,1.570232,-0.005232,0.000052,-0.000264,-0.000003,-0.000266,0.000001,0.008817,0.002037,0.228411,0.048487,0.178609,0.178609,0.176883,0.948032,0.000000,0.000000,0.000000,0.000000,0.000000,0.000000,0.000000,0.000000,0.000000,0.000000,0.000000,0.000000,0.221620,3,0
450000,-0.002049,11.446797,-0.044678,-0.013420,25.121422,-0.025451,0.000439,0.001586,1.570212,-0.005825,0.000057,-0.000243,-0.000003,-0.000305,0.000001,0.008487,0.002111,0.228912,-0.008340,0.177853,0.177853,0.175803,0.943126,0.000000,0.000000,0.000000,0.000000,0.000000,0.000000,0.000000,0.000000,0.000000,0.000000,0.000000,0.000000,0.222136,3,0
460000,-0.002122,11.704790,-0.046294,-0.013699,25.130943,-0.027581,0.000455,0.001788,1.570206,-0.006441,0.000063,-0.000117,-0.000003,-0.000346,0.000001,0.008858,0.002187,0.229334,-0.046538,0.177223,0.177224,0.174847,0.938027,0.000000,0.000000,0.000000,0.000000,0.000000,0.000000,0.000000,0.000000,0.000000,0.000000,0.000000,0.000000,0.222570,3,0
470000,-0.002196,11.959942,-0.046829,-0.013983,25.136724,-0.028540,0.000473,0.001908,1.570183,-0.006804,0.000069,-0.000093,-0.000004,-0.000371,0.000001,0.002758,0.002263,0.130275,-0.008717,0.176712,0.176712,0.174006,0.932739,0.000000,0.000000,0.000000,0.000000,0.000000,0.000000,0.000000,0.000000,0.000000,0.000000,0.000000,0.000000,0.126457,3,0
480000,-0.002269,12.215821,-0.046283,-0.014098,25.143484,-0.028045,0.000476,0.002060,1.570170,-0.007246,0.000076,-0.000177,-0.000004,-0.000402,0.000001,0.003942,0.002338,0.153372,0.028993,0.176311,0.176311,0.173271,0.927266,0.000000,0.000000,0.000000,0.000000,0.000000,0.000000,0.000000,0.000000,0.000000,0.000000,0.000000,0.000000,0.148882,3,0
490000,-0.002342,12.471832,-0.045461,-0.014269,25.150429,-0.027207,0.000478,0.002214,1.570165,-0.007710,0.000083,-0.000292,-0.000005,-0.000436,0.000001,0.004171,0.002413,0.155851,0.038538,0.176011,0.176011,0.172634,0.921612,0.000000,0.000000,0.000000,0.000000,0.000000,0.000000,0.000000,0.000000,0.000000,0.000000,0.000000,0.000000,0.151298,3,0
500000,-0.002414,12.727395,-0.045557,-0.014382,25.156799,-0.027618,0.000493,0.002347,1.570156,-0.008135,0.000090,-0.000312,-0.000005,-0.000467,0.000002,0.003103,0.002487,0.138317,0.006362,0.175805,0.175805,0.172087,0.915783,0.000000,0.000000,0.000000,0.000000,0.000000,0.000000,0.000000,0.000000,0.000000,0.000000,0.000000,0.000000,0.134286,3,0
510000,-0.002487,12.984263,-0.044410,-0.014631,25.165028,-0.026502,0.000501,0.002534,1.570133,-0.008709,0.000098,-0.000472,-0.000006,-0.000510,0.000002,0.005700,0.002562,0.180875,0.050047,0.175687,0.175687,0.171622,0.909784,0.000000,0.000000,0.000000,0.000000,0.000000,0.000000,0.000000,0.000000,0.000000,0.000000,0.000000,0.000000,0.175597,3,0
520000,-0.002558,13.243586,-0.044081,-0.014762,25.177059,-0.026246,0.000518,0.002820,1.570111,-0.009565,0.000107,-0.000541,-0.000007,-0.000576,0.000002,0.011167,0.002635,0.261864,0.021005,0.175650,0.175650,0.171234,0.903620,0.000000,0.000000,0.000000,0.000000,0.000000,0.000000,0.000000,0.000000,0.000000,0.000000,0.000000,0.000000,0.254211,3,0
530000,-0.002629,13.500671,-0.044262,-0.014933,25.185612,-0.026846,0.000526,0.003029,1.570105,-0.010175,0.000116,-0.000552,-0.000008,-0.000624,0.000002,0.005323,0.002709,0.181334,0.003156,0.175686,0.175686,0.170914,0.897298,0.000000,0.000000,0.000000,0.000000,0.000000,0.000000,0.000000,0.000000,0.000000,0.000000,0.000000,0.000000,0.176043,3,0
540000,-0.002700,13.756719,-0.043877,-0.015119,25.192606,-0.026441,0.000543,0.003206,1.570096,-0.010670,0.000125,-0.000633,-0.000008,-0.000664,0.000002,0.003388,0.002782,0.142829,0.023136,0.175791,0.175791,0.170658,0.890824,0.000000,0.000000,0.000000,0.000000,0.000000,0.000000,0.000000,0.000000,0.000000,0.000000,0.000000,0.000000,0.138671,3,0
550000,-0.002771,14.011741,-0.043167,-0.015348,25.197962,-0.025663,0.000564,0.003328,1.570073,-0.011045,0.000135,-0.000757,-0.000009,-0.000695,0.000002,0.001991,0.002855,0.105380,0.034517,0.175959,0.175959,0.170460,0.884205,0.000000,0.000000,0.000000,0.000000,0.000000,0.000000,0.000000,0.000000,0.000000,0.000000,0.000000,0.000000,0.102328,3,0
560000,-0.002842,14.267503,-0.042868,-0.015576,25.204420,-0.025354,0.000573,0.003484,1.570058,-0.011515,0.000146,-0.000830,-0.000010,-0.000734,0.000002,0.002740,0.002928,0.128609,0.019764,0.176184,0.176184,0.170314,0.877448,0.000000,0.000000,0.000000,0.000000,0.000000,0.000000,0.000000,0.000000,0.000000,0.000000,0.000000,0.000000,0.124865,3,0
570000,-0.002913,14.527505,-0.044362,-0.015781,25.217619,-0.027664,0.000578,0.003851,1.570037,-0.012528,0.000157,-0.000665,-0.000011,-0.000821,0.000003,0.012132,0.003001,0.270361,-0.043522,0.176461,0.176461,0.170214,0.870560,0.000000,0.000000,0.000000,0.000000,0.000000,0.000000,0.000000,0.000000,0.000000,0.000000,0.000000,0.000000,0.262425,3,0
580000,-0.002984,14.785847,-0.045301,-0.015978,25.228153,-0.029418,0.000592,0.004139,1.570020,-0.013331,0.000168,-0.000576,-0.000012,-0.000891,0.000003,0.007154,0.003074,0.209015,-0.023042,0.176785,0.176785,0.170157,0.863549,0.000000,0.000000,0.000000,0.000000,0.000000,0.000000,0.000000,0.000000,0.000000,0.000000,0.000000,0.000000,0.202878,3,0
590000,-0.003053,15.044306,-0.045511,-0.016022,25.238783,-0.029780,0.000600,0.004443,1.570011,-0.014153,0.000181,-0.000589,-0.000013,-0.000964,0.000003,0.007068,0.003146,0.208993,0.003166,0.177152,0.177152,0.170138,0.856422,0.000000,0.000000,0.000000,0.000000,0.000000,0.000000,0.000000,0.000000,0.000000,0.000000,0.000000,0.000000,0.202846,3,0
600000,-0.003120,15.302293,-0.044734,-0.016081,25.248589,-0.028656,0.000614,0.004721,1.569997,-0.014914,0.000193,-0.000745,-0.000014,-0.001032,0.000003,0.006012,0.003215,0.188975,0.038089,0.177557,0.177557,0.170152,0.849187,0.000000,0.000000,0.000000,0.000000,0.000000,0.000000,0.000000,0.000000,0.000000,0.000000,0.000000,0.000000,0.183410,3,0
610000,-0.003185,15.560403,-0.045033,-0.016127,25.258617,-0.029306,0.000628,0.005001,1.569986,-0.015693,0.000206,-0.000744,-0.000015,-0.001105,0.000004,0.005798,0.003283,0.189315,-0.000188,0.177996,0.177996,0.170195,0.841852,0.000000,0.000000,0.000000,0.000000,0.000000,0.000000,0.000000,0.000000,0.000000,0.000000,0.000000,0.000000,0.183726,3,0
620000,-0.003249,15.818044,-0.045286,-0.016174,25.267815,-0.029934,0.000643,0.005262,1.569971,-0.016407,0.000220,-0.000752,-0.000017,-0.001172,0.000004,0.004656,0.003349,0.169651,0.001669,0.178466,0.178466,0.170264,0.834426,0.000000,0.000000,0.000000,0.000000,0.000000,0.000000,0.000000,0.000000,0.000000,0.000000,0.000000,0.000000,0.164637,3,0
630000,-0.003311,16.076405,-0.046006,-0.016190,25.278133,-0.030991,0.000648,0.005573,1.569959,-0.017224,0.000235,-0.000688,-0.000018,-0.001250,0.000004,0.005887,0.003413,0.190222,-0.014614,0.178962,0.178962,0.170355,0.826915,0.000000,0.000000,0.000000,0.000000,0.000000,0.000000,0.000000,0.000000,0.000000,0.000000,0.000000,0.000000,0.184577,3,0
640000,-0.003372,16.334290,-0.046119,-0.016358,25.287609,-0.031143,0.000665,0.005852,1.569942,-0.017971,0.000250,-0.000721,-0.000020,-0.001323,0.000004,0.004700,0.003476,0.170305,0.007113,0.179481,0.179481,0.170465,0.819329,0.000000,0.000000,0.000000,0.000000,0.000000,0.000000,0.000000,0.000000,0.000000,0.000000,0.000000,0.000000,0.165245,3,0
650000,-0.003432,16.591702,-0.047211,-0.016451,25.296139,-0.032796,0.000682,0.006100,1.569935,-0.018645,0.000265,-0.000596,-0.000021,-0.001390,0.000005,0.003802,0.003539,0.150871,-0.027279,0.180020,0.180020,0.170591,0.811675,0.000000,0.000000,0.000000,0.000000,0.000000,0.000000,0.000000,0.000000,0.000000,0.000000,0.000000,0.000000,0.146385,3,0
660000,-0.003492,16.851036,-0.046982,-0.016568,25.307955,-0.032399,0.000692,0.006471,1.569917,-0.019608,0.000281,-0.000689,-0.000023,-0.001488,0.000005,0.007292,0.003600,0.211437,0.019771,0.180576,0.180576,0.170729,0.803961,0.000000,0.000000,0.000000,0.000000,0.000000,0.000000,0.000000,0.000000,0.000000,0.000000,0.000000,0.000000,0.205104,3,0
670000,-0.003549,17.109278,-0.046924,-0.016631,25.317711,-0.032403,0.000717,0.006777,1.569898,-0.020400,0.000298,-0.000755,-0.000025,-0.001570,0.000005,0.004739,0.003660,0.170652,0.013640,0.181146,0.181146,0.170877,0.796196,0.000000,0.000000,0.000000,0.000000,0.000000,0.000000,0.000000,0.000000,0.000000,0.000000,0.000000,0.000000,0.165539,3,0
680000,-0.003606,17.367636,-0.048365,-0.016773,25.327522,-0.034499,0.000724,0.007098,1.569888,-0.021205,0.000316,-0.000565,-0.000026,-0.001654,0.000006,0.004960,0.003719,0.170738,-0.038979,0.181726,0.181726,0.171033,0.788388,0.000000,0.000000,0.000000,0.000000,0.000000,0.000000,0.000000,0.000000,0.000000,0.000000,0.000000,0.000000,0.165607,3,0
690000,-0.003662,17.627922,-0.048189,-0.016866,25.340698,-0.034536,0.000743,0.007537,1.569875,-0.022311,0.000333,-0.000659,-0.000028,-0.001773,0.000006,0.008633,0.003777,0.230345,0.018589,0.182315,0.182315,0.171193,0.780545,0.000000,0.000000,0.000000,0.000000,0.000000,0.000000,0.000000,0.000000,0.000000,0.000000,0.000000,0.000000,0.223375,3,0
700000,-0.003717,17.885271,-0.049534,-0.016946,25.348625,-0.036813,0.000755,0.007791,1.569858,-0.022940,0.000352,-0.000484,-0.000030,-0.001841,0.000006,0.002885,0.003834,0.128958,-0.034720,0.182911,0.182911,0.171357,0.772673,0.000000,0.000000,0.000000,0.000000,0.000000,0.000000,0.000000,0.000000,0.000000,0.000000,0.000000,0.000000,0.125082,3,0
710000,-0.003770,18.146391,-0.048634,-0.017079,25.363005,-0.035484,0.000768,0.008276,1.569840,-0.024175,0.000371,-0.000714,-0.000032,-0.001978,0.000007,0.010361,0.003890,0.249229,0.044635,0.183510,0.183510,0.171522,0.764782,0.000000,0.000000,0.000000,0.000000,0.000000,0.000000,0.000000,0.000000,0.000000,0.000000,0.000000,0.000000,0.241637,3,0
720000,-0.003823,18.407593,-0.048824,-0.017106,25.377258,-0.035760,0.000792,0.008767,1.569828,-0.025415,0.000390,-0.000747,-0.000035,-0.002118,0.000007,0.009816,0.003944,0.246391,0.006002,0.184111,0.184111,0.171685,0.756878,0.000000,0.000000,0.000000,0.000000,0.000000,0.000000,0.000000,0.000000,0.000000,0.000000,0.000000,0.000000,0.238861,3,0
730000,-0.003873,18.669485,-0.049287,-0.017170,25.392542,-0.036495,0.000808,0.009303,1.569808,-0.026759,0.000410,-0.000730,-0.000037,-0.002272,0.000008,0.011208,0.003996,0.263351,-0.003413,0.184712,0.184712,0.171846,0.748969,0.000000,0.000000,0.000000,0.000000,0.000000,0.000000,0.000000,0.000000,0.000000,0.000000,0.000000,0.000000,0.255273,3,0
740000,-0.003924,18.927763,-0.050749,-0.017280,25.401438,-0.038788,0.000834,0.009599,1.569786,-0.027486,0.000431,-0.000525,-0.000039,-0.002357,0.000008,0.003423,0.004048,0.140457,-0.037999,0.185311,0.185311,0.172003,0.741062,0.000000,0.000000,0.000000,0.000000,0.000000,0.000000,0.000000,0.000000,0.000000,0.000000,0.000000,0.000000,0.136174,3,0
750000,-0.003972,19.187992,-0.051313,-0.017310,25.413574,-0.039595,0.000862,0.010039,1.569774,-0.028537,0.000452,-0.000494,-0.000042,-0.002482,0.000008,0.006478,0.004099,0.200153,-0.005879,0.185908,0.185908,0.172155,0.733164,0.000000,0.000000,0.000000,0.000000,0.000000,0.000000,0.000000,0.000000,0.000000,0.000000,0.000000,0.000000,0.193993,3,0
760000,-0.004019,19.448921,-0.051167,-0.017411,25.426874,-0.039239,0.000885,0.010532,1.569757,-0.029696,0.000473,-0.000602,-0.000044,-0.002622,0.000009,0.007744,0.004148,0.218105,0.019083,0.186499,0.186499,0.172299,0.725282,0.000000,0.000000,0.000000,0.000000,0.000000,0.000000,0.000000,0.000000,0.000000,0.000000,0.000000,0.000000,0.211365,3,0
770000,-0.004065,19.709303,-0.050989,-0.017492,25.438992,-0.038910,0.000906,0.010986,1.569743,-0.030749,0.000495,-0.000718,-0.000047,-0.002751,0.000009,0.006245,0.004196,0.195591,0.020101,0.187084,0.187084,0.172435,0.717421,0.000000,0.000000,0.000000,0.000000,0.000000,0.000000,0.000000,0.000000,0.000000,0.000000,0.000000,0.000000,0.189537,3,0
780000,-0.004109,19.966652,-0.050000,-0.017438,25.445803,-0.037471,0.000923,0.011208,1.569718,-0.031261,0.000518,-0.000996,-0.000050,-0.002815,0.000009,0.001808,0.004242,0.094118,0.048145,0.187662,0.187662,0.172563,0.709589,0.000000,0.000000,0.000000,0.000000,0.000000,0.000000,0.000000,0.000000,0.000000,0.000000,0.000000,0.000000,0.091268,3,0
790000,-0.004150,20.229099,-0.049440,-0.017340,25.461363,-0.036721,0.000942,0.011799,1.569696,-0.032661,0.000541,-0.001189,-0.000053,-0.002993,0.000010,0.010605,0.004285,0.254158,0.032798,0.188232,0.188232,0.172680,0.701792,0.000000,0.000000,0.000000,0.000000,0.000000,0.000000,0.000000,0.000000,0.000000,0.000000,0.000000,0.000000,0.246220,3,0
800000,-0.004190,20.489094,-0.049427,-0.017400,25.472534,-0.036699,0.000967,0.012215,1.569686,-0.033611,0.000565,-0.001271,-0.000056,-0.003115,0.000010,0.004723,0.004326,0.170464,0.013444,0.188793,0.188792,0.172787,0.694035,0.000000,0.000000,0.000000,0.000000,0.000000,0.000000,0.000000,0.000000,0.000000,0.000000,0.000000,0.000000,0.165153,3,0
810000,-0.004230,20.748535,-0.051013,-0.017474,25.482452,-0.039095,0.000993,0.012585,1.569671,-0.034450,0.000589,-0.001020,-0.000059,-0.003226,0.000011,0.003868,0.004367,0.148907,-0.042033,0.189343,0.189343,0.172882,0.686323,0.000000,0.000000,0.000000,0.000000,0.000000,0.000000,0.000000,0.000000,0.000000,0.000000,0.000000,0.000000,0.144269,3,0
820000,-0.004268,21.010571,-0.051327,-0.017523,25.496912,-0.039736,0.001021,0.013155,1.569646,-0.035743,0.000614,-0.001040,-0.000063,-0.003398,0.000011,0.008343,0.004408,0.227304,0.003041,0.189883,0.189882,0.172964,0.678663,0.000000,0.000000,0.000000,0.000000,0.000000,0.000000,0.000000,0.000000,0.000000,0.000000,0.000000,0.000000,0.220153,3,0
830000,-0.004304,21.270760,-0.052628,-0.017430,25.507950,-0.041754,0.001040,0.013587,1.569636,-0.036685,0.000639,-0.000851,-0.000066,-0.003526,0.000012,0.004495,0.004445,0.163914,-0.031022,0.190411,0.190410,0.173035,0.671058,0.000000,0.000000,0.000000,0.000000,0.000000,0.000000,0.000000,0.000000,0.000000,0.000000,0.000000,0.000000,0.158771,3,0
840000,-0.004338,21.532911,-0.051988,-0.017484,25.522306,-0.040757,0.001069,0.014157,1.569624,-0.037970,0.000664,-0.001084,-0.000070,-0.003703,0.000012,0.008154,0.004481,0.221676,0.036953,0.190927,0.190927,0.173092,0.663514,0.000000,0.000000,0.000000,0.000000,0.000000,0.000000,0.000000,0.000000,0.000000,0.000000,0.000000,0.000000,0.214666,3,0
850000,-0.004371,21.791933,-0.053597,-0.017359,25.530996,-0.043346,0.001085,0.014478,1.569598,-0.038664,0.000690,-0.000825,-0.000073,-0.003800,0.000013,0.002542,0.004515,0.118410,-0.041300,0.191431,0.191430,0.173135,0.656035,0.000000,0.000000,0.000000,0.000000,0.000000,0.000000,0.000000,0.000000,0.000000,0.000000,0.000000,0.000000,0.114715,3,0
860000,-0.004400,22.052935,-0.052767,-0.017221,25.542919,-0.042172,0.001113,0.014963,1.569581,-0.039710,0.000717,-0.001109,-0.000077,-0.003949,0.000013,0.005394,0.004546,0.177366,0.044111,0.191922,0.191921,0.173165,0.648625,0.000000,0.000000,0.000000,0.000000,0.000000,0.000000,0.000000,0.000000,0.000000,0.000000,0.000000,0.000000,0.171750,3,0
870000,-0.004428,22.311436,-0.052752,-0.017226,25.550337,-0.042040,0.001139,0.015245,1.569560,-0.040276,0.000743,-0.001210,-0.000081,-0.004030,0.000014,0.001502,0.004575,0.095156,0.015357,0.192399,0.192399,0.173181,0.641289,0.000000,0.000000,0.000000,0.000000,0.000000,0.000000,0.000000,0.000000,0.000000,0.000000,0.000000,0.000000,0.092210,3,0
880000,-0.004454,22.571291,-0.052330,-0.017212,25.560064,-0.041588,0.001151,0.015628,1.569548,-0.041084,0.000771,-0.001405,-0.000085,-0.004149,0.000014,0.003074,0.004603,0.134764,0.029539,0.192864,0.192863,0.173183,0.634030,0.000000,0.000000,0.000000,0.000000,0.000000,0.000000,0.000000,0.000000,0.000000,0.000000,0.000000,0.000000,0.130508,3,0
890000,-0.004480,22.834410,-0.053023,-0.017232,25.575405,-0.042627,0.001177,0.016279,1.569536,-0.042490,0.000798,-0.001348,-0.000089,-0.004358,0.000015,0.008746,0.004629,0.232628,-0.009259,0.193315,0.193315,0.173171,0.626851,0.000000,0.000000,0.000000,0.000000,0.000000,0.000000,0.000000,0.000000,0.000000,0.000000,0.000000,0.000000,0.225177,3,0
900000,-0.004504,23.095615,-0.052321,-0.017232,25.587185,-0.041715,0.001209,0.016776,1.569527,-0.043512,0.000826,-0.001615,-0.000094,-0.004513,0.000015,0.004816,0.004655,0.168144,0.039474,0.193753,0.193752,0.173144,0.619756,0.000000,0.000000,0.000000,0.000000,0.000000,0.000000,0.000000,0.000000,0.000000,0.000000,0.000000,0.000000,0.162778,3,0
910000,-0.004527,23.356857,-0.053051,-0.017180,25.598827,-0.042706,0.001226,0.017272,1.569502,-0.044525,0.000854,-0.001546,-0.000098,-0.004669,0.000016,0.004425,0.004679,0.165249,-0.010556,0.194178,0.194177,0.173104,0.612747,0.000000,0.000000,0.000000,0.000000,0.000000,0.000000,0.000000,0.000000,0.000000,0.000000,0.000000,0.000000,0.159965,3,0
920000,-0.004548,23.619419,-0.052067,-0.017109,25.612597,-0.041500,0.001242,0.017873,1.569486,-0.045770,0.000882,-0.001887,-0.000102,-0.004863,0.000016,0.006983,0.004701,0.202074,0.049376,0.194589,0.194588,0.173049,0.605827,0.000000,0.000000,0.000000,0.000000,0.000000,0.000000,0.000000,0.000000,0.000000,0.000000,0.000000,0.000000,0.195575,3,0
930000,-0.004567,23.877476,-0.051269,-0.017032,25.618437,-0.040409,0.001262,0.018081,1.569473,-0.046133,0.000911,-0.002181,-0.000107,-0.004921,0.000017,0.000848,0.004721,0.058643,0.042338,0.194986,0.194985,0.172980,0.598999,0.000000,0.000000,0.000000,0.000000,0.000000,0.000000,0.000000,0.000000,0.000000,0.000000,0.000000,0.000000,0.056921,3,0
940000,-0.004586,24.138193,-0.051850,-0.017021,25.628735,-0.041240,0.001282,0.018535,1.569455,-0.046998,0.000940,-0.002143,-0.000112,-0.005060,0.000017,0.003101,0.004740,0.138472,-0.005839,0.195371,0.195370,0.172897,0.592264,0.000000,0.000000,0.000000,0.000000,0.000000,0.000000,0.000000,0.000000,0.000000,0.000000,0.000000,0.000000,0.134041,3,0
950000,-0.004602,24.398294,-0.051664,-0.016889,25.637817,-0.040964,0.001310,0.018916,1.569439,-0.047726,0.000969,-0.002294,-0.000117,-0.005179,0.000017,0.002253,0.004758,0.116199,0.021072,0.195743,0.195741,0.172800,0.585625,0.000000,0.000000,0.000000,0.000000,0.000000,0.000000,0.000000,0.000000,0.000000,0.000000,0.000000,0.000000,0.112504,3,0
960000,-0.004617,24.659090,-0.053299,-0.016723,25.648130,-0.043413,0.001328,0.019369,1.569418,-0.048574,0.000999,-0.001997,-0.000122,-0.005320,0.000018,0.003200,0.004772,0.134310,-0.042225,0.196102,0.196100,0.172690,0.579084,0.000000,0.000000,0.000000,0.000000,0.000000,0.000000,0.000000,0.000000,0.000000,0.000000,0.000000,0.000000,0.130001,3,0
970000,-0.004628,24.919264,-0.053402,-0.016553,25.657196,-0.043616,0.001352,0.019748,1.569399,-0.049284,0.001029,-0.002085,-0.000127,-0.005440,0.000018,0.002047,0.004785,0.111958,0.011877,0.196448,0.196447,0.172567,0.572642,0.000000,0.000000,0.000000,0.000000,0.000000,0.000000,0.000000,0.000000,0.000000,0.000000,0.000000,0.000000,0.108390,3,0
980000,-0.004639,25.182734,-0.054860,-0.016478,25.671856,-0.045535,0.001384,0.020450,1.569378,-0.050618,0.001059,-0.001835,-0.000132,-0.005669,0.000019,0.007280,0.004796,0.209515,-0.035210,0.196783,0.196781,0.172431,0.566301,0.000000,0.000000,0.000000,0.000000,0.000000,0.000000,0.000000,0.000000,0.000000,0.000000,0.000000,0.000000,0.202696,3,0
990000,-0.004647,25.442272,-0.055138,-0.016310,25.679434,-0.046074,0.001401,0.020764,1.569359,-0.051162,0.001089,-0.001885,-0.000137,-0.005763,0.000019,0.001177,0.004805,0.085049,0.006555,0.197106,0.197104,0.172282,0.560061,0.000000,0.000000,0.000000,0.000000,0.000000,0.000000,0.000000,0.000000,0.000000,0.000000,0.000000,0.000000,0.082386,3,0
1000000,-0.004653,25.701853,-0.054213,-0.016199,25.687082,-0.044670,0.001435,0.021078,1.569345,-0.051700,0.001120,-0.002245,-0.000143,-0.005858,0.000020,0.001519,0.004811,0.083860,0.048552,0.197417,0.197415,0.172120,0.553925,0.000000,0.000000,0.000000,0.000000,0.000000,0.000000,0.000000,0.000000,0.000000,0.000000,0.000000,0.000000,0.081236,3,0
1010000,-0.004658,25.964750,-0.054627,-0.016193,25.700378,-0.045434,0.001466,0.021722,1.569335,-0.052873,0.001150,-0.002263,-0.000148,-0.006068,0.000020,0.005344,0.004817,0.182024,0.001623,0.197717,0.197715,0.171947,0.547892,0.000000,0.000000,0.000000,0.000000,0.000000,0.000000,0.000000,0.000000,0.000000,0.000000,0.000000,0.000000,0.176087,3,0
1020000,-0.004662,26.226982,-0.054691,-0.016011,25.712458,-0.045510,0.001492,0.022284,1.569311,-0.053892,0.001180,-0.002373,-0.000154,-0.006253,0.000021,0.004035,0.004821,0.157536,0.014030,0.198007,0.198004,0.171762,0.541963,0.000000,0.000000,0.000000,0.000000,0.000000,0.000000,0.000000,0.000000,0.000000,0.000000,0.000000,0.000000,0.152409,3,0
1030000,-0.004664,26.485926,-0.053590,-0.015954,25.718525,-0.044102,0.001510,0.022508,1.569297,-0.054243,0.001211,-0.002788,-0.000160,-0.006317,0.000021,0.000963,0.004824,0.054216,0.054762,0.198286,0.198283,0.171565,0.536139,0.000000,0.000000,0.000000,0.000000,0.000000,0.000000,0.000000,0.000000,0.000000,0.000000,0.000000,0.000000,0.052634,3,0
1040000,-0.004666,26.744259,-0.055167,-0.015789,25.723465,-0.046195,0.001542,0.022683,1.569289,-0.054463,0.001243,-0.002488,-0.000165,-0.006359,0.000021,0.000441,0.004825,0.033758,-0.039551,0.198556,0.198553,0.171358,0.530420,0.000000,0.000000,0.000000,0.000000,0.000000,0.000000,0.000000,0.000000,0.000000,0.000000,0.000000,0.000000,0.032972,3,0
1050000,-0.004666,27.004620,-0.055978,-0.015672,25.731863,-0.047318,0.001563,0.023064,1.569269,-0.055073,0.001274,-0.002400,-0.000171,-0.006475,0.000022,0.001433,0.004825,0.093437,-0.011871,0.198816,0.198813,0.171140,0.524806,0.000000,0.000000,0.000000,0.000000,0.000000,0.000000,0.000000,0.000000,0.000000,0.000000,0.000000,0.000000,0.090462,3,0
1060000,-0.004665,27.265001,-0.056242,-0.015651,25.740238,-0.047617,0.001586,0.023443,1.569260,-0.055672,0.001305,-0.002463,-0.000177,-0.006591,0.000022,0.001360,0.004825,0.091421,0.007656,0.199067,0.199063,0.170912,0.519298,0.000000,0.000000,0.000000,0.000000,0.000000,0.000000,0.000000,0.000000,0.000000,0.000000,0.000000,0.000000,0.088511,3,0
1070000,-0.004662,27.525404,-0.056834,-0.015457,25.748472,-0.048268,0.001614,0.023817,1.569251,-0.056258,0.001336,-0.002437,-0.000184,-0.006706,0.000023,0.001293,0.004822,0.089378,-0.003759,0.199310,0.199306,0.170674,0.513895,0.000000,0.000000,0.000000,0.000000,0.000000,0.000000,0.000000,0.000000,0.000000,0.000000,0.000000,0.000000,0.086534,3,0
1080000,-0.004658,27.786484,-0.056733,-0.015358,25.757746,-0.048131,0.001634,0.024255,1.569226,-0.056962,0.001367,-0.002606,-0.000190,-0.006845,0.000023,0.001926,0.004818,0.107201,0.020917,0.199545,0.199540,0.170427,0.508597,0.000000,0.000000,0.000000,0.000000,0.000000,0.000000,0.000000,0.000000,0.000000,0.000000,0.000000,0.000000,0.103740,3,0
1090000,-0.004653,28.045586,-0.056999,-0.015321,25.763592,-0.048567,0.001671,0.024469,1.569220,-0.057257,0.001399,-0.002670,-0.000196,-0.006905,0.000023,0.000338,0.004814,0.044815,0.007931,0.199772,0.199767,0.170171,0.503404,0.000000,0.000000,0.000000,0.000000,0.000000,0.000000,0.000000,0.000000,0.000000,0.000000,0.000000,0.000000,0.043573,3,0
1100000,-0.004647,28.305384,-0.057034,-0.015145,25.770550,-0.048610,0.001700,0.024755,1.569204,-0.057678,0.001430,-0.002803,-0.000203,-0.006991,0.000024,0.000706,0.004808,0.063959,0.016255,0.199992,0.199987,0.169906,0.498316,0.000000,0.000000,0.000000,0.000000,0.000000,0.000000,0.000000,0.000000,0.000000,0.000000,0.000000,0.000000,0.062003,3,0
1110000,-0.004639,28.565868,-0.056390,-0.015029,25.778658,-0.047719,0.001733,0.025118,1.569182,-0.058222,0.001461,-0.003130,-0.000209,-0.007103,0.000024,0.001361,0.004800,0.082397,0.040324,0.200205,0.200200,0.169634,0.493331,0.000000,0.000000,0.000000,0.000000,0.000000,0.000000,0.000000,0.000000,0.000000,0.000000,0.000000,0.000000,0.079786,3,0
1120000,-0.004633,28.827034,-0.057851,-0.014996,25.787727,-0.049518,0.001759,0.025557,1.569163,-0.058885,0.001492,-0.002856,-0.000216,-0.007244,0.000024,0.001812,0.004792,0.100138,-0.034490,0.200412,0.200406,0.169353,0.488450,0.000000,0.000000,0.000000,0.000000,0.000000,0.000000,0.000000,0.000000,0.000000,0.000000,0.000000,0.000000,0.096901,3,0
1130000,-0.004623,29.088194,-0.056597,-0.014794,25.796679,-0.047871,0.001788,0.025989,1.569150,-0.059527,0.001523,-0.003370,-0.000223,-0.007380,0.000025,0.002162,0.004783,0.097303,0.062505,0.200613,0.200607,0.169065,0.483671,0.000000,0.000000,0.000000,0.000000,0.000000,0.000000,0.000000,0.000000,0.000000,0.000000,0.000000,0.000000,0.094167,3,0
1140000,-0.004612,29.350687,-0.056779,-0.014681,25.808010,-0.047997,0.001815,0.026553,1.569143,-0.060416,0.001554,-0.003467,-0.000230,-0.007573,0.000026,0.002926,0.004772,0.134239,0.010988,0.200809,0.200803,0.168770,0.478995,0.000000,0.000000,0.000000,0.000000,0.000000,0.000000,0.000000,0.000000,0.000000,0.000000,0.000000,0.000000,0.129829,3,0
1150000,-0.004600,29.611824,-0.056108,-0.014512,25.816637,-0.047222,0.001835,0.026963,1.569137,-0.061013,0.001585,-0.003814,-0.000237,-0.007704,0.000026,0.001595,0.004760,0.090298,0.041445,0.201000,0.200993,0.168469,0.474419,0.000000,0.000000,0.000000,0.000000,0.000000,0.000000,0.000000,0.000000,0.000000,0.000000,0.000000,0.000000,0.087396,3,0
1160000,-0.004586,29.874289,-0.055018,-0.014329,25.827620,-0.045921,0.001872,0.027524,1.569118,-0.061855,0.001615,-0.004289,-0.000244,-0.007891,0.000027,0.003126,0.004746,0.127260,0.056288,0.201187,0.201180,0.168162,0.469944,0.000000,0.000000,0.000000,0.000000,0.000000,0.000000,0.000000,0.000000,0.000000,0.000000,0.000000,0.000000,0.123083,3,0
1170000,-0.004572,30.134062,-0.055033,-0.014198,25.833624,-0.046044,0.001906,0.027772,1.569104,-0.062144,0.001646,-0.004427,-0.000251,-0.007957,0.000027,0.000352,0.004731,0.043596,0.016214,0.201369,0.201361,0.167848,0.465567,0.000000,0.000000,0.000000,0.000000,0.000000,0.000000,0.000000,0.000000,0.000000,0.000000,0.000000,0.000000,0.042381,3,0
1180000,-0.004556,30.393181,-0.054541,-0.013972,25.838497,-0.045493,0.001927,0.027936,1.569095,-0.062291,0.001677,-0.004718,-0.000258,-0.007990,0.000027,0.000276,0.004714,0.022310,0.034420,0.201548,0.201540,0.167530,0.461289,0.000000,0.000000,0.000000,0.000000,0.000000,0.000000,0.000000,0.000000,0.000000,0.000000,0.000000,0.000000,0.022039,3,0
1190000,-0.004538,30.652992,-0.053545,-0.013838,25.844450,-0.044091,0.001956,0.028174,1.569077,-0.062564,0.001707,-0.005164,-0.000266,-0.008053,0.000027,0.000724,0.004697,0.041445,0.052349,0.201723,0.201714,0.167206,0.457108,0.000000,0.000000,0.000000,0.000000,0.000000,0.000000,0.000000,0.000000,0.000000,0.000000,0.000000,0.000000,0.040311,3,0
1200000,-0.004520,30.916830,-0.053349,-0.013739,25.857410,-0.044080,0.001989,0.028893,1.569052,-0.063618,0.001737,-0.005376,-0.000273,-0.008302,0.000028,0.004180,0.004678,0.159273,0.023598,0.201896,0.201886,0.166878,0.453023,0.000000,0.000000,0.000000,0.000000,0.000000,0.000000,0.000000,0.000000,0.000000,0.000000,0.000000,0.000000,0.153982,3,0
1210000,-0.004502,31.176603,-0.054284,-0.013603,25.863153,-0.045495,0.002022,0.029115,1.569037,-0.063847,0.001768,-0.005228,-0.000280,-0.008357,0.000028,0.000244,0.004659,0.034456,-0.017448,0.202065,0.202056,0.166546,0.449033,0.000000,0.000000,0.000000,0.000000,0.000000,0.000000,0.000000,0.000000,0.000000,0.000000,0.000000,0.000000,0.033598,3,0
1220000,-0.004482,31.439060,-0.053191,-0.013369,25.873438,-0.043973,0.002049,0.029657,1.569016,-0.064590,0.001797,-0.005723,-0.000288,-0.008537,0.000029,0.002559,0.004639,0.112570,0.056372,0.202233,0.202223,0.166209,0.445136,0.000000,0.000000,0.000000,0.000000,0.000000,0.000000,0.000000,0.000000,0.000000,0.000000,0.000000,0.000000,0.108872,3,0
1230000,-0.004461,31.702160,-0.053794,-0.013187,25.884823,-0.044849,0.002069,0.030263,1.568999,-0.065438,0.001827,-0.005686,-0.000295,-0.008747,0.000030,0.002659,0.004616,0.128313,-0.005307,0.202399,0.202388,0.165869,0.441332,0.000000,0.000000,0.000000,0.000000,0.000000,0.000000,0.000000,0.000000,0.000000,0.000000,0.000000,0.000000,0.124066,3,0
1240000,-0.004437,31.961189,-0.053284,-0.012951,25.888975,-0.044262,0.002108,0.030356,1.568987,-0.065465,0.001857,-0.005992,-0.000303,-0.008753,0.000030,0.000205,0.004593,0.004250,0.034977,0.202563,0.202552,0.165526,0.437619,0.000000,0.000000,0.000000,0.000000,0.000000,0.000000,0.000000,0.000000,0.000000,0.000000,0.000000,0.000000,0.006047,3,0
1250000,-0.004414,32.221581,-0.054092,-0.012835,25.895401,-0.045457,0.002141,0.030614,1.568974,-0.065751,0.001887,-0.005882,-0.000311,-0.008826,0.000030,0.000333,0.004568,0.043365,-0.012873,0.202726,0.202714,0.165180,0.433995,0.000000,0.000000,0.000000,0.000000,0.000000,0.000000,0.000000,0.000000,0.000000,0.000000,0.000000,0.000000,0.042133,3,0
1260000,-0.004390,32.483982,-0.053917,-0.012742,25.905230,-0.045171,0.002181,0.031124,1.568959,-0.066414,0.001916,-0.006097,-0.000318,-0.008997,0.000030,0.001734,0.004544,0.100971,0.023429,0.202888,0.202875,0.164832,0.430460,0.000000,0.000000,0.000000,0.000000,0.000000,0.000000,0.000000,0.000000,0.000000,0.000000,0.000000,0.000000,0.097660,3,0
1270000,-0.004365,32.745007,-0.054912,-0.012490,25.912575,-0.046518,0.002216,0.031458,1.568943,-0.066790,0.001946,-0.005929,-0.000326,-0.009096,0.000031,0.000590,0.004518,0.057140,-0.019389,0.203050,0.203036,0.164481,0.427012,0.000000,0.000000,0.000000,0.000000,0.000000,0.000000,0.000000,0.000000,0.000000,0.000000,0.000000,0.000000,0.055379,3,0
1280000,-0.004338,33.007366,-0.055484,-0.012223,25.922281,-0.047236,0.002250,0.031960,1.568923,-0.067408,0.001974,-0.005907,-0.000334,-0.009260,0.000031,0.001435,0.004490,0.094223,-0.003374,0.203211,0.203197,0.164128,0.423649,0.000000,0.000000,0.000000,0.000000,0.000000,0.000000,0.000000,0.000000,0.000000,0.000000,0.000000,0.000000,0.091133,3,0
1290000,-0.004310,33.265640,-0.054919,-0.012128,25.924486,-0.046709,0.002292,0.031908,1.568908,-0.067216,0.002003,-0.006248,-0.000342,-0.009208,0.000031,0.000376,0.004462,-0.029079,0.038181,0.203372,0.203357,0.163774,0.420371,0.000000,0.000000,0.000000,0.000000,0.000000,0.000000,0.000000,0.000000,0.000000,0.000000,0.000000,0.000000,0.028420,3,0
1300000,-0.004282,33.525967,-0.055754,-0.011917,25.930414,-0.047653,0.002326,0.032125,1.568895,-0.067417,0.002032,-0.006131,-0.000350,-0.009263,0.000031,0.000183,0.004432,0.030685,-0.013239,0.203533,0.203518,0.163418,0.417175,0.000000,0.000000,0.000000,0.000000,0.000000,0.000000,0.000000,0.000000,0.000000,0.000000,0.000000,0.000000,0.029952,3,0
1310000,-0.004254,33.788986,-0.057000,-0.011809,25.940899,-0.049136,0.002353,0.032705,1.568876,-0.068122,0.002061,-0.005889,-0.000357,-0.009459,0.000032,0.002014,0.004403,0.108242,-0.027699,0.203695,0.203679,0.163061,0.414060,0.000000,0.000000,0.000000,0.000000,0.000000,0.000000,0.000000,0.000000,0.000000,0.000000,0.000000,0.000000,0.104651,3,0
1320000,-0.004224,34.050598,-0.056058,-0.011698,25.948750,-0.047898,0.002383,0.033078,1.568866,-0.068534,0.002088,-0.006382,-0.000366,-0.009574,0.000032,0.001119,0.004373,0.063786,0.053292,0.203857,0.203840,0.162704,0.411025,0.000000,0.000000,0.000000,0.000000,0.000000,0.000000,0.000000,0.000000,0.000000,0.000000,0.000000,0.000000,0.061767,3,0
1330000,-0.004193,34.310833,-0.056760,-0.011417,25.954208,-0.048966,0.002424,0.033255,1.568851,-0.068669,0.002116,-0.006312,-0.000373,-0.009612,0.000033,0.000082,0.004341,0.020760,-0.007862,0.204021,0.204003,0.162345,0.408069,0.000000,0.000000,0.000000,0.000000,0.000000,0.000000,0.000000,0.000000,0.000000,0.000000,0.000000,0.000000,0.020488,3,0
1340000,-0.004160,34.571053,-0.056222,-0.011195,25.959553,-0.048357,0.002460,0.033426,1.568830,-0.068789,0.002143,-0.006669,-0.000382,-0.009646,0.000033,0.000300,0.004308,0.018898,0.038390,0.204185,0.204166,0.161987,0.405190,0.000000,0.000000,0.000000,0.000000,0.000000,0.000000,0.000000,0.000000,0.000000,0.000000,0.000000,0.000000,0.018729,3,0
1350000,-0.004127,34.833294,-0.055731,-0.011071,25.968410,-0.047664,0.002501,0.033873,1.568821,-0.069280,0.002169,-0.007018,-0.000390,-0.009789,0.000033,0.001169,0.004274,0.076691,0.036717,0.204350,0.204330,0.161629,0.402387,0.000000,0.000000,0.000000,0.000000,0.000000,0.000000,0.000000,0.000000,0.000000,0.000000,0.000000,0.000000,0.074200,3,0
1360000,-0.004095,35.094826,-0.056545,-0.010934,25.975866,-0.048889,0.002542,0.034212,1.568807,-0.069619,0.002196,-0.006911,-0.000398,-0.009891,0.000034,0.000477,0.004239,0.052902,-0.012009,0.204516,0.204496,0.161270,0.399657,0.000000,0.000000,0.000000,0.000000,0.000000,0.000000,0.000000,0.000000,0.000000,0.000000,0.000000,0.000000,0.051262,3,0
1370000,-0.004062,35.355644,-0.057105,-0.010832,25.981867,-0.049737,0.002573,0.034447,1.568789,-0.069810,0.002223,-0.006893,-0.000406,-0.009948,0.000034,0.000147,0.004206,0.029846,-0.002260,0.204684,0.204662,0.160912,0.397000,0.000000,0.000000,0.000000,0.000000,0.000000,0.000000,0.000000,0.000000,0.000000,0.000000,0.000000,0.000000,0.029113,3,0
1380000,-0.004030,35.614410,-0.058499,-0.010631,25.984110,-0.051492,0.002612,0.034392,1.568780,-0.069606,0.002250,-0.006574,-0.000414,-0.009887,0.000034,0.000351,0.004171,-0.032246,-0.033413,0.204853,0.204831,0.160555,0.394413,0.000000,0.000000,0.000000,0.000000,0.000000,0.000000,0.000000,0.000000,0.000000,0.000000,0.000000,0.000000,0.031410,3,0
1390000,-0.003994,35.872498,-0.058161,-0.010411,25.985258,-0.051181,0.002643,0.034229,1.568762,-0.069273,0.002276,-0.006872,-0.000422,-0.009782,0.000034,0.000612,0.004136,-0.052486,0.031998,0.205024,0.205001,0.160199,0.391897,0.000000,0.000000,0.000000,0.000000,0.000000,0.000000,0.000000,0.000000,0.000000,0.000000,0.000000,0.000000,0.050847,3,0
1400000,-0.003958,36.134007,-0.058608,-0.010162,25.992439,-0.051954,0.002676,0.034544,1.568743,-0.069570,0.002302,-0.006906,-0.000430,-0.009876,0.000034,0.000363,0.004098,0.047234,0.002970,0.205196,0.205172,0.159843,0.389449,0.000000,0.000000,0.000000,0.000000,0.000000,0.000000,0.000000,0.000000,0.000000,0.000000,0.000000,0.000000,0.045791,3,0
1410000,-0.003920,36.394115,-0.057829,-0.009900,25.997049,-0.050970,0.002705,0.034652,1.568721,-0.069595,0.002326,-0.007377,-0.000439,-0.009883,0.000034,0.000397,0.004060,0.004322,0.049124,0.205371,0.205345,0.159489,0.387067,0.000000,0.000000,0.000000,0.000000,0.000000,0.000000,0.000000,0.000000,0.000000,0.000000,0.000000,0.000000,0.005731,3,0
1420000,-0.003881,36.654213,-0.057258,-0.009664,26.001564,-0.050444,0.002745,0.034760,1.568701,-0.069610,0.002351,-0.007773,-0.000447,-0.009886,0.000034,0.000277,0.004019,0.002594,0.041050,0.205547,0.205520,0.159136,0.384751,0.000000,0.000000,0.000000,0.000000,0.000000,0.000000,0.000000,0.000000,0.000000,0.000000,0.000000,0.000000,0.004622,3,0
1430000,-0.003842,36.917027,-0.057470,-0.009517,26.010864,-0.050944,0.002786,0.035245,1.568687,-0.070108,0.002374,-0.007898,-0.000455,-0.010050,0.000035,0.001065,0.003978,0.080391,0.011817,0.205725,0.205697,0.158785,0.382499,0.000000,0.000000,0.000000,0.000000,0.000000,0.000000,0.000000,0.000000,0.000000,0.000000,0.000000,0.000000,0.077732,3,0
1440000,-0.003802,37.179779,-0.056827,-0.009376,26.019974,-0.050119,0.002814,0.035711,1.568673,-0.070575,0.002397,-0.008339,-0.000463,-0.010204,0.000035,0.001249,0.003938,0.075909,0.044318,0.205904,0.205876,0.158436,0.380309,0.000000,0.000000,0.000000,0.000000,0.000000,0.000000,0.000000,0.000000,0.000000,0.000000,0.000000,0.000000,0.073409,3,0
1450000,-0.003762,37.439747,-0.057683,-0.009163,26.023882,-0.051305,0.002849,0.035776,1.568667,-0.070526,0.002422,-0.008208,-0.000471,-0.010188,0.000035,0.000041,0.003896,-0.008022,-0.013244,0.206086,0.206057,0.158089,0.378180,0.000000,0.000000,0.000000,0.000000,0.000000,0.000000,0.000000,0.000000,0.000000,0.000000,0.000000,0.000000,0.008613,3,0
1460000,-0.003723,37.701069,-0.058667,-0.009009,26.030174,-0.052695,0.002876,0.036030,1.568649,-0.070711,0.002445,-0.008042,-0.000479,-0.010253,0.000035,0.000198,0.003855,0.030151,-0.017402,0.206270,0.206239,0.157743,0.376111,0.000000,0.000000,0.000000,0.000000,0.000000,0.000000,0.000000,0.000000,0.000000,0.000000,0.000000,0.000000,0.029351,3,0
1470000,-0.003682,37.960297,-0.059066,-0.008806,26.032644,-0.053263,0.002919,0.035963,1.568638,-0.070514,0.002469,-0.008086,-0.000488,-0.010184,0.000035,0.000176,0.003813,-0.032440,0.004934,0.206455,0.206424,0.157400,0.374100,0.000000,0.000000,0.000000,0.000000,0.000000,0.000000,0.000000,0.000000,0.000000,0.000000,0.000000,0.000000,0.031538,3,0
1480000,-0.003639,38.223618,-0.058109,-0.008610,26.042303,-0.052223,0.002948,0.036488,1.568632,-0.071030,0.002490,-0.008671,-0.000496,-0.010364,0.000036,0.001734,0.003770,0.086006,0.057760,0.206643,0.206610,0.157059,0.372145,0.000000,0.000000,0.000000,0.000000,0.000000,0.000000,0.000000,0.000000,0.000000,0.000000,0.000000,0.000000,0.083133,3,0
1490000,-0.003597,38.485497,-0.057197,-0.008482,26.049416,-0.050956,0.002973,0.036801,1.568613,-0.071275,0.002511,-0.009229,-0.000504,-0.010450,0.000036,0.000774,0.003726,0.041256,0.055349,0.206833,0.206799,0.156721,0.370247,0.000000,0.000000,0.000000,0.000000,0.000000,0.000000,0.000000,0.000000,0.000000,0.000000,0.000000,0.000000,0.040007,3,0
1500000,-0.003554,38.743217,-0.056970,-0.008237,26.048784,-0.050483,0.003006,0.036469,1.568592,-0.070788,0.002533,-0.009495,-0.000512,-0.010271,0.000036,0.001198,0.003682,-0.081543,0.027860,0.207024,0.206989,0.156386,0.368402,0.000000,0.000000,0.000000,0.000000,0.000000,0.000000,0.000000,0.000000,0.000000,0.000000,0.000000,0.000000,0.078804,3,0
1510000,-0.003512,39.002338,-0.058325,-0.008110,26.050749,-0.052295,0.003036,0.036350,1.568573,-0.070547,0.002555,-0.009160,-0.000520,-0.010183,0.000035,0.000447,0.003637,-0.041073,-0.032636,0.207218,0.207181,0.156053,0.366611,0.000000,0.000000,0.000000,0.000000,0.000000,0.000000,0.000000,0.000000,0.000000,0.000000,0.000000,0.000000,0.039817,3,0
1520000,-0.003469,39.264198,-0.059249,-0.007830,26.057602,-0.053291,0.003067,0.036651,1.568564,-0.070769,0.002576,-0.009015,-0.000528,-0.010267,0.000036,0.000268,0.003593,0.037727,-0.015015,0.207413,0.207376,0.155723,0.364870,0.000000,0.000000,0.000000,0.000000,0.000000,0.000000,0.000000,0.000000,0.000000,0.000000,0.000000,0.000000,0.036584,3,0
1530000,-0.003424,39.521881,-0.060322,-0.007521,26.056763,-0.054648,0.003110,0.036294,1.568551,-0.070274,0.002598,-0.008786,-0.000536,-0.010079,0.000035,0.001239,0.003546,-0.085049,-0.021186,0.207610,0.207572,0.155396,0.363180,0.000000,0.000000,0.000000,0.000000,0.000000,0.000000,0.000000,0.000000,0.000000,0.000000,0.000000,0.000000,0.082183,3,0
1540000,-0.003379,39.785088,-0.061574,-0.007363,26.065905,-0.056317,0.003134,0.036799,1.568534,-0.070708,0.002618,-0.008529,-0.000543,-0.010249,0.000036,0.001014,0.003500,0.074734,-0.026438,0.207809,0.207769,0.155072,0.361538,0.000000,0.000000,0.000000,0.000000,0.000000,0.000000,0.000000,0.000000,0.000000,0.000000,0.000000,0.000000,0.072219,3,0
1550000,-0.003332,40.045452,-0.061641,-0.007043,26.069820,-0.056172,0.003162,0.036839,1.568511,-0.070652,0.002638,-0.008726,-0.000551,-0.010226,0.000036,0.000078,0.003452,-0.009655,0.019373,0.208010,0.207968,0.154751,0.359944,0.000000,0.000000,0.000000,0.000000,0.000000,0.000000,0.000000,0.000000,0.000000,0.000000,0.000000,0.000000,0.009893,3,0
1560000,-0.003284,40.307861,-0.062219,-0.006839,26.077333,-0.056691,0.003204,0.037199,1.568488,-0.070925,0.002657,-0.008733,-0.000559,-0.010335,0.000036,0.000373,0.003402,0.048004,-0.000084,0.208212,0.208169,0.154434,0.358396,0.000000,0.000000,0.000000,0.000000,0.000000,0.000000,0.000000,0.000000,0.000000,0.000000,0.000000,0.000000,0.046453,3,0
1570000,-0.003236,40.570896,-0.062791,-0.006600,26.085999,-0.057465,0.003230,0.037646,1.568465,-0.071287,0.002675,-0.008751,-0.000567,-0.010481,0.000037,0.000657,0.003352,0.063828,0.000636,0.208415,0.208372,0.154120,0.356894,0.000000,0.000000,0.000000,0.000000,0.000000,0.000000,0.000000,0.000000,0.000000,0.000000,0.000000,0.000000,0.061696,3,0
1580000,-0.003186,40.829006,-0.061864,-0.006382,26.085423,-0.056263,0.003268,0.037289,1.568444,-0.070835,0.002693,-0.009339,-0.000575,-0.010293,0.000036,0.001581,0.003302,-0.080025,0.058148,0.208620,0.208575,0.153809,0.355435,0.000000,0.000000,0.000000,0.000000,0.000000,0.000000,0.000000,0.000000,0.000000,0.000000,0.000000,0.000000,0.077294,3,0
1590000,-0.003137,41.090591,-0.062548,-0.006168,26.091265,-0.057228,0.003304,0.037490,1.568430,-0.070945,0.002711,-0.009298,-0.000582,-0.010339,0.000036,0.000067,0.003250,0.019695,-0.004270,0.208827,0.208780,0.153502,0.354020,0.000000,0.000000,0.000000,0.000000,0.000000,0.000000,0.000000,0.000000,0.000000,0.000000,0.000000,0.000000,0.019266,3,0
1600000,-0.003087,41.352123,-0.062908,-0.005975,26.096968,-0.057789,0.003332,0.037676,1.568422,-0.071036,0.002728,-0.009393,-0.000590,-0.010377,0.000037,0.000058,0.003199,0.016476,0.008781,0.209034,0.208986,0.153198,0.352646,0.000000,0.000000,0.000000,0.000000,0.000000,0.000000,0.000000,0.000000,0.000000,0.000000,0.000000,0.000000,0.016200,3,0
1610000,-0.003036,41.612892,-0.061920,-0.005812,26.101007,-0.056729,0.003368,0.037725,1.568401,-0.070997,0.002744,-0.010039,-0.000597,-0.010357,0.000037,0.000627,0.003147,-0.006565,0.061731,0.209242,0.209193,0.152898,0.351311,0.000000,0.000000,0.000000,0.000000,0.000000,0.000000,0.000000,0.000000,0.000000,0.000000,0.000000,0.000000,0.007012,3,0
1620000,-0.002986,41.872246,-0.061758,-0.005589,26.102568,-0.056297,0.003411,0.037546,1.568388,-0.070733,0.002761,-0.010328,-0.000605,-0.010239,0.000036,0.000514,0.003094,-0.048714,0.028366,0.209451,0.209400,0.152602,0.350017,0.000000,0.000000,0.000000,0.000000,0.000000,0.000000,0.000000,0.000000,0.000000,0.000000,0.000000,0.000000,0.047103,3,0
1630000,-0.002935,42.130894,-0.062963,-0.005330,26.102736,-0.057485,0.003451,0.037244,1.568375,-0.070360,0.002778,-0.010042,-0.000612,-0.010075,0.000036,0.000887,0.003041,-0.069530,-0.025774,0.209661,0.209609,0.152309,0.348760,0.000000,0.000000,0.000000,0.000000,0.000000,0.000000,0.000000,0.000000,0.000000,0.000000,0.000000,0.000000,0.067172,3,0
1640000,-0.002883,42.392296,-0.062048,-0.005143,26.107807,-0.056489,0.003492,0.037375,1.568371,-0.070410,0.002793,-0.010672,-0.000620,-0.010094,0.000036,0.000586,0.002988,0.009762,0.059216,0.209871,0.209818,0.152020,0.347539,0.000000,0.000000,0.000000,0.000000,0.000000,0.000000,0.000000,0.000000,0.000000,0.000000,0.000000,0.000000,0.009864,3,0
1650000,-0.002831,42.653645,-0.061561,-0.004937,26.112835,-0.055809,0.003523,0.037499,1.568355,-0.070444,0.002807,-0.011120,-0.000627,-0.010107,0.000036,0.000294,0.002934,0.006733,0.041881,0.210082,0.210027,0.151735,0.346355,0.000000,0.000000,0.000000,0.000000,0.000000,0.000000,0.000000,0.000000,0.000000,0.000000,0.000000,0.000000,0.007097,3,0
1660000,-0.002778,42.910759,-0.060904,-0.004667,26.109898,-0.054801,0.003554,0.036911,1.568336,-0.069841,0.002822,-0.011600,-0.000634,-0.009824,0.000036,0.002508,0.002879,-0.115513,0.047143,0.210294,0.210237,0.151454,0.345205,0.000000,0.000000,0.000000,0.000000,0.000000,0.000000,0.000000,0.000000,0.000000,0.000000,0.000000,0.000000,0.111489,3,0
1670000,-0.002724,43.172779,-0.061495,-0.004370,26.116020,-0.055569,0.003576,0.037142,1.568327,-0.069970,0.002836,-0.011593,-0.000641,-0.009885,0.000036,0.000102,0.002823,0.024982,-0.001151,0.210505,0.210447,0.151176,0.344087,0.000000,0.000000,0.000000,0.000000,0.000000,0.000000,0.000000,0.000000,0.000000,0.000000,0.000000,0.000000,0.024258,3,0
1680000,-0.002670,43.430531,-0.060721,-0.004177,26.114101,-0.054555,0.003604,0.036655,1.568320,-0.069469,0.002850,-0.012132,-0.000648,-0.009640,0.000035,0.001984,0.002768,-0.097946,0.052065,0.210717,0.210657,0.150903,0.343002,0.000000,0.000000,0.000000,0.000000,0.000000,0.000000,0.000000,0.000000,0.000000,0.000000,0.000000,0.000000,0.094532,3,0
1690000,-0.002616,43.689690,-0.060854,-0.003987,26.114758,-0.054404,0.003630,0.036403,1.568308,-0.069179,0.002864,-0.012291,-0.000655,-0.009497,0.000035,0.000574,0.002711,-0.057495,0.015947,0.210928,0.210867,0.150634,0.341948,0.000000,0.000000,0.000000,0.000000,0.000000,0.000000,0.000000,0.000000,0.000000,0.000000,0.000000,0.000000,0.055531,3,0
1700000,-0.002562,43.947445,-0.062188,-0.003737,26.112848,-0.055955,0.003664,0.035921,1.568292,-0.068691,0.002879,-0.011917,-0.000662,-0.009257,0.000034,0.001716,0.002655,-0.097992,-0.032362,0.211139,0.211077,0.150368,0.340924,0.000000,0.000000,0.000000,0.000000,0.000000,0.000000,0.000000,0.000000,0.000000,0.000000,0.000000,0.000000,0.094590,3,0
1710000,-0.002507,44.207996,-0.063088,-0.003426,26.116100,-0.056823,0.003690,0.035904,1.568281,-0.068604,0.002892,-0.011765,-0.000668,-0.009214,0.000034,0.000082,0.002598,-0.017788,-0.013604,0.211350,0.211286,0.150107,0.339929,0.000000,0.000000,0.000000,0.000000,0.000000,0.000000,0.000000,0.000000,0.000000,0.000000,0.000000,0.000000,0.017348,3,0
