time_us,pos_x,pos_y,pos_z,vel_x,vel_y,vel_z,roll,pitch,yaw,bias_ax,bias_ay,bias_az,bias_gx,bias_gy,bias_gz,nis,innov_x,innov_y,innov_z,cov_pos_x,cov_pos_y,cov_pos_z,cov_yaw,des_speed,des_heading,des_climb,pid_speed,pid_yaw,pid_alt,speed_meas,yaw_meas,climb_meas,fwd_accel,yaw_rate,vert_accel,drift_m,nav_mode,mission_state
0,-0.000009,0.149994,0.000000,-0.001520,24.998966,0.000078,-0.000010,0.000007,1.570785,0.000000,0.000000,0.000000,0.000000,0.000000,0.000000,0.006250,0.000015,-0.249992,-0.000001,2.400038,2.400038,3.600017,1.000518,0.000000,0.000000,0.000000,0.000000,0.000000,0.000000,0.000000,0.000000,0.000000,0.000000,0.000000,0.000000,0.090357,1,0
10000,-0.000027,0.302728,-0.034568,-0.002893,24.997538,-0.000105,-0.000022,0.000021,1.570790,0.000001,0.000000,0.000000,0.000000,0.000000,0.000000,0.014674,0.000038,-0.340339,-0.092181,1.714420,1.714420,2.250079,1.001073,0.000000,0.000000,0.000000,0.000000,0.000000,0.000000,0.000000,0.000000,0.000000,0.000000,0.000000,0.000000,0.015334,3,0
20000,-0.000053,0.443104,-0.035900,-0.004105,24.995417,-0.000270,-0.000028,0.000024,1.570783,0.000005,0.000000,0.000000,-0.000000,0.000000,-0.000000,0.031515,0.000068,-0.493059,-0.004873,1.333616,1.333616,1.636554,1.001655,0.000000,0.000000,0.000000,0.000000,0.000000,0.000000,0.000000,0.000000,0.000000,0.000000,0.000000,0.000000,0.133384,3,0
30000,-0.000086,0.574217,-0.030962,-0.005169,24.992220,-0.000316,-0.000036,0.000028,1.570790,0.000017,0.000000,-0.000000,-0.000000,0.000000,-0.000000,0.058263,0.000105,-0.653292,0.023054,1.091392,1.091392,1.286065,1.002257,0.000000,0.000000,0.000000,0.000000,0.000000,0.000000,0.000000,0.000000,0.000000,0.000000,0.000000,0.000000,0.260697,3,0
40000,-0.000125,0.712542,-0.035975,-0.006244,24.987881,-0.000542,-0.000044,0.000017,1.570783,0.000038,0.000000,0.000001,0.000000,0.000000,-0.000000,0.074172,0.000148,-0.724734,-0.028367,0.923811,0.923811,1.059385,1.002869,0.000000,0.000000,0.000000,0.000000,0.000000,0.000000,0.000000,0.000000,0.000000,0.000000,0.000000,0.000000,0.380798,3,0
50000,-0.000171,0.836579,-0.037475,-0.007236,24.982056,-0.000741,-0.000046,0.000010,1.570786,0.000078,0.000000,0.000001,-0.000000,0.000000,-0.000000,0.128309,0.000198,-0.942535,-0.009943,0.801036,0.801036,0.900822,1.003484,0.000000,0.000000,0.000000,0.000000,0.000000,0.000000,0.000000,0.000000,0.000000,0.000000,0.000000,0.000000,0.515187,3,0
60000,-0.000225,0.967702,-0.040363,-0.008375,24.974913,-0.001104,-0.000062,0.000007,1.570786,0.000139,0.000000,0.000002,-0.000000,0.000001,-0.000000,0.149119,0.000255,-1.006875,-0.022036,0.707270,0.707270,0.783741,1.004094,0.000000,0.000000,0.000000,0.000000,0.000000,0.000000,0.000000,0.000000,0.000000,0.000000,0.000000,0.000000,0.642490,3,0
70000,-0.000287,1.095223,-0.043305,-0.009558,24.965885,-0.001344,-0.000066,-0.000016,1.570783,0.000231,0.000000,0.000004,-0.000000,0.000002,-0.000000,0.199929,0.000321,-1.157806,-0.025335,0.633370,0.633370,0.693801,1.004689,0.000000,0.000000,0.000000,0.000000,0.000000,0.000000,0.000000,0.000000,0.000000,0.000000,0.000000,0.000000,0.773396,3,0
80000,-0.000357,1.221991,-0.043886,-0.010828,24.955090,-0.001716,-0.000071,-0.000046,1.570780,0.000362,0.000000,0.000005,-0.000000,0.000003,-0.000000,0.248988,0.000395,-1.285239,-0.005444,0.573673,0.573673,0.622594,1.005261,0.000000,0.000000,0.000000,0.000000,0.000000,0.000000,0.000000,0.000000,0.000000,0.000000,0.000000,0.000000,0.905053,3,0
90000,-0.000436,1.365490,-0.046302,-0.012022,24.943645,-0.001899,-0.000074,-0.000085,1.570780,0.000517,0.000000,0.000008,-0.000000,0.000005,-0.000000,0.223929,0.000478,-1.213108,-0.025479,0.524488,0.524488,0.564865,1.005802,0.000000,0.000000,0.000000,0.000000,0.000000,0.000000,0.000000,0.000000,0.000000,0.000000,0.000000,0.000000,1.019980,3,0
100000,-0.000521,1.528069,-0.049467,-0.013078,24.932425,-0.002415,-0.000078,-0.000130,1.570768,0.000685,0.000000,0.000013,-0.000000,0.000007,-0.000000,0.178344,0.000567,-1.078187,-0.036482,0.483303,0.483304,0.517162,1.006303,0.000000,0.000000,0.000000,0.000000,0.000000,0.000000,0.000000,0.000000,0.000000,0.000000,0.000000,0.000000,1.115827,3,0
110000,-0.000614,1.706958,-0.048589,-0.014264,24.921631,-0.002353,-0.000082,-0.000183,1.570771,0.000860,0.000000,0.000011,-0.000000,0.000010,-0.000000,0.136999,0.000664,-0.942470,0.011354,0.448353,0.448354,0.477121,1.006756,0.000000,0.000000,0.000000,0.000000,0.000000,0.000000,0.000000,0.000000,0.000000,0.000000,0.000000,0.000000,1.195364,3,0
120000,-0.000714,1.891848,-0.045424,-0.015376,24.910587,-0.002381,-0.000087,-0.000237,1.570764,0.001063,0.000001,0.000002,-0.000000,0.000013,-0.000000,0.132223,0.000768,-0.922464,0.043246,0.418358,0.418359,0.443071,1.007152,0.000000,0.000000,0.000000,0.000000,0.000000,0.000000,0.000000,0.000000,0.000000,0.000000,0.000000,0.000000,1.268900,3,0
130000,-0.000824,2.089335,-0.044185,-0.016708,24.899960,-0.002346,-0.000095,-0.000293,1.570756,0.001265,0.000001,-0.000002,-0.000000,0.000016,-0.000000,0.097064,0.000882,-0.789177,0.018341,0.392369,0.392369,0.413797,1.007483,0.000000,0.000000,0.000000,0.000000,0.000000,0.000000,0.000000,0.000000,0.000000,0.000000,0.000000,0.000000,1.329839,3,0
140000,-0.000940,2.291015,-0.043952,-0.017809,24.889038,-0.002528,-0.000110,-0.000358,1.570761,0.001491,0.000001,-0.000004,-0.000000,0.000021,-0.000000,0.092224,0.001002,-0.767892,0.003991,0.369666,0.369666,0.388393,1.007742,0.000000,0.000000,0.000000,0.000000,0.000000,0.000000,0.000000,0.000000,0.000000,0.000000,0.000000,0.000000,1.386584,3,0
150000,-0.001065,2.497296,-0.042245,-0.018996,24.877886,-0.002228,-0.000116,-0.000419,1.570767,0.001737,0.000001,-0.000013,-0.000000,0.000026,-0.000000,0.083976,0.001131,-0.730914,0.028398,0.349695,0.349695,0.366172,1.007919,0.000000,0.000000,0.000000,0.000000,0.000000,0.000000,0.000000,0.000000,0.000000,0.000000,0.000000,0.000000,1.438730,3,0
160000,-0.001195,2.711812,-0.043125,-0.020002,24.867941,-0.002592,-0.000118,-0.000480,1.570773,0.001973,0.000002,-0.000007,-0.000000,0.000031,-0.000000,0.060366,0.001265,-0.619023,-0.014812,0.332021,0.332021,0.346600,1.008006,0.000000,0.000000,0.000000,0.000000,0.000000,0.000000,0.000000,0.000000,0.000000,0.000000,0.000000,0.000000,1.482640,3,0
170000,-0.001329,2.928073,-0.041860,-0.020807,24.857327,-0.002442,-0.000122,-0.000556,1.570781,0.002235,0.000003,-0.000017,-0.000000,0.000037,-0.000000,0.059757,0.001403,-0.614770,0.023562,0.316297,0.316297,0.329260,1.007995,0.000000,0.000000,0.000000,0.000000,0.000000,0.000000,0.000000,0.000000,0.000000,0.000000,0.000000,0.000000,1.524805,3,0
180000,-0.001473,3.151803,-0.040711,-0.022161,24.848253,-0.002229,-0.000131,-0.000630,1.570786,0.002470,0.000003,-0.000028,-0.000000,0.000043,-0.000001,0.038545,0.001551,-0.492983,0.022448,0.302246,0.302246,0.313817,1.007880,0.000000,0.000000,0.000000,0.000000,0.000000,0.000000,0.000000,0.000000,0.000000,0.000000,0.000000,0.000000,1.559500,3,0
190000,-0.001623,3.375279,-0.039410,-0.023186,24.838318,-0.002105,-0.000131,-0.000717,1.570790,0.002744,0.000004,-0.000042,-0.000000,0.000050,-0.000001,0.042647,0.001705,-0.517834,0.026547,0.289641,0.289641,0.300003,1.007651,0.000000,0.000000,0.000000,0.000000,0.000000,0.000000,0.000000,0.000000,0.000000,0.000000,0.000000,0.000000,1.594451,3,0
200000,-0.001777,3.601262,-0.038385,-0.024049,24.828859,-0.001853,-0.000128,-0.000796,1.570787,0.003025,0.000005,-0.000054,-0.000000,0.000058,-0.000001,0.037122,0.001864,-0.482787,0.021850,0.278295,0.278295,0.287598,1.007301,0.000000,0.000000,0.000000,0.000000,0.000000,0.000000,0.000000,0.000000,0.000000,0.000000,0.000000,0.000000,1.626893,3,0
210000,-0.001937,3.831202,-0.039533,-0.025000,24.819998,-0.002788,-0.000135,-0.000875,1.570790,0.003288,0.000007,-0.000039,-0.000000,0.000066,-0.000001,0.026924,0.002027,-0.410488,-0.024426,0.268054,0.268054,0.276421,1.006823,0.000000,0.000000,0.000000,0.000000,0.000000,0.000000,0.000000,0.000000,0.000000,0.000000,0.000000,0.000000,1.655380,3,0
220000,-0.002103,4.063776,-0.039934,-0.026035,24.811743,-0.003080,-0.000144,-0.000945,1.570798,0.003541,0.000008,-0.000033,-0.000000,0.000073,-0.000001,0.020915,0.002198,-0.362034,-0.008368,0.258787,0.258787,0.266321,1.006210,0.000000,0.000000,0.000000,0.000000,0.000000,0.000000,0.000000,0.000000,0.000000,0.000000,0.000000,0.000000,1.681232,3,0
230000,-0.002276,4.295369,-0.040772,-0.027167,24.802441,-0.003846,-0.000150,-0.001042,1.570801,0.003842,0.000010,-0.000019,-0.000000,0.000083,-0.000001,0.025069,0.002375,-0.395737,-0.018741,0.250385,0.250385,0.257172,1.005455,0.000000,0.000000,0.000000,0.000000,0.000000,0.000000,0.000000,0.000000,0.000000,0.000000,0.000000,0.000000,1.708065,3,0
240000,-0.002455,4.532482,-0.041419,-0.028207,24.795502,-0.004377,-0.000148,-0.001106,1.570806,0.004064,0.000012,-0.000007,-0.000000,0.000091,-0.000001,0.011643,0.002559,-0.269416,-0.014594,0.242756,0.242756,0.248866,1.004550,0.000000,0.000000,0.000000,0.000000,0.000000,0.000000,0.000000,0.000000,0.000000,0.000000,0.000000,0.000000,1.729378,3,0
250000,-0.002640,4.765209,-0.040290,-0.029273,24.785688,-0.003956,-0.000154,-0.001200,1.570808,0.004410,0.000015,-0.000033,-0.000000,0.000103,-0.000001,0.024141,0.002748,-0.387186,0.029201,0.235818,0.235818,0.241314,1.003491,0.000000,0.000000,0.000000,0.000000,0.000000,0.000000,0.000000,0.000000,0.000000,0.000000,0.000000,0.000000,1.755078,3,0
260000,-0.002833,5.003793,-0.042423,-0.030478,24.778860,-0.005324,-0.000151,-0.001281,1.570810,0.004642,0.000017,0.000018,-0.000001,0.000111,-0.000001,0.009856,0.002946,-0.242114,-0.053531,0.229504,0.229504,0.234436,1.002270,0.000000,0.000000,0.000000,0.000000,0.000000,0.000000,0.000000,0.000000,0.000000,0.000000,0.000000,0.000000,1.774920,3,0
270000,-0.003033,5.241061,-0.041589,-0.031658,24.771053,-0.004760,-0.000155,-0.001372,1.570811,0.004933,0.000021,-0.000006,-0.000001,0.000123,-0.000001,0.012834,0.003151,-0.281843,0.023342,0.223754,0.223754,0.228165,1.000882,0.000000,0.000000,0.000000,0.000000,0.000000,0.000000,0.000000,0.000000,0.000000,0.000000,0.000000,0.000000,1.796077,3,0
280000,-0.003239,5.482167,-0.041267,-0.032745,24.765553,-0.004895,-0.000163,-0.001427,1.570808,0.005133,0.000024,-0.000017,-0.000001,0.000130,-0.000002,0.005285,0.003361,-0.181092,0.010072,0.218516,0.218516,0.222443,0.999321,0.000000,0.000000,0.000000,0.000000,0.000000,0.000000,0.000000,0.000000,0.000000,0.000000,0.000000,0.000000,1.813397,3,0
290000,-0.003453,5.721856,-0.040666,-0.034121,24.758808,-0.004818,-0.000176,-0.001503,1.570806,0.005396,0.000029,-0.000038,-0.000001,0.000141,-0.000002,0.008073,0.003581,-0.223353,0.018039,0.213744,0.213745,0.217219,0.997582,0.000000,0.000000,0.000000,0.000000,0.000000,0.000000,0.000000,0.000000,0.000000,0.000000,0.000000,0.000000,1.832136,3,0
300000,-0.003672,5.963681,-0.040729,-0.035063,24.753218,-0.004963,-0.000179,-0.001562,1.570800,0.005603,0.000033,-0.000038,-0.000001,0.000150,-0.000002,0.004370,0.003805,-0.164789,-0.000365,0.209399,0.209399,0.212447,0.995661,0.000000,0.000000,0.000000,0.000000,0.000000,0.000000,0.000000,0.000000,0.000000,0.000000,0.000000,0.000000,1.848737,3,0
310000,-0.003896,6.205450,-0.040897,-0.036046,24.747555,-0.005016,-0.000179,-0.001629,1.570814,0.005827,0.000039,-0.000033,-0.000001,0.000160,-0.000002,0.004548,0.004034,-0.168013,-0.003413,0.205444,0.205444,0.208087,0.993553,0.000000,0.000000,0.000000,0.000000,0.000000,0.000000,0.000000,0.000000,0.000000,0.000000,0.000000,0.000000,1.865394,3,0
320000,-0.004124,6.445149,-0.042709,-0.037037,24.739817,-0.006180,-0.000186,-0.001724,1.570815,0.006154,0.000045,0.000039,-0.000002,0.000175,-0.000002,0.009016,0.004267,-0.230813,-0.051836,0.201848,0.201848,0.204105,0.991254,0.000000,0.000000,0.000000,0.000000,0.000000,0.000000,0.000000,0.000000,0.000000,0.000000,0.000000,0.000000,1.884121,3,0
330000,-0.004358,6.686835,-0.043976,-0.038181,24.733641,-0.007274,-0.000186,-0.001806,1.570823,0.006412,0.000052,0.000093,-0.000002,0.000187,-0.000002,0.004994,0.004507,-0.172252,-0.036050,0.198582,0.198583,0.200469,0.988762,0.000000,0.000000,0.000000,0.000000,0.000000,0.000000,0.000000,0.000000,0.000000,0.000000,0.000000,0.000000,1.900862,3,0
340000,-0.004596,6.931681,-0.043722,-0.039186,24.729864,-0.007195,-0.000189,-0.001845,1.570827,0.006532,0.000059,0.000077,-0.000002,0.000193,-0.000002,0.000949,0.004751,-0.075931,0.010009,0.195622,0.195622,0.197151,0.986073,0.000000,0.000000,0.000000,0.000000,0.000000,0.000000,0.000000,0.000000,0.000000,0.000000,0.000000,0.000000,1.914442,3,0
350000,-0.004839,7.176328,-0.043961,-0.040159,24.726452,-0.007451,-0.000193,-0.001868,1.570826,0.006669,0.000067,0.000085,-0.000003,0.000200,-0.000002,0.001098,0.004999,-0.082198,-0.005126,0.192944,0.192945,0.194126,0.983185,0.000000,0.000000,0.000000,0.000000,0.000000,0.000000,0.000000,0.000000,0.000000,0.000000,0.000000,0.000000,1.928222,3,0
360000,-0.005083,7.418255,-0.042635,-0.040964,24.720121,-0.006145,-0.000199,-0.001965,1.570827,0.006964,0.000077,0.000009,-0.000003,0.000215,-0.000003,0.004858,0.005250,-0.167778,0.043908,0.190528,0.190528,0.191370,0.980095,0.000000,0.000000,0.000000,0.000000,0.000000,0.000000,0.000000,0.000000,0.000000,0.000000,0.000000,0.000000,1.944721,3,0
370000,-0.005332,7.660696,-0.042629,-0.041949,24.713875,-0.006005,-0.000201,-0.002052,1.570830,0.007242,0.000087,0.000005,-0.000004,0.000230,-0.000003,0.003697,0.005504,-0.151213,0.002135,0.188354,0.188354,0.188863,0.976803,0.000000,0.000000,0.000000,0.000000,0.000000,0.000000,0.000000,0.000000,0.000000,0.000000,0.000000,0.000000,1.960706,3,0
380000,-0.005582,7.906712,-0.044373,-0.042770,24.711535,-0.007846,-0.000202,-0.002073,1.570815,0.007312,0.000098,0.000109,-0.000004,0.000234,-0.000003,0.000685,0.005761,-0.035773,-0.054101,0.186405,0.186406,0.186587,0.973306,0.000000,0.000000,0.000000,0.000000,0.000000,0.000000,0.000000,0.000000,0.000000,0.000000,0.000000,0.000000,1.973117,3,0
390000,-0.005836,8.153712,-0.044553,-0.043705,24.710600,-0.008059,-0.000197,-0.002078,1.570823,0.007319,0.000110,0.000115,-0.000005,0.000234,-0.000003,0.000010,0.006021,-0.003463,-0.003256,0.184666,0.184666,0.184523,0.969606,0.000000,0.000000,0.000000,0.000000,0.000000,0.000000,0.000000,0.000000,0.000000,0.000000,0.000000,0.000000,1.984544,3,0
400000,-0.006091,8.399838,-0.045029,-0.044425,24.708479,-0.008568,-0.000198,-0.002094,1.570831,0.007386,0.000123,0.000143,-0.000006,0.000238,-0.000003,0.000197,0.006283,-0.031785,-0.012954,0.183121,0.183122,0.182656,0.965701,0.000000,0.000000,0.000000,0.000000,0.000000,0.000000,0.000000,0.000000,0.000000,0.000000,0.000000,0.000000,1.996844,3,0
410000,-0.006350,8.646323,-0.045128,-0.045498,24.706753,-0.008685,-0.000196,-0.002103,1.570822,0.007429,0.000138,0.000143,-0.000007,0.000241,-0.000003,0.000068,0.006548,-0.019464,-0.000394,0.181758,0.181759,0.180972,0.961594,0.000000,0.000000,0.000000,0.000000,0.000000,0.000000,0.000000,0.000000,0.000000,0.000000,0.000000,0.000000,2.008786,3,0
420000,-0.006612,8.894351,-0.044663,-0.046490,24.706907,-0.008267,-0.000197,-0.002079,1.570817,0.007355,0.000154,0.000101,-0.000008,0.000236,-0.000003,0.000231,0.006817,0.032253,0.018507,0.180564,0.180565,0.179456,0.957284,0.000000,0.000000,0.000000,0.000000,0.000000,0.000000,0.000000,0.000000,0.000000,0.000000,0.000000,0.000000,2.019186,3,0
430000,-0.006875,9.140305,-0.044299,-0.047284,24.704327,-0.007778,-0.000204,-0.002096,1.570822,0.007443,0.000171,0.000065,-0.000009,0.000242,-0.000003,0.000264,0.007087,-0.036864,0.015051,0.179528,0.179528,0.178097,0.952773,0.000000,0.000000,0.000000,0.000000,0.000000,0.000000,0.000000,0.000000,0.000000,0.000000,0.000000,0.000000,2.031658,3,0
440000,-0.007141,9.387794,-0.043127,-0.048229,24.703728,-0.006336,-0.000191,-0.002083,1.570817,0.007405,0.000189,-0.000041,-0.000010,0.000239,-0.000003,0.000338,0.007360,0.015392,0.042402,0.178637,0.178638,0.176883,0.948064,0.000000,0.000000,0.000000,0.000000,0.000000,0.000000,0.000000,0.000000,0.000000,0.000000,0.000000,0.000000,2.042595,3,0
450000,-0.007408,9.636780,-0.043935,-0.049044,24.705212,-0.007456,-0.000188,-0.002023,1.570809,0.007233,0.000209,0.000025,-0.000011,0.000228,-0.000003,0.000820,0.007634,0.066090,-0.025337,0.177884,0.177884,0.175803,0.943159,0.000000,0.000000,0.000000,0.000000,0.000000,0.000000,0.000000,0.000000,0.000000,0.000000,0.000000,0.000000,2.052036,3,0
460000,-0.007676,9.883702,-0.044122,-0.049859,24.703955,-0.007769,-0.000183,-0.002029,1.570804,0.007244,0.000230,0.000035,-0.000013,0.000229,-0.000003,0.000015,0.007910,-0.004000,-0.003796,0.177257,0.177258,0.174848,0.938061,0.000000,0.000000,0.000000,0.000000,0.000000,0.000000,0.000000,0.000000,0.000000,0.000000,0.000000,0.000000,2.063540,3,0
470000,-0.007943,10.130366,-0.044449,-0.050391,24.702320,-0.008172,-0.000180,-0.002046,1.570795,0.007279,0.000253,0.000059,-0.000014,0.000231,-0.000003,0.000047,0.008184,-0.012362,-0.008570,0.176748,0.176749,0.174007,0.932774,0.000000,0.000000,0.000000,0.000000,0.000000,0.000000,0.000000,0.000000,0.000000,0.000000,0.000000,0.000000,2.075303,3,0
480000,-0.008210,10.378529,-0.044289,-0.051274,24.702677,-0.008123,-0.000176,-0.002000,1.570781,0.007166,0.000277,0.000035,-0.000016,0.000223,-0.000003,0.000271,0.008459,0.039175,0.008436,0.176349,0.176350,0.173272,0.927303,0.000000,0.000000,0.000000,0.000000,0.000000,0.000000,0.000000,0.000000,0.000000,0.000000,0.000000,0.000000,2.085567,3,0
490000,-0.008479,10.628160,-0.045687,-0.052162,24.705210,-0.010043,-0.000167,-0.001909,1.570776,0.006900,0.000303,0.000172,-0.000018,0.000204,-0.000003,0.001637,0.008735,0.089192,-0.045689,0.176052,0.176053,0.172635,0.921651,0.000000,0.000000,0.000000,0.000000,0.000000,0.000000,0.000000,0.000000,0.000000,0.000000,0.000000,0.000000,2.094363,3,0
500000,-0.008748,10.873995,-0.045490,-0.052953,24.702421,-0.009911,-0.000161,-0.001944,1.570777,0.007027,0.000331,0.000139,-0.000020,0.000213,-0.000003,0.000305,0.009013,-0.041193,0.010462,0.175850,0.175851,0.172088,0.915823,0.000000,0.000000,0.000000,0.000000,0.000000,0.000000,0.000000,0.000000,0.000000,0.000000,0.000000,0.000000,2.106956,3,0
510000,-0.009015,11.120173,-0.045230,-0.053514,24.700142,-0.009553,-0.000151,-0.001962,1.570776,0.007117,0.000360,0.000099,-0.000022,0.000220,-0.000003,0.000172,0.009288,-0.028574,0.012607,0.175734,0.175735,0.171623,0.909825,0.000000,0.000000,0.000000,0.000000,0.000000,0.000000,0.000000,0.000000,0.000000,0.000000,0.000000,0.000000,2.119205,3,0
520000,-0.009282,11.367849,-0.044728,-0.054255,24.700077,-0.008976,-0.000146,-0.001932,1.570775,0.007041,0.000392,0.000030,-0.000025,0.000214,-0.000003,0.000175,0.009562,0.023457,0.020981,0.175700,0.175701,0.171235,0.903662,0.000000,0.000000,0.000000,0.000000,0.000000,0.000000,0.000000,0.000000,0.000000,0.000000,0.000000,0.000000,2.129955,3,0
530000,-0.009547,11.617584,-0.045968,-0.054820,24.702826,-0.010513,-0.000132,-0.001815,1.570763,0.006725,0.000425,0.000167,-0.000027,0.000189,-0.000002,0.001705,0.009835,0.093845,-0.040420,0.175740,0.175741,0.170915,0.897342,0.000000,0.000000,0.000000,0.000000,0.000000,0.000000,0.000000,0.000000,0.000000,0.000000,0.000000,0.000000,2.138646,3,0
540000,-0.009807,11.866438,-0.046574,-0.055133,24.704353,-0.011401,-0.000120,-0.001731,1.570755,0.006508,0.000460,0.000229,-0.000030,0.000172,-0.000002,0.000703,0.010103,0.062751,-0.017552,0.175848,0.175849,0.170660,0.890869,0.000000,0.000000,0.000000,0.000000,0.000000,0.000000,0.000000,0.000000,0.000000,0.000000,0.000000,0.000000,2.148220,3,0
550000,-0.010068,12.115588,-0.047468,-0.056058,24.706207,-0.012526,-0.000115,-0.001634,1.570747,0.006251,0.000496,0.000328,-0.000033,0.000151,-0.000002,0.000985,0.010372,0.072309,-0.027467,0.176019,0.176020,0.170461,0.884252,0.000000,0.000000,0.000000,0.000000,0.000000,0.000000,0.000000,0.000000,0.000000,0.000000,0.000000,0.000000,2.157498,3,0
560000,-0.010329,12.367371,-0.047347,-0.056815,24.712400,-0.012376,-0.000105,-0.001417,1.570736,0.005662,0.000535,0.000296,-0.000036,0.000101,-0.000002,0.004228,0.010641,0.161078,0.008698,0.176247,0.176248,0.170315,0.877497,0.000000,0.000000,0.000000,0.000000,0.000000,0.000000,0.000000,0.000000,0.000000,0.000000,0.000000,0.000000,2.164142,3,0
570000,-0.010587,12.617077,-0.047218,-0.057454,24.715443,-0.012065,-0.000093,-0.001293,1.570727,0.005332,0.000576,0.000263,-0.000040,0.000073,-0.000001,0.001289,0.010908,0.088144,0.008889,0.176527,0.176529,0.170216,0.870610,0.000000,0.000000,0.000000,0.000000,0.000000,0.000000,0.000000,0.000000,0.000000,0.000000,0.000000,0.000000,2.172863,3,0
580000,-0.010846,12.868245,-0.048682,-0.058182,24.720676,-0.014201,-0.000085,-0.001101,1.570718,0.004807,0.000619,0.000448,-0.000043,0.000027,-0.000001,0.003401,0.011174,0.136592,-0.047357,0.176855,0.176857,0.170159,0.863600,0.000000,0.000000,0.000000,0.000000,0.000000,0.000000,0.000000,0.000000,0.000000,0.000000,0.000000,0.000000,2.180122,3,0
590000,-0.011101,13.117343,-0.048450,-0.058843,24.722990,-0.013906,-0.000071,-0.001002,1.570706,0.004555,0.000664,0.000395,-0.000047,0.000005,-0.000000,0.000718,0.011439,0.064277,0.013250,0.177226,0.177227,0.170139,0.856475,0.000000,0.000000,0.000000,0.000000,0.000000,0.000000,0.000000,0.000000,0.000000,0.000000,0.000000,0.000000,2.189451,3,0
600000,-0.011355,13.370862,-0.047256,-0.059518,24.732239,-0.012237,-0.000049,-0.000684,1.570701,0.003698,0.000711,0.000204,-0.000052,-0.000074,0.000000,0.007699,0.011702,0.212737,0.047005,0.177635,0.177636,0.170154,0.849241,0.000000,0.000000,0.000000,0.000000,0.000000,0.000000,0.000000,0.000000,0.000000,0.000000,0.000000,0.000000,2.194360,3,0
610000,-0.011607,13.623451,-0.048679,-0.060001,24.739941,-0.014457,-0.000040,-0.000400,1.570676,0.002966,0.000761,0.000397,-0.000056,-0.000141,0.000001,0.005475,0.011961,0.177794,-0.045810,0.178078,0.178079,0.170197,0.841907,0.000000,0.000000,0.000000,0.000000,0.000000,0.000000,0.000000,0.000000,0.000000,0.000000,0.000000,0.000000,2.200197,3,0
620000,-0.011855,13.876894,-0.047969,-0.060591,24.748919,-0.013109,-0.000022,-0.000088,1.570665,0.002110,0.000812,0.000269,-0.000061,-0.000223,0.000002,0.006862,0.012219,0.203432,0.029952,0.178551,0.178552,0.170266,0.834481,0.000000,0.000000,0.000000,0.000000,0.000000,0.000000,0.000000,0.000000,0.000000,0.000000,0.000000,0.000000,2.205181,3,0
630000,-0.012102,14.128217,-0.049154,-0.061236,24.754333,-0.014531,-0.000009,0.000127,1.570647,0.001557,0.000865,0.000434,-0.000066,-0.000276,0.000003,0.002932,0.012473,0.128810,-0.037228,0.179051,0.179052,0.170357,0.826972,0.000000,0.000000,0.000000,0.000000,0.000000,0.000000,0.000000,0.000000,0.000000,0.000000,0.000000,0.000000,2.212286,3,0
640000,-0.012345,14.381008,-0.049703,-0.061772,24.762329,-0.015225,0.000004,0.000413,1.570630,0.000788,0.000921,0.000498,-0.000072,-0.000351,0.000003,0.005045,0.012726,0.175614,-0.014255,0.179574,0.179575,0.170467,0.819386,0.000000,0.000000,0.000000,0.000000,0.000000,0.000000,0.000000,0.000000,0.000000,0.000000,0.000000,0.000000,2.217922,3,0
650000,-0.012586,14.631675,-0.049874,-0.062326,24.766636,-0.015205,0.000020,0.000594,1.570622,0.000334,0.000979,0.000503,-0.000077,-0.000397,0.000004,0.001698,0.012975,0.101654,-0.000768,0.180117,0.180118,0.170593,0.811733,0.000000,0.000000,0.000000,0.000000,0.000000,0.000000,0.000000,0.000000,0.000000,0.000000,0.000000,0.000000,2.225682,3,0
660000,-0.012821,14.886820,-0.050740,-0.062639,24.778795,-0.016446,0.000043,0.001024,1.570603,-0.000798,0.001039,0.000622,-0.000083,-0.000512,0.000005,0.010115,0.013219,0.248519,-0.025179,0.180676,0.180678,0.170731,0.804020,0.000000,0.000000,0.000000,0.000000,0.000000,0.000000,0.000000,0.000000,0.000000,0.000000,0.000000,0.000000,2.228965,3,0
670000,-0.013052,15.138003,-0.050740,-0.063041,24.784203,-0.016450,0.000062,0.001229,1.570604,-0.001319,0.001102,0.000595,-0.000090,-0.000566,0.000006,0.002081,0.013459,0.112524,0.005816,0.181250,0.181252,0.170879,0.796255,0.000000,0.000000,0.000000,0.000000,0.000000,0.000000,0.000000,0.000000,0.000000,0.000000,0.000000,0.000000,2.236207,3,0
680000,-0.013279,15.390673,-0.051513,-0.063436,24.791904,-0.017652,0.000087,0.001528,1.570592,-0.002072,0.001166,0.000700,-0.000097,-0.000645,0.000007,0.004214,0.013694,0.159472,-0.021377,0.181834,0.181836,0.171035,0.788447,0.000000,0.000000,0.000000,0.000000,0.000000,0.000000,0.000000,0.000000,0.000000,0.000000,0.000000,0.000000,2.241966,3,0
690000,-0.013502,15.646024,-0.050442,-0.063935,24.803926,-0.015907,0.000102,0.001993,1.570586,-0.003246,0.001233,0.000485,-0.000104,-0.000772,0.000008,0.010013,0.013926,0.244671,0.043627,0.182427,0.182429,0.171196,0.780604,0.000000,0.000000,0.000000,0.000000,0.000000,0.000000,0.000000,0.000000,0.000000,0.000000,0.000000,0.000000,2.245040,3,0
700000,-0.013718,15.899184,-0.049710,-0.064120,24.811943,-0.014758,0.000121,0.002322,1.570570,-0.004066,0.001302,0.000329,-0.000112,-0.000862,0.000009,0.004755,0.014150,0.168109,0.031111,0.183026,0.183028,0.171360,0.772733,0.000000,0.000000,0.000000,0.000000,0.000000,0.000000,0.000000,0.000000,0.000000,0.000000,0.000000,0.000000,2.250308,3,0
710000,-0.013934,16.155642,-0.050662,-0.064757,24.825603,-0.016129,0.000150,0.002860,1.570548,-0.005416,0.001373,0.000476,-0.000120,-0.001012,0.000011,0.012177,0.014373,0.272688,-0.028268,0.183629,0.183631,0.171524,0.764843,0.000000,0.000000,0.000000,0.000000,0.000000,0.000000,0.000000,0.000000,0.000000,0.000000,0.000000,0.000000,2.252278,3,0
720000,-0.014145,16.411715,-0.050281,-0.065136,24.838818,-0.015383,0.000183,0.003377,1.570528,-0.006697,0.001447,0.000380,-0.000128,-0.001158,0.000012,0.010566,0.014593,0.254637,0.018793,0.184234,0.184236,0.171688,0.756939,0.000000,0.000000,0.000000,0.000000,0.000000,0.000000,0.000000,0.000000,0.000000,0.000000,0.000000,0.000000,2.254632,3,0
730000,-0.014352,16.664949,-0.051476,-0.065457,24.846912,-0.016978,0.000196,0.003709,1.570510,-0.007500,0.001522,0.000575,-0.000136,-0.001250,0.000013,0.004256,0.014807,0.157465,-0.036487,0.184839,0.184842,0.171849,0.749029,0.000000,0.000000,0.000000,0.000000,0.000000,0.000000,0.000000,0.000000,0.000000,0.000000,0.000000,0.000000,2.259825,3,0
740000,-0.014554,16.922125,-0.051286,-0.065782,24.861616,-0.016294,0.000217,0.004316,1.570493,-0.008959,0.001600,0.000511,-0.000146,-0.001421,0.000015,0.012891,0.015018,0.281849,0.012264,0.185442,0.185445,0.172006,0.741122,0.000000,0.000000,0.000000,0.000000,0.000000,0.000000,0.000000,0.000000,0.000000,0.000000,0.000000,0.000000,2.261075,3,0
750000,-0.014754,17.177044,-0.052528,-0.066255,24.872192,-0.018060,0.000251,0.004769,1.570489,-0.010026,0.001680,0.000720,-0.000155,-0.001548,0.000016,0.006952,0.015225,0.203436,-0.037728,0.186043,0.186045,0.172158,0.733224,0.000000,0.000000,0.000000,0.000000,0.000000,0.000000,0.000000,0.000000,0.000000,0.000000,0.000000,0.000000,2.264586,3,0
760000,-0.014950,17.429722,-0.053492,-0.066666,24.878784,-0.019444,0.000288,0.005065,1.570488,-0.010702,0.001762,0.000874,-0.000165,-0.001630,0.000017,0.002777,0.015429,0.127321,-0.027321,0.186638,0.186640,0.172302,0.725341,0.000000,0.000000,0.000000,0.000000,0.000000,0.000000,0.000000,0.000000,0.000000,0.000000,0.000000,0.000000,2.270334,3,0
770000,-0.015140,17.685757,-0.054639,-0.066819,24.891068,-0.020806,0.000321,0.005597,1.570467,-0.011952,0.001846,0.001065,-0.000175,-0.001784,0.000019,0.008940,0.015626,0.232399,-0.033359,0.187227,0.187230,0.172439,0.717480,0.000000,0.000000,0.000000,0.000000,0.000000,0.000000,0.000000,0.000000,0.000000,0.000000,0.000000,0.000000,2.272727,3,0
780000,-0.015325,17.943256,-0.054889,-0.067137,24.906015,-0.021003,0.000353,0.006240,1.570456,-0.013446,0.001932,0.001077,-0.000186,-0.001972,0.000021,0.012199,0.015820,0.274422,-0.001685,0.187809,0.187812,0.172566,0.709647,0.000000,0.000000,0.000000,0.000000,0.000000,0.000000,0.000000,0.000000,0.000000,0.000000,0.000000,0.000000,2.273653,3,0
790000,-0.015503,18.199083,-0.054360,-0.067260,24.917704,-0.020148,0.000383,0.006754,1.570433,-0.014633,0.002020,0.000930,-0.000197,-0.002123,0.000023,0.007648,0.016006,0.215563,0.025563,0.188382,0.188385,0.172683,0.701848,0.000000,0.000000,0.000000,0.000000,0.000000,0.000000,0.000000,0.000000,0.000000,0.000000,0.000000,0.000000,2.276254,3,0
800000,-0.015679,18.454504,-0.054925,-0.067599,24.928896,-0.020802,0.000415,0.007237,1.570409,-0.015737,0.002111,0.001007,-0.000209,-0.002267,0.000024,0.006407,0.016188,0.198160,-0.012796,0.188947,0.188950,0.172790,0.694090,0.000000,0.000000,0.000000,0.000000,0.000000,0.000000,0.000000,0.000000,0.000000,0.000000,0.000000,0.000000,2.279259,3,0
810000,-0.015852,18.709515,-0.056164,-0.068009,24.938889,-0.022515,0.000463,0.007691,1.570397,-0.016756,0.002203,0.001224,-0.000220,-0.002401,0.000026,0.005550,0.016368,0.181177,-0.035897,0.189501,0.189504,0.172885,0.686377,0.000000,0.000000,0.000000,0.000000,0.000000,0.000000,0.000000,0.000000,0.000000,0.000000,0.000000,0.000000,2.282676,3,0
820000,-0.016019,18.966007,-0.055003,-0.068251,24.951290,-0.020662,0.000495,0.008252,1.570382,-0.018031,0.002297,0.000935,-0.000233,-0.002572,0.000028,0.008532,0.016544,0.224251,0.047926,0.190044,0.190047,0.172968,0.678715,0.000000,0.000000,0.000000,0.000000,0.000000,0.000000,0.000000,0.000000,0.000000,0.000000,0.000000,0.000000,2.284610,3,0
830000,-0.016178,19.221439,-0.054153,-0.068178,24.961742,-0.019314,0.000539,0.008745,1.570368,-0.019101,0.002392,0.000711,-0.000247,-0.002718,0.000029,0.005862,0.016710,0.186300,0.036529,0.190576,0.190579,0.173038,0.671108,0.000000,0.000000,0.000000,0.000000,0.000000,0.000000,0.000000,0.000000,0.000000,0.000000,0.000000,0.000000,2.287605,3,0
840000,-0.016335,19.475817,-0.054515,-0.068431,24.970291,-0.019723,0.000592,0.009146,1.570365,-0.019967,0.002490,0.000750,-0.000260,-0.002838,0.000030,0.003655,0.016872,0.149433,-0.005995,0.191096,0.191099,0.173095,0.663562,0.000000,0.000000,0.000000,0.000000,0.000000,0.000000,0.000000,0.000000,0.000000,0.000000,0.000000,0.000000,2.291656,3,0
850000,-0.016489,19.731693,-0.053560,-0.068995,24.981493,-0.018208,0.000634,0.009670,1.570346,-0.021096,0.002590,0.000500,-0.000275,-0.002997,0.000032,0.006322,0.017035,0.193151,0.039796,0.191603,0.191606,0.173139,0.656082,0.000000,0.000000,0.000000,0.000000,0.000000,0.000000,0.000000,0.000000,0.000000,0.000000,0.000000,0.000000,2.294205,3,0
860000,-0.016637,19.989046,-0.052385,-0.068983,24.994974,-0.016358,0.000685,0.010307,1.570325,-0.022484,0.002691,0.000203,-0.000290,-0.003196,0.000034,0.009338,0.017189,0.235348,0.046808,0.192097,0.192101,0.173169,0.648670,0.000000,0.000000,0.000000,0.000000,0.000000,0.000000,0.000000,0.000000,0.000000,0.000000,0.000000,0.000000,2.295280,3,0
870000,-0.016782,20.245308,-0.053215,-0.069055,25.006561,-0.017254,0.000735,0.010863,1.570301,-0.023652,0.002794,0.000356,-0.000304,-0.003365,0.000036,0.006367,0.017337,0.196526,-0.023339,0.192579,0.192582,0.173185,0.641331,0.000000,0.000000,0.000000,0.000000,0.000000,0.000000,0.000000,0.000000,0.000000,0.000000,0.000000,0.000000,2.297444,3,0
880000,-0.016921,20.503048,-0.052589,-0.069254,25.020578,-0.016202,0.000793,0.011539,1.570284,-0.025080,0.002899,0.000178,-0.000320,-0.003576,0.000039,0.009333,0.017485,0.238331,0.027421,0.193047,0.193051,0.173187,0.634069,0.000000,0.000000,0.000000,0.000000,0.000000,0.000000,0.000000,0.000000,0.000000,0.000000,0.000000,0.000000,2.298131,3,0
890000,-0.017054,20.760963,-0.051223,-0.069313,25.034607,-0.014144,0.000836,0.012242,1.570256,-0.026522,0.003005,-0.000168,-0.000337,-0.003792,0.000041,0.009703,0.017624,0.238878,0.052707,0.193502,0.193506,0.173175,0.626887,0.000000,0.000000,0.000000,0.000000,0.000000,0.000000,0.000000,0.000000,0.000000,0.000000,0.000000,0.000000,2.298641,3,0
900000,-0.017187,21.020977,-0.052236,-0.069479,25.052240,-0.015438,0.000884,0.013107,1.570223,-0.028339,0.003113,0.000038,-0.000353,-0.004069,0.000044,0.014609,0.017759,0.298882,-0.030554,0.193943,0.193947,0.173148,0.619788,0.000000,0.000000,0.000000,0.000000,0.000000,0.000000,0.000000,0.000000,0.000000,0.000000,0.000000,0.000000,2.297056,3,0
910000,-0.017310,21.281778,-0.051212,-0.069435,25.071054,-0.013631,0.000946,0.014039,1.570186,-0.030279,0.003222,-0.000233,-0.000370,-0.004369,0.000047,0.016522,0.017891,0.316996,0.040461,0.194371,0.194375,0.173107,0.612776,0.000000,0.000000,0.000000,0.000000,0.000000,0.000000,0.000000,0.000000,0.000000,0.000000,0.000000,0.000000,2.294682,3,0
920000,-0.017430,21.540127,-0.050455,-0.069482,25.085518,-0.012532,0.000990,0.014770,1.570163,-0.031726,0.003333,-0.000441,-0.000388,-0.004597,0.000050,0.009104,0.018015,0.234915,0.030731,0.194785,0.194790,0.173052,0.605852,0.000000,0.000000,0.000000,0.000000,0.000000,0.000000,0.000000,0.000000,0.000000,0.000000,0.000000,0.000000,2.294759,3,0
930000,-0.017541,21.799276,-0.049507,-0.069245,25.100863,-0.011201,0.001039,0.015558,1.570131,-0.033305,0.003445,-0.000694,-0.000406,-0.004849,0.000053,0.010737,0.018132,0.254730,0.037006,0.195186,0.195191,0.172983,0.599019,0.000000,0.000000,0.000000,0.000000,0.000000,0.000000,0.000000,0.000000,0.000000,0.000000,0.000000,0.000000,2.294037,3,0
940000,-0.017650,22.056623,-0.050615,-0.069120,25.112938,-0.012682,0.001080,0.016185,1.570113,-0.034516,0.003559,-0.000450,-0.000424,-0.005044,0.000055,0.006331,0.018243,0.194212,-0.034803,0.195574,0.195579,0.172901,0.592280,0.000000,0.000000,0.000000,0.000000,0.000000,0.000000,0.000000,0.000000,0.000000,0.000000,0.000000,0.000000,2.295117,3,0
950000,-0.017753,22.314137,-0.051277,-0.069063,25.125231,-0.013903,0.001135,0.016822,1.570096,-0.035739,0.003674,-0.000317,-0.000443,-0.005245,0.000057,0.006252,0.018351,0.195169,-0.018696,0.195949,0.195954,0.172804,0.585637,0.000000,0.000000,0.000000,0.000000,0.000000,0.000000,0.000000,0.000000,0.000000,0.000000,0.000000,0.000000,2.296030,3,0
960000,-0.017850,22.570511,-0.051737,-0.068946,25.135441,-0.014555,0.001199,0.017351,1.570068,-0.036723,0.003790,-0.000235,-0.000462,-0.005410,0.000059,0.004009,0.018453,0.156200,-0.011291,0.196312,0.196316,0.172694,0.579092,0.000000,0.000000,0.000000,0.000000,0.000000,0.000000,0.000000,0.000000,0.000000,0.000000,0.000000,0.000000,2.298083,3,0
970000,-0.017939,22.831623,-0.051131,-0.068735,25.153698,-0.013751,0.001253,0.018330,1.570030,-0.038605,0.003907,-0.000419,-0.000482,-0.005729,0.000063,0.014412,0.018548,0.297302,0.025851,0.196661,0.196666,0.172570,0.572645,0.000000,0.000000,0.000000,0.000000,0.000000,0.000000,0.000000,0.000000,0.000000,0.000000,0.000000,0.000000,2.295396,3,0
980000,-0.018024,23.092842,-0.050374,-0.068686,25.172064,-0.012953,0.001310,0.019304,1.570013,-0.040477,0.004025,-0.000641,-0.000503,-0.006052,0.000066,0.014184,0.018637,0.294432,0.030909,0.196999,0.197004,0.172434,0.566298,0.000000,0.000000,0.000000,0.000000,0.000000,0.000000,0.000000,0.000000,0.000000,0.000000,0.000000,0.000000,2.292605,3,0
990000,-0.018102,23.353510,-0.049026,-0.068465,25.189182,-0.011275,0.001366,0.020219,1.569981,-0.042211,0.004144,-0.001014,-0.000525,-0.006355,0.000070,0.012370,0.018720,0.271578,0.051274,0.197325,0.197330,0.172285,0.560053,0.000000,0.000000,0.000000,0.000000,0.000000,0.000000,0.000000,0.000000,0.000000,0.000000,0.000000,0.000000,2.290362,3,0
1000000,-0.018177,23.610355,-0.047739,-0.068560,25.199459,-0.009599,0.001423,0.020763,1.569959,-0.043172,0.004264,-0.001371,-0.000547,-0.006526,0.000071,0.004061,0.018798,0.149887,0.048675,0.197639,0.197644,0.172124,0.553911,0.000000,0.000000,0.000000,0.000000,0.000000,0.000000,0.000000,0.000000,0.000000,0.000000,0.000000,0.000000,2.291944,3,0
1010000,-0.018250,23.869328,-0.047501,-0.068476,25.213270,-0.009127,0.001488,0.021515,1.569943,-0.044530,0.004386,-0.001455,-0.000569,-0.006771,0.000074,0.007254,0.018873,0.211000,0.011369,0.197941,0.197947,0.171950,0.547873,0.000000,0.000000,0.000000,0.000000,0.000000,0.000000,0.000000,0.000000,0.000000,0.000000,0.000000,0.000000,2.291397,3,0
1020000,-0.018316,24.131054,-0.046293,-0.068339,25.231770,-0.007224,0.001557,0.022537,1.569910,-0.046401,0.004507,-0.001790,-0.000592,-0.007114,0.000078,0.013923,0.018944,0.289831,0.044962,0.198234,0.198239,0.171765,0.541938,0.000000,0.000000,0.000000,0.000000,0.000000,0.000000,0.000000,0.000000,0.000000,0.000000,0.000000,0.000000,2.288100,3,0
1030000,-0.018380,24.388260,-0.045219,-0.068351,25.242022,-0.005659,0.001624,0.023102,1.569891,-0.047355,0.004630,-0.002091,-0.000615,-0.007291,0.000080,0.003808,0.019011,0.147194,0.039922,0.198516,0.198521,0.171568,0.536108,0.000000,0.000000,0.000000,0.000000,0.000000,0.000000,0.000000,0.000000,0.000000,0.000000,0.000000,0.000000,2.289317,3,0
1040000,-0.018441,24.647589,-0.045029,-0.068154,25.256145,-0.005371,0.001682,0.023879,1.569884,-0.048706,0.004754,-0.002154,-0.000639,-0.007546,0.000083,0.007038,0.019073,0.207947,0.008353,0.198788,0.198793,0.171361,0.530383,0.000000,0.000000,0.000000,0.000000,0.000000,0.000000,0.000000,0.000000,0.000000,0.000000,0.000000,0.000000,2.288418,3,0
1050000,-0.018497,24.908352,-0.044998,-0.067943,25.272369,-0.005264,0.001748,0.024798,1.569853,-0.050314,0.004878,-0.002174,-0.000662,-0.007853,0.000086,0.009864,0.019131,0.246660,0.002673,0.199051,0.199056,0.171143,0.524763,0.000000,0.000000,0.000000,0.000000,0.000000,0.000000,0.000000,0.000000,0.000000,0.000000,0.000000,0.000000,2.286080,3,0
1060000,-0.018551,25.165905,-0.046185,-0.067866,25.282898,-0.006942,0.001817,0.025384,1.569833,-0.051260,0.005004,-0.001865,-0.000686,-0.008036,0.000088,0.003695,0.019186,0.144766,-0.039982,0.199305,0.199310,0.170915,0.519248,0.000000,0.000000,0.000000,0.000000,0.000000,0.000000,0.000000,0.000000,0.000000,0.000000,0.000000,0.000000,2.286954,3,0
1070000,-0.018597,25.425581,-0.044867,-0.067671,25.297132,-0.005265,0.001889,0.026176,1.569799,-0.052603,0.005129,-0.002243,-0.000712,-0.008301,0.000091,0.007224,0.019240,0.205168,0.048591,0.199550,0.199555,0.170677,0.513839,0.000000,0.000000,0.000000,0.000000,0.000000,0.000000,0.000000,0.000000,0.000000,0.000000,0.000000,0.000000,2.285705,3,0
1080000,-0.018641,25.685360,-0.044389,-0.067555,25.311255,-0.004700,0.001964,0.026985,1.569780,-0.053940,0.005255,-0.002388,-0.000737,-0.008569,0.000094,0.006805,0.019284,0.203775,0.018471,0.199787,0.199793,0.170429,0.508534,0.000000,0.000000,0.000000,0.000000,0.000000,0.000000,0.000000,0.000000,0.000000,0.000000,0.000000,0.000000,2.284351,3,0
1090000,-0.018686,25.946562,-0.045909,-0.067435,25.327625,-0.006901,0.002038,0.027936,1.569757,-0.055532,0.005383,-0.001976,-0.000762,-0.008891,0.000098,0.009939,0.019327,0.242039,-0.052168,0.200017,0.200022,0.170173,0.503335,0.000000,0.000000,0.000000,0.000000,0.000000,0.000000,0.000000,0.000000,0.000000,0.000000,0.000000,0.000000,2.281576,3,0
1100000,-0.018723,26.206516,-0.045866,-0.067177,25.341940,-0.006960,0.002102,0.028747,1.569723,-0.056845,0.005511,-0.002006,-0.000788,-0.009161,0.000101,0.006464,0.019369,0.199337,0.003771,0.200239,0.200245,0.169908,0.498239,0.000000,0.000000,0.000000,0.000000,0.000000,0.000000,0.000000,0.000000,0.000000,0.000000,0.000000,0.000000,2.280047,3,0
1110000,-0.018759,26.465899,-0.047026,-0.067129,25.354763,-0.008459,0.002168,0.029495,1.569698,-0.058018,0.005639,-0.001695,-0.000815,-0.009406,0.000103,0.005397,0.019405,0.177790,-0.038784,0.200455,0.200460,0.169635,0.493248,0.000000,0.000000,0.000000,0.000000,0.000000,0.000000,0.000000,0.000000,0.000000,0.000000,0.000000,0.000000,2.279092,3,0
1120000,-0.018790,26.726713,-0.046957,-0.066959,25.370155,-0.008438,0.002239,0.030397,1.569670,-0.059447,0.005767,-0.001739,-0.000842,-0.009709,0.000107,0.007613,0.019440,0.216459,0.005248,0.200664,0.200669,0.169354,0.488360,0.000000,0.000000,0.000000,0.000000,0.000000,0.000000,0.000000,0.000000,0.000000,0.000000,0.000000,0.000000,2.276702,3,0
1130000,-0.018817,26.987602,-0.047762,-0.066479,25.385403,-0.009515,0.002315,0.031299,1.569641,-0.060861,0.005896,-0.001530,-0.000869,-0.010013,0.000110,0.007540,0.019466,0.213915,-0.025783,0.200867,0.200873,0.169066,0.483575,0.000000,0.000000,0.000000,0.000000,0.000000,0.000000,0.000000,0.000000,0.000000,0.000000,0.000000,0.000000,2.274242,3,0
1140000,-0.018834,27.247902,-0.046552,-0.066133,25.399664,-0.007879,0.002400,0.032129,1.569607,-0.062125,0.006024,-0.001910,-0.000898,-0.010290,0.000113,0.006309,0.019489,0.191418,0.046208,0.201066,0.201071,0.168771,0.478891,0.000000,0.000000,0.000000,0.000000,0.000000,0.000000,0.000000,0.000000,0.000000,0.000000,0.000000,0.000000,2.272366,3,0
1150000,-0.018846,27.506947,-0.045767,-0.065642,25.411289,-0.006955,0.002490,0.032808,1.569589,-0.063114,0.006152,-0.002164,-0.000927,-0.010509,0.000116,0.003821,0.019502,0.149647,0.030667,0.201259,0.201264,0.168470,0.474308,0.000000,0.000000,0.000000,0.000000,0.000000,0.000000,0.000000,0.000000,0.000000,0.000000,0.000000,0.000000,2.271749,3,0
1160000,-0.018857,27.766090,-0.046462,-0.065332,25.423256,-0.008110,0.002564,0.033501,1.569569,-0.064100,0.006282,-0.001980,-0.000956,-0.010730,0.000118,0.003714,0.019511,0.148909,-0.022364,0.201447,0.201453,0.168162,0.469826,0.000000,0.000000,0.000000,0.000000,0.000000,0.000000,0.000000,0.000000,0.000000,0.000000,0.000000,0.000000,2.271031,3,0
1170000,-0.018862,28.028671,-0.046210,-0.064935,25.441080,-0.008115,0.002644,0.034581,1.569540,-0.065737,0.006410,-0.002081,-0.000985,-0.011104,0.000122,0.009947,0.019518,0.247463,0.011837,0.201632,0.201637,0.167848,0.465443,0.000000,0.000000,0.000000,0.000000,0.000000,0.000000,0.000000,0.000000,0.000000,0.000000,0.000000,0.000000,2.266876,3,0
1180000,-0.018865,28.287279,-0.046329,-0.064816,25.451578,-0.008485,0.002728,0.035193,1.569530,-0.066556,0.006539,-0.002071,-0.001015,-0.011293,0.000124,0.002532,0.019521,0.123857,-0.001391,0.201812,0.201817,0.167529,0.461159,0.000000,0.000000,0.000000,0.000000,0.000000,0.000000,0.000000,0.000000,0.000000,0.000000,0.000000,0.000000,2.266693,3,0
1190000,-0.018863,28.551340,-0.045724,-0.064518,25.471478,-0.008057,0.002818,0.036445,1.569503,-0.068424,0.006668,-0.002284,-0.001046,-0.011732,0.000129,0.013023,0.019522,0.282602,0.024695,0.201989,0.201994,0.167205,0.456972,0.000000,0.000000,0.000000,0.000000,0.000000,0.000000,0.000000,0.000000,0.000000,0.000000,0.000000,0.000000,2.261059,3,0
1200000,-0.018858,28.814075,-0.045795,-0.064086,25.489006,-0.008347,0.002907,0.037519,1.569485,-0.069991,0.006796,-0.002290,-0.001076,-0.012105,0.000133,0.009108,0.019516,0.237007,0.000254,0.202163,0.202168,0.166877,0.452880,0.000000,0.000000,0.000000,0.000000,0.000000,0.000000,0.000000,0.000000,0.000000,0.000000,0.000000,0.000000,2.256749,3,0
1210000,-0.018854,29.076841,-0.046990,-0.063874,25.506315,-0.010090,0.002993,0.038600,1.569457,-0.071528,0.006926,-0.001950,-0.001107,-0.012476,0.000138,0.009029,0.019509,0.232521,-0.040109,0.202335,0.202340,0.166544,0.448884,0.000000,0.000000,0.000000,0.000000,0.000000,0.000000,0.000000,0.000000,0.000000,0.000000,0.000000,0.000000,2.252410,3,0
1220000,-0.018840,29.336283,-0.046862,-0.063336,25.517683,-0.010043,0.003089,0.039258,1.569444,-0.072377,0.007054,-0.002023,-0.001138,-0.012684,0.000140,0.002736,0.019499,0.128613,0.008240,0.202504,0.202509,0.166207,0.444981,0.000000,0.000000,0.000000,0.000000,0.000000,0.000000,0.000000,0.000000,0.000000,0.000000,0.000000,0.000000,2.251393,3,0
1230000,-0.018820,29.599834,-0.046404,-0.062768,25.536291,-0.009748,0.003184,0.040419,1.569413,-0.074002,0.007182,-0.002204,-0.001170,-0.013089,0.000144,0.009932,0.019480,0.246754,0.020185,0.202671,0.202676,0.165867,0.441171,0.000000,0.000000,0.000000,0.000000,0.000000,0.000000,0.000000,0.000000,0.000000,0.000000,0.000000,0.000000,2.246268,3,0
1240000,-0.018800,29.862726,-0.047119,-0.062362,25.553307,-0.010637,0.003272,0.041481,1.569388,-0.075462,0.007310,-0.002012,-0.001202,-0.013457,0.000148,0.008048,0.019456,0.221565,-0.022480,0.202837,0.202841,0.165524,0.437452,0.000000,0.000000,0.000000,0.000000,0.000000,0.000000,0.000000,0.000000,0.000000,0.000000,0.000000,0.000000,2.241803,3,0
1250000,-0.018770,30.121601,-0.046310,-0.061853,25.563068,-0.009985,0.003363,0.042030,1.569376,-0.076102,0.007437,-0.002307,-0.001236,-0.013621,0.000150,0.001777,0.019430,0.097656,0.033336,0.203001,0.203005,0.165177,0.433823,0.000000,0.000000,0.000000,0.000000,0.000000,0.000000,0.000000,0.000000,0.000000,0.000000,0.000000,0.000000,2.241354,3,0
1260000,-0.018744,30.385271,-0.047647,-0.061528,25.581228,-0.011813,0.003455,0.043179,1.569340,-0.077655,0.007565,-0.001915,-0.001268,-0.014024,0.000155,0.009378,0.019397,0.236259,-0.045041,0.203165,0.203168,0.164828,0.430283,0.000000,0.000000,0.000000,0.000000,0.000000,0.000000,0.000000,0.000000,0.000000,0.000000,0.000000,0.000000,2.236111,3,0
1270000,-0.018710,30.644903,-0.047356,-0.061172,25.591953,-0.011501,0.003551,0.043818,1.569322,-0.078385,0.007691,-0.002051,-0.001301,-0.014216,0.000157,0.002101,0.019367,0.111559,0.014943,0.203327,0.203330,0.164477,0.426830,0.000000,0.000000,0.000000,0.000000,0.000000,0.000000,0.000000,0.000000,0.000000,0.000000,0.000000,0.000000,2.234901,3,0
1280000,-0.018671,30.908648,-0.046878,-0.060607,25.609886,-0.011034,0.003642,0.044966,1.569302,-0.079883,0.007817,-0.002253,-0.001335,-0.014617,0.000161,0.008619,0.019327,0.229521,0.021740,0.203489,0.203492,0.164124,0.423462,0.000000,0.000000,0.000000,0.000000,0.000000,0.000000,0.000000,0.000000,0.000000,0.000000,0.000000,0.000000,2.229584,3,0
1290000,-0.018623,31.168346,-0.045822,-0.059869,25.620588,-0.009888,0.003732,0.045595,1.569295,-0.080564,0.007941,-0.002641,-0.001370,-0.014802,0.000163,0.002123,0.019281,0.104742,0.042810,0.203652,0.203654,0.163769,0.420179,0.000000,0.000000,0.000000,0.000000,0.000000,0.000000,0.000000,0.000000,0.000000,0.000000,0.000000,0.000000,2.228311,3,0
1300000,-0.018580,31.430809,-0.047124,-0.059475,25.636080,-0.011764,0.003824,0.046570,1.569269,-0.081756,0.008067,-0.002249,-0.001404,-0.015129,0.000167,0.005759,0.019230,0.182880,-0.044074,0.203814,0.203816,0.163413,0.416980,0.000000,0.000000,0.000000,0.000000,0.000000,0.000000,0.000000,0.000000,0.000000,0.000000,0.000000,0.000000,2.224275,3,0
1310000,-0.018533,31.693289,-0.047981,-0.059163,25.651331,-0.012953,0.003916,0.047536,1.569245,-0.082917,0.008192,-0.002009,-0.001438,-0.015453,0.000171,0.005319,0.019183,0.178690,-0.027138,0.203976,0.203978,0.163055,0.413862,0.000000,0.000000,0.000000,0.000000,0.000000,0.000000,0.000000,0.000000,0.000000,0.000000,0.000000,0.000000,2.220218,3,0
1320000,-0.018484,31.955109,-0.048642,-0.058832,25.665319,-0.013847,0.004014,0.048409,1.569234,-0.083918,0.008316,-0.001836,-0.001472,-0.015736,0.000174,0.003969,0.019133,0.154602,-0.019521,0.204139,0.204140,0.162697,0.410825,0.000000,0.000000,0.000000,0.000000,0.000000,0.000000,0.000000,0.000000,0.000000,0.000000,0.000000,0.000000,2.216828,3,0
1330000,-0.018429,32.216949,-0.048425,-0.058393,25.679102,-0.013551,0.004104,0.049280,1.569206,-0.084891,0.008438,-0.001964,-0.001508,-0.016016,0.000177,0.003761,0.019079,0.151070,0.013209,0.204303,0.204303,0.162339,0.407867,0.000000,0.000000,0.000000,0.000000,0.000000,0.000000,0.000000,0.000000,0.000000,0.000000,0.000000,0.000000,2.213410,3,0
1340000,-0.018372,32.481525,-0.047777,-0.058238,25.697638,-0.012970,0.004193,0.050497,1.569174,-0.086348,0.008559,-0.002245,-0.001544,-0.016440,0.000182,0.008495,0.019023,0.227028,0.029275,0.204468,0.204468,0.161980,0.404986,0.000000,0.000000,0.000000,0.000000,0.000000,0.000000,0.000000,0.000000,0.000000,0.000000,0.000000,0.000000,2.207260,3,0
1350000,-0.018315,32.740654,-0.047697,-0.057862,25.706282,-0.013010,0.004287,0.050951,1.569170,-0.086742,0.008680,-0.002321,-0.001580,-0.016557,0.000183,0.000680,0.018962,0.061661,0.007905,0.204634,0.204633,0.161621,0.402181,0.000000,0.000000,0.000000,0.000000,0.000000,0.000000,0.000000,0.000000,0.000000,0.000000,0.000000,0.000000,2.206558,3,0
1360000,-0.018256,33.001877,-0.047992,-0.057394,25.718567,-0.013695,0.004391,0.051690,1.569162,-0.087512,0.008801,-0.002272,-0.001616,-0.016787,0.000185,0.002401,0.018900,0.120510,-0.005913,0.204801,0.204799,0.161262,0.399451,0.000000,0.000000,0.000000,0.000000,0.000000,0.000000,0.000000,0.000000,0.000000,0.000000,0.000000,0.000000,2.203761,3,0
1370000,-0.018195,33.265846,-0.047932,-0.057178,25.735842,-0.013810,0.004488,0.052800,1.569137,-0.088764,0.008920,-0.002354,-0.001652,-0.017168,0.000190,0.006320,0.018839,0.197105,0.007603,0.204969,0.204967,0.160904,0.396795,0.000000,0.000000,0.000000,0.000000,0.000000,0.000000,0.000000,0.000000,0.000000,0.000000,0.000000,0.000000,2.198215,3,0
1380000,-0.018135,33.529121,-0.048975,-0.056753,25.751703,-0.015227,0.004590,0.053804,1.569115,-0.089852,0.009040,-0.002046,-0.001688,-0.017504,0.000193,0.004974,0.018774,0.171505,-0.033568,0.205139,0.205135,0.160546,0.394210,0.000000,0.000000,0.000000,0.000000,0.000000,0.000000,0.000000,0.000000,0.000000,0.000000,0.000000,0.000000,2.193366,3,0
1390000,-0.018069,33.793747,-0.049607,-0.056116,25.769651,-0.016420,0.004680,0.054993,1.569085,-0.091153,0.009158,-0.001892,-0.001725,-0.017911,0.000198,0.006954,0.018707,0.206257,-0.017537,0.205310,0.205306,0.160189,0.391695,0.000000,0.000000,0.000000,0.000000,0.000000,0.000000,0.000000,0.000000,0.000000,0.000000,0.000000,0.000000,2.187166,3,0
1400000,-0.018002,34.054939,-0.050556,-0.055756,25.781319,-0.017776,0.004780,0.055671,1.569081,-0.091786,0.009276,-0.001620,-0.001761,-0.018112,0.000200,0.001820,0.018638,0.100479,-0.029234,0.205483,0.205478,0.159833,0.389250,0.000000,0.000000,0.000000,0.000000,0.000000,0.000000,0.000000,0.000000,0.000000,0.000000,0.000000,0.000000,2.184400,3,0
1410000,-0.017928,34.314793,-0.050434,-0.055193,25.790632,-0.017693,0.004878,0.056144,1.569068,-0.092146,0.009391,-0.001733,-0.001799,-0.018228,0.000201,0.000615,0.018565,0.057838,0.011439,0.205657,0.205652,0.159478,0.386873,0.000000,0.000000,0.000000,0.000000,0.000000,0.000000,0.000000,0.000000,0.000000,0.000000,0.000000,0.000000,2.182969,3,0
1420000,-0.017849,34.574001,-0.049755,-0.054651,25.798214,-0.016858,0.004982,0.056504,1.569059,-0.092370,0.009505,-0.002047,-0.001837,-0.018302,0.000202,0.000439,0.018486,0.036438,0.032356,0.205834,0.205827,0.159125,0.384559,0.000000,0.000000,0.000000,0.000000,0.000000,0.000000,0.000000,0.000000,0.000000,0.000000,0.000000,0.000000,2.182187,3,0
1430000,-0.017770,34.838032,-0.049145,-0.054399,25.814316,-0.016357,0.005082,0.057569,1.569038,-0.093448,0.009617,-0.002349,-0.001875,-0.018659,0.000206,0.005114,0.018405,0.174736,0.029891,0.206012,0.206005,0.158774,0.382310,0.000000,0.000000,0.000000,0.000000,0.000000,0.000000,0.000000,0.000000,0.000000,0.000000,0.000000,0.000000,2.176582,3,0
1440000,-0.017689,35.102039,-0.048871,-0.053860,25.830490,-0.016166,0.005189,0.058617,1.569023,-0.094486,0.009728,-0.002527,-0.001913,-0.019009,0.000210,0.004696,0.018320,0.168964,0.017003,0.206193,0.206184,0.158424,0.380126,0.000000,0.000000,0.000000,0.000000,0.000000,0.000000,0.000000,0.000000,0.000000,0.000000,0.000000,0.000000,2.171001,3,0
1450000,-0.017600,35.364643,-0.048014,-0.053020,25.843622,-0.015478,0.005299,0.059439,1.569005,-0.095238,0.009837,-0.002919,-0.001952,-0.019265,0.000213,0.002755,0.018231,0.123466,0.039109,0.206375,0.206365,0.158076,0.378000,0.000000,0.000000,0.000000,0.000000,0.000000,0.000000,0.000000,0.000000,0.000000,0.000000,0.000000,0.000000,2.166820,3,0
1460000,-0.017514,35.623821,-0.049027,-0.052392,25.850756,-0.016803,0.005396,0.059749,1.569004,-0.095361,0.009949,-0.002600,-0.001990,-0.019308,0.000213,0.000288,0.018135,0.019760,-0.032551,0.206559,0.206548,0.157730,0.375938,0.000000,0.000000,0.000000,0.000000,0.000000,0.000000,0.000000,0.000000,0.000000,0.000000,0.000000,0.000000,2.166071,3,0
1470000,-0.017425,35.884415,-0.049829,-0.051972,25.860443,-0.018000,0.005503,0.060254,1.569000,-0.095718,0.010059,-0.002369,-0.002027,-0.019434,0.000215,0.000700,0.018045,0.058693,-0.023909,0.206745,0.206732,0.157387,0.373935,0.000000,0.000000,0.000000,0.000000,0.000000,0.000000,0.000000,0.000000,0.000000,0.000000,0.000000,0.000000,2.163904,3,0
1480000,-0.017333,36.145710,-0.050746,-0.051386,25.871214,-0.019580,0.005606,0.060861,1.568984,-0.096179,0.010168,-0.002101,-0.002065,-0.019598,0.000216,0.001114,0.017950,0.076309,-0.027733,0.206933,0.206919,0.157046,0.371990,0.000000,0.000000,0.000000,0.000000,0.000000,0.000000,0.000000,0.000000,0.000000,0.000000,0.000000,0.000000,2.161031,3,0
1490000,-0.017236,36.404949,-0.050253,-0.051003,25.877958,-0.019103,0.005710,0.061134,1.568975,-0.096259,0.010274,-0.002366,-0.002104,-0.019627,0.000217,0.000196,0.017855,0.013695,0.026521,0.207123,0.207107,0.156707,0.370099,0.000000,0.000000,0.000000,0.000000,0.000000,0.000000,0.000000,0.000000,0.000000,0.000000,0.000000,0.000000,2.160217,3,0
1500000,-0.017139,36.669037,-0.050210,-0.050605,25.893503,-0.019160,0.005830,0.062149,1.568961,-0.097159,0.010378,-0.002476,-0.002143,-0.019958,0.000220,0.003781,0.017753,0.151966,0.009530,0.207314,0.207297,0.156371,0.368265,0.000000,0.000000,0.000000,0.000000,0.000000,0.000000,0.000000,0.000000,0.000000,0.000000,0.000000,0.000000,2.154556,3,0
1510000,-0.017042,36.929653,-0.050996,-0.050096,25.902752,-0.020264,0.005932,0.062610,1.568949,-0.097437,0.010483,-0.002253,-0.002181,-0.020062,0.000221,0.000485,0.017651,0.046749,-0.022603,0.207508,0.207489,0.156038,0.366485,0.000000,0.000000,0.000000,0.000000,0.000000,0.000000,0.000000,0.000000,0.000000,0.000000,0.000000,0.000000,2.152365,3,0
1520000,-0.016944,37.194412,-0.051691,-0.049660,25.919306,-0.021400,0.006039,0.063691,1.568933,-0.098397,0.010586,-0.002088,-0.002220,-0.020425,0.000226,0.004417,0.017550,0.163738,-0.018173,0.207703,0.207683,0.155708,0.364757,0.000000,0.000000,0.000000,0.000000,0.000000,0.000000,0.000000,0.000000,0.000000,0.000000,0.000000,0.000000,2.146029,3,0
1530000,-0.016844,37.457741,-0.053065,-0.048980,25.933050,-0.023276,0.006146,0.064536,1.568922,-0.099083,0.010690,-0.001652,-0.002258,-0.020689,0.000229,0.002587,0.017445,0.117485,-0.044230,0.207900,0.207878,0.155380,0.363079,0.000000,0.000000,0.000000,0.000000,0.000000,0.000000,0.000000,0.000000,0.000000,0.000000,0.000000,0.000000,2.141126,3,0
1540000,-0.016735,37.716896,-0.052710,-0.048290,25.939188,-0.022954,0.006253,0.064713,1.568925,-0.099042,0.010788,-0.001883,-0.002297,-0.020673,0.000228,0.000140,0.017338,-0.006832,0.022820,0.208099,0.208075,0.155056,0.361452,0.000000,0.000000,0.000000,0.000000,0.000000,0.000000,0.000000,0.000000,0.000000,0.000000,0.000000,0.000000,2.140397,3,0
1550000,-0.016622,37.977470,-0.053056,-0.047442,25.947668,-0.023324,0.006370,0.065121,1.568923,-0.099226,0.010887,-0.001842,-0.002336,-0.020746,0.000229,0.000217,0.017220,0.032135,-0.004320,0.208299,0.208274,0.154735,0.359873,0.000000,0.000000,0.000000,0.000000,0.000000,0.000000,0.000000,0.000000,0.000000,0.000000,0.000000,0.000000,2.138248,3,0
1560000,-0.016506,38.237358,-0.052920,-0.046819,25.954691,-0.023203,0.006477,0.065383,1.568922,-0.099282,0.010983,-0.001991,-0.002375,-0.020768,0.000229,0.000097,0.017102,0.010025,0.014437,0.208501,0.208473,0.154418,0.358339,0.000000,0.000000,0.000000,0.000000,0.000000,0.000000,0.000000,0.000000,0.000000,0.000000,0.000000,0.000000,2.136782,3,0
1570000,-0.016384,38.502098,-0.052124,-0.046150,25.970470,-0.022417,0.006595,0.066408,1.568903,-0.100109,0.011076,-0.002432,-0.002415,-0.021105,0.000233,0.003825,0.016978,0.147648,0.040881,0.208704,0.208675,0.154103,0.356852,0.000000,0.000000,0.000000,0.000000,0.000000,0.000000,0.000000,0.000000,0.000000,0.000000,0.000000,0.000000,2.130472,3,0
1580000,-0.016260,38.761242,-0.051932,-0.045301,25.975903,-0.022344,0.006721,0.066512,1.568900,-0.100008,0.011169,-0.002597,-0.002455,-0.021063,0.000233,0.000140,0.016848,-0.017860,0.016255,0.208909,0.208877,0.153792,0.355410,0.000000,0.000000,0.000000,0.000000,0.000000,0.000000,0.000000,0.000000,0.000000,0.000000,0.000000,0.000000,2.129750,3,0
1590000,-0.016128,39.025261,-0.050881,-0.044515,25.990187,-0.021357,0.006846,0.067400,1.568881,-0.100670,0.011258,-0.003141,-0.002494,-0.021341,0.000236,0.002798,0.016716,0.120518,0.050625,0.209115,0.209081,0.153485,0.354011,0.000000,0.000000,0.000000,0.000000,0.000000,0.000000,0.000000,0.000000,0.000000,0.000000,0.000000,0.000000,2.124157,3,0
1600000,-0.015997,39.286453,-0.050188,-0.043990,25.999205,-0.020724,0.006956,0.067820,1.568870,-0.100861,0.011347,-0.003520,-0.002534,-0.021422,0.000237,0.000453,0.016579,0.035267,0.035861,0.209321,0.209286,0.153181,0.352656,0.000000,0.000000,0.000000,0.000000,0.000000,0.000000,0.000000,0.000000,0.000000,0.000000,0.000000,0.000000,2.121391,3,0
1610000,-0.015863,39.549721,-0.049529,-0.043222,26.011774,-0.020309,0.007058,0.068556,1.568862,-0.101358,0.011434,-0.003898,-0.002573,-0.021637,0.000239,0.001602,0.016440,0.092045,0.034725,0.209529,0.209491,0.152881,0.351341,0.000000,0.000000,0.000000,0.000000,0.000000,0.000000,0.000000,0.000000,0.000000,0.000000,0.000000,0.000000,2.116549,3,0
1620000,-0.015725,39.812946,-0.049076,-0.042427,26.024029,-0.019696,0.007167,0.069282,1.568854,-0.101824,0.011519,-0.004189,-0.002613,-0.021842,0.000242,0.001375,0.016298,0.087078,0.026378,0.209738,0.209697,0.152585,0.350064,0.000000,0.000000,0.000000,0.000000,0.000000,0.000000,0.000000,0.000000,0.000000,0.000000,0.000000,0.000000,2.111745,3,0
1630000,-0.015590,40.076134,-0.049625,-0.041855,26.036337,-0.020515,0.007275,0.069988,1.568841,-0.102264,0.011606,-0.004062,-0.002651,-0.022039,0.000244,0.001156,0.016154,0.082153,-0.013240,0.209947,0.209904,0.152292,0.348830,0.000000,0.000000,0.000000,0.000000,0.000000,0.000000,0.000000,0.000000,0.000000,0.000000,0.000000,0.000000,2.106984,3,0
1640000,-0.015448,40.338570,-0.049139,-0.041145,26.047127,-0.020146,0.007392,0.070536,1.568831,-0.102565,0.011689,-0.004366,-0.002690,-0.022175,0.000245,0.000697,0.016012,0.057392,0.027802,0.210157,0.210112,0.152003,0.347633,0.000000,0.000000,0.000000,0.000000,0.000000,0.000000,0.000000,0.000000,0.000000,0.000000,0.000000,0.000000,2.102973,3,0
1650000,-0.015311,40.601677,-0.049941,-0.040610,26.058922,-0.021298,0.007512,0.071201,1.568823,-0.102950,0.011773,-0.004132,-0.002728,-0.022353,0.000248,0.000988,0.015865,0.073151,-0.023088,0.210368,0.210320,0.151719,0.346472,0.000000,0.000000,0.000000,0.000000,0.000000,0.000000,0.000000,0.000000,0.000000,0.000000,0.000000,0.000000,2.098292,3,0
1660000,-0.015165,40.863335,-0.049132,-0.040004,26.068087,-0.020291,0.007630,0.071593,1.568821,-0.103094,0.011851,-0.004572,-0.002767,-0.022420,0.000248,0.000441,0.015721,0.028591,0.040745,0.210578,0.210528,0.151438,0.345349,0.000000,0.000000,0.000000,0.000000,0.000000,0.000000,0.000000,0.000000,0.000000,0.000000,0.000000,0.000000,2.095056,3,0
1670000,-0.015021,41.127064,-0.048690,-0.039493,26.080694,-0.020102,0.007744,0.072322,1.568816,-0.103526,0.011929,-0.004871,-0.002805,-0.022626,0.000251,0.001312,0.015570,0.084904,0.026431,0.210789,0.210737,0.151161,0.344257,0.000000,0.000000,0.000000,0.000000,0.000000,0.000000,0.000000,0.000000,0.000000,0.000000,0.000000,0.000000,2.089753,3,0
1680000,-0.014872,41.390034,-0.047927,-0.038719,26.092009,-0.019328,0.007867,0.072895,1.568809,-0.103824,0.012004,-0.005301,-0.002844,-0.022769,0.000252,0.000855,0.015418,0.059593,0.038909,0.211000,0.210945,0.150887,0.343202,0.000000,0.000000,0.000000,0.000000,0.000000,0.000000,0.000000,0.000000,0.000000,0.000000,0.000000,0.000000,2.085212,3,0
1690000,-0.014724,41.651558,-0.047824,-0.038001,26.100262,-0.019420,0.007974,0.073226,1.568798,-0.103899,0.012080,-0.005434,-0.002882,-0.022806,0.000253,0.000098,0.015262,0.015182,0.012059,0.211211,0.211153,0.150618,0.342176,0.000000,0.000000,0.000000,0.000000,0.000000,0.000000,0.000000,0.000000,0.000000,0.000000,0.000000,0.000000,2.082110,3,0
1700000,-0.014573,41.914452,-0.047204,-0.037496,26.110950,-0.018887,0.008099,0.073766,1.568789,-0.104152,0.012152,-0.005802,-0.002920,-0.022932,0.000254,0.000645,0.015109,0.051758,0.033042,0.211422,0.211361,0.150353,0.341182,0.000000,0.000000,0.000000,0.000000,0.000000,0.000000,0.000000,0.000000,0.000000,0.000000,0.000000,0.000000,2.077642,3,0
1710000,-0.014419,42.173084,-0.046735,-0.036610,26.113443,-0.018469,0.008209,0.073563,1.568802,-0.103797,0.012223,-0.006067,-0.002958,-0.022750,0.000252,0.000979,0.014949,-0.072086,0.025757,0.211632,0.211568,0.150092,0.340216,0.000000,0.000000,0.000000,0.000000,0.000000,0.000000,0.000000,0.000000,0.000000,0.000000,0.000000,0.000000,2.077435,3,0
