time_us,pos_x,pos_y,pos_z,vel_x,vel_y,vel_z,roll,pitch,yaw,bias_ax,bias_ay,bias_az,bias_gx,bias_gy,bias_gz,nis,innov_x,innov_y,innov_z,cov_pos_x,cov_pos_y,cov_pos_z,cov_yaw,des_speed,des_heading,des_climb,pid_speed,pid_yaw,pid_alt,speed_meas,yaw_meas,climb_meas,fwd_accel,yaw_rate,vert_accel,drift_m,nav_mode,mission_state
0,-0.000002,0.149997,-0.000001,-0.000277,24.999592,-0.000296,0.000006,0.000005,1.570803,0.000000,0.000000,0.000000,0.000000,0.000000,0.000000,0.006250,0.000003,-0.249998,0.000003,2.400038,2.400038,3.600017,1.000518,0.000000,0.000000,0.000000,0.000000,0.000000,0.000000,0.000000,0.000000,0.000000,0.000000,0.000000,0.000000,0.149997,1,0
10000,-0.000005,0.359540,0.015762,-0.000596,24.999060,-0.000480,0.000023,0.000009,1.570811,0.000000,0.000000,-0.000000,0.000000,0.000000,0.000000,0.002570,0.000008,-0.141565,0.042047,1.714420,1.714420,2.250079,1.001073,0.000000,0.000000,0.000000,0.000000,0.000000,0.000000,0.000000,0.000000,0.000000,0.000000,0.000000,0.000000,0.101115,3,0
20000,-0.000011,0.593349,0.021346,-0.000871,24.998711,-0.000865,0.000039,0.000013,1.570816,0.000001,0.000000,-0.000000,-0.000000,0.000000,-0.000000,0.000738,0.000014,-0.072799,0.020508,1.333616,1.333616,1.636554,1.001655,0.000000,0.000000,0.000000,0.000000,0.000000,0.000000,0.000000,0.000000,0.000000,0.000000,0.000000,0.000000,0.056618,3,0
30000,-0.000019,0.849035,0.018611,-0.001167,24.998693,-0.001265,0.000057,0.000022,1.570826,0.000001,0.000000,-0.000000,-0.000000,-0.000000,0.000000,0.000155,0.000023,0.031338,-0.012702,1.091392,1.091392,1.286065,1.002257,0.000000,0.000000,0.000000,0.000000,0.000000,0.000000,0.000000,0.000000,0.000000,0.000000,0.000000,0.000000,0.025638,3,0
40000,-0.000029,1.101205,0.030164,-0.001565,24.998474,-0.001138,0.000067,0.000014,1.570843,0.000000,0.000000,-0.000002,-0.000000,-0.000000,0.000000,0.000617,0.000034,0.014200,0.065509,0.923811,0.923811,1.059385,1.002869,0.000000,0.000000,0.000000,0.000000,0.000000,0.000000,0.000000,0.000000,0.000000,0.000000,0.000000,0.000000,0.012014,3,0
50000,-0.000042,1.345958,0.030348,-0.001921,24.998104,-0.001501,0.000080,0.000017,1.570846,0.000002,0.000000,-0.000002,-0.000000,0.000000,-0.000000,0.000222,0.000048,-0.039180,0.001325,0.801036,0.801036,0.900822,1.003484,0.000000,0.000000,0.000000,0.000000,0.000000,0.000000,0.000000,0.000000,0.000000,0.000000,0.000000,0.000000,0.033949,3,0
60000,-0.000057,1.592930,0.028863,-0.002297,24.997707,-0.001995,0.000089,0.000014,1.570866,0.000003,0.000000,-0.000001,-0.000000,0.000000,-0.000000,0.000114,0.000065,-0.025502,-0.011221,0.707270,0.707270,0.783741,1.004094,0.000000,0.000000,0.000000,0.000000,0.000000,0.000000,0.000000,0.000000,0.000000,0.000000,0.000000,0.000000,0.022496,3,0
70000,-0.000075,1.847718,0.029793,-0.002690,24.997784,-0.002039,0.000109,0.000016,1.570877,-0.000000,0.000000,-0.000002,-0.000000,-0.000000,0.000000,0.000320,0.000084,0.045592,0.008228,0.633370,0.633370,0.693801,1.004688,0.000000,0.000000,0.000000,0.000000,0.000000,0.000000,0.000000,0.000000,0.000000,0.000000,0.000000,0.000000,0.040779,3,0
80000,-0.000094,2.092897,0.031881,-0.002933,24.997162,-0.002064,0.000122,0.000024,1.570888,0.000005,0.000000,-0.000004,-0.000000,0.000000,-0.000000,0.000441,0.000104,-0.050165,0.020330,0.573673,0.573673,0.622594,1.005260,0.000000,0.000000,0.000000,0.000000,0.000000,0.000000,0.000000,0.000000,0.000000,0.000000,0.000000,0.000000,0.045369,3,0
90000,-0.000116,2.351803,0.032036,-0.003303,24.997799,-0.002403,0.000144,0.000030,1.570899,-0.000008,0.000000,-0.000004,-0.000000,-0.000000,0.000000,0.001590,0.000128,0.102241,0.001908,0.524488,0.524488,0.564865,1.005801,0.000000,0.000000,0.000000,0.000000,0.000000,0.000000,0.000000,0.000000,0.000000,0.000000,0.000000,0.000000,0.093304,3,0
100000,-0.000140,2.603570,0.035693,-0.003553,24.997723,-0.002501,0.000153,0.000025,1.570914,-0.000012,0.000000,-0.000011,-0.000000,-0.000000,0.000000,0.000354,0.000152,0.022238,0.042762,0.483303,0.483303,0.517162,1.006301,0.000000,0.000000,0.000000,0.000000,0.000000,0.000000,0.000000,0.000000,0.000000,0.000000,0.000000,0.000000,0.020448,3,0
110000,-0.000165,2.858675,0.039580,-0.003883,24.998159,-0.002348,0.000168,0.000037,1.570921,-0.000024,0.000000,-0.000019,-0.000000,-0.000000,0.000000,0.001099,0.000179,0.068656,0.049239,0.448353,0.448353,0.477121,1.006754,0.000000,0.000000,0.000000,0.000000,0.000000,0.000000,0.000000,0.000000,0.000000,0.000000,0.000000,0.000000,0.063526,3,0
120000,-0.000193,3.113672,0.038404,-0.004271,24.998703,-0.002625,0.000193,0.000050,1.570941,-0.000040,0.000000,-0.000016,-0.000000,-0.000001,0.000000,0.000841,0.000208,0.071973,-0.015601,0.418358,0.418358,0.443071,1.007150,0.000000,0.000000,0.000000,0.000000,0.000000,0.000000,0.000000,0.000000,0.000000,0.000000,0.000000,0.000000,0.066955,3,0
130000,-0.000224,3.362087,0.036544,-0.004579,24.998175,-0.003062,0.000206,0.000056,1.570958,-0.000034,0.000000,-0.000009,-0.000000,-0.000000,0.000000,0.000199,0.000239,-0.023999,-0.026572,0.392369,0.392369,0.413797,1.007481,0.000000,0.000000,0.000000,0.000000,0.000000,0.000000,0.000000,0.000000,0.000000,0.000000,0.000000,0.000000,0.022430,3,0
140000,-0.000255,3.619779,0.039389,-0.004850,24.999567,-0.002702,0.000228,0.000057,1.570967,-0.000071,0.000000,-0.000022,-0.000000,-0.000001,0.000000,0.002758,0.000272,0.125170,0.044458,0.369666,0.369666,0.388393,1.007739,0.000000,0.000000,0.000000,0.000000,0.000000,0.000000,0.000000,0.000000,0.000000,0.000000,0.000000,0.000000,0.117458,3,0
150000,-0.000288,3.872475,0.041489,-0.005055,24.999943,-0.002400,0.000250,0.000063,1.570978,-0.000087,0.000000,-0.000034,-0.000000,-0.000002,0.000000,0.000528,0.000306,0.046375,0.034871,0.349695,0.349695,0.366172,1.007915,0.000000,0.000000,0.000000,0.000000,0.000000,0.000000,0.000000,0.000000,0.000000,0.000000,0.000000,0.000000,0.043673,3,0
160000,-0.000322,4.125354,0.039882,-0.005300,25.000443,-0.002999,0.000265,0.000076,1.570983,-0.000106,0.000001,-0.000024,-0.000000,-0.000002,0.000000,0.000545,0.000341,0.052101,-0.027354,0.332020,0.332020,0.346600,1.008002,0.000000,0.000000,0.000000,0.000000,0.000000,0.000000,0.000000,0.000000,0.000000,0.000000,0.000000,0.000000,0.049219,3,0
170000,-0.000359,4.378395,0.039540,-0.005613,25.001154,-0.003353,0.000286,0.000075,1.571003,-0.000131,0.000001,-0.000021,-0.000000,-0.000003,0.000000,0.000530,0.000378,0.057642,-0.005641,0.316297,0.316297,0.329260,1.007991,0.000000,0.000000,0.000000,0.000000,0.000000,0.000000,0.000000,0.000000,0.000000,0.000000,0.000000,0.000000,0.054604,3,0
180000,-0.000397,4.632582,0.039877,-0.005899,25.002394,-0.003339,0.000308,0.000097,1.571018,-0.000171,0.000001,-0.000024,-0.000000,-0.000004,0.000000,0.001096,0.000418,0.082898,0.007102,0.302246,0.302246,0.313817,1.007875,0.000000,0.000000,0.000000,0.000000,0.000000,0.000000,0.000000,0.000000,0.000000,0.000000,0.000000,0.000000,0.078723,3,0
190000,-0.000437,4.889688,0.039274,-0.006239,25.004684,-0.003658,0.000322,0.000125,1.571033,-0.000248,0.000001,-0.000019,-0.000000,-0.000006,0.000000,0.003437,0.000459,0.146763,-0.011363,0.289641,0.289641,0.300003,1.007645,0.000000,0.000000,0.000000,0.000000,0.000000,0.000000,0.000000,0.000000,0.000000,0.000000,0.000000,0.000000,0.139679,3,0
200000,-0.000479,5.144756,0.038220,-0.006506,25.006382,-0.004487,0.000340,0.000138,1.571040,-0.000311,0.000001,-0.000006,-0.000000,-0.000007,0.000000,0.001935,0.000502,0.108302,-0.021141,0.278295,0.278295,0.287598,1.007295,0.000000,0.000000,0.000000,0.000000,0.000000,0.000000,0.000000,0.000000,0.000000,0.000000,0.000000,0.000000,0.103279,3,0
210000,-0.000522,5.398029,0.038084,-0.006745,25.007545,-0.004923,0.000357,0.000151,1.571046,-0.000357,0.000002,-0.000005,-0.000000,-0.000009,0.000000,0.000823,0.000546,0.071885,-0.001871,0.268053,0.268053,0.276421,1.006816,0.000000,0.000000,0.000000,0.000000,0.000000,0.000000,0.000000,0.000000,0.000000,0.000000,0.000000,0.000000,0.068675,3,0
220000,-0.000567,5.651424,0.037894,-0.007102,25.008831,-0.005188,0.000378,0.000161,1.571060,-0.000411,0.000002,-0.000003,-0.000000,-0.000010,0.000000,0.000948,0.000593,0.077026,-0.003142,0.258786,0.258786,0.266321,1.006202,0.000000,0.000000,0.000000,0.000000,0.000000,0.000000,0.000000,0.000000,0.000000,0.000000,0.000000,0.000000,0.073706,3,0
230000,-0.000614,5.908253,0.038117,-0.007323,25.012083,-0.005285,0.000403,0.000205,1.571065,-0.000534,0.000003,-0.000008,-0.000000,-0.000014,0.000000,0.004175,0.000641,0.161559,0.006472,0.250385,0.250385,0.257172,1.005446,0.000000,0.000000,0.000000,0.000000,0.000000,0.000000,0.000000,0.000000,0.000000,0.000000,0.000000,0.000000,0.154818,3,0
240000,-0.000663,6.160951,0.037744,-0.007653,25.013317,-0.005783,0.000416,0.000217,1.571076,-0.000587,0.000003,-0.000002,-0.000000,-0.000016,0.000000,0.000659,0.000691,0.063729,-0.007639,0.242755,0.242755,0.248866,1.004541,0.000000,0.000000,0.000000,0.000000,0.000000,0.000000,0.000000,0.000000,0.000000,0.000000,0.000000,0.000000,0.061154,3,0
250000,-0.000713,6.417717,0.039543,-0.007884,25.016846,-0.005102,0.000440,0.000258,1.571081,-0.000737,0.000004,-0.000042,-0.000000,-0.000021,0.000000,0.004906,0.000742,0.168840,0.046236,0.235817,0.235817,0.241314,1.003481,0.000000,0.000000,0.000000,0.000000,0.000000,0.000000,0.000000,0.000000,0.000000,0.000000,0.000000,0.000000,0.162205,3,0
260000,-0.000764,6.674404,0.040056,-0.008138,25.020603,-0.004877,0.000462,0.000304,1.571088,-0.000901,0.000005,-0.000056,-0.000000,-0.000027,0.000000,0.004691,0.000794,0.170464,0.014470,0.229503,0.229503,0.234436,1.002258,0.000000,0.000000,0.000000,0.000000,0.000000,0.000000,0.000000,0.000000,0.000000,0.000000,0.000000,0.000000,0.163945,3,0
270000,-0.000817,6.928804,0.041422,-0.008456,25.023079,-0.004142,0.000484,0.000335,1.571098,-0.001017,0.000006,-0.000094,-0.000000,-0.000032,0.000000,0.002254,0.000849,0.112528,0.037235,0.223753,0.223753,0.228165,1.000869,0.000000,0.000000,0.000000,0.000000,0.000000,0.000000,0.000000,0.000000,0.000000,0.000000,0.000000,0.000000,0.108335,3,0
280000,-0.000872,7.186173,0.042098,-0.008758,25.027784,-0.003876,0.000500,0.000404,1.571109,-0.001233,0.000007,-0.000115,-0.000000,-0.000040,0.000000,0.006233,0.000905,0.196044,0.019385,0.218515,0.218515,0.222443,0.999307,0.000000,0.000000,0.000000,0.000000,0.000000,0.000000,0.000000,0.000000,0.000000,0.000000,0.000000,0.000000,0.188907,3,0
290000,-0.000927,7.443470,0.041183,-0.008946,25.032753,-0.004665,0.000513,0.000473,1.571114,-0.001466,0.000008,-0.000087,-0.000000,-0.000050,0.000000,0.006335,0.000961,0.197055,-0.024132,0.213743,0.213743,0.217219,0.997567,0.000000,0.000000,0.000000,0.000000,0.000000,0.000000,0.000000,0.000000,0.000000,0.000000,0.000000,0.000000,0.190037,3,0
300000,-0.000984,7.698629,0.039918,-0.009202,25.036320,-0.005792,0.000534,0.000524,1.571130,-0.001640,0.000009,-0.000044,-0.000000,-0.000057,0.000000,0.003275,0.001020,0.138497,-0.034340,0.209397,0.209397,0.212446,0.995645,0.000000,0.000000,0.000000,0.000000,0.000000,0.000000,0.000000,0.000000,0.000000,0.000000,0.000000,0.000000,0.133667,3,0
310000,-0.001042,7.953164,0.038534,-0.009420,25.039604,-0.007019,0.000557,0.000586,1.571132,-0.001802,0.000011,0.000006,-0.000000,-0.000065,0.000000,0.002624,0.001078,0.121848,-0.038177,0.205442,0.205442,0.208087,0.993536,0.000000,0.000000,0.000000,0.000000,0.000000,0.000000,0.000000,0.000000,0.000000,0.000000,0.000000,0.000000,0.117680,3,0
320000,-0.001100,8.209125,0.037969,-0.009610,25.044107,-0.007840,0.000576,0.000666,1.571137,-0.002036,0.000012,0.000026,-0.000000,-0.000075,0.000000,0.004443,0.001138,0.165465,-0.014400,0.201846,0.201846,0.204105,0.991236,0.000000,0.000000,0.000000,0.000000,0.000000,0.000000,0.000000,0.000000,0.000000,0.000000,0.000000,0.000000,0.159903,3,0
330000,-0.001158,8.465119,0.039149,-0.009771,25.048815,-0.007077,0.000589,0.000743,1.571146,-0.002288,0.000014,-0.000030,-0.000001,-0.000087,0.000000,0.004772,0.001198,0.167886,0.037738,0.198580,0.198580,0.200469,0.988743,0.000000,0.000000,0.000000,0.000000,0.000000,0.000000,0.000000,0.000000,0.000000,0.000000,0.000000,0.000000,0.162334,3,0
340000,-0.001217,8.719862,0.039520,-0.009934,25.052662,-0.006802,0.000604,0.000802,1.571153,-0.002494,0.000016,-0.000051,-0.000001,-0.000097,0.000000,0.002776,0.001258,0.130511,0.013475,0.195620,0.195620,0.197151,0.986053,0.000000,0.000000,0.000000,0.000000,0.000000,0.000000,0.000000,0.000000,0.000000,0.000000,0.000000,0.000000,0.126262,3,0
350000,-0.001276,8.977260,0.040306,-0.010089,25.059267,-0.006504,0.000626,0.000916,1.571173,-0.002851,0.000018,-0.000095,-0.000001,-0.000115,0.000000,0.007478,0.001318,0.213671,0.026519,0.192942,0.192942,0.194125,0.983163,0.000000,0.000000,0.000000,0.000000,0.000000,0.000000,0.000000,0.000000,0.000000,0.000000,0.000000,0.000000,0.206803,3,0
360000,-0.001336,9.232774,0.038851,-0.010317,25.064157,-0.008038,0.000639,0.001009,1.571180,-0.003123,0.000021,-0.000019,-0.000001,-0.000129,0.000000,0.004182,0.001379,0.154996,-0.043493,0.190525,0.190525,0.191370,0.980072,0.000000,0.000000,0.000000,0.000000,0.000000,0.000000,0.000000,0.000000,0.000000,0.000000,0.000000,0.000000,0.150080,3,0
370000,-0.001396,9.490241,0.039706,-0.010475,25.071077,-0.007586,0.000658,0.001144,1.571199,-0.003524,0.000023,-0.000074,-0.000001,-0.000151,0.000000,0.007781,0.001441,0.217497,0.029865,0.188351,0.188351,0.188863,0.976778,0.000000,0.000000,0.000000,0.000000,0.000000,0.000000,0.000000,0.000000,0.000000,0.000000,0.000000,0.000000,0.210674,3,0
380000,-0.001456,9.745266,0.039506,-0.010617,25.075703,-0.008050,0.000681,0.001239,1.571218,-0.003792,0.000026,-0.000067,-0.000001,-0.000166,0.000001,0.003117,0.001502,0.138869,-0.003905,0.186401,0.186401,0.186586,0.973281,0.000000,0.000000,0.000000,0.000000,0.000000,0.000000,0.000000,0.000000,0.000000,0.000000,0.000000,0.000000,0.134563,3,0
390000,-0.001517,10.000400,0.040079,-0.010886,25.080477,-0.007811,0.000707,0.001333,1.571221,-0.004080,0.000030,-0.000110,-0.000001,-0.000182,0.000001,0.003342,0.001565,0.142225,0.021400,0.184662,0.184662,0.184522,0.969579,0.000000,0.000000,0.000000,0.000000,0.000000,0.000000,0.000000,0.000000,0.000000,0.000000,0.000000,0.000000,0.137856,3,0
400000,-0.001579,10.256250,0.040307,-0.011117,25.086241,-0.007745,0.000717,0.001446,1.571238,-0.004430,0.000033,-0.000131,-0.000002,-0.000202,0.000001,0.004435,0.001628,0.165348,0.010134,0.183117,0.183117,0.182656,0.965674,0.000000,0.000000,0.000000,0.000000,0.000000,0.000000,0.000000,0.000000,0.000000,0.000000,0.000000,0.000000,0.160310,3,0
410000,-0.001642,10.512197,0.040576,-0.011344,25.092226,-0.007634,0.000732,0.001573,1.571242,-0.004801,0.000037,-0.000157,-0.000002,-0.000224,0.000001,0.004576,0.001693,0.167866,0.011573,0.181753,0.181753,0.180971,0.961565,0.000000,0.000000,0.000000,0.000000,0.000000,0.000000,0.000000,0.000000,0.000000,0.000000,0.000000,0.000000,0.162789,3,0
420000,-0.001704,10.765252,0.039528,-0.011466,25.094723,-0.009072,0.000740,0.001626,1.571254,-0.004965,0.000041,-0.000082,-0.000002,-0.000234,0.000001,0.000982,0.001757,0.070890,-0.032353,0.180559,0.180559,0.179456,0.957254,0.000000,0.000000,0.000000,0.000000,0.000000,0.000000,0.000000,0.000000,0.000000,0.000000,0.000000,0.000000,0.068778,3,0
430000,-0.001767,11.022049,0.038425,-0.011658,25.101952,-0.010423,0.000752,0.001786,1.571265,-0.005434,0.000046,-0.000001,-0.000002,-0.000264,0.000001,0.006368,0.001821,0.195509,-0.034067,0.179522,0.179522,0.178097,0.952742,0.000000,0.000000,0.000000,0.000000,0.000000,0.000000,0.000000,0.000000,0.000000,0.000000,0.000000,0.000000,0.189667,3,0
440000,-0.001830,11.277752,0.038737,-0.011912,25.107944,-0.010394,0.000765,0.001923,1.571266,-0.005826,0.000050,-0.000036,-0.000003,-0.000289,0.000001,0.004035,0.001887,0.157309,0.014274,0.178631,0.178631,0.176883,0.948031,0.000000,0.000000,0.000000,0.000000,0.000000,0.000000,0.000000,0.000000,0.000000,0.000000,0.000000,0.000000,0.152636,3,0
450000,-0.001894,11.531217,0.039582,-0.012095,25.111120,-0.009686,0.000784,0.001995,1.571280,-0.006034,0.000055,-0.000121,-0.000003,-0.000303,0.000001,0.001219,0.001952,0.080456,0.032525,0.177876,0.177876,0.175803,0.943125,0.000000,0.000000,0.000000,0.000000,0.000000,0.000000,0.000000,0.000000,0.000000,0.000000,0.000000,0.000000,0.078094,3,0
460000,-0.001958,11.787786,0.039341,-0.012274,25.118393,-0.010334,0.000800,0.002163,1.571288,-0.006531,0.000061,-0.000108,-0.000003,-0.000336,0.000001,0.005527,0.002018,0.184779,-0.004782,0.177249,0.177249,0.174847,0.938026,0.000000,0.000000,0.000000,0.000000,0.000000,0.000000,0.000000,0.000000,0.000000,0.000000,0.000000,0.000000,0.179331,3,0
470000,-0.002022,12.046224,0.039640,-0.012436,25.128399,-0.010113,0.000815,0.002399,1.571297,-0.007216,0.000067,-0.000147,-0.000004,-0.000384,0.000001,0.009837,0.002083,0.246199,0.013955,0.176740,0.176740,0.174006,0.932737,0.000000,0.000000,0.000000,0.000000,0.000000,0.000000,0.000000,0.000000,0.000000,0.000000,0.000000,0.000000,0.238955,3,0
480000,-0.002086,12.301821,0.038694,-0.012623,25.134546,-0.011603,0.000822,0.002541,1.571297,-0.007639,0.000073,-0.000063,-0.000004,-0.000413,0.000001,0.003619,0.002149,0.146693,-0.029113,0.176340,0.176340,0.173271,0.927264,0.000000,0.000000,0.000000,0.000000,0.000000,0.000000,0.000000,0.000000,0.000000,0.000000,0.000000,0.000000,0.142397,3,0
490000,-0.002149,12.558718,0.038957,-0.012689,25.142462,-0.011528,0.000842,0.002736,1.571302,-0.008202,0.000080,-0.000103,-0.000005,-0.000454,0.000001,0.005822,0.002214,0.189219,0.013313,0.176042,0.176042,0.172634,0.921610,0.000000,0.000000,0.000000,0.000000,0.000000,0.000000,0.000000,0.000000,0.000000,0.000000,0.000000,0.000000,0.183681,3,0
500000,-0.002211,12.815148,0.039264,-0.012759,25.149775,-0.011118,0.000850,0.002927,1.571321,-0.008727,0.000087,-0.000149,-0.000005,-0.000493,0.000002,0.004755,0.002277,0.170789,0.014785,0.175839,0.175839,0.172087,0.915781,0.000000,0.000000,0.000000,0.000000,0.000000,0.000000,0.000000,0.000000,0.000000,0.000000,0.000000,0.000000,0.165799,3,0
510000,-0.002273,13.069377,0.040229,-0.012956,25.153872,-0.009867,0.000865,0.003024,1.571324,-0.009023,0.000094,-0.000269,-0.000006,-0.000515,0.000002,0.001636,0.002341,0.093195,0.037677,0.175722,0.175722,0.171622,0.909782,0.000000,0.000000,0.000000,0.000000,0.000000,0.000000,0.000000,0.000000,0.000000,0.000000,0.000000,0.000000,0.090494,3,0
520000,-0.002334,13.325514,0.039717,-0.013100,25.160816,-0.010704,0.000884,0.003211,1.571329,-0.009536,0.000102,-0.000222,-0.000006,-0.000555,0.000002,0.004022,0.002405,0.156988,-0.014412,0.175687,0.175687,0.171234,0.903618,0.000000,0.000000,0.000000,0.000000,0.000000,0.000000,0.000000,0.000000,0.000000,0.000000,0.000000,0.000000,0.152409,3,0
530000,-0.002395,13.583534,0.039582,-0.013176,25.170704,-0.011137,0.000906,0.003474,1.571346,-0.010272,0.000111,-0.000219,-0.000007,-0.000613,0.000002,0.007749,0.002467,0.218843,-0.000850,0.175726,0.175726,0.170914,0.897296,0.000000,0.000000,0.000000,0.000000,0.000000,0.000000,0.000000,0.000000,0.000000,0.000000,0.000000,0.000000,0.212447,3,0
540000,-0.002456,13.839336,0.039652,-0.013394,25.177212,-0.011117,0.000926,0.003655,1.571360,-0.010756,0.000120,-0.000242,-0.000008,-0.000652,0.000002,0.003162,0.002530,0.139633,0.006454,0.175833,0.175833,0.170658,0.890822,0.000000,0.000000,0.000000,0.000000,0.000000,0.000000,0.000000,0.000000,0.000000,0.000000,0.000000,0.000000,0.135563,3,0
550000,-0.002515,14.094698,0.040222,-0.013463,25.182953,-0.010638,0.000937,0.003820,1.571376,-0.011191,0.000129,-0.000329,-0.000009,-0.000688,0.000002,0.002516,0.002592,0.122315,0.024131,0.176003,0.176003,0.170460,0.884203,0.000000,0.000000,0.000000,0.000000,0.000000,0.000000,0.000000,0.000000,0.000000,0.000000,0.000000,0.000000,0.118754,3,0
560000,-0.002574,14.351379,0.040424,-0.013556,25.190887,-0.010332,0.000959,0.004035,1.571393,-0.011794,0.000139,-0.000370,-0.000009,-0.000739,0.000002,0.004429,0.002652,0.165078,0.010897,0.176230,0.176230,0.170314,0.877445,0.000000,0.000000,0.000000,0.000000,0.000000,0.000000,0.000000,0.000000,0.000000,0.000000,0.000000,0.000000,0.160250,3,0
570000,-0.002632,14.609950,0.040612,-0.013632,25.201670,-0.010325,0.000978,0.004339,1.571397,-0.012642,0.000149,-0.000410,-0.000010,-0.000811,0.000002,0.008309,0.002712,0.226381,0.010418,0.176509,0.176510,0.170214,0.870557,0.000000,0.000000,0.000000,0.000000,0.000000,0.000000,0.000000,0.000000,0.000000,0.000000,0.000000,0.000000,0.219738,3,0
580000,-0.002689,14.865706,0.041111,-0.013689,25.208035,-0.009693,0.001000,0.004525,1.571413,-0.013129,0.000160,-0.000493,-0.000011,-0.000854,0.000003,0.002673,0.002770,0.126732,0.021294,0.176836,0.176836,0.170157,0.863546,0.000000,0.000000,0.000000,0.000000,0.000000,0.000000,0.000000,0.000000,0.000000,0.000000,0.000000,0.000000,0.123026,3,0
590000,-0.002744,15.122198,0.042221,-0.013761,25.215553,-0.008183,0.001021,0.004752,1.571422,-0.013716,0.000171,-0.000664,-0.000012,-0.000906,0.000003,0.003897,0.002828,0.149218,0.042648,0.177205,0.177206,0.170138,0.856418,0.000000,0.000000,0.000000,0.000000,0.000000,0.000000,0.000000,0.000000,0.000000,0.000000,0.000000,0.000000,0.144837,3,0
600000,-0.002798,15.378242,0.041737,-0.013761,25.222301,-0.008885,0.001049,0.004960,1.571434,-0.014244,0.000183,-0.000606,-0.000013,-0.000954,0.000003,0.002818,0.002883,0.131197,-0.014156,0.177613,0.177613,0.170152,0.849183,0.000000,0.000000,0.000000,0.000000,0.000000,0.000000,0.000000,0.000000,0.000000,0.000000,0.000000,0.000000,0.127344,3,0
610000,-0.002850,15.634432,0.042810,-0.013850,25.229244,-0.007309,0.001061,0.005167,1.571446,-0.014794,0.000195,-0.000778,-0.000015,-0.001005,0.000003,0.003156,0.002938,0.133512,0.041009,0.178055,0.178055,0.170195,0.841848,0.000000,0.000000,0.000000,0.000000,0.000000,0.000000,0.000000,0.000000,0.000000,0.000000,0.000000,0.000000,0.129580,3,0
620000,-0.002902,15.892541,0.042647,-0.013908,25.239363,-0.007861,0.001078,0.005481,1.571446,-0.015615,0.000208,-0.000766,-0.000016,-0.001083,0.000003,0.006172,0.002991,0.195313,-0.003041,0.178527,0.178527,0.170264,0.834421,0.000000,0.000000,0.000000,0.000000,0.000000,0.000000,0.000000,0.000000,0.000000,0.000000,0.000000,0.000000,0.189524,3,0
630000,-0.002952,16.150181,0.043032,-0.013964,25.248598,-0.007465,0.001089,0.005779,1.571463,-0.016370,0.000221,-0.000838,-0.000017,-0.001156,0.000003,0.005034,0.003043,0.175650,0.016403,0.179026,0.179026,0.170355,0.826910,0.000000,0.000000,0.000000,0.000000,0.000000,0.000000,0.000000,0.000000,0.000000,0.000000,0.000000,0.000000,0.170434,3,0
640000,-0.003001,16.410923,0.042666,-0.013970,25.262836,-0.008150,0.001112,0.006241,1.571473,-0.017578,0.000235,-0.000793,-0.000018,-0.001274,0.000004,0.012311,0.003093,0.275738,-0.010175,0.179548,0.179548,0.170465,0.819323,0.000000,0.000000,0.000000,0.000000,0.000000,0.000000,0.000000,0.000000,0.000000,0.000000,0.000000,0.000000,0.267503,3,0
650000,-0.003048,16.668776,0.041341,-0.013963,25.272112,-0.010194,0.001129,0.006547,1.571476,-0.018355,0.000249,-0.000594,-0.000020,-0.001352,0.000004,0.005199,0.003142,0.173885,-0.043688,0.180089,0.180090,0.170591,0.811669,0.000000,0.000000,0.000000,0.000000,0.000000,0.000000,0.000000,0.000000,0.000000,0.000000,0.000000,0.000000,0.168694,3,0
660000,-0.003093,16.929148,0.041733,-0.014001,25.285690,-0.009835,0.001156,0.006994,1.571486,-0.019511,0.000264,-0.000676,-0.000021,-0.001470,0.000004,0.010470,0.003190,0.253881,0.017469,0.180648,0.180648,0.170729,0.803955,0.000000,0.000000,0.000000,0.000000,0.000000,0.000000,0.000000,0.000000,0.000000,0.000000,0.000000,0.000000,0.246256,3,0
670000,-0.003137,17.188417,0.041891,-0.014015,25.297306,-0.009852,0.001188,0.007373,1.571487,-0.020494,0.000279,-0.000721,-0.000023,-0.001571,0.000005,0.007282,0.003235,0.212040,0.009140,0.181220,0.181220,0.170877,0.796189,0.000000,0.000000,0.000000,0.000000,0.000000,0.000000,0.000000,0.000000,0.000000,0.000000,0.000000,0.000000,0.205659,3,0
680000,-0.003180,17.444780,0.042593,-0.013998,25.303776,-0.008867,0.001211,0.007599,1.571500,-0.021021,0.000295,-0.000858,-0.000025,-0.001627,0.000005,0.002146,0.003279,0.111687,0.028160,0.181803,0.181803,0.171032,0.788380,0.000000,0.000000,0.000000,0.000000,0.000000,0.000000,0.000000,0.000000,0.000000,0.000000,0.000000,0.000000,0.108350,3,0
690000,-0.003221,17.704906,0.042943,-0.014076,25.316549,-0.008652,0.001227,0.008050,1.571503,-0.022139,0.000311,-0.000937,-0.000026,-0.001747,0.000005,0.008811,0.003322,0.232958,0.015518,0.182395,0.182395,0.171193,0.780536,0.000000,0.000000,0.000000,0.000000,0.000000,0.000000,0.000000,0.000000,0.000000,0.000000,0.000000,0.000000,0.225899,3,0
700000,-0.003262,17.964523,0.043584,-0.014179,25.328379,-0.007737,0.001241,0.008473,1.571515,-0.023169,0.000328,-0.001067,-0.000028,-0.001860,0.000006,0.007318,0.003365,0.211248,0.025512,0.182993,0.182993,0.171357,0.772664,0.000000,0.000000,0.000000,0.000000,0.000000,0.000000,0.000000,0.000000,0.000000,0.000000,0.000000,0.000000,0.204831,3,0
710000,-0.003301,18.224848,0.043160,-0.014162,25.341307,-0.008509,0.001264,0.008936,1.571518,-0.024308,0.000345,-0.001006,-0.000030,-0.001986,0.000006,0.008559,0.003405,0.229820,-0.012065,0.183594,0.183595,0.171521,0.764773,0.000000,0.000000,0.000000,0.000000,0.000000,0.000000,0.000000,0.000000,0.000000,0.000000,0.000000,0.000000,0.222812,3,0
720000,-0.003339,18.484652,0.042145,-0.014188,25.353296,-0.010072,0.001284,0.009367,1.571527,-0.025354,0.000363,-0.000837,-0.000032,-0.002105,0.000006,0.007156,0.003445,0.207912,-0.032422,0.184198,0.184198,0.171685,0.756868,0.000000,0.000000,0.000000,0.000000,0.000000,0.000000,0.000000,0.000000,0.000000,0.000000,0.000000,0.000000,0.201558,3,0
730000,-0.003376,18.742102,0.041500,-0.014205,25.361027,-0.010999,0.001305,0.009636,1.571543,-0.026001,0.000381,-0.000737,-0.000034,-0.002179,0.000006,0.002661,0.003483,0.126898,-0.018974,0.184802,0.184802,0.171846,0.748959,0.000000,0.000000,0.000000,0.000000,0.000000,0.000000,0.000000,0.000000,0.000000,0.000000,0.000000,0.000000,0.123036,3,0
740000,-0.003411,18.999670,0.041552,-0.014190,25.368898,-0.011203,0.001334,0.009912,1.571562,-0.026663,0.000399,-0.000769,-0.000036,-0.002257,0.000007,0.002645,0.003520,0.127796,0.005794,0.185404,0.185404,0.172003,0.741051,0.000000,0.000000,0.000000,0.000000,0.000000,0.000000,0.000000,0.000000,0.000000,0.000000,0.000000,0.000000,0.123895,3,0
750000,-0.003444,19.260437,0.042506,-0.014152,25.382277,-0.009784,0.001352,0.010404,1.571572,-0.027858,0.000418,-0.000975,-0.000038,-0.002399,0.000007,0.008619,0.003555,0.227968,0.037218,0.186003,0.186003,0.172154,0.733153,0.000000,0.000000,0.000000,0.000000,0.000000,0.000000,0.000000,0.000000,0.000000,0.000000,0.000000,0.000000,0.220928,3,0
760000,-0.003476,19.519428,0.043638,-0.014146,25.392387,-0.008327,0.001381,0.010779,1.571572,-0.028739,0.000437,-0.001216,-0.000041,-0.002506,0.000007,0.004743,0.003588,0.165857,0.042938,0.186597,0.186597,0.172299,0.725269,0.000000,0.000000,0.000000,0.000000,0.000000,0.000000,0.000000,0.000000,0.000000,0.000000,0.000000,0.000000,0.160737,3,0
770000,-0.003506,19.779137,0.042236,-0.014088,25.403580,-0.010573,0.001405,0.011217,1.571575,-0.029735,0.000457,-0.000958,-0.000043,-0.002629,0.000008,0.005872,0.003619,0.185070,-0.045798,0.187184,0.187185,0.172435,0.717408,0.000000,0.000000,0.000000,0.000000,0.000000,0.000000,0.000000,0.000000,0.000000,0.000000,0.000000,0.000000,0.179331,3,0
780000,-0.003535,20.040798,0.043408,-0.014133,25.418007,-0.008863,0.001440,0.011789,1.571583,-0.031060,0.000478,-0.001216,-0.000046,-0.002795,0.000008,0.009880,0.003649,0.243311,0.044477,0.187765,0.187765,0.172562,0.709576,0.000000,0.000000,0.000000,0.000000,0.000000,0.000000,0.000000,0.000000,0.000000,0.000000,0.000000,0.000000,0.235723,3,0
790000,-0.003562,20.298155,0.043897,-0.014079,25.424849,-0.008278,0.001463,0.012055,1.571589,-0.031615,0.000498,-0.001335,-0.000048,-0.002866,0.000008,0.001708,0.003678,0.100777,0.020190,0.188337,0.188338,0.172680,0.701777,0.000000,0.000000,0.000000,0.000000,0.000000,0.000000,0.000000,0.000000,0.000000,0.000000,0.000000,0.000000,0.097677,3,0
800000,-0.003589,20.556871,0.042937,-0.014115,25.433981,-0.009741,0.001484,0.012405,1.571603,-0.032403,0.000519,-0.001156,-0.000051,-0.002968,0.000009,0.003385,0.003705,0.141537,-0.030403,0.188900,0.188901,0.172786,0.694019,0.000000,0.000000,0.000000,0.000000,0.000000,0.000000,0.000000,0.000000,0.000000,0.000000,0.000000,0.000000,0.137128,3,0
810000,-0.003615,20.819447,0.041550,-0.014132,25.449686,-0.011754,0.001503,0.013056,1.571609,-0.033870,0.000541,-0.000890,-0.000054,-0.003161,0.000009,0.011273,0.003732,0.260427,-0.044743,0.189453,0.189453,0.172881,0.686307,0.000000,0.000000,0.000000,0.000000,0.000000,0.000000,0.000000,0.000000,0.000000,0.000000,0.000000,0.000000,0.252231,3,0
820000,-0.003639,21.081438,0.040292,-0.014122,25.464285,-0.013914,0.001521,0.013659,1.571624,-0.035213,0.000563,-0.000653,-0.000057,-0.003341,0.000010,0.009260,0.003758,0.236240,-0.039372,0.189995,0.189996,0.172964,0.678646,0.000000,0.000000,0.000000,0.000000,0.000000,0.000000,0.000000,0.000000,0.000000,0.000000,0.000000,0.000000,0.228789,3,0
830000,-0.003662,21.342216,0.039893,-0.014081,25.476530,-0.014624,0.001556,0.014159,1.571628,-0.036321,0.000585,-0.000600,-0.000060,-0.003491,0.000010,0.006012,0.003782,0.192772,-0.008925,0.190526,0.190526,0.173034,0.671040,0.000000,0.000000,0.000000,0.000000,0.000000,0.000000,0.000000,0.000000,0.000000,0.000000,0.000000,0.000000,0.186687,3,0
840000,-0.003684,21.601789,0.039174,-0.014037,25.486410,-0.015920,0.001586,0.014560,1.571627,-0.037193,0.000607,-0.000479,-0.000063,-0.003612,0.000011,0.003722,0.003805,0.150537,-0.019659,0.191045,0.191045,0.173091,0.663495,0.000000,0.000000,0.000000,0.000000,0.000000,0.000000,0.000000,0.000000,0.000000,0.000000,0.000000,0.000000,0.145791,3,0
850000,-0.003704,21.862705,0.039063,-0.014050,25.498631,-0.016055,0.001614,0.015076,1.571640,-0.038299,0.000630,-0.000492,-0.000066,-0.003767,0.000011,0.005769,0.003826,0.189049,0.001739,0.191551,0.191551,0.173135,0.656015,0.000000,0.000000,0.000000,0.000000,0.000000,0.000000,0.000000,0.000000,0.000000,0.000000,0.000000,0.000000,0.183051,3,0
860000,-0.003724,22.120495,0.039112,-0.014095,25.505156,-0.016212,0.001642,0.015337,1.571644,-0.038812,0.000653,-0.000541,-0.000069,-0.003840,0.000011,0.001234,0.003847,0.087042,0.007423,0.192044,0.192044,0.173165,0.648605,0.000000,0.000000,0.000000,0.000000,0.000000,0.000000,0.000000,0.000000,0.000000,0.000000,0.000000,0.000000,0.084337,3,0
870000,-0.003743,22.379011,0.040351,-0.014100,25.512863,-0.014486,0.001674,0.015656,1.571651,-0.039451,0.000676,-0.000857,-0.000073,-0.003933,0.000011,0.002250,0.003867,0.107491,0.048672,0.192524,0.192524,0.173181,0.641267,0.000000,0.000000,0.000000,0.000000,0.000000,0.000000,0.000000,0.000000,0.000000,0.000000,0.000000,0.000000,0.104109,3,0
880000,-0.003761,22.641445,0.039416,-0.014089,25.527437,-0.015853,0.001711,0.016304,1.571655,-0.040809,0.000700,-0.000682,-0.000076,-0.004133,0.000012,0.008405,0.003886,0.226597,-0.027281,0.192991,0.192991,0.173183,0.634007,0.000000,0.000000,0.000000,0.000000,0.000000,0.000000,0.000000,0.000000,0.000000,0.000000,0.000000,0.000000,0.219341,3,0
890000,-0.003777,22.899424,0.039342,-0.013996,25.534012,-0.016107,0.001737,0.016570,1.571666,-0.041312,0.000724,-0.000704,-0.000080,-0.004208,0.000012,0.001123,0.003903,0.083290,0.003084,0.193445,0.193445,0.173170,0.626827,0.000000,0.000000,0.000000,0.000000,0.000000,0.000000,0.000000,0.000000,0.000000,0.000000,0.000000,0.000000,0.080693,3,0
900000,-0.003792,23.159412,0.040646,-0.013932,25.543926,-0.014169,0.001769,0.017015,1.571666,-0.042183,0.000748,-0.001046,-0.000083,-0.004341,0.000013,0.003733,0.003919,0.143309,0.050858,0.193885,0.193885,0.173144,0.619730,0.000000,0.000000,0.000000,0.000000,0.000000,0.000000,0.000000,0.000000,0.000000,0.000000,0.000000,0.000000,0.138729,3,0
910000,-0.003806,23.418814,0.039388,-0.013901,25.552719,-0.015992,0.001802,0.017398,1.571679,-0.042929,0.000772,-0.000787,-0.000087,-0.004456,0.000013,0.002635,0.003933,0.121767,-0.038613,0.194312,0.194312,0.173103,0.612719,0.000000,0.000000,0.000000,0.000000,0.000000,0.000000,0.000000,0.000000,0.000000,0.000000,0.000000,0.000000,0.117884,3,0
920000,-0.003819,23.680859,0.038106,-0.013813,25.566050,-0.017897,0.001823,0.018009,1.571684,-0.044163,0.000797,-0.000526,-0.000091,-0.004649,0.000013,0.006710,0.003946,0.200218,-0.038767,0.194725,0.194725,0.173048,0.605798,0.000000,0.000000,0.000000,0.000000,0.000000,0.000000,0.000000,0.000000,0.000000,0.000000,0.000000,0.000000,0.193758,3,0
930000,-0.003829,23.941635,0.038588,-0.013715,25.577061,-0.017383,0.001851,0.018506,1.571690,-0.045134,0.000822,-0.000688,-0.000095,-0.004804,0.000014,0.004049,0.003958,0.156708,0.023110,0.195125,0.195125,0.172979,0.598969,0.000000,0.000000,0.000000,0.000000,0.000000,0.000000,0.000000,0.000000,0.000000,0.000000,0.000000,0.000000,0.151660,3,0
940000,-0.003839,24.200508,0.037877,-0.013666,25.584534,-0.018467,0.001883,0.018825,1.571691,-0.045724,0.000847,-0.000561,-0.000099,-0.004900,0.000014,0.001501,0.003968,0.094608,-0.018503,0.195512,0.195512,0.172896,0.592233,0.000000,0.000000,0.000000,0.000000,0.000000,0.000000,0.000000,0.000000,0.000000,0.000000,0.000000,0.000000,0.091607,3,0
950000,-0.003846,24.459446,0.038571,-0.013476,25.592085,-0.017474,0.001905,0.019144,1.571699,-0.046314,0.000872,-0.000779,-0.000103,-0.004996,0.000014,0.001582,0.003976,0.094088,0.030636,0.195886,0.195886,0.172799,0.585593,0.000000,0.000000,0.000000,0.000000,0.000000,0.000000,0.000000,0.000000,0.000000,0.000000,0.000000,0.000000,0.091098,3,0
960000,-0.003852,24.721699,0.038581,-0.013429,25.605341,-0.017646,0.001927,0.019772,1.571714,-0.047529,0.000898,-0.000830,-0.000107,-0.005199,0.000015,0.006008,0.003983,0.192892,0.006633,0.196247,0.196247,0.172689,0.579050,0.000000,0.000000,0.000000,0.000000,0.000000,0.000000,0.000000,0.000000,0.000000,0.000000,0.000000,0.000000,0.186622,3,0
970000,-0.003858,24.980707,0.037547,-0.013428,25.612646,-0.019112,0.001959,0.020088,1.571724,-0.048097,0.000924,-0.000619,-0.000111,-0.005295,0.000015,0.001438,0.003989,0.089540,-0.029724,0.196596,0.196596,0.172566,0.572607,0.000000,0.000000,0.000000,0.000000,0.000000,0.000000,0.000000,0.000000,0.000000,0.000000,0.000000,0.000000,0.086693,3,0
980000,-0.003862,25.241079,0.037588,-0.013257,25.622395,-0.019186,0.001983,0.020537,1.571737,-0.048915,0.000949,-0.000682,-0.000116,-0.005436,0.000016,0.002681,0.003993,0.128641,0.008271,0.196933,0.196932,0.172429,0.566264,0.000000,0.000000,0.000000,0.000000,0.000000,0.000000,0.000000,0.000000,0.000000,0.000000,0.000000,0.000000,0.124478,3,0
990000,-0.003865,25.500181,0.038884,-0.013245,25.629774,-0.017219,0.002011,0.020871,1.571739,-0.049469,0.000975,-0.001063,-0.000121,-0.005532,0.000016,0.001654,0.003997,0.086838,0.051909,0.197258,0.197257,0.172280,0.560023,0.000000,0.000000,0.000000,0.000000,0.000000,0.000000,0.000000,0.000000,0.000000,0.000000,0.000000,0.000000,0.084073,3,0
1000000,-0.003866,25.761301,0.039105,-0.013078,25.640438,-0.017082,0.002044,0.021388,1.571746,-0.050403,0.001001,-0.001170,-0.000125,-0.005698,0.000016,0.003457,0.003998,0.145725,0.013902,0.197571,0.197570,0.172119,0.553885,0.000000,0.000000,0.000000,0.000000,0.000000,0.000000,0.000000,0.000000,0.000000,0.000000,0.000000,0.000000,0.140979,3,0
1010000,-0.003867,26.025064,0.038908,-0.012999,25.655655,-0.017552,0.002073,0.022165,1.571760,-0.051836,0.001027,-0.001171,-0.000130,-0.005955,0.000017,0.007977,0.003999,0.222443,-0.000632,0.197873,0.197872,0.171945,0.547850,0.000000,0.000000,0.000000,0.000000,0.000000,0.000000,0.000000,0.000000,0.000000,0.000000,0.000000,0.000000,0.215142,3,0
1020000,-0.003865,26.286840,0.039871,-0.012791,25.667246,-0.016336,0.002100,0.022737,1.571765,-0.052851,0.001053,-0.001475,-0.000135,-0.006141,0.000018,0.004250,0.003997,0.157314,0.039976,0.198165,0.198164,0.171760,0.541919,0.000000,0.000000,0.000000,0.000000,0.000000,0.000000,0.000000,0.000000,0.000000,0.000000,0.000000,0.000000,0.152168,3,0
1030000,-0.003861,26.549284,0.039462,-0.012654,25.679857,-0.016882,0.002129,0.023374,1.571768,-0.053978,0.001080,-0.001417,-0.000140,-0.006350,0.000018,0.004878,0.003993,0.173727,-0.008421,0.198446,0.198445,0.171564,0.536093,0.000000,0.000000,0.000000,0.000000,0.000000,0.000000,0.000000,0.000000,0.000000,0.000000,0.000000,0.000000,0.168025,3,0
1040000,-0.003857,26.807775,0.039095,-0.012536,25.685455,-0.017317,0.002150,0.023597,1.571777,-0.054305,0.001106,-0.001366,-0.000144,-0.006411,0.000018,0.000418,0.003989,0.050308,-0.006848,0.198718,0.198716,0.171356,0.530373,0.000000,0.000000,0.000000,0.000000,0.000000,0.000000,0.000000,0.000000,0.000000,0.000000,0.000000,0.000000,0.048794,3,0
1050000,-0.003851,27.070274,0.038810,-0.012396,25.697891,-0.017656,0.002190,0.024242,1.571788,-0.055410,0.001132,-0.001343,-0.000149,-0.006622,0.000019,0.004632,0.003983,0.169460,-0.003761,0.198980,0.198978,0.171139,0.524757,0.000000,0.000000,0.000000,0.000000,0.000000,0.000000,0.000000,0.000000,0.000000,0.000000,0.000000,0.000000,0.163887,3,0
1060000,-0.003844,27.330128,0.038829,-0.012274,25.705547,-0.017737,0.002224,0.024593,1.571792,-0.055971,0.001159,-0.001401,-0.000155,-0.006731,0.000019,0.001195,0.003976,0.085745,0.007047,0.199233,0.199231,0.170910,0.519246,0.000000,0.000000,0.000000,0.000000,0.000000,0.000000,0.000000,0.000000,0.000000,0.000000,0.000000,0.000000,0.082986,3,0
1070000,-0.003835,27.590010,0.040002,-0.012066,25.713179,-0.016217,0.002264,0.024956,1.571800,-0.056521,0.001184,-0.001775,-0.000160,-0.006839,0.000020,0.001514,0.003967,0.084242,0.047648,0.199478,0.199476,0.170673,0.513842,0.000000,0.000000,0.000000,0.000000,0.000000,0.000000,0.000000,0.000000,0.000000,0.000000,0.000000,0.000000,0.081532,3,0
1080000,-0.003824,27.848600,0.039637,-0.011835,25.718504,-0.016828,0.002291,0.025167,1.571809,-0.056803,0.001211,-0.001722,-0.000165,-0.006895,0.000020,0.000308,0.003955,0.042950,-0.006981,0.199714,0.199712,0.170425,0.508542,0.000000,0.000000,0.000000,0.000000,0.000000,0.000000,0.000000,0.000000,0.000000,0.000000,0.000000,0.000000,0.041695,3,0
1090000,-0.003812,28.112537,0.038307,-0.011676,25.733051,-0.018708,0.002319,0.025951,1.571808,-0.058132,0.001238,-0.001408,-0.000170,-0.007164,0.000020,0.006829,0.003943,0.201765,-0.040698,0.199943,0.199941,0.170169,0.503347,0.000000,0.000000,0.000000,0.000000,0.000000,0.000000,0.000000,0.000000,0.000000,0.000000,0.000000,0.000000,0.195077,3,0
1100000,-0.003799,28.371796,0.038237,-0.011619,25.739241,-0.018983,0.002356,0.026221,1.571817,-0.058507,0.001264,-0.001445,-0.000176,-0.007241,0.000021,0.000528,0.003930,0.056955,0.004372,0.200165,0.200162,0.169904,0.498256,0.000000,0.000000,0.000000,0.000000,0.000000,0.000000,0.000000,0.000000,0.000000,0.000000,0.000000,0.000000,0.055187,3,0
1110000,-0.003786,28.634409,0.038464,-0.011562,25.751329,-0.018713,0.002385,0.026860,1.571827,-0.059532,0.001290,-0.001572,-0.000181,-0.007455,0.000021,0.003932,0.003917,0.155453,0.014990,0.200380,0.200377,0.169632,0.493270,0.000000,0.000000,0.000000,0.000000,0.000000,0.000000,0.000000,0.000000,0.000000,0.000000,0.000000,0.000000,0.150309,3,0
1120000,-0.003771,28.897003,0.039721,-0.011343,25.763256,-0.017220,0.002425,0.027490,1.571828,-0.060528,0.001316,-0.001995,-0.000187,-0.007666,0.000022,0.004112,0.003902,0.151144,0.051463,0.200589,0.200586,0.169351,0.488387,0.000000,0.000000,0.000000,0.000000,0.000000,0.000000,0.000000,0.000000,0.000000,0.000000,0.000000,0.000000,0.146142,3,0
1130000,-0.003756,29.158916,0.039087,-0.011278,25.773815,-0.018058,0.002448,0.028041,1.571841,-0.061368,0.001342,-0.001869,-0.000192,-0.007846,0.000022,0.002642,0.003886,0.126976,-0.016168,0.200791,0.200788,0.169063,0.483607,0.000000,0.000000,0.000000,0.000000,0.000000,0.000000,0.000000,0.000000,0.000000,0.000000,0.000000,0.000000,0.122784,3,0
1140000,-0.003740,29.417490,0.039315,-0.011140,25.778458,-0.017669,0.002473,0.028207,1.571855,-0.061526,0.001367,-0.001990,-0.000198,-0.007881,0.000022,0.000130,0.003870,0.023989,0.014624,0.200989,0.200985,0.168768,0.478929,0.000000,0.000000,0.000000,0.000000,0.000000,0.000000,0.000000,0.000000,0.000000,0.000000,0.000000,0.000000,0.023485,3,0
1150000,-0.003723,29.679438,0.038593,-0.010965,25.788860,-0.018876,0.002510,0.028765,1.571874,-0.062342,0.001394,-0.001838,-0.000204,-0.008061,0.000023,0.002506,0.003852,0.123190,-0.019111,0.201181,0.201178,0.168467,0.474351,0.000000,0.000000,0.000000,0.000000,0.000000,0.000000,0.000000,0.000000,0.000000,0.000000,0.000000,0.000000,0.119117,3,0
1160000,-0.003704,29.941368,0.038970,-0.010727,25.799059,-0.018397,0.002539,0.029311,1.571887,-0.063133,0.001419,-0.002015,-0.000209,-0.008239,0.000023,0.002373,0.003832,0.119564,0.020461,0.201369,0.201365,0.168159,0.469874,0.000000,0.000000,0.000000,0.000000,0.000000,0.000000,0.000000,0.000000,0.000000,0.000000,0.000000,0.000000,0.115612,3,0
1170000,-0.003685,30.201952,0.037587,-0.010641,25.806784,-0.020464,0.002566,0.029697,1.571899,-0.063639,0.001445,-0.001663,-0.000215,-0.008354,0.000024,0.001231,0.003812,0.076199,-0.042573,0.201553,0.201549,0.167846,0.465496,0.000000,0.000000,0.000000,0.000000,0.000000,0.000000,0.000000,0.000000,0.000000,0.000000,0.000000,0.000000,0.073729,3,0
1180000,-0.003664,30.461201,0.038598,-0.010477,25.812084,-0.019096,0.002592,0.029912,1.571902,-0.063864,0.001470,-0.002032,-0.000221,-0.008406,0.000024,0.000500,0.003792,0.034204,0.043673,0.201733,0.201729,0.167527,0.461216,0.000000,0.000000,0.000000,0.000000,0.000000,0.000000,0.000000,0.000000,0.000000,0.000000,0.000000,0.000000,0.033259,3,0
1190000,-0.003642,30.720478,0.038871,-0.010286,25.817514,-0.018644,0.002632,0.030130,1.571908,-0.064084,0.001495,-0.002176,-0.000227,-0.008457,0.000024,0.000226,0.003769,0.033325,0.016728,0.201910,0.201905,0.167203,0.457033,0.000000,0.000000,0.000000,0.000000,0.000000,0.000000,0.000000,0.000000,0.000000,0.000000,0.000000,0.000000,0.032409,3,0
1200000,-0.003619,30.983124,0.039542,-0.010169,25.828621,-0.018030,0.002669,0.030744,1.571917,-0.064954,0.001520,-0.002450,-0.000233,-0.008664,0.000025,0.002959,0.003746,0.131819,0.031236,0.202084,0.202079,0.166875,0.452946,0.000000,0.000000,0.000000,0.000000,0.000000,0.000000,0.000000,0.000000,0.000000,0.000000,0.000000,0.000000,0.127432,3,0
1210000,-0.003596,31.243731,0.038999,-0.010024,25.836109,-0.018743,0.002705,0.031097,1.571922,-0.065403,0.001545,-0.002344,-0.000239,-0.008772,0.000025,0.000770,0.003722,0.067850,-0.012867,0.202255,0.202249,0.166542,0.448954,0.000000,0.000000,0.000000,0.000000,0.000000,0.000000,0.000000,0.000000,0.000000,0.000000,0.000000,0.000000,0.065662,3,0
1220000,-0.003572,31.505007,0.039351,-0.009844,25.844589,-0.018555,0.002749,0.031528,1.571929,-0.065967,0.001569,-0.002520,-0.000245,-0.008910,0.000025,0.001242,0.003697,0.085472,0.019815,0.202425,0.202418,0.166206,0.445056,0.000000,0.000000,0.000000,0.000000,0.000000,0.000000,0.000000,0.000000,0.000000,0.000000,0.000000,0.000000,0.082667,3,0
1230000,-0.003547,31.764933,0.039190,-0.009655,25.850662,-0.018957,0.002775,0.031799,1.571934,-0.066249,0.001594,-0.002533,-0.000251,-0.008980,0.000026,0.000297,0.003671,0.042776,0.001128,0.202592,0.202585,0.165866,0.441250,0.000000,0.000000,0.000000,0.000000,0.000000,0.000000,0.000000,0.000000,0.000000,0.000000,0.000000,0.000000,0.041484,3,0
1240000,-0.003521,32.026882,0.039404,-0.009521,25.860292,-0.018849,0.002800,0.032304,1.571936,-0.066913,0.001618,-0.002671,-0.000257,-0.009147,0.000026,0.001677,0.003644,0.100853,0.014987,0.202757,0.202750,0.165523,0.437535,0.000000,0.000000,0.000000,0.000000,0.000000,0.000000,0.000000,0.000000,0.000000,0.000000,0.000000,0.000000,0.097510,3,0
1250000,-0.003495,32.285450,0.038081,-0.009428,25.863802,-0.020740,0.002842,0.032393,1.571940,-0.066900,0.001642,-0.002310,-0.000263,-0.009144,0.000026,0.000276,0.003617,-0.002163,-0.041051,0.202921,0.202914,0.165177,0.433909,0.000000,0.000000,0.000000,0.000000,0.000000,0.000000,0.000000,0.000000,0.000000,0.000000,0.000000,0.000000,0.004073,3,0
1260000,-0.003468,32.546062,0.038381,-0.009175,25.870771,-0.020440,0.002871,0.032720,1.571945,-0.067276,0.001666,-0.002479,-0.000269,-0.009241,0.000026,0.000588,0.003589,0.057301,0.018721,0.203085,0.203076,0.164828,0.430372,0.000000,0.000000,0.000000,0.000000,0.000000,0.000000,0.000000,0.000000,0.000000,0.000000,0.000000,0.000000,0.055471,3,0
1270000,-0.003439,32.807343,0.039005,-0.008991,25.878969,-0.019790,0.002907,0.033130,1.571953,-0.067765,0.001689,-0.002757,-0.000276,-0.009370,0.000027,0.001057,0.003560,0.074921,0.030562,0.203247,0.203238,0.164477,0.426922,0.000000,0.000000,0.000000,0.000000,0.000000,0.000000,0.000000,0.000000,0.000000,0.000000,0.000000,0.000000,0.072466,3,0
1280000,-0.003409,33.071301,0.040243,-0.008874,25.891727,-0.018480,0.002951,0.033891,1.571957,-0.068753,0.001712,-0.003243,-0.000282,-0.009633,0.000027,0.004154,0.003529,0.151501,0.053030,0.203409,0.203400,0.164124,0.423557,0.000000,0.000000,0.000000,0.000000,0.000000,0.000000,0.000000,0.000000,0.000000,0.000000,0.000000,0.000000,0.146410,3,0
1290000,-0.003379,33.334526,0.040291,-0.008664,25.903019,-0.018633,0.002991,0.034533,1.571967,-0.069575,0.001735,-0.003334,-0.000288,-0.009855,0.000028,0.002570,0.003498,0.125965,0.009015,0.203571,0.203561,0.163770,0.420276,0.000000,0.000000,0.000000,0.000000,0.000000,0.000000,0.000000,0.000000,0.000000,0.000000,0.000000,0.000000,0.121740,3,0
1300000,-0.003347,33.597031,0.041209,-0.008383,25.913061,-0.017531,0.003028,0.035081,1.571985,-0.070231,0.001757,-0.003713,-0.000295,-0.010035,0.000028,0.001921,0.003465,0.101166,0.040918,0.203733,0.203723,0.163414,0.417079,0.000000,0.000000,0.000000,0.000000,0.000000,0.000000,0.000000,0.000000,0.000000,0.000000,0.000000,0.000000,0.097790,3,0
1310000,-0.003315,33.858147,0.040194,-0.008217,25.920389,-0.018928,0.003056,0.035447,1.571995,-0.070604,0.001780,-0.003439,-0.000301,-0.010139,0.000029,0.000681,0.003431,0.057228,-0.030612,0.203896,0.203884,0.163057,0.413963,0.000000,0.000000,0.000000,0.000000,0.000000,0.000000,0.000000,0.000000,0.000000,0.000000,0.000000,0.000000,0.055382,3,0
1320000,-0.003281,34.117214,0.039668,-0.007941,25.924149,-0.019510,0.003087,0.035532,1.572010,-0.070571,0.001803,-0.003325,-0.000307,-0.010130,0.000029,0.000031,0.003396,-0.005169,-0.012373,0.204059,0.204047,0.162699,0.410928,0.000000,0.000000,0.000000,0.000000,0.000000,0.000000,0.000000,0.000000,0.000000,0.000000,0.000000,0.000000,0.005975,3,0
1330000,-0.003245,34.381027,0.040912,-0.007749,25.936234,-0.018036,0.003119,0.036232,1.572027,-0.071429,0.001824,-0.003832,-0.000313,-0.010375,0.000029,0.003331,0.003360,0.133301,0.053742,0.204222,0.204210,0.162341,0.407970,0.000000,0.000000,0.000000,0.000000,0.000000,0.000000,0.000000,0.000000,0.000000,0.000000,0.000000,0.000000,0.128810,3,0
1340000,-0.003210,34.640041,0.041893,-0.007596,25.939552,-0.017029,0.003144,0.036290,1.572046,-0.071353,0.001845,-0.004230,-0.000320,-0.010352,0.000029,0.000324,0.003323,-0.011360,0.043141,0.204387,0.204374,0.161982,0.405089,0.000000,0.000000,0.000000,0.000000,0.000000,0.000000,0.000000,0.000000,0.000000,0.000000,0.000000,0.000000,0.011431,3,0
1350000,-0.003174,34.898396,0.041105,-0.007454,25.941761,-0.018277,0.003175,0.036240,1.572059,-0.071150,0.001866,-0.004014,-0.000326,-0.010293,0.000029,0.000250,0.003286,-0.031860,-0.022866,0.204553,0.204539,0.161623,0.402285,0.000000,0.000000,0.000000,0.000000,0.000000,0.000000,0.000000,0.000000,0.000000,0.000000,0.000000,0.000000,0.030940,3,0
1360000,-0.003138,35.160156,0.041309,-0.007251,25.949932,-0.018261,0.003204,0.036652,1.572069,-0.071581,0.001887,-0.004159,-0.000332,-0.010421,0.000030,0.000773,0.003249,0.067589,0.014801,0.204720,0.204705,0.161265,0.399554,0.000000,0.000000,0.000000,0.000000,0.000000,0.000000,0.000000,0.000000,0.000000,0.000000,0.000000,0.000000,0.065360,3,0
1370000,-0.003101,35.422565,0.041548,-0.007123,25.959127,-0.018106,0.003249,0.037154,1.572085,-0.072115,0.001907,-0.004319,-0.000339,-0.010583,0.000030,0.001181,0.003211,0.084049,0.016169,0.204888,0.204873,0.160907,0.396895,0.000000,0.000000,0.000000,0.000000,0.000000,0.000000,0.000000,0.000000,0.000000,0.000000,0.000000,0.000000,0.081240,3,0
1380000,-0.003064,35.684250,0.041545,-0.006940,25.966923,-0.018058,0.003278,0.037551,1.572090,-0.072495,0.001928,-0.004391,-0.000345,-0.010700,0.000030,0.000591,0.003172,0.060097,0.006933,0.205058,0.205041,0.160549,0.394308,0.000000,0.000000,0.000000,0.000000,0.000000,0.000000,0.000000,0.000000,0.000000,0.000000,0.000000,0.000000,0.058125,3,0
1390000,-0.003026,35.945904,0.041223,-0.006708,25.974537,-0.018509,0.003313,0.037927,1.572092,-0.072853,0.001948,-0.004350,-0.000351,-0.010812,0.000031,0.000524,0.003133,0.056755,-0.004993,0.205229,0.205212,0.160193,0.391790,0.000000,0.000000,0.000000,0.000000,0.000000,0.000000,0.000000,0.000000,0.000000,0.000000,0.000000,0.000000,0.054897,3,0
1400000,-0.002987,36.208199,0.041800,-0.006587,25.983158,-0.018055,0.003357,0.038383,1.572110,-0.073312,0.001967,-0.004636,-0.000357,-0.010957,0.000031,0.001005,0.003094,0.073330,0.029107,0.205402,0.205384,0.159837,0.389340,0.000000,0.000000,0.000000,0.000000,0.000000,0.000000,0.000000,0.000000,0.000000,0.000000,0.000000,0.000000,0.070887,3,0
1410000,-0.002948,36.469086,0.042737,-0.006406,25.989342,-0.016962,0.003390,0.038629,1.572116,-0.073495,0.001985,-0.005044,-0.000364,-0.011015,0.000031,0.000432,0.003053,0.029613,0.042252,0.205577,0.205558,0.159483,0.386958,0.000000,0.000000,0.000000,0.000000,0.000000,0.000000,0.000000,0.000000,0.000000,0.000000,0.000000,0.000000,0.028754,3,0
1420000,-0.002909,36.730629,0.043587,-0.006244,25.996487,-0.016163,0.003429,0.038969,1.572134,-0.073785,0.002003,-0.005424,-0.000370,-0.011109,0.000031,0.000601,0.003012,0.046974,0.038843,0.205754,0.205734,0.159130,0.384641,0.000000,0.000000,0.000000,0.000000,0.000000,0.000000,0.000000,0.000000,0.000000,0.000000,0.000000,0.000000,0.045461,3,0
1430000,-0.002869,36.990776,0.043794,-0.006087,26.001038,-0.015853,0.003465,0.039098,1.572144,-0.073809,0.002022,-0.005559,-0.000376,-0.011117,0.000031,0.000036,0.002971,0.004025,0.013973,0.205932,0.205912,0.158779,0.382388,0.000000,0.000000,0.000000,0.000000,0.000000,0.000000,0.000000,0.000000,0.000000,0.000000,0.000000,0.000000,0.004831,3,0
1440000,-0.002830,37.250912,0.043489,-0.005963,26.005575,-0.016355,0.003502,0.039226,1.572164,-0.073823,0.002040,-0.005507,-0.000382,-0.011122,0.000031,0.000007,0.002931,0.002258,-0.005398,0.206113,0.206091,0.158429,0.380198,0.000000,0.000000,0.000000,0.000000,0.000000,0.000000,0.000000,0.000000,0.000000,0.000000,0.000000,0.000000,0.003571,3,0
1450000,-0.002791,37.511715,0.043211,-0.005854,26.011305,-0.016851,0.003541,0.039439,1.572184,-0.073948,0.002058,-0.005470,-0.000388,-0.011164,0.000032,0.000071,0.002890,0.020378,-0.004113,0.206295,0.206273,0.158082,0.378069,0.000000,0.000000,0.000000,0.000000,0.000000,0.000000,0.000000,0.000000,0.000000,0.000000,0.000000,0.000000,0.019873,3,0
1460000,-0.002751,37.769753,0.043425,-0.005604,26.011925,-0.016859,0.003574,0.039225,1.572206,-0.073572,0.002074,-0.005603,-0.000394,-0.011034,0.000031,0.000645,0.002849,-0.061569,0.014419,0.206480,0.206457,0.157736,0.376000,0.000000,0.000000,0.000000,0.000000,0.000000,0.000000,0.000000,0.000000,0.000000,0.000000,0.000000,0.000000,0.059512,3,0
1470000,-0.002709,38.029865,0.042569,-0.005314,26.016195,-0.018148,0.003617,0.039333,1.572222,-0.073564,0.002092,-0.005346,-0.000400,-0.011032,0.000031,0.000112,0.002805,-0.001549,-0.026045,0.206666,0.206642,0.157393,0.373988,0.000000,0.000000,0.000000,0.000000,0.000000,0.000000,0.000000,0.000000,0.000000,0.000000,0.000000,0.000000,0.003096,3,0
1480000,-0.002668,38.287903,0.041831,-0.005185,26.016687,-0.019137,0.003647,0.039124,1.572233,-0.073187,0.002109,-0.005125,-0.000406,-0.010898,0.000031,0.000713,0.002763,-0.062912,-0.021452,0.206854,0.206829,0.157052,0.372033,0.000000,0.000000,0.000000,0.000000,0.000000,0.000000,0.000000,0.000000,0.000000,0.000000,0.000000,0.000000,0.060804,3,0
1490000,-0.002625,38.547321,0.042379,-0.005027,26.019526,-0.018606,0.003679,0.039107,1.572244,-0.073049,0.002124,-0.005404,-0.000412,-0.010847,0.000031,0.000215,0.002720,-0.022770,0.028328,0.207045,0.207018,0.156714,0.370133,0.000000,0.000000,0.000000,0.000000,0.000000,0.000000,0.000000,0.000000,0.000000,0.000000,0.000000,0.000000,0.022137,3,0
1500000,-0.002582,38.809479,0.043186,-0.004739,26.027412,-0.017904,0.003718,0.039503,1.572252,-0.073378,0.002140,-0.005798,-0.000418,-0.010967,0.000031,0.000743,0.002675,0.055721,0.038600,0.207237,0.207209,0.156378,0.368288,0.000000,0.000000,0.000000,0.000000,0.000000,0.000000,0.000000,0.000000,0.000000,0.000000,0.000000,0.000000,0.053864,3,0
1510000,-0.002536,39.068150,0.044123,-0.004429,26.028866,-0.016681,0.003745,0.039360,1.572256,-0.073095,0.002154,-0.006220,-0.000424,-0.010860,0.000031,0.000660,0.002628,-0.047485,0.042679,0.207431,0.207402,0.156045,0.366496,0.000000,0.000000,0.000000,0.000000,0.000000,0.000000,0.000000,0.000000,0.000000,0.000000,0.000000,0.000000,0.045908,3,0
1520000,-0.002490,39.330265,0.044613,-0.004135,26.036510,-0.016108,0.003781,0.039744,1.572270,-0.073396,0.002169,-0.006488,-0.000429,-0.010973,0.000031,0.000538,0.002579,0.051651,0.025718,0.207626,0.207597,0.155715,0.364755,0.000000,0.000000,0.000000,0.000000,0.000000,0.000000,0.000000,0.000000,0.000000,0.000000,0.000000,0.000000,0.049932,3,0
1530000,-0.002442,39.589573,0.045107,-0.003888,26.038830,-0.015795,0.003818,0.039674,1.572283,-0.073210,0.002183,-0.006739,-0.000435,-0.010901,0.000031,0.000266,0.002530,-0.031628,0.025261,0.207824,0.207793,0.155388,0.363064,0.000000,0.000000,0.000000,0.000000,0.000000,0.000000,0.000000,0.000000,0.000000,0.000000,0.000000,0.000000,0.030627,3,0
1540000,-0.002394,39.847500,0.045043,-0.003580,26.038740,-0.016073,0.003849,0.039398,1.572286,-0.072792,0.002197,-0.006761,-0.000441,-0.010739,0.000031,0.000844,0.002479,-0.072296,0.003329,0.208023,0.207991,0.155064,0.361422,0.000000,0.000000,0.000000,0.000000,0.000000,0.000000,0.000000,0.000000,0.000000,0.000000,0.000000,0.000000,0.069831,3,0
1550000,-0.002345,40.108204,0.044640,-0.003458,26.043644,-0.016806,0.003879,0.039552,1.572302,-0.072837,0.002211,-0.006669,-0.000446,-0.010757,0.000031,0.000024,0.002430,0.007721,-0.009175,0.208224,0.208191,0.154743,0.359828,0.000000,0.000000,0.000000,0.000000,0.000000,0.000000,0.000000,0.000000,0.000000,0.000000,0.000000,0.000000,0.007811,3,0
1560000,-0.002296,40.366112,0.044446,-0.003217,26.043430,-0.017090,0.003907,0.039253,1.572304,-0.072416,0.002224,-0.006642,-0.000451,-0.010588,0.000030,0.000885,0.002379,-0.074123,-0.001421,0.208426,0.208392,0.154426,0.358281,0.000000,0.000000,0.000000,0.000000,0.000000,0.000000,0.000000,0.000000,0.000000,0.000000,0.000000,0.000000,0.071585,3,0
1570000,-0.002246,40.626099,0.045234,-0.002949,26.046970,-0.016044,0.003938,0.039282,1.572311,-0.072334,0.002236,-0.007025,-0.000457,-0.010553,0.000030,0.000258,0.002327,-0.013966,0.037292,0.208630,0.208594,0.154111,0.356778,0.000000,0.000000,0.000000,0.000000,0.000000,0.000000,0.000000,0.000000,0.000000,0.000000,0.000000,0.000000,0.013659,3,0
1580000,-0.002197,40.889538,0.044008,-0.002783,26.056684,-0.017567,0.003970,0.039853,1.572323,-0.072806,0.002250,-0.006616,-0.000462,-0.010750,0.000031,0.001402,0.002275,0.083836,-0.040857,0.208835,0.208798,0.153800,0.355318,0.000000,0.000000,0.000000,0.000000,0.000000,0.000000,0.000000,0.000000,0.000000,0.000000,0.000000,0.000000,0.080940,3,0
1590000,-0.002147,41.147346,0.044644,-0.002653,26.056065,-0.016689,0.004009,0.039514,1.572329,-0.072359,0.002261,-0.006926,-0.000467,-0.010561,0.000031,0.001196,0.002225,-0.080307,0.031155,0.209041,0.209003,0.153493,0.353903,0.000000,0.000000,0.000000,0.000000,0.000000,0.000000,0.000000,0.000000,0.000000,0.000000,0.000000,0.000000,0.077533,3,0
1600000,-0.002097,41.410023,0.044738,-0.002532,26.064278,-0.016789,0.004043,0.039955,1.572350,-0.072685,0.002273,-0.007050,-0.000472,-0.010699,0.000031,0.000589,0.002173,0.059467,0.010840,0.209249,0.209210,0.153189,0.352528,0.000000,0.000000,0.000000,0.000000,0.000000,0.000000,0.000000,0.000000,0.000000,0.000000,0.000000,0.000000,0.057434,3,0
1610000,-0.002048,41.668468,0.044960,-0.002349,26.064627,-0.016503,0.004070,0.039690,1.572369,-0.072335,0.002284,-0.007194,-0.000477,-0.010547,0.000031,0.000698,0.002122,-0.064140,0.014842,0.209457,0.209417,0.152889,0.351193,0.000000,0.000000,0.000000,0.000000,0.000000,0.000000,0.000000,0.000000,0.000000,0.000000,0.000000,0.000000,0.061931,3,0
1620000,-0.001998,41.928993,0.045639,-0.002094,26.068638,-0.015850,0.004112,0.039768,1.572386,-0.072308,0.002295,-0.007544,-0.000482,-0.010534,0.000031,0.000184,0.002070,-0.004524,0.033323,0.209667,0.209625,0.152593,0.349897,0.000000,0.000000,0.000000,0.000000,0.000000,0.000000,0.000000,0.000000,0.000000,0.000000,0.000000,0.000000,0.004796,3,0
1630000,-0.001948,42.190884,0.045245,-0.001927,26.075287,-0.016271,0.004150,0.040062,1.572389,-0.072485,0.002306,-0.007455,-0.000487,-0.010614,0.000031,0.000190,0.002018,0.033096,-0.008972,0.209877,0.209834,0.152300,0.348640,0.000000,0.000000,0.000000,0.000000,0.000000,0.000000,0.000000,0.000000,0.000000,0.000000,0.000000,0.000000,0.031996,3,0
1640000,-0.001897,42.449944,0.044115,-0.001618,26.076584,-0.017871,0.004174,0.039882,1.572394,-0.072223,0.002317,-0.007038,-0.000492,-0.010496,0.000030,0.000642,0.001965,-0.049953,-0.038411,0.210088,0.210043,0.152011,0.347419,0.000000,0.000000,0.000000,0.000000,0.000000,0.000000,0.000000,0.000000,0.000000,0.000000,0.000000,0.000000,0.048251,3,0
1650000,-0.001845,42.711060,0.045203,-0.001483,26.081581,-0.016522,0.004210,0.040033,1.572408,-0.072268,0.002326,-0.007575,-0.000497,-0.010515,0.000031,0.000424,0.001913,0.009037,0.050224,0.210299,0.210253,0.151726,0.346234,0.000000,0.000000,0.000000,0.000000,0.000000,0.000000,0.000000,0.000000,0.000000,0.000000,0.000000,0.000000,0.008925,3,0
1660000,-0.001793,42.970047,0.045244,-0.001213,26.082510,-0.016471,0.004234,0.039826,1.572412,-0.071991,0.002335,-0.007647,-0.000501,-0.010385,0.000030,0.000468,0.001859,-0.053341,0.007780,0.210511,0.210464,0.151444,0.345083,0.000000,0.000000,0.000000,0.000000,0.000000,0.000000,0.000000,0.000000,0.000000,0.000000,0.000000,0.000000,0.051499,3,0
1670000,-0.001741,43.232506,0.045532,-0.001064,26.089777,-0.016435,0.004272,0.040199,1.572421,-0.072223,0.002344,-0.007856,-0.000506,-0.010494,0.000031,0.000389,0.001805,0.045483,0.018570,0.210723,0.210674,0.151167,0.343965,0.000000,0.000000,0.000000,0.000000,0.000000,0.000000,0.000000,0.000000,0.000000,0.000000,0.000000,0.000000,0.043926,3,0
1680000,-0.001689,43.490707,0.045651,-0.000844,26.089109,-0.016355,0.004303,0.039849,1.572435,-0.071827,0.002352,-0.007954,-0.000510,-0.010302,0.000030,0.000994,0.001751,-0.077892,0.010634,0.210934,0.210884,0.150893,0.342880,0.000000,0.000000,0.000000,0.000000,0.000000,0.000000,0.000000,0.000000,0.000000,0.000000,0.000000,0.000000,0.075172,3,0
1690000,-0.001638,43.750320,0.044362,-0.000635,26.091143,-0.018074,0.004329,0.039743,1.572437,-0.071639,0.002362,-0.007459,-0.000514,-0.010212,0.000030,0.000561,0.001697,-0.037907,-0.045016,0.211146,0.211095,0.150624,0.341827,0.000000,0.000000,0.000000,0.000000,0.000000,0.000000,0.000000,0.000000,0.000000,0.000000,0.000000,0.000000,0.036620,3,0
1700000,-0.001585,44.011288,0.045355,-0.000448,26.095585,-0.016999,0.004363,0.039842,1.572452,-0.071640,0.002368,-0.007969,-0.000518,-0.010210,0.000030,0.000359,0.001643,0.000645,0.046979,0.211357,0.211304,0.150358,0.340804,0.000000,0.000000,0.000000,0.000000,0.000000,0.000000,0.000000,0.000000,0.000000,0.000000,0.000000,0.000000,0.001707,3,0
1710000,-0.001532,44.270123,0.044919,-0.000209,26.096014,-0.017366,0.004399,0.039567,1.572464,-0.071338,0.002376,-0.007833,-0.000522,-0.010058,0.000030,0.000631,0.001588,-0.061581,-0.011252,0.211568,0.211514,0.150097,0.339811,0.000000,0.000000,0.000000,0.000000,0.000000,0.000000,0.000000,0.000000,0.000000,0.000000,0.000000,0.000000,0.059434,3,0
1720000,-0.001478,44.530331,0.045793,0.000065,26.099005,-0.016285,0.004432,0.039536,1.572474,-0.071228,0.002382,-0.008285,-0.000526,-0.009999,0.000030,0.000364,0.001532,-0.022232,0.041798,0.211778,0.211722,0.149839,0.338846,0.000000,0.000000,0.000000,0.000000,0.000000,0.000000,0.000000,0.000000,0.000000,0.000000,0.000000,0.000000,0.021486,3,0
