time_us,pos_x,pos_y,pos_z,vel_x,vel_y,vel_z,roll,pitch,yaw,bias_ax,bias_ay,bias_az,bias_gx,bias_gy,bias_gz,nis,innov_x,innov_y,innov_z,cov_pos_x,cov_pos_y,cov_pos_z,cov_yaw,des_speed,des_heading,des_climb,pid_speed,pid_yaw,pid_alt,speed_meas,yaw_meas,climb_meas,fwd_accel,yaw_rate,vert_accel,drift_m,nav_mode,mission_state
0,-0.000002,0.150000,-0.000000,-0.000309,25.000040,-0.000115,-0.000016,-0.000012,1.570792,0.000000,0.000000,0.000000,0.000000,0.000000,0.000000,0.006250,0.000003,-0.250003,0.000001,2.400038,2.400038,3.600017,1.000518,0.000000,0.000000,0.000000,0.000000,0.000000,0.000000,0.000000,0.000000,0.000000,0.000000,0.000000,0.000000,0.150000,1,0
10000,-0.000005,0.336829,-0.011457,-0.000526,24.999868,-0.000261,-0.000027,-0.000020,1.570788,0.000001,0.000000,0.000000,0.000000,0.000000,0.000000,0.005916,0.000007,-0.221093,-0.030544,1.714420,1.714420,2.250079,1.001073,0.000000,0.000000,0.000000,0.000000,0.000000,0.000000,0.000000,0.000000,0.000000,0.000000,0.000000,0.000000,0.157918,3,0
20000,-0.000010,0.558021,-0.015492,-0.000819,24.999842,-0.000209,-0.000044,-0.000016,1.570776,0.000002,0.000000,0.000000,0.000000,0.000000,-0.000000,0.002204,0.000013,-0.129616,-0.014786,1.333616,1.333616,1.636554,1.001655,0.000000,0.000000,0.000000,0.000000,0.000000,0.000000,0.000000,0.000000,0.000000,0.000000,0.000000,0.000000,0.100806,3,0
30000,-0.000017,0.791218,-0.010323,-0.001014,24.999693,-0.000039,-0.000053,-0.000014,1.570774,0.000003,0.000000,-0.000000,-0.000000,0.000000,-0.000000,0.001240,0.000020,-0.092380,0.024118,1.091392,1.091392,1.286065,1.002257,0.000000,0.000000,0.000000,0.000000,0.000000,0.000000,0.000000,0.000000,0.000000,0.000000,0.000000,0.000000,0.075577,3,0
40000,-0.000025,1.040060,-0.019260,-0.001296,24.999872,-0.000317,-0.000055,-0.000026,1.570767,0.000004,0.000000,0.000001,0.000000,0.000000,-0.000000,0.000359,0.000030,-0.007513,-0.050609,0.923811,0.923811,1.059385,1.002869,0.000000,0.000000,0.000000,0.000000,0.000000,0.000000,0.000000,0.000000,0.000000,0.000000,0.000000,0.000000,0.006356,3,0
50000,-0.000035,1.269106,-0.027821,-0.001481,24.999323,-0.000589,-0.000063,-0.000031,1.570756,0.000010,0.000000,0.000003,0.000000,0.000000,-0.000000,0.004018,0.000040,-0.156963,-0.056999,0.801036,0.801036,0.900822,1.003484,0.000000,0.000000,0.000000,0.000000,0.000000,0.000000,0.000000,0.000000,0.000000,0.000000,0.000000,0.000000,0.136008,3,0
60000,-0.000047,1.518123,-0.029339,-0.001844,24.999506,-0.000789,-0.000062,-0.000038,1.570742,0.000011,0.000000,0.000004,0.000000,0.000000,-0.000000,0.000030,0.000053,-0.008304,-0.011565,0.707270,0.707270,0.783741,1.004094,0.000000,0.000000,0.000000,0.000000,0.000000,0.000000,0.000000,0.000000,0.000000,0.000000,0.000000,0.000000,0.007325,3,0
70000,-0.000061,1.772434,-0.032801,-0.002185,25.000124,-0.000806,-0.000067,-0.000046,1.570733,0.000008,0.000000,0.000006,0.000000,0.000000,-0.000000,0.000381,0.000069,0.040860,-0.029889,0.633370,0.633370,0.693801,1.004688,0.000000,0.000000,0.000000,0.000000,0.000000,0.000000,0.000000,0.000000,0.000000,0.000000,0.000000,0.000000,0.036547,3,0
80000,-0.000077,2.015333,-0.032617,-0.002414,24.999746,-0.000879,-0.000069,-0.000053,1.570726,0.000015,0.000000,0.000006,-0.000000,0.000000,-0.000000,0.000833,0.000086,-0.074304,0.001859,0.573673,0.573673,0.622594,1.005260,0.000000,0.000000,0.000000,0.000000,0.000000,0.000000,0.000000,0.000000,0.000000,0.000000,0.000000,0.000000,0.067200,3,0
90000,-0.000096,2.261934,-0.028756,-0.002757,24.999702,-0.000343,-0.000071,-0.000066,1.570725,0.000020,0.000000,0.000001,-0.000000,0.000000,-0.000000,0.000485,0.000105,-0.038895,0.041091,0.524488,0.524488,0.564865,1.005801,0.000000,0.000000,0.000000,0.000000,0.000000,0.000000,0.000000,0.000000,0.000000,0.000000,0.000000,0.000000,0.035495,3,0
100000,-0.000116,2.508152,-0.030825,-0.003064,24.999554,-0.000336,-0.000088,-0.000073,1.570723,0.000027,0.000000,0.000005,-0.000000,0.000000,-0.000000,0.000425,0.000126,-0.046948,-0.023995,0.483304,0.483304,0.517162,1.006301,0.000000,0.000000,0.000000,0.000000,0.000000,0.000000,0.000000,0.000000,0.000000,0.000000,0.000000,0.000000,0.043167,3,0
110000,-0.000138,2.761497,-0.033828,-0.003273,25.000355,-0.000628,-0.000100,-0.000072,1.570717,0.000019,0.000000,0.000012,-0.000000,0.000000,-0.000000,0.000528,0.000149,0.044776,-0.037738,0.448354,0.448354,0.477121,1.006754,0.000000,0.000000,0.000000,0.000000,0.000000,0.000000,0.000000,0.000000,0.000000,0.000000,0.000000,0.000000,0.041430,3,0
120000,-0.000162,3.006662,-0.035103,-0.003603,24.999842,-0.000753,-0.000113,-0.000075,1.570711,0.000034,0.000000,0.000015,-0.000000,0.000000,-0.000000,0.000793,0.000174,-0.069423,-0.017179,0.418359,0.418359,0.443071,1.007150,0.000000,0.000000,0.000000,0.000000,0.000000,0.000000,0.000000,0.000000,0.000000,0.000000,0.000000,0.000000,0.064583,3,0
130000,-0.000187,3.256890,-0.033122,-0.003880,25.000072,-0.000265,-0.000130,-0.000084,1.570704,0.000034,0.000000,0.000008,-0.000000,0.000000,-0.000000,0.000131,0.000201,0.003480,0.028811,0.392369,0.392369,0.413797,1.007481,0.000000,0.000000,0.000000,0.000000,0.000000,0.000000,0.000000,0.000000,0.000000,0.000000,0.000000,0.000000,0.003258,3,0
140000,-0.000216,3.511286,-0.031379,-0.004215,25.001181,0.000131,-0.000140,-0.000088,1.570695,0.000012,0.000000,0.000000,-0.000000,-0.000000,0.000000,0.000909,0.000230,0.071312,0.026960,0.369666,0.369666,0.388393,1.007739,0.000000,0.000000,0.000000,0.000000,0.000000,0.000000,0.000000,0.000000,0.000000,0.000000,0.000000,0.000000,0.066919,3,0
150000,-0.000245,3.762216,-0.031852,-0.004419,25.001688,0.000117,-0.000156,-0.000100,1.570689,0.000007,0.000000,0.000003,-0.000000,-0.000000,0.000000,0.000048,0.000260,0.015693,-0.007799,0.349695,0.349695,0.366172,1.007915,0.000000,0.000000,0.000000,0.000000,0.000000,0.000000,0.000000,0.000000,0.000000,0.000000,0.000000,0.000000,0.014781,3,0
160000,-0.000276,4.012418,-0.033211,-0.004755,25.002016,-0.000257,-0.000167,-0.000112,1.570685,0.000006,0.000000,0.000012,-0.000000,-0.000000,0.000000,0.000089,0.000292,0.003306,-0.023527,0.332021,0.332021,0.346600,1.008002,0.000000,0.000000,0.000000,0.000000,0.000000,0.000000,0.000000,0.000000,0.000000,0.000000,0.000000,0.000000,0.003135,3,0
170000,-0.000310,4.260952,-0.032928,-0.005103,25.001823,0.000024,-0.000174,-0.000118,1.570684,0.000018,0.000001,0.000010,-0.000000,0.000000,-0.000000,0.000130,0.000327,-0.028231,0.005157,0.316297,0.316297,0.329260,1.007991,0.000000,0.000000,0.000000,0.000000,0.000000,0.000000,0.000000,0.000000,0.000000,0.000000,0.000000,0.000000,0.026745,3,0
180000,-0.000345,4.516058,-0.030901,-0.005381,25.003773,0.000841,-0.000186,-0.000118,1.570674,-0.000030,0.000001,-0.000009,-0.000000,-0.000001,0.000000,0.001849,0.000364,0.100935,0.038710,0.302247,0.302247,0.313817,1.007875,0.000000,0.000000,0.000000,0.000000,0.000000,0.000000,0.000000,0.000000,0.000000,0.000000,0.000000,0.000000,0.095852,3,0
190000,-0.000383,4.771130,-0.030874,-0.005671,25.005781,0.001090,-0.000196,-0.000108,1.570673,-0.000085,0.000001,-0.000009,-0.000000,-0.000003,0.000000,0.001724,0.000402,0.104237,0.000330,0.289641,0.289641,0.300003,1.007645,0.000000,0.000000,0.000000,0.000000,0.000000,0.000000,0.000000,0.000000,0.000000,0.000000,0.000000,0.000000,0.099206,3,0
200000,-0.000422,5.026180,-0.032650,-0.005941,25.008066,0.000575,-0.000197,-0.000090,1.570666,-0.000148,0.000001,0.000013,-0.000000,-0.000004,0.000000,0.002060,0.000442,0.107570,-0.037301,0.278296,0.278296,0.287598,1.007295,0.000000,0.000000,0.000000,0.000000,0.000000,0.000000,0.000000,0.000000,0.000000,0.000000,0.000000,0.000000,0.102581,3,0
210000,-0.000463,5.280331,-0.031914,-0.006272,25.010075,0.001110,-0.000196,-0.000084,1.570651,-0.000206,0.000002,0.000003,-0.000000,-0.000006,0.000000,0.001360,0.000485,0.091044,0.015798,0.268054,0.268054,0.276421,1.006816,0.000000,0.000000,0.000000,0.000000,0.000000,0.000000,0.000000,0.000000,0.000000,0.000000,0.000000,0.000000,0.086978,3,0
220000,-0.000506,5.531115,-0.033875,-0.006559,25.010649,0.000424,-0.000206,-0.000090,1.570642,-0.000217,0.000002,0.000033,-0.000000,-0.000006,0.000000,0.000355,0.000529,0.015783,-0.044474,0.258788,0.258788,0.266321,1.006202,0.000000,0.000000,0.000000,0.000000,0.000000,0.000000,0.000000,0.000000,0.000000,0.000000,0.000000,0.000000,0.015111,3,0
230000,-0.000550,5.782202,-0.035196,-0.006758,25.011389,-0.000045,-0.000221,-0.000091,1.570645,-0.000235,0.000002,0.000056,-0.000000,-0.000007,0.000000,0.000240,0.000574,0.023419,-0.030947,0.250386,0.250386,0.257172,1.005446,0.000000,0.000000,0.000000,0.000000,0.000000,0.000000,0.000000,0.000000,0.000000,0.000000,0.000000,0.000000,0.022449,3,0
240000,-0.000595,6.038388,-0.036636,-0.007063,25.014828,-0.000854,-0.000226,-0.000058,1.570640,-0.000359,0.000003,0.000085,-0.000000,-0.000011,0.000000,0.003792,0.000620,0.150025,-0.034679,0.242757,0.242757,0.248866,1.004541,0.000000,0.000000,0.000000,0.000000,0.000000,0.000000,0.000000,0.000000,0.000000,0.000000,0.000000,0.000000,0.143956,3,0
250000,-0.000642,6.291397,-0.038004,-0.007248,25.016739,-0.001514,-0.000231,-0.000035,1.570631,-0.000424,0.000003,0.000114,-0.000000,-0.000013,0.000000,0.001030,0.000668,0.072714,-0.033823,0.235820,0.235820,0.241314,1.003481,0.000000,0.000000,0.000000,0.000000,0.000000,0.000000,0.000000,0.000000,0.000000,0.000000,0.000000,0.000000,0.069860,3,0
260000,-0.000690,6.547596,-0.038759,-0.007533,25.020626,-0.001927,-0.000239,0.000006,1.570619,-0.000575,0.000004,0.000132,-0.000000,-0.000019,0.000000,0.004040,0.000717,0.157629,-0.018924,0.229506,0.229506,0.234436,1.002258,0.000000,0.000000,0.000000,0.000000,0.000000,0.000000,0.000000,0.000000,0.000000,0.000000,0.000000,0.000000,0.151600,3,0
270000,-0.000740,6.800800,-0.039186,-0.007896,25.022936,-0.001933,-0.000240,0.000020,1.570621,-0.000658,0.000005,0.000143,-0.000000,-0.000022,0.000000,0.001053,0.000769,0.080299,-0.010808,0.223756,0.223756,0.228165,1.000869,0.000000,0.000000,0.000000,0.000000,0.000000,0.000000,0.000000,0.000000,0.000000,0.000000,0.000000,0.000000,0.077308,3,0
280000,-0.000792,7.057041,-0.037650,-0.008192,25.027313,-0.000954,-0.000257,0.000068,1.570613,-0.000840,0.000006,0.000098,-0.000000,-0.000029,0.000000,0.004656,0.000822,0.165015,0.041980,0.218518,0.218518,0.222443,0.999307,0.000000,0.000000,0.000000,0.000000,0.000000,0.000000,0.000000,0.000000,0.000000,0.000000,0.000000,0.000000,0.159007,3,0
290000,-0.000847,7.312564,-0.036773,-0.008548,25.031471,-0.000494,-0.000270,0.000111,1.570613,-0.001014,0.000007,0.000069,-0.000000,-0.000037,0.000000,0.003583,0.000878,0.147275,0.024519,0.213747,0.213747,0.217219,0.997567,0.000000,0.000000,0.000000,0.000000,0.000000,0.000000,0.000000,0.000000,0.000000,0.000000,0.000000,0.000000,0.142031,3,0
300000,-0.000903,7.568122,-0.037911,-0.008886,25.035780,-0.001152,-0.000286,0.000176,1.570598,-0.001202,0.000008,0.000109,-0.000000,-0.000045,0.000000,0.003791,0.000936,0.150137,-0.032031,0.209402,0.209402,0.212446,0.995645,0.000000,0.000000,0.000000,0.000000,0.000000,0.000000,0.000000,0.000000,0.000000,0.000000,0.000000,0.000000,0.144900,3,0
310000,-0.000961,7.821678,-0.039373,-0.009157,25.038605,-0.002041,-0.000298,0.000201,1.570601,-0.001327,0.000009,0.000164,-0.000000,-0.000050,0.000000,0.001684,0.000995,0.093327,-0.041884,0.205447,0.205447,0.208087,0.993536,0.000000,0.000000,0.000000,0.000000,0.000000,0.000000,0.000000,0.000000,0.000000,0.000000,0.000000,0.000000,0.090136,3,0
320000,-0.001020,8.074033,-0.040182,-0.009380,25.040625,-0.002512,-0.000300,0.000215,1.570591,-0.001409,0.000011,0.000197,-0.000000,-0.000054,0.000000,0.000636,0.001055,0.058408,-0.023220,0.201852,0.201852,0.204105,0.991236,0.000000,0.000000,0.000000,0.000000,0.000000,0.000000,0.000000,0.000000,0.000000,0.000000,0.000000,0.000000,0.056452,3,0
330000,-0.001080,8.327234,-0.039128,-0.009677,25.043518,-0.001720,-0.000311,0.000248,1.570586,-0.001536,0.000012,0.000149,-0.000000,-0.000060,0.000000,0.001315,0.001117,0.084339,0.032325,0.198587,0.198587,0.200469,0.988743,0.000000,0.000000,0.000000,0.000000,0.000000,0.000000,0.000000,0.000000,0.000000,0.000000,0.000000,0.000000,0.081555,3,0
340000,-0.001142,8.581240,-0.038398,-0.010022,25.047113,-0.001013,-0.000314,0.000295,1.570583,-0.001709,0.000014,0.000113,-0.000001,-0.000069,0.000000,0.002014,0.001180,0.109414,0.022706,0.195627,0.195627,0.197151,0.986053,0.000000,0.000000,0.000000,0.000000,0.000000,0.000000,0.000000,0.000000,0.000000,0.000000,0.000000,0.000000,0.105853,3,0
350000,-0.001206,8.833456,-0.039084,-0.010363,25.049175,-0.001716,-0.000326,0.000315,1.570583,-0.001799,0.000016,0.000148,-0.000001,-0.000073,0.000000,0.000543,0.001246,0.054161,-0.020839,0.192950,0.192950,0.194125,0.983163,0.000000,0.000000,0.000000,0.000000,0.000000,0.000000,0.000000,0.000000,0.000000,0.000000,0.000000,0.000000,0.052434,3,0
360000,-0.001270,9.087760,-0.040179,-0.010522,25.053230,-0.002688,-0.000342,0.000388,1.570567,-0.002010,0.000019,0.000207,-0.000001,-0.000084,0.000000,0.002508,0.001311,0.119988,-0.033806,0.190534,0.190534,0.191370,0.980072,0.000000,0.000000,0.000000,0.000000,0.000000,0.000000,0.000000,0.000000,0.000000,0.000000,0.000000,0.000000,0.116185,3,0
370000,-0.001334,9.343439,-0.039684,-0.010717,25.058977,-0.002290,-0.000354,0.000488,1.570567,-0.002312,0.000021,0.000176,-0.000001,-0.000100,0.000000,0.004378,0.001377,0.163826,0.016611,0.188360,0.188360,0.188863,0.976779,0.000000,0.000000,0.000000,0.000000,0.000000,0.000000,0.000000,0.000000,0.000000,0.000000,0.000000,0.000000,0.158688,3,0
380000,-0.001399,9.600441,-0.039243,-0.010904,25.066216,-0.001839,-0.000358,0.000615,1.570554,-0.002711,0.000024,0.000148,-0.000001,-0.000122,0.000000,0.006907,0.001444,0.206273,0.014931,0.186412,0.186412,0.186586,0.973281,0.000000,0.000000,0.000000,0.000000,0.000000,0.000000,0.000000,0.000000,0.000000,0.000000,0.000000,0.000000,0.199869,3,0
390000,-0.001465,9.853827,-0.040623,-0.011224,25.069706,-0.002998,-0.000360,0.000675,1.570547,-0.002889,0.000027,0.000237,-0.000001,-0.000132,0.000000,0.001579,0.001512,0.088350,-0.044353,0.184674,0.184674,0.184522,0.969580,0.000000,0.000000,0.000000,0.000000,0.000000,0.000000,0.000000,0.000000,0.000000,0.000000,0.000000,0.000000,0.085644,3,0
400000,-0.001532,10.109198,-0.039635,-0.011512,25.075508,-0.002023,-0.000372,0.000780,1.570544,-0.003213,0.000030,0.000166,-0.000001,-0.000151,0.000000,0.003963,0.001581,0.152992,0.033454,0.183130,0.183130,0.182656,0.965675,0.000000,0.000000,0.000000,0.000000,0.000000,0.000000,0.000000,0.000000,0.000000,0.000000,0.000000,0.000000,0.148331,3,0
410000,-0.001600,10.366490,-0.040275,-0.011708,25.083717,-0.002683,-0.000381,0.000932,1.570542,-0.003690,0.000034,0.000212,-0.000002,-0.000180,0.000001,0.007583,0.001650,0.215626,-0.020528,0.181768,0.181768,0.180971,0.961566,0.000000,0.000000,0.000000,0.000000,0.000000,0.000000,0.000000,0.000000,0.000000,0.000000,0.000000,0.000000,0.209099,3,0
420000,-0.001669,10.623854,-0.039558,-0.012010,25.092115,-0.001825,-0.000382,0.001085,1.570533,-0.004189,0.000038,0.000155,-0.000002,-0.000210,0.000001,0.007690,0.001721,0.216677,0.024847,0.180575,0.180575,0.179456,0.957255,0.000000,0.000000,0.000000,0.000000,0.000000,0.000000,0.000000,0.000000,0.000000,0.000000,0.000000,0.000000,0.210162,3,0
430000,-0.001739,10.881291,-0.038536,-0.012336,25.100597,-0.000493,-0.000395,0.001265,1.570526,-0.004711,0.000042,0.000071,-0.000002,-0.000243,0.000001,0.007858,0.001793,0.217656,0.035005,0.179539,0.179539,0.178097,0.952743,0.000000,0.000000,0.000000,0.000000,0.000000,0.000000,0.000000,0.000000,0.000000,0.000000,0.000000,0.000000,0.211151,3,0
440000,-0.001810,11.138811,-0.038778,-0.012573,25.109476,-0.000888,-0.000402,0.001452,1.570521,-0.005256,0.000047,0.000091,-0.000002,-0.000278,0.000001,0.007735,0.001866,0.218558,-0.007985,0.178649,0.178649,0.176883,0.948033,0.000000,0.000000,0.000000,0.000000,0.000000,0.000000,0.000000,0.000000,0.000000,0.000000,0.000000,0.000000,0.212058,3,0
450000,-0.001882,11.395237,-0.037427,-0.012851,25.117022,0.000801,-0.000411,0.001605,1.570512,-0.005721,0.000052,-0.000030,-0.000003,-0.000309,0.000001,0.005567,0.001940,0.179618,0.046413,0.177896,0.177896,0.175803,0.943127,0.000000,0.000000,0.000000,0.000000,0.000000,0.000000,0.000000,0.000000,0.000000,0.000000,0.000000,0.000000,0.174303,3,0
460000,-0.001954,11.649426,-0.037837,-0.013016,25.121504,0.000164,-0.000421,0.001691,1.570500,-0.005995,0.000057,0.000009,-0.000003,-0.000328,0.000001,0.001718,0.002013,0.102028,-0.014315,0.177271,0.177271,0.174847,0.938028,0.000000,0.000000,0.000000,0.000000,0.000000,0.000000,0.000000,0.000000,0.000000,0.000000,0.000000,0.000000,0.099033,3,0
470000,-0.002025,11.906704,-0.036626,-0.013265,25.130272,0.001735,-0.000427,0.001879,1.570486,-0.006568,0.000063,-0.000107,-0.000004,-0.000367,0.000001,0.007120,0.002087,0.205614,0.041682,0.176763,0.176763,0.174006,0.932739,0.000000,0.000000,0.000000,0.000000,0.000000,0.000000,0.000000,0.000000,0.000000,0.000000,0.000000,0.000000,0.199567,3,0
480000,-0.002098,12.164087,-0.036100,-0.013508,25.139309,0.002386,-0.000428,0.002089,1.570487,-0.007163,0.000069,-0.000158,-0.000004,-0.000410,0.000001,0.006961,0.002161,0.206674,0.017640,0.176365,0.176365,0.173271,0.927266,0.000000,0.000000,0.000000,0.000000,0.000000,0.000000,0.000000,0.000000,0.000000,0.000000,0.000000,0.000000,0.200610,3,0
490000,-0.002171,12.419245,-0.035368,-0.013744,25.145111,0.003257,-0.000444,0.002227,1.570475,-0.007545,0.000075,-0.000232,-0.000005,-0.000437,0.000001,0.002754,0.002236,0.128111,0.024620,0.176069,0.176069,0.172634,0.921613,0.000000,0.000000,0.000000,0.000000,0.000000,0.000000,0.000000,0.000000,0.000000,0.000000,0.000000,0.000000,0.124370,3,0
500000,-0.002243,12.673967,-0.035639,-0.013924,25.150352,0.003107,-0.000441,0.002342,1.570458,-0.007887,0.000083,-0.000199,-0.000005,-0.000463,0.000001,0.002028,0.002311,0.111442,-0.010665,0.175867,0.175867,0.172087,0.915784,0.000000,0.000000,0.000000,0.000000,0.000000,0.000000,0.000000,0.000000,0.000000,0.000000,0.000000,0.000000,0.108199,3,0
510000,-0.002316,12.930596,-0.035368,-0.014214,25.158537,0.003305,-0.000454,0.002532,1.570441,-0.008441,0.000090,-0.000226,-0.000006,-0.000505,0.000002,0.004952,0.002386,0.174727,0.008446,0.175753,0.175753,0.171622,0.909785,0.000000,0.000000,0.000000,0.000000,0.000000,0.000000,0.000000,0.000000,0.000000,0.000000,0.000000,0.000000,0.169625,3,0
520000,-0.002390,13.186192,-0.036375,-0.014437,25.165121,0.001824,-0.000455,0.002689,1.570429,-0.008888,0.000098,-0.000106,-0.000006,-0.000540,0.000002,0.003238,0.002462,0.136686,-0.036407,0.175720,0.175720,0.171234,0.903621,0.000000,0.000000,0.000000,0.000000,0.000000,0.000000,0.000000,0.000000,0.000000,0.000000,0.000000,0.000000,0.132704,3,0
530000,-0.002462,13.442516,-0.036383,-0.014546,25.172791,0.001941,-0.000453,0.002869,1.570415,-0.009424,0.000106,-0.000103,-0.000007,-0.000582,0.000002,0.004108,0.002536,0.159329,-0.000936,0.175760,0.175760,0.170914,0.897299,0.000000,0.000000,0.000000,0.000000,0.000000,0.000000,0.000000,0.000000,0.000000,0.000000,0.000000,0.000000,0.154682,3,0
540000,-0.002534,13.700728,-0.036063,-0.014759,25.183411,0.002297,-0.000454,0.003135,1.570403,-0.010189,0.000115,-0.000140,-0.000008,-0.000644,0.000002,0.007920,0.002611,0.220990,0.010601,0.175870,0.175870,0.170658,0.890826,0.000000,0.000000,0.000000,0.000000,0.000000,0.000000,0.000000,0.000000,0.000000,0.000000,0.000000,0.000000,0.214528,3,0
550000,-0.002606,13.956140,-0.036221,-0.014918,25.189625,0.002137,-0.000449,0.003288,1.570390,-0.010622,0.000125,-0.000118,-0.000008,-0.000680,0.000002,0.002404,0.002685,0.121703,-0.006383,0.176042,0.176042,0.170460,0.884207,0.000000,0.000000,0.000000,0.000000,0.000000,0.000000,0.000000,0.000000,0.000000,0.000000,0.000000,0.000000,0.118161,3,0
560000,-0.002677,14.214043,-0.035430,-0.015148,25.199797,0.003457,-0.000446,0.003545,1.570388,-0.011368,0.000135,-0.000218,-0.000009,-0.000743,0.000002,0.006863,0.002759,0.204170,0.027051,0.176271,0.176271,0.170314,0.877450,0.000000,0.000000,0.000000,0.000000,0.000000,0.000000,0.000000,0.000000,0.000000,0.000000,0.000000,0.000000,0.198190,3,0
570000,-0.002749,14.472653,-0.035277,-0.015372,25.211002,0.003619,-0.000460,0.003851,1.570382,-0.012209,0.000145,-0.000234,-0.000010,-0.000815,0.000002,0.008155,0.002833,0.224471,0.004181,0.176553,0.176553,0.170214,0.870562,0.000000,0.000000,0.000000,0.000000,0.000000,0.000000,0.000000,0.000000,0.000000,0.000000,0.000000,0.000000,0.217883,3,0
580000,-0.002820,14.731381,-0.034337,-0.015518,25.222435,0.005098,-0.000462,0.004172,1.570364,-0.013070,0.000156,-0.000358,-0.000011,-0.000890,0.000003,0.008294,0.002906,0.224174,0.031855,0.176882,0.176882,0.170157,0.863551,0.000000,0.000000,0.000000,0.000000,0.000000,0.000000,0.000000,0.000000,0.000000,0.000000,0.000000,0.000000,0.217583,3,0
590000,-0.002891,14.987288,-0.033081,-0.015773,25.229200,0.006967,-0.000469,0.004350,1.570363,-0.013559,0.000168,-0.000528,-0.000012,-0.000934,0.000003,0.002795,0.002979,0.124363,0.042456,0.177254,0.177254,0.170138,0.856424,0.000000,0.000000,0.000000,0.000000,0.000000,0.000000,0.000000,0.000000,0.000000,0.000000,0.000000,0.000000,0.120724,3,0
600000,-0.002962,15.245698,-0.033900,-0.015959,25.239969,0.005724,-0.000465,0.004659,1.570354,-0.014390,0.000180,-0.000400,-0.000013,-0.001010,0.000003,0.007046,0.003052,0.206330,-0.031348,0.177664,0.177664,0.170152,0.849189,0.000000,0.000000,0.000000,0.000000,0.000000,0.000000,0.000000,0.000000,0.000000,0.000000,0.000000,0.000000,0.200242,3,0
610000,-0.003031,15.505409,-0.033405,-0.016081,25.252848,0.006598,-0.000461,0.005030,1.570351,-0.015402,0.000193,-0.000465,-0.000015,-0.001104,0.000003,0.009826,0.003124,0.245995,0.015393,0.178109,0.178109,0.170195,0.841854,0.000000,0.000000,0.000000,0.000000,0.000000,0.000000,0.000000,0.000000,0.000000,0.000000,0.000000,0.000000,0.238712,3,0
620000,-0.003099,15.765819,-0.033934,-0.016151,25.266769,0.005926,-0.000469,0.005444,1.570340,-0.016515,0.000206,-0.000375,-0.000016,-0.001210,0.000004,0.011382,0.003194,0.264459,-0.020991,0.178583,0.178583,0.170264,0.834428,0.000000,0.000000,0.000000,0.000000,0.000000,0.000000,0.000000,0.000000,0.000000,0.000000,0.000000,0.000000,0.256606,3,0
630000,-0.003167,16.025732,-0.034525,-0.016378,25.279701,0.004908,-0.000476,0.005833,1.570337,-0.017556,0.000220,-0.000276,-0.000017,-0.001310,0.000004,0.009591,0.003265,0.242456,-0.022830,0.179085,0.179085,0.170355,0.826917,0.000000,0.000000,0.000000,0.000000,0.000000,0.000000,0.000000,0.000000,0.000000,0.000000,0.000000,0.000000,0.235241,3,0
640000,-0.003234,16.282179,-0.035036,-0.016452,25.286867,0.004075,-0.000470,0.006036,1.570335,-0.018089,0.000235,-0.000187,-0.000019,-0.001363,0.000004,0.002454,0.003334,0.121567,-0.019695,0.179609,0.179609,0.170465,0.819331,0.000000,0.000000,0.000000,0.000000,0.000000,0.000000,0.000000,0.000000,0.000000,0.000000,0.000000,0.000000,0.117972,3,0
650000,-0.003299,16.540556,-0.034367,-0.016550,25.297243,0.004976,-0.000473,0.006357,1.570329,-0.018907,0.000250,-0.000289,-0.000020,-0.001445,0.000004,0.005502,0.003401,0.183109,0.022126,0.180154,0.180154,0.170591,0.811677,0.000000,0.000000,0.000000,0.000000,0.000000,0.000000,0.000000,0.000000,0.000000,0.000000,0.000000,0.000000,0.177643,3,0
660000,-0.003363,16.797857,-0.033685,-0.016716,25.305716,0.005797,-0.000478,0.006612,1.570321,-0.019559,0.000265,-0.000394,-0.000022,-0.001511,0.000005,0.003402,0.003468,0.143297,0.022285,0.180715,0.180715,0.170729,0.803964,0.000000,0.000000,0.000000,0.000000,0.000000,0.000000,0.000000,0.000000,0.000000,0.000000,0.000000,0.000000,0.139022,3,0
670000,-0.003427,17.057690,-0.034742,-0.016830,25.318365,0.004384,-0.000485,0.007022,1.570317,-0.020597,0.000281,-0.000208,-0.000023,-0.001619,0.000005,0.008350,0.003533,0.223852,-0.039182,0.181290,0.181289,0.170877,0.796199,0.000000,0.000000,0.000000,0.000000,0.000000,0.000000,0.000000,0.000000,0.000000,0.000000,0.000000,0.000000,0.217116,3,0
680000,-0.003488,17.318830,-0.034973,-0.016887,25.333183,0.004013,-0.000492,0.007510,1.570315,-0.021833,0.000298,-0.000162,-0.000025,-0.001750,0.000005,0.011117,0.003597,0.262075,-0.009593,0.181876,0.181875,0.171033,0.788391,0.000000,0.000000,0.000000,0.000000,0.000000,0.000000,0.000000,0.000000,0.000000,0.000000,0.000000,0.000000,0.254155,3,0
690000,-0.003550,17.577639,-0.035410,-0.017090,25.343792,0.003210,-0.000489,0.007846,1.570307,-0.022695,0.000316,-0.000080,-0.000027,-0.001843,0.000006,0.005265,0.003661,0.179699,-0.016630,0.182470,0.182470,0.171193,0.780548,0.000000,0.000000,0.000000,0.000000,0.000000,0.000000,0.000000,0.000000,0.000000,0.000000,0.000000,0.000000,0.174271,3,0
700000,-0.003611,17.837770,-0.035432,-0.017269,25.356468,0.003328,-0.000482,0.008273,1.570289,-0.023763,0.000334,-0.000071,-0.000029,-0.001961,0.000006,0.007750,0.003725,0.218967,-0.001927,0.183071,0.183071,0.171357,0.772676,0.000000,0.000000,0.000000,0.000000,0.000000,0.000000,0.000000,0.000000,0.000000,0.000000,0.000000,0.000000,0.212317,3,0
710000,-0.003671,18.096779,-0.035250,-0.017399,25.367125,0.003539,-0.000477,0.008637,1.570277,-0.024642,0.000352,-0.000099,-0.000031,-0.002059,0.000006,0.005090,0.003787,0.177376,0.005257,0.183675,0.183675,0.171522,0.764785,0.000000,0.000000,0.000000,0.000000,0.000000,0.000000,0.000000,0.000000,0.000000,0.000000,0.000000,0.000000,0.171985,3,0
720000,-0.003730,18.355280,-0.033945,-0.017510,25.376787,0.005597,-0.000483,0.008955,1.570258,-0.025430,0.000371,-0.000332,-0.000033,-0.002148,0.000007,0.004293,0.003848,0.156807,0.044356,0.184282,0.184282,0.171685,0.756882,0.000000,0.000000,0.000000,0.000000,0.000000,0.000000,0.000000,0.000000,0.000000,0.000000,0.000000,0.000000,0.152037,3,0
730000,-0.003787,18.616949,-0.034477,-0.017532,25.391806,0.004837,-0.000488,0.009493,1.570242,-0.026736,0.000391,-0.000224,-0.000036,-0.002299,0.000007,0.010659,0.003907,0.256031,-0.020504,0.184889,0.184888,0.171846,0.748973,0.000000,0.000000,0.000000,0.000000,0.000000,0.000000,0.000000,0.000000,0.000000,0.000000,0.000000,0.000000,0.248171,3,0
740000,-0.003843,18.874392,-0.035043,-0.017645,25.399326,0.004046,-0.000490,0.009741,1.570242,-0.027323,0.000411,-0.000109,-0.000038,-0.002368,0.000007,0.002157,0.003965,0.113483,-0.021415,0.185493,0.185493,0.172003,0.741066,0.000000,0.000000,0.000000,0.000000,0.000000,0.000000,0.000000,0.000000,0.000000,0.000000,0.000000,0.000000,0.110041,3,0
750000,-0.003898,19.131947,-0.036023,-0.017762,25.406929,0.002669,-0.000489,0.010010,1.570234,-0.027923,0.000432,0.000086,-0.000040,-0.002440,0.000007,0.002321,0.004023,0.114391,-0.035584,0.186095,0.186095,0.172155,0.733168,0.000000,0.000000,0.000000,0.000000,0.000000,0.000000,0.000000,0.000000,0.000000,0.000000,0.000000,0.000000,0.110912,3,0
760000,-0.003953,19.391472,-0.036314,-0.017941,25.418062,0.002227,-0.000489,0.010401,1.570226,-0.028852,0.000454,0.000147,-0.000043,-0.002553,0.000008,0.004958,0.004080,0.174822,-0.011010,0.186692,0.186692,0.172299,0.725286,0.000000,0.000000,0.000000,0.000000,0.000000,0.000000,0.000000,0.000000,0.000000,0.000000,0.000000,0.000000,0.169428,3,0
770000,-0.004007,19.652948,-0.035084,-0.018112,25.432350,0.003884,-0.000484,0.010925,1.570212,-0.030106,0.000476,-0.000094,-0.000046,-0.002708,0.000008,0.009075,0.004136,0.233248,0.042143,0.187283,0.187283,0.172435,0.717425,0.000000,0.000000,0.000000,0.000000,0.000000,0.000000,0.000000,0.000000,0.000000,0.000000,0.000000,0.000000,0.226003,3,0
780000,-0.004060,19.911379,-0.034363,-0.018199,25.441174,0.004916,-0.000483,0.011238,1.570209,-0.030817,0.000498,-0.000232,-0.000049,-0.002797,0.000009,0.002851,0.004191,0.130659,0.023779,0.187866,0.187866,0.172563,0.709594,0.000000,0.000000,0.000000,0.000000,0.000000,0.000000,0.000000,0.000000,0.000000,0.000000,0.000000,0.000000,0.126633,3,0
790000,-0.004111,20.171782,-0.033557,-0.018261,25.453377,0.005981,-0.000489,0.011698,1.570193,-0.031865,0.000522,-0.000388,-0.000052,-0.002931,0.000009,0.005956,0.004245,0.190203,0.026380,0.188442,0.188441,0.172680,0.701797,0.000000,0.000000,0.000000,0.000000,0.000000,0.000000,0.000000,0.000000,0.000000,0.000000,0.000000,0.000000,0.184275,3,0
800000,-0.004161,20.433510,-0.034026,-0.018249,25.467751,0.005251,-0.000481,0.012257,1.570178,-0.033133,0.000545,-0.000282,-0.000055,-0.003096,0.000009,0.008438,0.004296,0.227861,-0.018287,0.189007,0.189007,0.172787,0.694040,0.000000,0.000000,0.000000,0.000000,0.000000,0.000000,0.000000,0.000000,0.000000,0.000000,0.000000,0.000000,0.220723,3,0
810000,-0.004209,20.695925,-0.035022,-0.018233,25.483145,0.003688,-0.000471,0.012853,1.570162,-0.034508,0.000569,-0.000066,-0.000058,-0.003278,0.000010,0.009848,0.004346,0.244293,-0.036262,0.189563,0.189563,0.172882,0.686328,0.000000,0.000000,0.000000,0.000000,0.000000,0.000000,0.000000,0.000000,0.000000,0.000000,0.000000,0.000000,0.236612,3,0
820000,-0.004254,20.958385,-0.036353,-0.018219,25.498373,0.001579,-0.000479,0.013456,1.570158,-0.035873,0.000594,0.000219,-0.000061,-0.003462,0.000011,0.009673,0.004393,0.240150,-0.047304,0.190108,0.190107,0.172965,0.678668,0.000000,0.000000,0.000000,0.000000,0.000000,0.000000,0.000000,0.000000,0.000000,0.000000,0.000000,0.000000,0.232579,3,0
830000,-0.004299,21.217096,-0.036761,-0.018313,25.506847,0.001161,-0.000484,0.013769,1.570145,-0.036543,0.000619,0.000309,-0.000064,-0.003553,0.000011,0.002235,0.004440,0.116688,-0.014709,0.190641,0.190641,0.173035,0.671063,0.000000,0.000000,0.000000,0.000000,0.000000,0.000000,0.000000,0.000000,0.000000,0.000000,0.000000,0.000000,0.113062,3,0
840000,-0.004342,21.477791,-0.035509,-0.018374,25.518644,0.002866,-0.000488,0.014246,1.570142,-0.037562,0.000645,0.000037,-0.000068,-0.003694,0.000011,0.005300,0.004485,0.175955,0.043125,0.191163,0.191162,0.173092,0.663520,0.000000,0.000000,0.000000,0.000000,0.000000,0.000000,0.000000,0.000000,0.000000,0.000000,0.000000,0.000000,0.170404,3,0
850000,-0.004384,21.739178,-0.035086,-0.018479,25.531536,0.003668,-0.000492,0.014762,1.570122,-0.038693,0.000671,-0.000052,-0.000072,-0.003854,0.000012,0.006071,0.004529,0.193447,0.013703,0.191671,0.191671,0.173136,0.656041,0.000000,0.000000,0.000000,0.000000,0.000000,0.000000,0.000000,0.000000,0.000000,0.000000,0.000000,0.000000,0.187319,3,0
860000,-0.004427,21.998064,-0.035833,-0.018613,25.539934,0.002647,-0.000493,0.015090,1.570119,-0.039347,0.000698,0.000120,-0.000076,-0.003947,0.000012,0.002105,0.004573,0.110840,-0.027150,0.192168,0.192167,0.173166,0.648632,0.000000,0.000000,0.000000,0.000000,0.000000,0.000000,0.000000,0.000000,0.000000,0.000000,0.000000,0.000000,0.107382,3,0
870000,-0.004468,22.260857,-0.037150,-0.018662,25.555115,0.000499,-0.000495,0.015726,1.570097,-0.040711,0.000725,0.000417,-0.000079,-0.004146,0.000013,0.008853,0.004616,0.229568,-0.046341,0.192651,0.192650,0.173182,0.641295,0.000000,0.000000,0.000000,0.000000,0.000000,0.000000,0.000000,0.000000,0.000000,0.000000,0.000000,0.000000,0.222242,3,0
880000,-0.004508,22.520473,-0.036735,-0.018670,25.564505,0.000974,-0.000482,0.016096,1.570080,-0.041464,0.000753,0.000321,-0.000084,-0.004257,0.000013,0.002584,0.004658,0.125656,0.014311,0.193120,0.193119,0.173183,0.634037,0.000000,0.000000,0.000000,0.000000,0.000000,0.000000,0.000000,0.000000,0.000000,0.000000,0.000000,0.000000,0.121696,3,0
890000,-0.004546,22.782076,-0.036758,-0.018712,25.577221,0.001080,-0.000483,0.016629,1.570063,-0.042574,0.000781,0.000325,-0.000088,-0.004424,0.000014,0.005465,0.004697,0.184008,-0.001047,0.193577,0.193576,0.173171,0.626858,0.000000,0.000000,0.000000,0.000000,0.000000,0.000000,0.000000,0.000000,0.000000,0.000000,0.000000,0.000000,0.178130,3,0
900000,-0.004582,23.044359,-0.037959,-0.018655,25.591045,-0.000745,-0.000484,0.017229,1.570046,-0.043794,0.000809,0.000602,-0.000092,-0.004610,0.000014,0.006775,0.004735,0.200581,-0.041829,0.194019,0.194018,0.173145,0.619763,0.000000,0.000000,0.000000,0.000000,0.000000,0.000000,0.000000,0.000000,0.000000,0.000000,0.000000,0.000000,0.194148,3,0
910000,-0.004618,23.305376,-0.038690,-0.018693,25.602388,-0.001638,-0.000488,0.017700,1.570038,-0.044754,0.000838,0.000768,-0.000096,-0.004759,0.000015,0.004071,0.004772,0.156828,-0.025032,0.194449,0.194448,0.173104,0.612754,0.000000,0.000000,0.000000,0.000000,0.000000,0.000000,0.000000,0.000000,0.000000,0.000000,0.000000,0.000000,0.151815,3,0
920000,-0.004651,23.565138,-0.037362,-0.018741,25.611303,0.000163,-0.000480,0.018061,1.570038,-0.045457,0.000868,0.000447,-0.000101,-0.004870,0.000015,0.002467,0.004808,0.114365,0.046752,0.194865,0.194863,0.173049,0.605835,0.000000,0.000000,0.000000,0.000000,0.000000,0.000000,0.000000,0.000000,0.000000,0.000000,0.000000,0.000000,0.110749,3,0
930000,-0.004684,23.827539,-0.036918,-0.018807,25.624804,0.000698,-0.000470,0.018652,1.570024,-0.046649,0.000897,0.000335,-0.000106,-0.005060,0.000016,0.006015,0.004842,0.192455,0.015559,0.195267,0.195266,0.172980,0.599007,0.000000,0.000000,0.000000,0.000000,0.000000,0.000000,0.000000,0.000000,0.000000,0.000000,0.000000,0.000000,0.186250,3,0
940000,-0.004716,24.087360,-0.036355,-0.018803,25.633568,0.001346,-0.000459,0.019008,1.570015,-0.047327,0.000928,0.000198,-0.000111,-0.005170,0.000016,0.001974,0.004875,0.108828,0.019426,0.195657,0.195655,0.172897,0.592272,0.000000,0.000000,0.000000,0.000000,0.000000,0.000000,0.000000,0.000000,0.000000,0.000000,0.000000,0.000000,0.105385,3,0
950000,-0.004746,24.347229,-0.035853,-0.018758,25.642380,0.001909,-0.000450,0.019380,1.570000,-0.047999,0.000958,0.000075,-0.000116,-0.005281,0.000016,0.001909,0.004906,0.107344,0.017114,0.196033,0.196031,0.172801,0.585634,0.000000,0.000000,0.000000,0.000000,0.000000,0.000000,0.000000,0.000000,0.000000,0.000000,0.000000,0.000000,0.103946,3,0
960000,-0.004774,24.610397,-0.037229,-0.018674,25.656878,-0.000129,-0.000436,0.020044,1.569987,-0.049292,0.000989,0.000413,-0.000121,-0.005498,0.000017,0.007170,0.004935,0.205208,-0.048262,0.196396,0.196395,0.172690,0.579094,0.000000,0.000000,0.000000,0.000000,0.000000,0.000000,0.000000,0.000000,0.000000,0.000000,0.000000,0.000000,0.198548,3,0
970000,-0.004801,24.871607,-0.035910,-0.018740,25.667774,0.001567,-0.000431,0.020525,1.569970,-0.050182,0.001020,0.000079,-0.000127,-0.005648,0.000017,0.003538,0.004965,0.140680,0.046096,0.196748,0.196745,0.172567,0.572652,0.000000,0.000000,0.000000,0.000000,0.000000,0.000000,0.000000,0.000000,0.000000,0.000000,0.000000,0.000000,0.136153,3,0
980000,-0.004827,25.132837,-0.035830,-0.018659,25.678465,0.001694,-0.000418,0.021001,1.569957,-0.051058,0.001051,0.000058,-0.000132,-0.005799,0.000018,0.003065,0.004991,0.137791,0.002398,0.197086,0.197084,0.172431,0.566312,0.000000,0.000000,0.000000,0.000000,0.000000,0.000000,0.000000,0.000000,0.000000,0.000000,0.000000,0.000000,0.133352,3,0
990000,-0.004851,25.395397,-0.036124,-0.018675,25.691469,0.001219,-0.000410,0.021602,1.569948,-0.052173,0.001083,0.000131,-0.000138,-0.005995,0.000018,0.004938,0.005016,0.174635,-0.010648,0.197413,0.197411,0.172282,0.560073,0.000000,0.000000,0.000000,0.000000,0.000000,0.000000,0.000000,0.000000,0.000000,0.000000,0.000000,0.000000,0.168958,3,0
1000000,-0.004874,25.654024,-0.035281,-0.018577,25.697432,0.002287,-0.000405,0.021821,1.569932,-0.052500,0.001115,-0.000085,-0.000143,-0.006053,0.000019,0.000562,0.005040,0.051098,0.029046,0.197729,0.197726,0.172121,0.553937,0.000000,0.000000,0.000000,0.000000,0.000000,0.000000,0.000000,0.000000,0.000000,0.000000,0.000000,0.000000,0.049655,3,0
1010000,-0.004895,25.913361,-0.034385,-0.018579,25.704437,0.003652,-0.000401,0.022101,1.569933,-0.052954,0.001148,-0.000314,-0.000149,-0.006134,0.000019,0.000961,0.005062,0.070715,0.030511,0.198033,0.198030,0.171947,0.547904,0.000000,0.000000,0.000000,0.000000,0.000000,0.000000,0.000000,0.000000,0.000000,0.000000,0.000000,0.000000,0.068557,3,0
1020000,-0.004915,26.176682,-0.034068,-0.018524,25.718422,0.004061,-0.000382,0.022782,1.569919,-0.054174,0.001180,-0.000395,-0.000155,-0.006358,0.000020,0.005778,0.005083,0.189007,0.010027,0.198327,0.198324,0.171762,0.541976,0.000000,0.000000,0.000000,0.000000,0.000000,0.000000,0.000000,0.000000,0.000000,0.000000,0.000000,0.000000,0.182826,3,0
1030000,-0.004935,26.439987,-0.034579,-0.018576,25.732296,0.003347,-0.000374,0.023458,1.569904,-0.055366,0.001213,-0.000257,-0.000161,-0.006580,0.000020,0.005517,0.005104,0.183971,-0.019064,0.198610,0.198607,0.171566,0.536153,0.000000,0.000000,0.000000,0.000000,0.000000,0.000000,0.000000,0.000000,0.000000,0.000000,0.000000,0.000000,0.177950,3,0
1040000,-0.004953,26.699978,-0.033539,-0.018516,25.740028,0.004888,-0.000354,0.023776,1.569903,-0.055882,0.001246,-0.000528,-0.000168,-0.006677,0.000021,0.001226,0.005123,0.079557,0.035297,0.198884,0.198880,0.171358,0.530434,0.000000,0.000000,0.000000,0.000000,0.000000,0.000000,0.000000,0.000000,0.000000,0.000000,0.000000,0.000000,0.077081,3,0
1050000,-0.004969,26.963295,-0.032808,-0.018445,25.753597,0.005726,-0.000343,0.024438,1.569884,-0.057037,0.001279,-0.000721,-0.000174,-0.006898,0.000021,0.005165,0.005140,0.177309,0.024203,0.199148,0.199144,0.171141,0.524821,0.000000,0.000000,0.000000,0.000000,0.000000,0.000000,0.000000,0.000000,0.000000,0.000000,0.000000,0.000000,0.171497,3,0
1060000,-0.004986,27.224609,-0.033949,-0.018445,25.763517,0.003956,-0.000339,0.024897,1.569877,-0.057773,0.001312,-0.000401,-0.000181,-0.007042,0.000022,0.002332,0.005157,0.112646,-0.041854,0.199403,0.199399,0.170913,0.519314,0.000000,0.000000,0.000000,0.000000,0.000000,0.000000,0.000000,0.000000,0.000000,0.000000,0.000000,0.000000,0.109014,3,0
1070000,-0.005001,27.485268,-0.035042,-0.018332,25.772116,0.002273,-0.000327,0.025269,1.569860,-0.058362,0.001346,-0.000096,-0.000187,-0.007158,0.000022,0.001557,0.005172,0.089779,-0.039642,0.199650,0.199645,0.170675,0.513912,0.000000,0.000000,0.000000,0.000000,0.000000,0.000000,0.000000,0.000000,0.000000,0.000000,0.000000,0.000000,0.086934,3,0
1080000,-0.005012,27.743286,-0.033988,-0.018209,25.776012,0.003883,-0.000313,0.025353,1.569849,-0.058413,0.001380,-0.000381,-0.000194,-0.007168,0.000022,0.000228,0.005186,0.007944,0.036268,0.199888,0.199883,0.170428,0.508615,0.000000,0.000000,0.000000,0.000000,0.000000,0.000000,0.000000,0.000000,0.000000,0.000000,0.000000,0.000000,0.009172,3,0
1090000,-0.005025,28.001358,-0.033911,-0.018266,25.779961,0.003852,-0.000296,0.025448,1.569849,-0.058468,0.001414,-0.000392,-0.000201,-0.007179,0.000022,0.000016,0.005198,0.008312,0.001371,0.200119,0.200113,0.170172,0.503424,0.000000,0.000000,0.000000,0.000000,0.000000,0.000000,0.000000,0.000000,0.000000,0.000000,0.000000,0.000000,0.009477,3,0
1100000,-0.005035,28.262133,-0.032788,-0.018135,25.788439,0.005200,-0.000284,0.025840,1.569835,-0.059047,0.001448,-0.000703,-0.000208,-0.007298,0.000023,0.001496,0.005209,0.088142,0.038508,0.200342,0.200337,0.169907,0.498336,0.000000,0.000000,0.000000,0.000000,0.000000,0.000000,0.000000,0.000000,0.000000,0.000000,0.000000,0.000000,0.085350,3,0
1110000,-0.005045,28.523584,-0.034171,-0.018134,25.798061,0.003076,-0.000282,0.026288,1.569821,-0.059744,0.001482,-0.000302,-0.000215,-0.007445,0.000023,0.002214,0.005219,0.105589,-0.050520,0.200559,0.200553,0.169634,0.493352,0.000000,0.000000,0.000000,0.000000,0.000000,0.000000,0.000000,0.000000,0.000000,0.000000,0.000000,0.000000,0.102181,3,0
1120000,-0.005055,28.785696,-0.035541,-0.018088,25.808716,0.001234,-0.000260,0.026819,1.569802,-0.060552,0.001516,0.000091,-0.000222,-0.007617,0.000024,0.002811,0.005229,0.122345,-0.049407,0.200770,0.200763,0.169354,0.488472,0.000000,0.000000,0.000000,0.000000,0.000000,0.000000,0.000000,0.000000,0.000000,0.000000,0.000000,0.000000,0.118356,3,0
1130000,-0.005063,29.045788,-0.034253,-0.018085,25.815643,0.002760,-0.000251,0.027107,1.569789,-0.060940,0.001551,-0.000282,-0.000230,-0.007700,0.000024,0.000899,0.005239,0.058916,0.045476,0.200974,0.200967,0.169066,0.483694,0.000000,0.000000,0.000000,0.000000,0.000000,0.000000,0.000000,0.000000,0.000000,0.000000,0.000000,0.000000,0.057170,3,0
1140000,-0.005070,29.308563,-0.033961,-0.017978,25.827263,0.002975,-0.000237,0.027698,1.569775,-0.061843,0.001585,-0.000369,-0.000237,-0.007897,0.000025,0.003030,0.005246,0.136696,0.009728,0.201173,0.201166,0.168771,0.479018,0.000000,0.000000,0.000000,0.000000,0.000000,0.000000,0.000000,0.000000,0.000000,0.000000,0.000000,0.000000,0.132210,3,0
1150000,-0.005075,29.569979,-0.034652,-0.017849,25.836424,0.001791,-0.000224,0.028129,1.569771,-0.062455,0.001620,-0.000165,-0.000245,-0.008034,0.000025,0.001486,0.005251,0.092470,-0.025389,0.201367,0.201359,0.168470,0.474444,0.000000,0.000000,0.000000,0.000000,0.000000,0.000000,0.000000,0.000000,0.000000,0.000000,0.000000,0.000000,0.089509,3,0
1160000,-0.005079,29.829378,-0.034282,-0.017730,25.841759,0.002152,-0.000210,0.028312,1.569773,-0.062651,0.001654,-0.000272,-0.000253,-0.008078,0.000025,0.000173,0.005256,0.029753,0.012673,0.201557,0.201548,0.168162,0.469970,0.000000,0.000000,0.000000,0.000000,0.000000,0.000000,0.000000,0.000000,0.000000,0.000000,0.000000,0.000000,0.029198,3,0
1170000,-0.005082,30.088127,-0.033508,-0.017685,25.845888,0.003165,-0.000201,0.028419,1.569765,-0.062709,0.001689,-0.000497,-0.000261,-0.008090,0.000025,0.000134,0.005259,0.008848,0.026904,0.201742,0.201733,0.167849,0.465594,0.000000,0.000000,0.000000,0.000000,0.000000,0.000000,0.000000,0.000000,0.000000,0.000000,0.000000,0.000000,0.009948,3,0
1180000,-0.005085,30.350258,-0.034848,-0.017640,25.856087,0.001199,-0.000187,0.028925,1.569748,-0.063423,0.001723,-0.000093,-0.000269,-0.008257,0.000026,0.002264,0.005261,0.107874,-0.048807,0.201923,0.201914,0.167531,0.461318,0.000000,0.000000,0.000000,0.000000,0.000000,0.000000,0.000000,0.000000,0.000000,0.000000,0.000000,0.000000,0.104364,3,0
1190000,-0.005086,30.613035,-0.036084,-0.017495,25.867256,-0.000554,-0.000178,0.029503,1.569746,-0.064244,0.001758,0.000275,-0.000277,-0.008451,0.000026,0.002799,0.005263,0.123949,-0.044437,0.202101,0.202091,0.167207,0.457138,0.000000,0.000000,0.000000,0.000000,0.000000,0.000000,0.000000,0.000000,0.000000,0.000000,0.000000,0.000000,0.119878,3,0
1200000,-0.005086,30.875772,-0.035480,-0.017472,25.878180,0.000138,-0.000170,0.030062,1.569735,-0.065032,0.001792,0.000077,-0.000285,-0.008639,0.000027,0.002384,0.005264,0.119484,0.022284,0.202276,0.202266,0.166879,0.453054,0.000000,0.000000,0.000000,0.000000,0.000000,0.000000,0.000000,0.000000,0.000000,0.000000,0.000000,0.000000,0.115570,3,0
1210000,-0.005087,31.135126,-0.036626,-0.017396,25.883087,-0.001402,-0.000162,0.030204,1.569736,-0.065137,0.001827,0.000431,-0.000293,-0.008665,0.000027,0.000320,0.005263,0.015669,-0.041295,0.202449,0.202437,0.166547,0.449066,0.000000,0.000000,0.000000,0.000000,0.000000,0.000000,0.000000,0.000000,0.000000,0.000000,0.000000,0.000000,0.015969,3,0
1220000,-0.005085,31.396507,-0.036481,-0.017366,25.891499,-0.001184,-0.000155,0.030593,1.569726,-0.065627,0.001862,0.000374,-0.000302,-0.008785,0.000028,0.000900,0.005263,0.074329,0.005950,0.202619,0.202607,0.166210,0.445171,0.000000,0.000000,0.000000,0.000000,0.000000,0.000000,0.000000,0.000000,0.000000,0.000000,0.000000,0.000000,0.071999,3,0
1230000,-0.005083,31.659212,-0.035959,-0.017215,25.901979,-0.000523,-0.000137,0.031133,1.569706,-0.066358,0.001896,0.000195,-0.000310,-0.008967,0.000028,0.002053,0.005261,0.111050,0.019659,0.202787,0.202774,0.165870,0.441367,0.000000,0.000000,0.000000,0.000000,0.000000,0.000000,0.000000,0.000000,0.000000,0.000000,0.000000,0.000000,0.107418,3,0
1240000,-0.005080,31.920532,-0.034859,-0.017248,25.909914,0.000675,-0.000122,0.031501,1.569695,-0.066796,0.001930,-0.000163,-0.000319,-0.009077,0.000029,0.000989,0.005258,0.066906,0.040360,0.202954,0.202940,0.165527,0.437655,0.000000,0.000000,0.000000,0.000000,0.000000,0.000000,0.000000,0.000000,0.000000,0.000000,0.000000,0.000000,0.064845,3,0
1250000,-0.005076,32.178467,-0.033644,-0.017200,25.911867,0.002060,-0.000113,0.031437,1.569686,-0.066562,0.001965,-0.000545,-0.000328,-0.009016,0.000028,0.000518,0.005255,-0.035465,0.043840,0.203119,0.203105,0.165181,0.434033,0.000000,0.000000,0.000000,0.000000,0.000000,0.000000,0.000000,0.000000,0.000000,0.000000,0.000000,0.000000,0.034634,3,0
1260000,-0.005072,32.439804,-0.033070,-0.017087,25.919687,0.002773,-0.000097,0.031794,1.569672,-0.066983,0.001999,-0.000730,-0.000337,-0.009125,0.000029,0.000739,0.005250,0.064404,0.020342,0.203283,0.203268,0.164833,0.430499,0.000000,0.000000,0.000000,0.000000,0.000000,0.000000,0.000000,0.000000,0.000000,0.000000,0.000000,0.000000,0.062432,3,0
1270000,-0.005067,32.703152,-0.033981,-0.016968,25.931051,0.001425,-0.000087,0.032405,1.569668,-0.067777,0.002033,-0.000440,-0.000346,-0.009335,0.000030,0.002548,0.005245,0.121048,-0.033753,0.203447,0.203431,0.164482,0.427052,0.000000,0.000000,0.000000,0.000000,0.000000,0.000000,0.000000,0.000000,0.000000,0.000000,0.000000,0.000000,0.117049,3,0
1280000,-0.005061,32.961044,-0.033922,-0.016840,25.932669,0.001460,-0.000075,0.032311,1.569668,-0.067496,0.002067,-0.000450,-0.000355,-0.009260,0.000029,0.000303,0.005239,-0.043018,0.001491,0.203610,0.203594,0.164130,0.423691,0.000000,0.000000,0.000000,0.000000,0.000000,0.000000,0.000000,0.000000,0.000000,0.000000,0.000000,0.000000,0.041864,3,0
1290000,-0.005054,33.223019,-0.033125,-0.016760,25.941477,0.002216,-0.000057,0.032731,1.569667,-0.067995,0.002101,-0.000718,-0.000365,-0.009395,0.000030,0.001090,0.005232,0.076771,0.029016,0.203773,0.203756,0.163775,0.420414,0.000000,0.000000,0.000000,0.000000,0.000000,0.000000,0.000000,0.000000,0.000000,0.000000,0.000000,0.000000,0.074337,3,0
1300000,-0.005047,33.486317,-0.033845,-0.016688,25.952538,0.001304,-0.000047,0.033325,1.569661,-0.068729,0.002134,-0.000486,-0.000374,-0.009598,0.000030,0.002173,0.005224,0.112892,-0.026828,0.203936,0.203918,0.163420,0.417219,0.000000,0.000000,0.000000,0.000000,0.000000,0.000000,0.000000,0.000000,0.000000,0.000000,0.000000,0.000000,0.109167,3,0
1310000,-0.005038,33.745499,-0.034223,-0.016559,25.956129,0.000867,-0.000033,0.033363,1.569662,-0.068656,0.002168,-0.000353,-0.000383,-0.009578,0.000030,0.000059,0.005215,-0.011364,-0.014451,0.204099,0.204081,0.163063,0.414106,0.000000,0.000000,0.000000,0.000000,0.000000,0.000000,0.000000,0.000000,0.000000,0.000000,0.000000,0.000000,0.012080,3,0
1320000,-0.005028,34.008747,-0.033395,-0.016461,25.966850,0.001740,-0.000017,0.033946,1.569650,-0.069347,0.002201,-0.000645,-0.000393,-0.009773,0.000031,0.002005,0.005206,0.107117,0.030730,0.204263,0.204244,0.162705,0.411073,0.000000,0.000000,0.000000,0.000000,0.000000,0.000000,0.000000,0.000000,0.000000,0.000000,0.000000,0.000000,0.103596,3,0
1330000,-0.005019,34.271267,-0.034415,-0.016386,25.976248,0.000171,0.000005,0.034426,1.569635,-0.069879,0.002235,-0.000304,-0.000402,-0.009927,0.000032,0.001328,0.005195,0.082310,-0.037891,0.204428,0.204407,0.162347,0.408119,0.000000,0.000000,0.000000,0.000000,0.000000,0.000000,0.000000,0.000000,0.000000,0.000000,0.000000,0.000000,0.079660,3,0
1340000,-0.005010,34.531029,-0.035273,-0.016377,25.980492,-0.001058,0.000026,0.034513,1.569626,-0.069871,0.002268,-0.000010,-0.000412,-0.009926,0.000032,0.000169,0.005186,-0.001392,-0.031819,0.204593,0.204572,0.161989,0.405241,0.000000,0.000000,0.000000,0.000000,0.000000,0.000000,0.000000,0.000000,0.000000,0.000000,0.000000,0.000000,0.005188,3,0
1350000,-0.004998,34.794174,-0.034866,-0.016249,25.990755,-0.000485,0.000046,0.035065,1.569624,-0.070488,0.002301,-0.000168,-0.000422,-0.010108,0.000032,0.001548,0.005175,0.096619,0.015914,0.204759,0.204737,0.161630,0.402438,0.000000,0.000000,0.000000,0.000000,0.000000,0.000000,0.000000,0.000000,0.000000,0.000000,0.000000,0.000000,0.093457,3,0
1360000,-0.004986,35.053185,-0.033809,-0.016201,25.993414,0.000696,0.000070,0.035020,1.569628,-0.070312,0.002334,-0.000534,-0.000432,-0.010054,0.000032,0.000378,0.005163,-0.027477,0.039454,0.204927,0.204904,0.161272,0.399710,0.000000,0.000000,0.000000,0.000000,0.000000,0.000000,0.000000,0.000000,0.000000,0.000000,0.000000,0.000000,0.026999,3,0
1370000,-0.004975,35.315601,-0.034077,-0.016156,26.002222,0.000463,0.000089,0.035450,1.569623,-0.070765,0.002366,-0.000448,-0.000442,-0.010192,0.000033,0.000839,0.005151,0.071308,-0.009977,0.205096,0.205072,0.160914,0.397054,0.000000,0.000000,0.000000,0.000000,0.000000,0.000000,0.000000,0.000000,0.000000,0.000000,0.000000,0.000000,0.069050,3,0
1380000,-0.004963,35.575253,-0.034675,-0.016045,26.005888,-0.000124,0.000100,0.035495,1.569625,-0.070688,0.002399,-0.000233,-0.000452,-0.010169,0.000033,0.000112,0.005139,-0.012287,-0.022632,0.205266,0.205241,0.160557,0.394469,0.000000,0.000000,0.000000,0.000000,0.000000,0.000000,0.000000,0.000000,0.000000,0.000000,0.000000,0.000000,0.012867,3,0
1390000,-0.004952,35.838303,-0.035555,-0.015999,26.015652,-0.001353,0.000114,0.036018,1.569615,-0.071230,0.002431,0.000064,-0.000461,-0.010340,0.000033,0.001361,0.005126,0.085846,-0.032412,0.205439,0.205412,0.160201,0.391954,0.000000,0.000000,0.000000,0.000000,0.000000,0.000000,0.000000,0.000000,0.000000,0.000000,0.000000,0.000000,0.083049,3,0
1400000,-0.004939,36.099247,-0.036310,-0.015905,26.021601,-0.002234,0.000127,0.036226,1.569603,-0.071366,0.002463,0.000326,-0.000471,-0.010384,0.000033,0.000203,0.005114,0.021484,-0.027757,0.205612,0.205585,0.159846,0.389508,0.000000,0.000000,0.000000,0.000000,0.000000,0.000000,0.000000,0.000000,0.000000,0.000000,0.000000,0.000000,0.021324,3,0
1410000,-0.004924,36.359470,-0.035287,-0.015769,26.026054,-0.000805,0.000141,0.036322,1.569605,-0.071358,0.002495,-0.000050,-0.000482,-0.010381,0.000034,0.000255,0.005100,-0.000969,0.039296,0.205788,0.205760,0.159491,0.387128,0.000000,0.000000,0.000000,0.000000,0.000000,0.000000,0.000000,0.000000,0.000000,0.000000,0.000000,0.000000,0.005011,3,0
1420000,-0.004911,36.621052,-0.036038,-0.015745,26.033003,-0.001873,0.000161,0.036602,1.569590,-0.071588,0.002526,0.000213,-0.000492,-0.010457,0.000034,0.000349,0.005085,0.036945,-0.027782,0.205965,0.205936,0.159139,0.384814,0.000000,0.000000,0.000000,0.000000,0.000000,0.000000,0.000000,0.000000,0.000000,0.000000,0.000000,0.000000,0.036008,3,0
1430000,-0.004897,36.879856,-0.036531,-0.015644,26.034866,-0.002611,0.000176,0.036472,1.569580,-0.071306,0.002558,0.000394,-0.000502,-0.010364,0.000034,0.000395,0.005070,-0.045795,-0.018100,0.206145,0.206114,0.158788,0.382564,0.000000,0.000000,0.000000,0.000000,0.000000,0.000000,0.000000,0.000000,0.000000,0.000000,0.000000,0.000000,0.044494,3,0
1440000,-0.004881,37.142761,-0.035874,-0.015550,26.043955,-0.001727,0.000206,0.036945,1.569563,-0.071754,0.002588,0.000128,-0.000513,-0.010514,0.000034,0.000976,0.005055,0.073082,0.026285,0.206326,0.206294,0.158439,0.380375,0.000000,0.000000,0.000000,0.000000,0.000000,0.000000,0.000000,0.000000,0.000000,0.000000,0.000000,0.000000,0.070740,3,0
1450000,-0.004864,37.402863,-0.034978,-0.015437,26.047970,-0.000451,0.000226,0.036987,1.569555,-0.071686,0.002619,-0.000207,-0.000524,-0.010489,0.000034,0.000217,0.005038,-0.011005,0.034509,0.206509,0.206476,0.158091,0.378249,0.000000,0.000000,0.000000,0.000000,0.000000,0.000000,0.000000,0.000000,0.000000,0.000000,0.000000,0.000000,0.011681,3,0
1460000,-0.004849,37.665009,-0.035828,-0.015413,26.055494,-0.001452,0.000254,0.037338,1.569551,-0.071972,0.002650,0.000099,-0.000534,-0.010590,0.000035,0.000523,0.005021,0.046917,-0.031858,0.206694,0.206660,0.157746,0.376181,0.000000,0.000000,0.000000,0.000000,0.000000,0.000000,0.000000,0.000000,0.000000,0.000000,0.000000,0.000000,0.045555,3,0
1470000,-0.004834,37.927105,-0.036969,-0.015383,26.062910,-0.002843,0.000283,0.037658,1.569546,-0.072234,0.002680,0.000513,-0.000544,-0.010684,0.000035,0.000598,0.005006,0.043121,-0.042649,0.206881,0.206846,0.157403,0.374172,0.000000,0.000000,0.000000,0.000000,0.000000,0.000000,0.000000,0.000000,0.000000,0.000000,0.000000,0.000000,0.041906,3,0
1480000,-0.004819,38.186398,-0.036996,-0.015332,26.065201,-0.002980,0.000301,0.037546,1.569543,-0.071993,0.002710,0.000521,-0.000555,-0.010598,0.000035,0.000263,0.004991,-0.040142,-0.000186,0.207070,0.207034,0.157062,0.372220,0.000000,0.000000,0.000000,0.000000,0.000000,0.000000,0.000000,0.000000,0.000000,0.000000,0.000000,0.000000,0.039056,3,0
1490000,-0.004801,38.447735,-0.036184,-0.015224,26.071129,-0.002001,0.000327,0.037741,1.569537,-0.072103,0.002739,0.000196,-0.000566,-0.010636,0.000035,0.000230,0.004974,0.018608,0.032387,0.207261,0.207223,0.156724,0.370324,0.000000,0.000000,0.000000,0.000000,0.000000,0.000000,0.000000,0.000000,0.000000,0.000000,0.000000,0.000000,0.018601,3,0
1500000,-0.004784,38.706284,-0.035874,-0.015104,26.071920,-0.001587,0.000358,0.037504,1.569529,-0.071724,0.002769,0.000084,-0.000577,-0.010496,0.000035,0.000685,0.004955,-0.063881,0.012197,0.207454,0.207415,0.156389,0.368482,0.000000,0.000000,0.000000,0.000000,0.000000,0.000000,0.000000,0.000000,0.000000,0.000000,0.000000,0.000000,0.061854,3,0
1510000,-0.004766,38.965523,-0.036167,-0.014976,26.073866,-0.002061,0.000378,0.037365,1.569515,-0.071465,0.002798,0.000202,-0.000588,-0.010400,0.000035,0.000337,0.004937,-0.044132,-0.010935,0.207649,0.207608,0.156056,0.366691,0.000000,0.000000,0.000000,0.000000,0.000000,0.000000,0.000000,0.000000,0.000000,0.000000,0.000000,0.000000,0.042872,3,0
1520000,-0.004748,39.225437,-0.036102,-0.014943,26.077011,-0.001920,0.000410,0.037329,1.569509,-0.071318,0.002827,0.000175,-0.000599,-0.010344,0.000035,0.000107,0.004919,-0.025085,0.003053,0.207845,0.207803,0.155726,0.364953,0.000000,0.000000,0.000000,0.000000,0.000000,0.000000,0.000000,0.000000,0.000000,0.000000,0.000000,0.000000,0.024677,3,0
1530000,-0.004730,39.482574,-0.035895,-0.014892,26.075008,-0.001449,0.000434,0.036864,1.569504,-0.070702,0.002856,0.000114,-0.000610,-0.010106,0.000034,0.001826,0.004900,-0.106121,0.007845,0.208043,0.208000,0.155399,0.363264,0.000000,0.000000,0.000000,0.000000,0.000000,0.000000,0.000000,0.000000,0.000000,0.000000,0.000000,0.000000,0.102549,3,0
1540000,-0.004713,39.741810,-0.036747,-0.014843,26.076883,-0.002498,0.000459,0.036718,1.569496,-0.070444,0.002884,0.000455,-0.000621,-0.010007,0.000034,0.000506,0.004882,-0.045174,-0.032755,0.208243,0.208198,0.155076,0.361624,0.000000,0.000000,0.000000,0.000000,0.000000,0.000000,0.000000,0.000000,0.000000,0.000000,0.000000,0.000000,0.043867,3,0
1550000,-0.004694,40.003094,-0.036326,-0.014673,26.082253,-0.002163,0.000491,0.036892,1.569487,-0.070521,0.002912,0.000274,-0.000632,-0.010037,0.000034,0.000083,0.004863,0.013634,0.017488,0.208444,0.208398,0.154755,0.360030,0.000000,0.000000,0.000000,0.000000,0.000000,0.000000,0.000000,0.000000,0.000000,0.000000,0.000000,0.000000,0.013976,3,0
1560000,-0.004675,40.260197,-0.037329,-0.014601,26.079998,-0.003468,0.000512,0.036387,1.569484,-0.069907,0.002940,0.000695,-0.000643,-0.009791,0.000033,0.002147,0.004843,-0.108551,-0.039011,0.208647,0.208599,0.154438,0.358483,0.000000,0.000000,0.000000,0.000000,0.000000,0.000000,0.000000,0.000000,0.000000,0.000000,0.000000,0.000000,0.104890,3,0
1570000,-0.004655,40.518696,-0.037521,-0.014429,26.080193,-0.003831,0.000531,0.036111,1.569482,-0.069528,0.002968,0.000776,-0.000654,-0.009637,0.000033,0.000743,0.004823,-0.067448,-0.006634,0.208851,0.208802,0.154124,0.356980,0.000000,0.000000,0.000000,0.000000,0.000000,0.000000,0.000000,0.000000,0.000000,0.000000,0.000000,0.000000,0.065268,3,0
1580000,-0.004633,40.776493,-0.036674,-0.014253,26.079184,-0.002743,0.000550,0.035700,1.569468,-0.069040,0.002995,0.000443,-0.000666,-0.009432,0.000033,0.001417,0.004801,-0.087402,0.033742,0.209056,0.209006,0.153813,0.355522,0.000000,0.000000,0.000000,0.000000,0.000000,0.000000,0.000000,0.000000,0.000000,0.000000,0.000000,0.000000,0.084478,3,0
1590000,-0.004609,41.037079,-0.036611,-0.014028,26.083166,-0.002570,0.000583,0.035757,1.569457,-0.069000,0.003021,0.000409,-0.000677,-0.009415,0.000033,0.000014,0.004776,-0.007248,0.003440,0.209262,0.209210,0.153506,0.354105,0.000000,0.000000,0.000000,0.000000,0.000000,0.000000,0.000000,0.000000,0.000000,0.000000,0.000000,0.000000,0.008378,3,0
1600000,-0.004586,41.297630,-0.037138,-0.013890,26.087118,-0.003308,0.000617,0.035789,1.569456,-0.068949,0.003047,0.000617,-0.000688,-0.009394,0.000033,0.000081,0.004751,-0.009445,-0.019695,0.209470,0.209416,0.153202,0.352730,0.000000,0.000000,0.000000,0.000000,0.000000,0.000000,0.000000,0.000000,0.000000,0.000000,0.000000,0.000000,0.010209,3,0
1610000,-0.004562,41.554668,-0.036958,-0.013812,26.084536,-0.002988,0.000640,0.035247,1.569454,-0.068346,0.003073,0.000563,-0.000699,-0.009131,0.000032,0.001994,0.004727,-0.111008,0.007286,0.209678,0.209623,0.152902,0.351395,0.000000,0.000000,0.000000,0.000000,0.000000,0.000000,0.000000,0.000000,0.000000,0.000000,0.000000,0.000000,0.107225,3,0
1620000,-0.004537,41.817280,-0.036209,-0.013766,26.092087,-0.002254,0.000667,0.035614,1.569453,-0.068611,0.003098,0.000224,-0.000710,-0.009246,0.000032,0.000555,0.004702,0.049438,0.031164,0.209887,0.209831,0.152606,0.350098,0.000000,0.000000,0.000000,0.000000,0.000000,0.000000,0.000000,0.000000,0.000000,0.000000,0.000000,0.000000,0.047933,3,0
1630000,-0.004514,42.078445,-0.036927,-0.013706,26.096926,-0.003279,0.000689,0.035734,1.569442,-0.068640,0.003123,0.000512,-0.000721,-0.009262,0.000033,0.000129,0.004677,0.005421,-0.027278,0.210097,0.210039,0.152314,0.348840,0.000000,0.000000,0.000000,0.000000,0.000000,0.000000,0.000000,0.000000,0.000000,0.000000,0.000000,0.000000,0.006903,3,0
1640000,-0.004490,42.336769,-0.037186,-0.013548,26.096554,-0.003332,0.000722,0.035379,1.569440,-0.068235,0.003148,0.000632,-0.000733,-0.009077,0.000032,0.000970,0.004653,-0.076885,-0.009772,0.210307,0.210248,0.152025,0.347619,0.000000,0.000000,0.000000,0.000000,0.000000,0.000000,0.000000,0.000000,0.000000,0.000000,0.000000,0.000000,0.074328,3,0
1650000,-0.004466,42.593700,-0.038061,-0.013451,26.093445,-0.004244,0.000739,0.034802,1.569438,-0.067628,0.003173,0.001026,-0.000744,-0.008798,0.000032,0.002382,0.004627,-0.116535,-0.034536,0.210517,0.210457,0.151740,0.346432,0.000000,0.000000,0.000000,0.000000,0.000000,0.000000,0.000000,0.000000,0.000000,0.000000,0.000000,0.000000,0.112546,3,0
1660000,-0.004438,42.853420,-0.036918,-0.013235,26.095470,-0.002850,0.000768,0.034660,1.569438,-0.067443,0.003197,0.000536,-0.000755,-0.008708,0.000031,0.000558,0.004601,-0.035492,0.046558,0.210728,0.210666,0.151459,0.345279,0.000000,0.000000,0.000000,0.000000,0.000000,0.000000,0.000000,0.000000,0.000000,0.000000,0.000000,0.000000,0.034520,3,0
1670000,-0.004413,43.113132,-0.037557,-0.013149,26.097452,-0.003398,0.000787,0.034538,1.569431,-0.067256,0.003221,0.000810,-0.000766,-0.008620,0.000031,0.000320,0.004573,-0.036808,-0.024699,0.210939,0.210876,0.151181,0.344160,0.000000,0.000000,0.000000,0.000000,0.000000,0.000000,0.000000,0.000000,0.000000,0.000000,0.000000,0.000000,0.035796,3,0
1680000,-0.004385,43.372116,-0.037730,-0.012924,26.098124,-0.003453,0.000822,0.034274,1.569417,-0.066962,0.003244,0.000890,-0.000778,-0.008478,0.000031,0.000550,0.004545,-0.057995,-0.006197,0.211150,0.211085,0.150908,0.343074,0.000000,0.000000,0.000000,0.000000,0.000000,0.000000,0.000000,0.000000,0.000000,0.000000,0.000000,0.000000,0.056129,3,0
1690000,-0.004359,43.633888,-0.038644,-0.012859,26.103785,-0.004395,0.000844,0.034485,1.569406,-0.067068,0.003267,0.001262,-0.000788,-0.008533,0.000031,0.000271,0.004517,0.020962,-0.034860,0.211361,0.211295,0.150639,0.342018,0.000000,0.000000,0.000000,0.000000,0.000000,0.000000,0.000000,0.000000,0.000000,0.000000,0.000000,0.000000,0.020679,3,0
1700000,-0.004330,43.895584,-0.038453,-0.012709,26.109348,-0.004101,0.000868,0.034676,1.569402,-0.067155,0.003289,0.001154,-0.000800,-0.008576,0.000032,0.000068,0.004489,0.017555,0.009552,0.211572,0.211504,0.150373,0.340993,0.000000,0.000000,0.000000,0.000000,0.000000,0.000000,0.000000,0.000000,0.000000,0.000000,0.000000,0.000000,0.017486,3,0
1710000,-0.004299,44.157211,-0.037720,-0.012459,26.114578,-0.003390,0.000897,0.034832,1.569403,-0.067224,0.003310,0.000811,-0.000811,-0.008609,0.000032,0.000194,0.004458,0.014233,0.031221,0.211782,0.211713,0.150112,0.339997,0.000000,0.000000,0.000000,0.000000,0.000000,0.000000,0.000000,0.000000,0.000000,0.000000,0.000000,0.000000,0.014397,3,0
