time_us,pos_x,pos_y,pos_z,vel_x,vel_y,vel_z,roll,pitch,yaw,bias_ax,bias_ay,bias_az,bias_gx,bias_gy,bias_gz,nis,innov_x,innov_y,innov_z,cov_pos_x,cov_pos_y,cov_pos_z,cov_yaw,des_speed,des_heading,des_climb,pid_speed,pid_yaw,pid_alt,speed_meas,yaw_meas,climb_meas,fwd_accel,yaw_rate,vert_accel,drift_m,nav_mode,mission_state
0,-0.000000,0.150000,-0.000002,-0.000045,25.000019,-0.000415,-0.000001,0.000001,1.570812,0.000000,0.000000,0.000000,0.000000,0.000000,0.000000,0.006250,0.000000,-0.250003,0.000004,2.400038,2.400038,3.600017,1.000518,0.000000,0.000000,0.000000,0.000000,0.000000,0.000000,0.000000,0.000000,0.000000,0.000000,0.000000,0.000000,0.150000,1,0
10000,-0.000000,0.353869,-0.009768,-0.000036,25.000000,-0.000823,-0.000007,0.000013,1.570830,0.000000,-0.000000,0.000000,0.000000,0.000000,0.000000,0.003174,0.000001,-0.161456,-0.026022,1.714420,1.714420,2.250079,1.001073,0.000000,0.000000,0.000000,0.000000,0.000000,0.000000,0.000000,0.000000,0.000000,0.000000,0.000000,0.000000,0.115322,3,0
20000,-0.000000,0.588948,-0.013897,-0.000013,25.000057,-0.001276,-0.000012,0.000026,1.570849,0.000001,-0.000000,0.000000,0.000000,0.000000,0.000000,0.000612,0.000001,-0.067141,-0.015093,1.333616,1.333616,1.636554,1.001655,0.000000,0.000000,0.000000,0.000000,0.000000,0.000000,0.000000,0.000000,0.000000,0.000000,0.000000,0.000000,0.052218,3,0
30000,-0.000002,0.830986,-0.002010,-0.000138,25.000193,-0.001254,-0.000012,0.000031,1.570856,0.000002,0.000000,-0.000001,0.000000,0.000000,0.000000,0.000665,0.000002,-0.043795,0.055526,1.091392,1.091392,1.286065,1.002257,0.000000,0.000000,0.000000,0.000000,0.000000,0.000000,0.000000,0.000000,0.000000,0.000000,0.000000,0.000000,0.035829,3,0
40000,-0.000003,1.079831,-0.002900,-0.000234,25.000422,-0.001569,-0.000007,0.000028,1.570860,0.000002,0.000000,-0.000001,0.000000,0.000000,0.000000,0.000011,0.000004,-0.007529,-0.004954,0.923811,0.923811,1.059385,1.002869,0.000000,0.000000,0.000000,0.000000,0.000000,0.000000,0.000000,0.000000,0.000000,0.000000,0.000000,0.000000,0.006369,3,0
50000,-0.000005,1.314188,-0.007297,-0.000289,25.000099,-0.001945,-0.000012,0.000041,1.570866,0.000007,0.000000,0.000001,0.000000,0.000000,-0.000000,0.002105,0.000006,-0.117224,-0.029164,0.801036,0.801036,0.900822,1.003484,0.000000,0.000000,0.000000,0.000000,0.000000,0.000000,0.000000,0.000000,0.000000,0.000000,0.000000,0.000000,0.101574,3,0
60000,-0.000008,1.562585,-0.003873,-0.000379,25.000416,-0.002270,-0.000009,0.000055,1.570875,0.000008,0.000000,-0.000001,-0.000000,0.000000,-0.000000,0.000128,0.000009,-0.013638,0.026391,0.707270,0.707270,0.783741,1.004094,0.000000,0.000000,0.000000,0.000000,0.000000,0.000000,0.000000,0.000000,0.000000,0.000000,0.000000,0.000000,0.012030,3,0
70000,-0.000011,1.801719,0.001872,-0.000386,24.999945,-0.002299,0.000001,0.000055,1.570877,0.000016,0.000000,-0.000005,-0.000000,0.000000,-0.000000,0.001949,0.000012,-0.103005,0.049916,0.633370,0.633370,0.693801,1.004688,0.000000,0.000000,0.000000,0.000000,0.000000,0.000000,0.000000,0.000000,0.000000,0.000000,0.000000,0.000000,0.092132,3,0
80000,-0.000014,2.053222,0.007441,-0.000455,25.000500,-0.002182,0.000009,0.000062,1.570893,0.000015,0.000000,-0.000010,-0.000000,0.000000,-0.000000,0.000471,0.000015,0.015685,0.053917,0.573673,0.573673,0.622594,1.005260,0.000000,0.000000,0.000000,0.000000,0.000000,0.000000,0.000000,0.000000,0.000000,0.000000,0.000000,0.000000,0.014185,3,0
90000,-0.000018,2.303469,0.010022,-0.000610,25.000950,-0.002393,0.000007,0.000078,1.570893,0.000014,0.000000,-0.000013,-0.000000,0.000000,-0.000000,0.000117,0.000020,0.002723,0.027692,0.524488,0.524488,0.564865,1.005801,0.000000,0.000000,0.000000,0.000000,0.000000,0.000000,0.000000,0.000000,0.000000,0.000000,0.000000,0.000000,0.002485,3,0
100000,-0.000023,2.560765,0.007156,-0.000686,25.002142,-0.003186,0.000002,0.000082,1.570912,0.000000,0.000000,-0.000008,-0.000000,-0.000000,0.000000,0.001418,0.000025,0.090414,-0.032922,0.483303,0.483303,0.517162,1.006301,0.000000,0.000000,0.000000,0.000000,0.000000,0.000000,0.000000,0.000000,0.000000,0.000000,0.000000,0.000000,0.083131,3,0
110000,-0.000029,2.810203,0.011609,-0.000855,25.002464,-0.003121,0.000001,0.000095,1.570930,0.000002,0.000000,-0.000019,-0.000000,-0.000000,0.000000,0.000499,0.000032,-0.007864,0.056459,0.448353,0.448353,0.477121,1.006754,0.000000,0.000000,0.000000,0.000000,0.000000,0.000000,0.000000,0.000000,0.000000,0.000000,0.000000,0.000000,0.007276,3,0
120000,-0.000036,3.063082,0.011207,-0.000958,25.003305,-0.003615,0.000002,0.000109,1.570943,-0.000007,0.000000,-0.000018,-0.000000,-0.000000,0.000000,0.000263,0.000039,0.040880,-0.004962,0.418358,0.418358,0.443071,1.007150,0.000000,0.000000,0.000000,0.000000,0.000000,0.000000,0.000000,0.000000,0.000000,0.000000,0.000000,0.000000,0.038029,3,0
130000,-0.000043,3.317454,0.014370,-0.001015,25.004522,-0.003347,0.000009,0.000116,1.570945,-0.000024,0.000000,-0.000029,-0.000000,-0.000001,0.000000,0.001019,0.000046,0.066297,0.046431,0.392369,0.392369,0.413797,1.007481,0.000000,0.000000,0.000000,0.000000,0.000000,0.000000,0.000000,0.000000,0.000000,0.000000,0.000000,0.000000,0.061962,3,0
140000,-0.000051,3.571837,0.015575,-0.001113,25.005840,-0.003306,0.000000,0.000130,1.570959,-0.000045,0.000000,-0.000035,-0.000000,-0.000001,0.000000,0.000831,0.000054,0.070338,0.019164,0.369666,0.369666,0.388393,1.007739,0.000000,0.000000,0.000000,0.000000,0.000000,0.000000,0.000000,0.000000,0.000000,0.000000,0.000000,0.000000,0.066005,3,0
150000,-0.000060,3.819281,0.017492,-0.001256,25.005505,-0.003139,0.000003,0.000132,1.570978,-0.000030,0.000000,-0.000045,-0.000000,-0.000001,0.000000,0.000477,0.000064,-0.044904,0.031997,0.349695,0.349695,0.366172,1.007915,0.000000,0.000000,0.000000,0.000000,0.000000,0.000000,0.000000,0.000000,0.000000,0.000000,0.000000,0.000000,0.042287,3,0
160000,-0.000069,4.069664,0.019228,-0.001348,25.006035,-0.003092,0.000009,0.000143,1.570983,-0.000032,0.000000,-0.000057,-0.000000,-0.000001,0.000000,0.000153,0.000073,0.005837,0.030659,0.332020,0.332020,0.346600,1.008002,0.000000,0.000000,0.000000,0.000000,0.000000,0.000000,0.000000,0.000000,0.000000,0.000000,0.000000,0.000000,0.005515,3,0
170000,-0.000079,4.320458,0.019727,-0.001454,25.006546,-0.003400,0.000018,0.000143,1.570991,-0.000038,0.000000,-0.000061,-0.000000,-0.000001,0.000000,0.000045,0.000084,0.013877,0.009737,0.316297,0.316297,0.329260,1.007991,0.000000,0.000000,0.000000,0.000000,0.000000,0.000000,0.000000,0.000000,0.000000,0.000000,0.000000,0.000000,0.013146,3,0
180000,-0.000089,4.574615,0.016994,-0.001460,25.008308,-0.004431,0.000013,0.000157,1.571011,-0.000077,0.000000,-0.000037,-0.000000,-0.000002,0.000000,0.001462,0.000094,0.081139,-0.051566,0.302246,0.302246,0.313817,1.007875,0.000000,0.000000,0.000000,0.000000,0.000000,0.000000,0.000000,0.000000,0.000000,0.000000,0.000000,0.000000,0.077051,3,0
190000,-0.000099,4.830744,0.017333,-0.001434,25.010899,-0.004530,0.000015,0.000179,1.571027,-0.000143,0.000000,-0.000041,-0.000000,-0.000003,0.000000,0.002494,0.000104,0.125147,0.007724,0.289640,0.289640,0.300003,1.007645,0.000000,0.000000,0.000000,0.000000,0.000000,0.000000,0.000000,0.000000,0.000000,0.000000,0.000000,0.000000,0.119106,3,0
200000,-0.000108,5.084922,0.019407,-0.001488,25.012791,-0.003978,0.000017,0.000209,1.571045,-0.000194,0.000000,-0.000066,-0.000000,-0.000005,0.000000,0.001532,0.000114,0.087662,0.044253,0.278295,0.278295,0.287598,1.007295,0.000000,0.000000,0.000000,0.000000,0.000000,0.000000,0.000000,0.000000,0.000000,0.000000,0.000000,0.000000,0.083596,3,0
210000,-0.000118,5.340936,0.018469,-0.001519,25.015745,-0.004668,0.000020,0.000232,1.571059,-0.000278,0.000000,-0.000054,-0.000000,-0.000007,0.000000,0.002819,0.000123,0.131648,-0.019425,0.268053,0.268053,0.276421,1.006816,0.000000,0.000000,0.000000,0.000000,0.000000,0.000000,0.000000,0.000000,0.000000,0.000000,0.000000,0.000000,0.125766,3,0
220000,-0.000128,5.592590,0.017353,-0.001625,25.016779,-0.005258,0.000030,0.000254,1.571067,-0.000302,0.000001,-0.000037,-0.000000,-0.000008,0.000000,0.000284,0.000134,0.034637,-0.024059,0.258786,0.258786,0.266321,1.006202,0.000000,0.000000,0.000000,0.000000,0.000000,0.000000,0.000000,0.000000,0.000000,0.000000,0.000000,0.000000,0.033143,3,0
230000,-0.000139,5.845320,0.016388,-0.001629,25.018515,-0.005857,0.000025,0.000283,1.571084,-0.000349,0.000001,-0.000021,-0.000000,-0.000010,0.000000,0.000672,0.000145,0.061275,-0.021240,0.250384,0.250384,0.257172,1.005446,0.000000,0.000000,0.000000,0.000000,0.000000,0.000000,0.000000,0.000000,0.000000,0.000000,0.000000,0.000000,0.058718,3,0
240000,-0.000149,6.095806,0.014276,-0.001616,25.019129,-0.007197,0.000030,0.000294,1.571084,-0.000355,0.000001,0.000019,-0.000000,-0.000010,0.000000,0.000399,0.000155,0.007317,-0.049435,0.242754,0.242754,0.248866,1.004541,0.000000,0.000000,0.000000,0.000000,0.000000,0.000000,0.000000,0.000000,0.000000,0.000000,0.000000,0.000000,0.007023,3,0
250000,-0.000159,6.350508,0.015557,-0.001670,25.022165,-0.006891,0.000036,0.000331,1.571085,-0.000457,0.000001,-0.000011,-0.000000,-0.000013,0.000000,0.002287,0.000165,0.114645,0.033735,0.235817,0.235817,0.241314,1.003481,0.000000,0.000000,0.000000,0.000000,0.000000,0.000000,0.000000,0.000000,0.000000,0.000000,0.000000,0.000000,0.110139,3,0
260000,-0.000170,6.603739,0.015315,-0.001745,25.024303,-0.007419,0.000032,0.000361,1.571089,-0.000533,0.000001,-0.000007,-0.000000,-0.000016,0.000000,0.000993,0.000176,0.078583,-0.004313,0.229503,0.229503,0.234436,1.002258,0.000000,0.000000,0.000000,0.000000,0.000000,0.000000,0.000000,0.000000,0.000000,0.000000,0.000000,0.000000,0.075577,3,0
270000,-0.000180,6.856369,0.015050,-0.001747,25.026306,-0.007711,0.000034,0.000387,1.571103,-0.000599,0.000001,-0.000002,-0.000000,-0.000019,0.000000,0.000659,0.000187,0.063877,-0.004967,0.223753,0.223753,0.228165,1.000869,0.000000,0.000000,0.000000,0.000000,0.000000,0.000000,0.000000,0.000000,0.000000,0.000000,0.000000,0.000000,0.061495,3,0
280000,-0.000191,7.111345,0.013404,-0.001752,25.029976,-0.008894,0.000044,0.000436,1.571120,-0.000741,0.000002,0.000045,-0.000000,-0.000024,0.000000,0.002971,0.000198,0.129290,-0.042271,0.218514,0.218514,0.222443,0.999307,0.000000,0.000000,0.000000,0.000000,0.000000,0.000000,0.000000,0.000000,0.000000,0.000000,0.000000,0.000000,0.124581,3,0
290000,-0.000201,7.364251,0.015025,-0.001789,25.032177,-0.008248,0.000054,0.000467,1.571126,-0.000828,0.000002,-0.000011,-0.000000,-0.000028,0.000000,0.001218,0.000209,0.073067,0.047366,0.213742,0.213742,0.217219,0.997567,0.000000,0.000000,0.000000,0.000000,0.000000,0.000000,0.000000,0.000000,0.000000,0.000000,0.000000,0.000000,0.070464,3,0
300000,-0.000213,7.620094,0.016565,-0.001919,25.036886,-0.007270,0.000058,0.000530,1.571133,-0.001026,0.000002,-0.000068,-0.000000,-0.000036,0.000000,0.004358,0.000220,0.158079,0.045887,0.209396,0.209396,0.212446,0.995645,0.000000,0.000000,0.000000,0.000000,0.000000,0.000000,0.000000,0.000000,0.000000,0.000000,0.000000,0.000000,0.152562,3,0
310000,-0.000224,7.872562,0.017060,-0.001906,25.038906,-0.007067,0.000066,0.000568,1.571147,-0.001108,0.000002,-0.000089,-0.000000,-0.000040,0.000000,0.000647,0.000232,0.061221,0.016428,0.205441,0.205441,0.208087,0.993536,0.000000,0.000000,0.000000,0.000000,0.000000,0.000000,0.000000,0.000000,0.000000,0.000000,0.000000,0.000000,0.059125,3,0
320000,-0.000235,8.129227,0.015827,-0.001895,25.044571,-0.008385,0.000068,0.000660,1.571164,-0.001372,0.000003,-0.000042,-0.000000,-0.000052,0.000000,0.005784,0.000243,0.186432,-0.034037,0.201845,0.201845,0.204105,0.991237,0.000000,0.000000,0.000000,0.000000,0.000000,0.000000,0.000000,0.000000,0.000000,0.000000,0.000000,0.000000,0.180161,3,0
330000,-0.000245,8.386561,0.016992,-0.001853,25.051138,-0.007816,0.000064,0.000762,1.571181,-0.001683,0.000003,-0.000098,-0.000000,-0.000067,0.000000,0.007200,0.000253,0.208015,0.037500,0.198579,0.198579,0.200469,0.988743,0.000000,0.000000,0.000000,0.000000,0.000000,0.000000,0.000000,0.000000,0.000000,0.000000,0.000000,0.000000,0.201131,3,0
340000,-0.000256,8.641949,0.018188,-0.001990,25.056086,-0.006893,0.000070,0.000840,1.571182,-0.001920,0.000004,-0.000159,-0.000000,-0.000078,0.000000,0.003842,0.000265,0.149404,0.038852,0.195618,0.195618,0.197151,0.986053,0.000000,0.000000,0.000000,0.000000,0.000000,0.000000,0.000000,0.000000,0.000000,0.000000,0.000000,0.000000,0.144532,3,0
350000,-0.000267,8.895497,0.019054,-0.001968,25.059393,-0.006540,0.000062,0.000891,1.571193,-0.002074,0.000004,-0.000207,-0.000000,-0.000086,0.000000,0.001524,0.000276,0.092756,0.029038,0.192940,0.192940,0.194125,0.983164,0.000000,0.000000,0.000000,0.000000,0.000000,0.000000,0.000000,0.000000,0.000000,0.000000,0.000000,0.000000,0.089774,3,0
360000,-0.000279,9.148563,0.019220,-0.002061,25.062246,-0.006746,0.000064,0.000939,1.571207,-0.002211,0.000005,-0.000220,-0.000000,-0.000093,0.000000,0.000984,0.000288,0.077723,0.007400,0.190523,0.190523,0.191370,0.980073,0.000000,0.000000,0.000000,0.000000,0.000000,0.000000,0.000000,0.000000,0.000000,0.000000,0.000000,0.000000,0.075255,3,0
370000,-0.000290,9.402422,0.020509,-0.002070,25.066084,-0.005724,0.000058,0.001018,1.571222,-0.002401,0.000005,-0.000299,-0.000000,-0.000103,0.000000,0.002011,0.000299,0.102931,0.043162,0.188349,0.188349,0.188863,0.976779,0.000000,0.000000,0.000000,0.000000,0.000000,0.000000,0.000000,0.000000,0.000000,0.000000,0.000000,0.000000,0.099700,3,0
380000,-0.000301,9.659513,0.021031,-0.002095,25.073517,-0.005517,0.000052,0.001162,1.571229,-0.002801,0.000006,-0.000335,-0.000000,-0.000125,0.000000,0.006967,0.000311,0.206855,0.018767,0.186399,0.186399,0.186586,0.973282,0.000000,0.000000,0.000000,0.000000,0.000000,0.000000,0.000000,0.000000,0.000000,0.000000,0.000000,0.000000,0.200429,3,0
390000,-0.000313,9.912987,0.019267,-0.002156,25.076950,-0.007382,0.000052,0.001229,1.571241,-0.002980,0.000007,-0.000223,-0.000000,-0.000135,0.000000,0.001773,0.000323,0.088842,-0.055514,0.184659,0.184659,0.184522,0.969581,0.000000,0.000000,0.000000,0.000000,0.000000,0.000000,0.000000,0.000000,0.000000,0.000000,0.000000,0.000000,0.086109,3,0
400000,-0.000325,10.166015,0.020024,-0.002229,25.079931,-0.006670,0.000050,0.001287,1.571260,-0.003137,0.000007,-0.000281,-0.000000,-0.000144,0.000000,0.001003,0.000336,0.073882,0.027336,0.183114,0.183114,0.182656,0.965675,0.000000,0.000000,0.000000,0.000000,0.000000,0.000000,0.000000,0.000000,0.000000,0.000000,0.000000,0.000000,0.071628,3,0
410000,-0.000338,10.419219,0.021239,-0.002312,25.083258,-0.005579,0.000043,0.001344,1.571274,-0.003312,0.000008,-0.000375,-0.000000,-0.000155,0.000000,0.001308,0.000349,0.079249,0.042603,0.181751,0.181751,0.180971,0.961566,0.000000,0.000000,0.000000,0.000000,0.000000,0.000000,0.000000,0.000000,0.000000,0.000000,0.000000,0.000000,0.076850,3,0
420000,-0.000350,10.674393,0.021988,-0.002314,25.089119,-0.004892,0.000045,0.001454,1.571289,-0.003644,0.000009,-0.000437,-0.000000,-0.000175,0.000000,0.003473,0.000361,0.144073,0.026977,0.180556,0.180556,0.179456,0.957255,0.000000,0.000000,0.000000,0.000000,0.000000,0.000000,0.000000,0.000000,0.000000,0.000000,0.000000,0.000000,0.139739,3,0
430000,-0.000362,10.931479,0.020668,-0.002281,25.097353,-0.006818,0.000051,0.001618,1.571304,-0.004140,0.000010,-0.000335,-0.000001,-0.000206,0.000000,0.007215,0.000373,0.206903,-0.042642,0.179518,0.179518,0.178097,0.952743,0.000000,0.000000,0.000000,0.000000,0.000000,0.000000,0.000000,0.000000,0.000000,0.000000,0.000000,0.000000,0.200713,3,0
440000,-0.000375,11.187472,0.018960,-0.002425,25.104303,-0.009036,0.000056,0.001764,1.571308,-0.004560,0.000011,-0.000196,-0.000001,-0.000233,0.000000,0.005084,0.000387,0.168403,-0.055506,0.178628,0.178627,0.176883,0.948033,0.000000,0.000000,0.000000,0.000000,0.000000,0.000000,0.000000,0.000000,0.000000,0.000000,0.000000,0.000000,0.163390,3,0
450000,-0.000388,11.444761,0.020136,-0.002486,25.113012,-0.007661,0.000064,0.001946,1.571316,-0.005105,0.000012,-0.000309,-0.000001,-0.000269,0.000000,0.007471,0.000400,0.210525,0.043264,0.177873,0.177873,0.175803,0.943126,0.000000,0.000000,0.000000,0.000000,0.000000,0.000000,0.000000,0.000000,0.000000,0.000000,0.000000,0.000000,0.204284,3,0
460000,-0.000402,11.703322,0.020374,-0.002590,25.123619,-0.007674,0.000072,0.002188,1.571332,-0.005781,0.000013,-0.000338,-0.000001,-0.000315,0.000000,0.010236,0.000414,0.251330,0.010958,0.177245,0.177245,0.174847,0.938027,0.000000,0.000000,0.000000,0.000000,0.000000,0.000000,0.000000,0.000000,0.000000,0.000000,0.000000,0.000000,0.243906,3,0
470000,-0.000417,11.961960,0.020049,-0.002715,25.134237,-0.008178,0.000077,0.002433,1.571333,-0.006480,0.000015,-0.000315,-0.000001,-0.000363,0.000000,0.010210,0.000429,0.251090,-0.008495,0.176736,0.176736,0.174006,0.932739,0.000000,0.000000,0.000000,0.000000,0.000000,0.000000,0.000000,0.000000,0.000000,0.000000,0.000000,0.000000,0.243695,3,0
480000,-0.000432,12.220096,0.018437,-0.002854,25.144371,-0.010534,0.000071,0.002666,1.571339,-0.007145,0.000016,-0.000163,-0.000001,-0.000410,0.000000,0.009075,0.000445,0.230893,-0.052800,0.176336,0.176336,0.173271,0.927266,0.000000,0.000000,0.000000,0.000000,0.000000,0.000000,0.000000,0.000000,0.000000,0.000000,0.000000,0.000000,0.224107,3,0
490000,-0.000448,12.475994,0.017013,-0.002937,25.151417,-0.012564,0.000078,0.002833,1.571344,-0.007596,0.000018,-0.000026,-0.000001,-0.000443,0.000000,0.004054,0.000462,0.151565,-0.045690,0.176038,0.176038,0.172634,0.921613,0.000000,0.000000,0.000000,0.000000,0.000000,0.000000,0.000000,0.000000,0.000000,0.000000,0.000000,0.000000,0.147118,3,0
500000,-0.000465,12.730281,0.017058,-0.003030,25.156111,-0.012719,0.000082,0.002938,1.571359,-0.007886,0.000019,-0.000045,-0.000001,-0.000464,0.000000,0.001447,0.000479,0.094385,0.006070,0.175834,0.175834,0.172087,0.915783,0.000000,0.000000,0.000000,0.000000,0.000000,0.000000,0.000000,0.000000,0.000000,0.000000,0.000000,0.000000,0.091621,3,0
510000,-0.000481,12.984733,0.017268,-0.003093,25.161030,-0.012756,0.000092,0.003064,1.571372,-0.008199,0.000021,-0.000083,-0.000001,-0.000488,0.000000,0.001592,0.000496,0.098477,0.011994,0.175718,0.175718,0.171622,0.909784,0.000000,0.000000,0.000000,0.000000,0.000000,0.000000,0.000000,0.000000,0.000000,0.000000,0.000000,0.000000,0.095595,3,0
520000,-0.000498,13.243423,0.018113,-0.003087,25.172321,-0.011646,0.000100,0.003349,1.571374,-0.008988,0.000023,-0.000196,-0.000001,-0.000549,0.000000,0.009629,0.000513,0.241554,0.034148,0.175682,0.175682,0.171234,0.903621,0.000000,0.000000,0.000000,0.000000,0.000000,0.000000,0.000000,0.000000,0.000000,0.000000,0.000000,0.000000,0.234482,3,0
530000,-0.000514,13.502801,0.016706,-0.003209,25.184689,-0.013687,0.000101,0.003667,1.571374,-0.009867,0.000025,-0.000043,-0.000002,-0.000618,0.000000,0.011356,0.000530,0.261054,-0.045165,0.175721,0.175721,0.170914,0.897299,0.000000,0.000000,0.000000,0.000000,0.000000,0.000000,0.000000,0.000000,0.000000,0.000000,0.000000,0.000000,0.253409,3,0
540000,-0.000532,13.761108,0.015233,-0.003326,25.195274,-0.015831,0.000093,0.003939,1.571376,-0.010630,0.000027,0.000120,-0.000002,-0.000680,0.000000,0.008202,0.000548,0.220222,-0.046853,0.175828,0.175828,0.170658,0.890825,0.000000,0.000000,0.000000,0.000000,0.000000,0.000000,0.000000,0.000000,0.000000,0.000000,0.000000,0.000000,0.213770,3,0
550000,-0.000549,14.017197,0.014074,-0.003365,25.202463,-0.017590,0.000097,0.004130,1.571395,-0.011130,0.000029,0.000246,-0.000002,-0.000721,0.000000,0.003403,0.000566,0.140719,-0.035076,0.175998,0.175998,0.170460,0.884206,0.000000,0.000000,0.000000,0.000000,0.000000,0.000000,0.000000,0.000000,0.000000,0.000000,0.000000,0.000000,0.136593,3,0
560000,-0.000566,14.275765,0.013800,-0.003389,25.213598,-0.018197,0.000102,0.004423,1.571395,-0.011943,0.000031,0.000257,-0.000002,-0.000789,0.000000,0.008010,0.000583,0.222499,-0.003230,0.176225,0.176225,0.170314,0.877449,0.000000,0.000000,0.000000,0.000000,0.000000,0.000000,0.000000,0.000000,0.000000,0.000000,0.000000,0.000000,0.215965,3,0
570000,-0.000583,14.531523,0.014096,-0.003414,25.220114,-0.017968,0.000108,0.004597,1.571398,-0.012403,0.000034,0.000193,-0.000002,-0.000829,0.000001,0.002488,0.000601,0.122851,0.017003,0.176504,0.176504,0.170214,0.870561,0.000000,0.000000,0.000000,0.000000,0.000000,0.000000,0.000000,0.000000,0.000000,0.000000,0.000000,0.000000,0.119239,3,0
580000,-0.000599,14.790947,0.013293,-0.003420,25.232637,-0.019195,0.000106,0.004940,1.571397,-0.013343,0.000036,0.000277,-0.000002,-0.000911,0.000001,0.009765,0.000617,0.244726,-0.021807,0.176831,0.176830,0.170157,0.863550,0.000000,0.000000,0.000000,0.000000,0.000000,0.000000,0.000000,0.000000,0.000000,0.000000,0.000000,0.000000,0.237514,3,0
590000,-0.000615,15.046369,0.012764,-0.003400,25.238590,-0.020133,0.000108,0.005111,1.571398,-0.013754,0.000039,0.000324,-0.000003,-0.000948,0.000001,0.001787,0.000634,0.104451,-0.011719,0.177200,0.177199,0.170138,0.856423,0.000000,0.000000,0.000000,0.000000,0.000000,0.000000,0.000000,0.000000,0.000000,0.000000,0.000000,0.000000,0.101368,3,0
600000,-0.000631,15.302531,0.012262,-0.003510,25.245598,-0.021046,0.000112,0.005316,1.571408,-0.014267,0.000042,0.000366,-0.000003,-0.000994,0.000001,0.002638,0.000650,0.127275,-0.010399,0.177607,0.177607,0.170152,0.849189,0.000000,0.000000,0.000000,0.000000,0.000000,0.000000,0.000000,0.000000,0.000000,0.000000,0.000000,0.000000,0.123509,3,0
610000,-0.000646,15.562379,0.013196,-0.003452,25.258667,-0.019569,0.000120,0.005707,1.571423,-0.015291,0.000045,0.000195,-0.000003,-0.001089,0.000001,0.010271,0.000666,0.248741,0.040464,0.178049,0.178048,0.170195,0.841854,0.000000,0.000000,0.000000,0.000000,0.000000,0.000000,0.000000,0.000000,0.000000,0.000000,0.000000,0.000000,0.241361,3,0
620000,-0.000661,15.820557,0.013418,-0.003451,25.269016,-0.019140,0.000123,0.006016,1.571434,-0.016080,0.000048,0.000131,-0.000004,-0.001164,0.000001,0.005724,0.000681,0.187551,0.014831,0.178521,0.178520,0.170264,0.834427,0.000000,0.000000,0.000000,0.000000,0.000000,0.000000,0.000000,0.000000,0.000000,0.000000,0.000000,0.000000,0.181972,3,0
630000,-0.000675,16.078859,0.013592,-0.003500,25.279495,-0.018901,0.000135,0.006329,1.571447,-0.016886,0.000051,0.000073,-0.000004,-0.001241,0.000001,0.005724,0.000696,0.187693,0.013020,0.179019,0.179019,0.170355,0.826917,0.000000,0.000000,0.000000,0.000000,0.000000,0.000000,0.000000,0.000000,0.000000,0.000000,0.000000,0.000000,0.182094,3,0
640000,-0.000689,16.337879,0.012178,-0.003503,25.291105,-0.020897,0.000133,0.006689,1.571451,-0.017796,0.000054,0.000265,-0.000004,-0.001331,0.000001,0.007267,0.000711,0.207592,-0.043017,0.179541,0.179540,0.170465,0.819331,0.000000,0.000000,0.000000,0.000000,0.000000,0.000000,0.000000,0.000000,0.000000,0.000000,0.000000,0.000000,0.201381,3,0
650000,-0.000702,16.594027,0.012664,-0.003435,25.297602,-0.020214,0.000141,0.006886,1.571466,-0.018276,0.000058,0.000152,-0.000004,-0.001379,0.000001,0.001966,0.000724,0.107489,0.024580,0.180082,0.180082,0.170591,0.811677,0.000000,0.000000,0.000000,0.000000,0.000000,0.000000,0.000000,0.000000,0.000000,0.000000,0.000000,0.000000,0.104266,3,0
660000,-0.000715,16.851515,0.012981,-0.003416,25.306429,-0.019913,0.000148,0.007165,1.571472,-0.018956,0.000061,0.000065,-0.000005,-0.001448,0.000001,0.003666,0.000737,0.149458,0.018471,0.180640,0.180640,0.170729,0.803963,0.000000,0.000000,0.000000,0.000000,0.000000,0.000000,0.000000,0.000000,0.000000,0.000000,0.000000,0.000000,0.144960,3,0
670000,-0.000727,17.109732,0.011599,-0.003413,25.316347,-0.021940,0.000145,0.007491,1.571490,-0.019746,0.000065,0.000262,-0.000005,-0.001530,0.000001,0.004959,0.000749,0.170187,-0.041409,0.181212,0.181212,0.170877,0.796199,0.000000,0.000000,0.000000,0.000000,0.000000,0.000000,0.000000,0.000000,0.000000,0.000000,0.000000,0.000000,0.165048,3,0
680000,-0.000738,17.369272,0.011859,-0.003435,25.328373,-0.021481,0.000146,0.007884,1.571508,-0.020737,0.000069,0.000178,-0.000006,-0.001634,0.000001,0.007178,0.000761,0.210054,0.016977,0.181795,0.181794,0.171033,0.788391,0.000000,0.000000,0.000000,0.000000,0.000000,0.000000,0.000000,0.000000,0.000000,0.000000,0.000000,0.000000,0.203691,3,0
690000,-0.000750,17.630728,0.013023,-0.003470,25.343597,-0.019771,0.000149,0.008396,1.571512,-0.022025,0.000073,-0.000064,-0.000006,-0.001772,0.000001,0.012028,0.000773,0.268456,0.048537,0.182387,0.182386,0.171193,0.780547,0.000000,0.000000,0.000000,0.000000,0.000000,0.000000,0.000000,0.000000,0.000000,0.000000,0.000000,0.000000,0.260297,3,0
700000,-0.000761,17.892267,0.013733,-0.003484,25.358906,-0.018700,0.000153,0.008913,1.571511,-0.023318,0.000077,-0.000227,-0.000007,-0.001914,0.000001,0.011536,0.000785,0.265272,0.031985,0.182984,0.182983,0.171357,0.772676,0.000000,0.000000,0.000000,0.000000,0.000000,0.000000,0.000000,0.000000,0.000000,0.000000,0.000000,0.000000,0.257184,3,0
710000,-0.000773,18.149630,0.013858,-0.003560,25.366734,-0.018595,0.000164,0.009176,1.571520,-0.023927,0.000081,-0.000285,-0.000007,-0.001981,0.000001,0.002458,0.000797,0.122854,0.011050,0.183586,0.183585,0.171522,0.764785,0.000000,0.000000,0.000000,0.000000,0.000000,0.000000,0.000000,0.000000,0.000000,0.000000,0.000000,0.000000,0.119097,3,0
720000,-0.000783,18.410166,0.014893,-0.003485,25.380081,-0.016984,0.000172,0.009645,1.571521,-0.025050,0.000086,-0.000511,-0.000008,-0.002108,0.000001,0.008348,0.000808,0.223232,0.042830,0.184189,0.184188,0.171685,0.756882,0.000000,0.000000,0.000000,0.000000,0.000000,0.000000,0.000000,0.000000,0.000000,0.000000,0.000000,0.000000,0.216381,3,0
730000,-0.000792,18.668339,0.014653,-0.003409,25.389175,-0.017266,0.000176,0.009955,1.571522,-0.025772,0.000090,-0.000500,-0.000008,-0.002191,0.000001,0.003234,0.000818,0.141474,-0.002339,0.184793,0.184792,0.171846,0.748973,0.000000,0.000000,0.000000,0.000000,0.000000,0.000000,0.000000,0.000000,0.000000,0.000000,0.000000,0.000000,0.137120,3,0
740000,-0.000802,18.930309,0.014756,-0.003429,25.404783,-0.017021,0.000176,0.010525,1.571532,-0.027122,0.000095,-0.000555,-0.000009,-0.002349,0.000002,0.011010,0.000827,0.260906,0.009785,0.185395,0.185394,0.172003,0.741066,0.000000,0.000000,0.000000,0.000000,0.000000,0.000000,0.000000,0.000000,0.000000,0.000000,0.000000,0.000000,0.252845,3,0
750000,-0.000811,19.189882,0.013750,-0.003475,25.415968,-0.018447,0.000177,0.010923,1.571537,-0.028054,0.000100,-0.000397,-0.000009,-0.002461,0.000002,0.005235,0.000837,0.177691,-0.029003,0.185993,0.185992,0.172155,0.733169,0.000000,0.000000,0.000000,0.000000,0.000000,0.000000,0.000000,0.000000,0.000000,0.000000,0.000000,0.000000,0.172184,3,0
760000,-0.000820,19.451401,0.012337,-0.003511,25.430447,-0.020466,0.000176,0.011465,1.571540,-0.029309,0.000105,-0.000161,-0.000010,-0.002613,0.000002,0.009293,0.000846,0.236069,-0.042611,0.186587,0.186586,0.172299,0.725287,0.000000,0.000000,0.000000,0.000000,0.000000,0.000000,0.000000,0.000000,0.000000,0.000000,0.000000,0.000000,0.228729,3,0
770000,-0.000830,19.709885,0.012882,-0.003588,25.439453,-0.019647,0.000184,0.011796,1.571556,-0.030027,0.000109,-0.000311,-0.000010,-0.002701,0.000002,0.002987,0.000857,0.133436,0.026257,0.187175,0.187174,0.172435,0.717427,0.000000,0.000000,0.000000,0.000000,0.000000,0.000000,0.000000,0.000000,0.000000,0.000000,0.000000,0.000000,0.129277,3,0
780000,-0.000839,19.968468,0.013846,-0.003599,25.448553,-0.018195,0.000192,0.012132,1.571572,-0.030752,0.000114,-0.000546,-0.000011,-0.002792,0.000002,0.003134,0.000866,0.133286,0.040518,0.187755,0.187754,0.172563,0.709595,0.000000,0.000000,0.000000,0.000000,0.000000,0.000000,0.000000,0.000000,0.000000,0.000000,0.000000,0.000000,0.129119,3,0
790000,-0.000848,20.230890,0.013330,-0.003583,25.464228,-0.019013,0.000196,0.012742,1.571580,-0.032142,0.000120,-0.000482,-0.000012,-0.002969,0.000002,0.010298,0.000875,0.252314,-0.011359,0.188328,0.188326,0.172680,0.701798,0.000000,0.000000,0.000000,0.000000,0.000000,0.000000,0.000000,0.000000,0.000000,0.000000,0.000000,0.000000,0.244396,3,0
800000,-0.000856,20.488983,0.013276,-0.003594,25.472204,-0.019194,0.000199,0.013031,1.571599,-0.032749,0.000125,-0.000512,-0.000012,-0.003048,0.000002,0.001922,0.000884,0.109005,0.004919,0.188891,0.188889,0.172787,0.694041,0.000000,0.000000,0.000000,0.000000,0.000000,0.000000,0.000000,0.000000,0.000000,0.000000,0.000000,0.000000,0.105577,3,0
810000,-0.000866,20.749685,0.012824,-0.003675,25.484547,-0.019723,0.000199,0.013519,1.571602,-0.033812,0.000130,-0.000461,-0.000013,-0.003187,0.000002,0.005765,0.000894,0.188774,-0.008885,0.189444,0.189442,0.172882,0.686330,0.000000,0.000000,0.000000,0.000000,0.000000,0.000000,0.000000,0.000000,0.000000,0.000000,0.000000,0.000000,0.182816,3,0
820000,-0.000875,21.009823,0.014040,-0.003768,25.495895,-0.018016,0.000208,0.013964,1.571608,-0.034758,0.000136,-0.000763,-0.000014,-0.003314,0.000002,0.004867,0.000904,0.166494,0.049277,0.189986,0.189984,0.172965,0.678670,0.000000,0.000000,0.000000,0.000000,0.000000,0.000000,0.000000,0.000000,0.000000,0.000000,0.000000,0.000000,0.161225,3,0
830000,-0.000885,21.272556,0.014823,-0.003825,25.511597,-0.017051,0.000210,0.014601,1.571610,-0.036160,0.000142,-0.000975,-0.000014,-0.003504,0.000002,0.009806,0.000914,0.244184,0.033699,0.190516,0.190514,0.173035,0.671066,0.000000,0.000000,0.000000,0.000000,0.000000,0.000000,0.000000,0.000000,0.000000,0.000000,0.000000,0.000000,0.236433,3,0
840000,-0.000895,21.531528,0.015868,-0.003916,25.520554,-0.015706,0.000212,0.014934,1.571610,-0.036858,0.000147,-0.001241,-0.000015,-0.003601,0.000002,0.002632,0.000924,0.120445,0.042372,0.191035,0.191033,0.173092,0.663523,0.000000,0.000000,0.000000,0.000000,0.000000,0.000000,0.000000,0.000000,0.000000,0.000000,0.000000,0.000000,0.116615,3,0
850000,-0.000905,21.789310,0.016457,-0.003986,25.527155,-0.015118,0.000222,0.015179,1.571625,-0.037326,0.000153,-0.001407,-0.000016,-0.003666,0.000003,0.001144,0.000935,0.080053,0.026094,0.191541,0.191539,0.173136,0.656044,0.000000,0.000000,0.000000,0.000000,0.000000,0.000000,0.000000,0.000000,0.000000,0.000000,0.000000,0.000000,0.077503,3,0
860000,-0.000916,22.047184,0.015715,-0.004079,25.533873,-0.016404,0.000224,0.015436,1.571634,-0.037802,0.000159,-0.001279,-0.000017,-0.003734,0.000003,0.001116,0.000947,0.080631,-0.020286,0.192034,0.192032,0.173166,0.648635,0.000000,0.000000,0.000000,0.000000,0.000000,0.000000,0.000000,0.000000,0.000000,0.000000,0.000000,0.000000,0.078056,3,0
870000,-0.000927,22.306421,0.015330,-0.004090,25.542866,-0.017057,0.000237,0.015786,1.571636,-0.038521,0.000165,-0.001232,-0.000018,-0.003838,0.000003,0.002366,0.000958,0.120872,-0.007449,0.192514,0.192512,0.173182,0.641299,0.000000,0.000000,0.000000,0.000000,0.000000,0.000000,0.000000,0.000000,0.000000,0.000000,0.000000,0.000000,0.116999,3,0
880000,-0.000937,22.566370,0.016534,-0.004019,25.553104,-0.015210,0.000232,0.016196,1.571648,-0.039358,0.000171,-0.001548,-0.000019,-0.003961,0.000003,0.003525,0.000968,0.139851,0.047795,0.192981,0.192979,0.173184,0.634041,0.000000,0.000000,0.000000,0.000000,0.000000,0.000000,0.000000,0.000000,0.000000,0.000000,0.000000,0.000000,0.135356,3,0
890000,-0.000945,22.829584,0.016305,-0.003923,25.568832,-0.015553,0.000231,0.016888,1.571653,-0.040793,0.000177,-0.001537,-0.000020,-0.004176,0.000003,0.009108,0.000976,0.237617,-0.002389,0.193435,0.193432,0.173171,0.626862,0.000000,0.000000,0.000000,0.000000,0.000000,0.000000,0.000000,0.000000,0.000000,0.000000,0.000000,0.000000,0.229960,3,0
900000,-0.000952,23.091532,0.014983,-0.003834,25.582304,-0.017471,0.000232,0.017470,1.571656,-0.041967,0.000184,-0.001272,-0.000020,-0.004355,0.000003,0.006264,0.000984,0.192915,-0.040201,0.193875,0.193872,0.173145,0.619768,0.000000,0.000000,0.000000,0.000000,0.000000,0.000000,0.000000,0.000000,0.000000,0.000000,0.000000,0.000000,0.186682,3,0
910000,-0.000959,23.354795,0.014519,-0.003826,25.597843,-0.018245,0.000232,0.018156,1.571672,-0.043369,0.000190,-0.001211,-0.000021,-0.004571,0.000003,0.008474,0.000991,0.229015,-0.009700,0.194301,0.194299,0.173104,0.612759,0.000000,0.000000,0.000000,0.000000,0.000000,0.000000,0.000000,0.000000,0.000000,0.000000,0.000000,0.000000,0.221602,3,0
920000,-0.000965,23.612909,0.014458,-0.003768,25.604101,-0.018259,0.000229,0.018396,1.571673,-0.043770,0.000197,-0.001242,-0.000022,-0.004634,0.000003,0.000684,0.000997,0.064989,0.004350,0.194715,0.194712,0.173049,0.605840,0.000000,0.000000,0.000000,0.000000,0.000000,0.000000,0.000000,0.000000,0.000000,0.000000,0.000000,0.000000,0.062887,3,0
930000,-0.000970,23.875620,0.015368,-0.003721,25.618288,-0.016994,0.000225,0.019040,1.571691,-0.045036,0.000203,-0.001511,-0.000024,-0.004835,0.000003,0.006972,0.001002,0.204391,0.038185,0.195115,0.195112,0.172980,0.599012,0.000000,0.000000,0.000000,0.000000,0.000000,0.000000,0.000000,0.000000,0.000000,0.000000,0.000000,0.000000,0.197749,3,0
940000,-0.000975,24.138344,0.014782,-0.003773,25.632322,-0.017901,0.000220,0.019675,1.571699,-0.046283,0.000210,-0.001417,-0.000025,-0.005037,0.000004,0.006480,0.001008,0.199965,-0.014115,0.195502,0.195499,0.172897,0.592279,0.000000,0.000000,0.000000,0.000000,0.000000,0.000000,0.000000,0.000000,0.000000,0.000000,0.000000,0.000000,0.193451,3,0
950000,-0.000980,24.401730,0.013159,-0.003749,25.647449,-0.020239,0.000232,0.020365,1.571704,-0.047635,0.000217,-0.001072,-0.000026,-0.005259,0.000004,0.007882,0.001013,0.215403,-0.049823,0.195876,0.195873,0.172801,0.585641,0.000000,0.000000,0.000000,0.000000,0.000000,0.000000,0.000000,0.000000,0.000000,0.000000,0.000000,0.000000,0.208371,3,0
960000,-0.000985,24.661861,0.012557,-0.003745,25.656710,-0.020982,0.000228,0.020752,1.571706,-0.048334,0.000224,-0.000978,-0.000027,-0.005376,0.000004,0.002013,0.001018,0.110897,-0.013719,0.196237,0.196234,0.172691,0.579101,0.000000,0.000000,0.000000,0.000000,0.000000,0.000000,0.000000,0.000000,0.000000,0.000000,0.000000,0.000000,0.107274,3,0
970000,-0.000990,24.922029,0.013368,-0.003815,25.665800,-0.019698,0.000236,0.021143,1.571724,-0.049024,0.000231,-0.001237,-0.000028,-0.005492,0.000004,0.002125,0.001024,0.109098,0.035674,0.196586,0.196583,0.172567,0.572660,0.000000,0.000000,0.000000,0.000000,0.000000,0.000000,0.000000,0.000000,0.000000,0.000000,0.000000,0.000000,0.105531,3,0
980000,-0.000996,25.180933,0.012357,-0.003844,25.672682,-0.021385,0.000245,0.021418,1.571731,-0.049454,0.000238,-0.001036,-0.000029,-0.005567,0.000004,0.000862,0.001029,0.067507,-0.028051,0.196923,0.196919,0.172431,0.566320,0.000000,0.000000,0.000000,0.000000,0.000000,0.000000,0.000000,0.000000,0.000000,0.000000,0.000000,0.000000,0.065298,3,0
990000,-0.001000,25.439238,0.011407,-0.003826,25.678303,-0.022932,0.000253,0.021633,1.571749,-0.049756,0.000244,-0.000852,-0.000030,-0.005619,0.000004,0.000462,0.001034,0.047083,-0.025381,0.197248,0.197244,0.172282,0.560081,0.000000,0.000000,0.000000,0.000000,0.000000,0.000000,0.000000,0.000000,0.000000,0.000000,0.000000,0.000000,0.045545,3,0
1000000,-0.001005,25.700222,0.009923,-0.003832,25.688614,-0.024947,0.000251,0.022093,1.571749,-0.050569,0.000251,-0.000536,-0.000031,-0.005764,0.000004,0.002892,0.001039,0.126663,-0.043486,0.197562,0.197557,0.172121,0.553945,0.000000,0.000000,0.000000,0.000000,0.000000,0.000000,0.000000,0.000000,0.000000,0.000000,0.000000,0.000000,0.122496,3,0
1010000,-0.001010,25.963194,0.009671,-0.003807,25.702316,-0.025378,0.000262,0.022740,1.571761,-0.051752,0.000259,-0.000545,-0.000033,-0.005977,0.000004,0.005435,0.001044,0.183638,0.000319,0.197864,0.197860,0.171947,0.547913,0.000000,0.000000,0.000000,0.000000,0.000000,0.000000,0.000000,0.000000,0.000000,0.000000,0.000000,0.000000,0.177585,3,0
1020000,-0.001013,26.222876,0.009603,-0.003759,25.710047,-0.025562,0.000269,0.023065,1.571775,-0.052266,0.000266,-0.000598,-0.000034,-0.006070,0.000004,0.001028,0.001048,0.079557,0.006761,0.198156,0.198151,0.171762,0.541986,0.000000,0.000000,0.000000,0.000000,0.000000,0.000000,0.000000,0.000000,0.000000,0.000000,0.000000,0.000000,0.076938,3,0
1030000,-0.001017,26.484564,0.010859,-0.003826,25.721231,-0.023846,0.000269,0.023587,1.571788,-0.053159,0.000273,-0.001005,-0.000035,-0.006235,0.000004,0.003521,0.001052,0.137861,0.053195,0.198438,0.198432,0.171566,0.536163,0.000000,0.000000,0.000000,0.000000,0.000000,0.000000,0.000000,0.000000,0.000000,0.000000,0.000000,0.000000,0.133308,3,0
1040000,-0.001020,26.742971,0.009486,-0.003714,25.726532,-0.025819,0.000264,0.023767,1.571795,-0.053388,0.000280,-0.000706,-0.000037,-0.006279,0.000004,0.000452,0.001055,0.035091,-0.039536,0.198709,0.198704,0.171359,0.530445,0.000000,0.000000,0.000000,0.000000,0.000000,0.000000,0.000000,0.000000,0.000000,0.000000,0.000000,0.000000,0.033943,3,0
1050000,-0.001022,27.006706,0.008603,-0.003634,25.740990,-0.026970,0.000269,0.024499,1.571799,-0.054654,0.000288,-0.000548,-0.000038,-0.006521,0.000005,0.006145,0.001057,0.194088,-0.021501,0.198972,0.198965,0.171141,0.524832,0.000000,0.000000,0.000000,0.000000,0.000000,0.000000,0.000000,0.000000,0.000000,0.000000,0.000000,0.000000,0.187653,3,0
1060000,-0.001024,27.269753,0.007553,-0.003630,25.754065,-0.028527,0.000266,0.025153,1.571817,-0.055758,0.000295,-0.000347,-0.000039,-0.006735,0.000005,0.004706,0.001059,0.168755,-0.026926,0.199225,0.199218,0.170913,0.519325,0.000000,0.000000,0.000000,0.000000,0.000000,0.000000,0.000000,0.000000,0.000000,0.000000,0.000000,0.000000,0.163154,3,0
1070000,-0.001025,27.533442,0.006057,-0.003609,25.768120,-0.030550,0.000264,0.025867,1.571821,-0.056964,0.000303,-0.000027,-0.000041,-0.006973,0.000005,0.005736,0.001060,0.183884,-0.042121,0.199469,0.199463,0.170675,0.513923,0.000000,0.000000,0.000000,0.000000,0.000000,0.000000,0.000000,0.000000,0.000000,0.000000,0.000000,0.000000,0.177772,3,0
1080000,-0.001027,27.791805,0.005497,-0.003630,25.772642,-0.031327,0.000274,0.026012,1.571835,-0.057092,0.000310,0.000041,-0.000042,-0.006998,0.000005,0.000074,0.001062,0.019449,-0.008753,0.199706,0.199699,0.170428,0.508626,0.000000,0.000000,0.000000,0.000000,0.000000,0.000000,0.000000,0.000000,0.000000,0.000000,0.000000,0.000000,0.018829,3,0
1090000,-0.001029,28.052200,0.006491,-0.003672,25.780653,-0.029886,0.000274,0.026360,1.571852,-0.057611,0.000317,-0.000330,-0.000044,-0.007103,0.000005,0.001356,0.001064,0.079102,0.046365,0.199935,0.199927,0.170172,0.503435,0.000000,0.000000,0.000000,0.000000,0.000000,0.000000,0.000000,0.000000,0.000000,0.000000,0.000000,0.000000,0.076474,3,0
1100000,-0.001031,28.312609,0.007372,-0.003739,25.788628,-0.028821,0.000275,0.026705,1.571861,-0.058118,0.000324,-0.000669,-0.000045,-0.007206,0.000005,0.001242,0.001067,0.077051,0.041993,0.200157,0.200149,0.169907,0.498347,0.000000,0.000000,0.000000,0.000000,0.000000,0.000000,0.000000,0.000000,0.000000,0.000000,0.000000,0.000000,0.074491,3,0
1110000,-0.001033,28.571041,0.007990,-0.003720,25.793093,-0.028158,0.000289,0.026836,1.571870,-0.058218,0.000331,-0.000929,-0.000047,-0.007227,0.000005,0.000207,0.001069,0.015350,0.032280,0.200372,0.200363,0.169635,0.493364,0.000000,0.000000,0.000000,0.000000,0.000000,0.000000,0.000000,0.000000,0.000000,0.000000,0.000000,0.000000,0.014875,3,0
1120000,-0.001034,28.834166,0.009020,-0.003601,25.805613,-0.026913,0.000302,0.027473,1.571876,-0.059237,0.000339,-0.001317,-0.000048,-0.007442,0.000005,0.004201,0.001070,0.154453,0.046974,0.200580,0.200571,0.169354,0.488484,0.000000,0.000000,0.000000,0.000000,0.000000,0.000000,0.000000,0.000000,0.000000,0.000000,0.000000,0.000000,0.149297,3,0
1130000,-0.001034,29.097931,0.008490,-0.003530,25.819204,-0.027604,0.000299,0.028193,1.571878,-0.060358,0.000346,-0.001255,-0.000050,-0.007682,0.000006,0.004641,0.001070,0.169508,-0.008743,0.200783,0.200774,0.169066,0.483707,0.000000,0.000000,0.000000,0.000000,0.000000,0.000000,0.000000,0.000000,0.000000,0.000000,0.000000,0.000000,0.163839,3,0
1140000,-0.001033,29.358326,0.008564,-0.003453,25.826769,-0.027590,0.000304,0.028526,1.571879,-0.060785,0.000354,-0.001364,-0.000051,-0.007775,0.000006,0.000699,0.001069,0.064634,0.012755,0.200980,0.200971,0.168772,0.479033,0.000000,0.000000,0.000000,0.000000,0.000000,0.000000,0.000000,0.000000,0.000000,0.000000,0.000000,0.000000,0.062478,3,0
1150000,-0.001032,29.619392,0.009293,-0.003368,25.835327,-0.026795,0.000303,0.028914,1.571895,-0.061330,0.000361,-0.001667,-0.000053,-0.007895,0.000006,0.001308,0.001067,0.082468,0.036193,0.201173,0.201162,0.168470,0.474459,0.000000,0.000000,0.000000,0.000000,0.000000,0.000000,0.000000,0.000000,0.000000,0.000000,0.000000,0.000000,0.079713,3,0
1160000,-0.001030,29.881792,0.009314,-0.003410,25.846130,-0.026926,0.000316,0.029451,1.571901,-0.062121,0.000369,-0.001765,-0.000055,-0.008072,0.000006,0.002319,0.001066,0.119503,0.010788,0.201361,0.201350,0.168163,0.469985,0.000000,0.000000,0.000000,0.000000,0.000000,0.000000,0.000000,0.000000,0.000000,0.000000,0.000000,0.000000,0.115498,3,0
1170000,-0.001030,30.142828,0.010438,-0.003476,25.854410,-0.025461,0.000326,0.029838,1.571905,-0.062620,0.000376,-0.002189,-0.000056,-0.008185,0.000006,0.001329,0.001066,0.075663,0.050120,0.201544,0.201533,0.167850,0.465611,0.000000,0.000000,0.000000,0.000000,0.000000,0.000000,0.000000,0.000000,0.000000,0.000000,0.000000,0.000000,0.073133,3,0
1180000,-0.001029,30.404530,0.011224,-0.003403,25.863853,-0.024329,0.000338,0.030284,1.571913,-0.063233,0.000383,-0.002512,-0.000058,-0.008326,0.000006,0.001618,0.001064,0.092846,0.037623,0.201724,0.201712,0.167531,0.461335,0.000000,0.000000,0.000000,0.000000,0.000000,0.000000,0.000000,0.000000,0.000000,0.000000,0.000000,0.000000,0.089733,3,0
1190000,-0.001027,30.666891,0.009740,-0.003337,25.874271,-0.026379,0.000351,0.030804,1.571926,-0.063959,0.000391,-0.002146,-0.000060,-0.008497,0.000006,0.002241,0.001063,0.109354,-0.044095,0.201901,0.201888,0.167208,0.457156,0.000000,0.000000,0.000000,0.000000,0.000000,0.000000,0.000000,0.000000,0.000000,0.000000,0.000000,0.000000,0.105676,3,0
1200000,-0.001025,30.929214,0.010918,-0.003346,25.884428,-0.024986,0.000357,0.031325,1.571944,-0.064654,0.000398,-0.002600,-0.000062,-0.008661,0.000006,0.002230,0.001061,0.105316,0.052324,0.202074,0.202061,0.166880,0.453073,0.000000,0.000000,0.000000,0.000000,0.000000,0.000000,0.000000,0.000000,0.000000,0.000000,0.000000,0.000000,0.101779,3,0
1210000,-0.001022,31.189499,0.011931,-0.003227,25.890987,-0.023700,0.000369,0.031576,1.571949,-0.064928,0.000405,-0.002995,-0.000063,-0.008726,0.000006,0.000620,0.001058,0.041679,0.045774,0.202245,0.202231,0.166547,0.449085,0.000000,0.000000,0.000000,0.000000,0.000000,0.000000,0.000000,0.000000,0.000000,0.000000,0.000000,0.000000,0.040292,3,0
1220000,-0.001020,31.452475,0.011427,-0.003260,25.902256,-0.024533,0.000368,0.032161,1.571962,-0.065716,0.000413,-0.002926,-0.000065,-0.008919,0.000007,0.002305,0.001055,0.119270,-0.009115,0.202414,0.202399,0.166211,0.445191,0.000000,0.000000,0.000000,0.000000,0.000000,0.000000,0.000000,0.000000,0.000000,0.000000,0.000000,0.000000,0.115250,3,0
1230000,-0.001017,31.713396,0.011150,-0.003201,25.909744,-0.024769,0.000366,0.032487,1.571979,-0.066078,0.000420,-0.002923,-0.000067,-0.009009,0.000007,0.000487,0.001052,0.054970,-0.000880,0.202581,0.202565,0.165871,0.441390,0.000000,0.000000,0.000000,0.000000,0.000000,0.000000,0.000000,0.000000,0.000000,0.000000,0.000000,0.000000,0.053124,3,0
1240000,-0.001013,31.976320,0.010534,-0.003121,25.920534,-0.025620,0.000375,0.033054,1.571990,-0.066817,0.000427,-0.002820,-0.000069,-0.009195,0.000007,0.002048,0.001049,0.112038,-0.012842,0.202746,0.202730,0.165528,0.437678,0.000000,0.000000,0.000000,0.000000,0.000000,0.000000,0.000000,0.000000,0.000000,0.000000,0.000000,0.000000,0.108256,3,0
1250000,-0.001009,32.235840,0.010557,-0.003045,25.925261,-0.025545,0.000379,0.033190,1.571990,-0.066870,0.000434,-0.002911,-0.000071,-0.009209,0.000007,0.000028,0.001044,0.008034,0.010278,0.202910,0.202894,0.165182,0.434057,0.000000,0.000000,0.000000,0.000000,0.000000,0.000000,0.000000,0.000000,0.000000,0.000000,0.000000,0.000000,0.007828,3,0
1260000,-0.001005,32.496044,0.009683,-0.003081,25.931065,-0.026588,0.000386,0.033396,1.571997,-0.067046,0.000441,-0.002716,-0.000072,-0.009255,0.000007,0.000196,0.001040,0.026768,-0.022320,0.203074,0.203056,0.164834,0.430524,0.000000,0.000000,0.000000,0.000000,0.000000,0.000000,0.000000,0.000000,0.000000,0.000000,0.000000,0.000000,0.025879,3,0
1270000,-0.001002,32.754219,0.009931,-0.003078,25.933340,-0.026397,0.000398,0.033349,1.572007,-0.066818,0.000448,-0.002880,-0.000074,-0.009194,0.000007,0.000251,0.001037,-0.034698,0.018772,0.203236,0.203218,0.164483,0.427079,0.000000,0.000000,0.000000,0.000000,0.000000,0.000000,0.000000,0.000000,0.000000,0.000000,0.000000,0.000000,0.033535,3,0
1280000,-0.000997,33.013771,0.010657,-0.002997,25.937899,-0.025561,0.000395,0.033476,1.572021,-0.066851,0.000454,-0.003205,-0.000076,-0.009202,0.000007,0.000219,0.001032,0.005283,0.036362,0.203399,0.203379,0.164130,0.423718,0.000000,0.000000,0.000000,0.000000,0.000000,0.000000,0.000000,0.000000,0.000000,0.000000,0.000000,0.000000,0.005204,3,0
1290000,-0.000993,33.276028,0.011143,-0.003060,25.947243,-0.025182,0.000398,0.033947,1.572039,-0.067396,0.000461,-0.003463,-0.000078,-0.009349,0.000007,0.001251,0.001028,0.083626,0.027716,0.203561,0.203541,0.163776,0.420442,0.000000,0.000000,0.000000,0.000000,0.000000,0.000000,0.000000,0.000000,0.000000,0.000000,0.000000,0.000000,0.080798,3,0
1300000,-0.000989,33.537575,0.010905,-0.003035,25.955238,-0.025442,0.000402,0.034304,1.572055,-0.067785,0.000468,-0.003476,-0.000080,-0.009456,0.000007,0.000576,0.001024,0.059822,0.000862,0.203723,0.203702,0.163420,0.417249,0.000000,0.000000,0.000000,0.000000,0.000000,0.000000,0.000000,0.000000,0.000000,0.000000,0.000000,0.000000,0.057801,3,0
1310000,-0.000986,33.797737,0.011312,-0.003102,25.960590,-0.025079,0.000408,0.034485,1.572061,-0.067894,0.000475,-0.003702,-0.000082,-0.009485,0.000007,0.000144,0.001021,0.016869,0.024574,0.203885,0.203863,0.163064,0.414137,0.000000,0.000000,0.000000,0.000000,0.000000,0.000000,0.000000,0.000000,0.000000,0.000000,0.000000,0.000000,0.016330,3,0
1320000,-0.000983,34.057899,0.011166,-0.003032,25.965971,-0.025456,0.000419,0.034664,1.572078,-0.067991,0.000482,-0.003741,-0.000083,-0.009513,0.000007,0.000040,0.001017,0.015076,0.004153,0.204048,0.204025,0.162706,0.411105,0.000000,0.000000,0.000000,0.000000,0.000000,0.000000,0.000000,0.000000,0.000000,0.000000,0.000000,0.000000,0.014598,3,0
1330000,-0.000979,34.317371,0.012333,-0.003007,25.969957,-0.024015,0.000427,0.034721,1.572089,-0.067946,0.000488,-0.004225,-0.000085,-0.009498,0.000007,0.000456,0.001013,-0.006596,0.052640,0.204212,0.204188,0.162348,0.408151,0.000000,0.000000,0.000000,0.000000,0.000000,0.000000,0.000000,0.000000,0.000000,0.000000,0.000000,0.000000,0.006438,3,0
1340000,-0.000975,34.580235,0.012731,-0.003073,25.979834,-0.023706,0.000434,0.035235,1.572090,-0.068535,0.000495,-0.004459,-0.000087,-0.009669,0.000007,0.001450,0.001010,0.091717,0.024237,0.204376,0.204352,0.161990,0.405273,0.000000,0.000000,0.000000,0.000000,0.000000,0.000000,0.000000,0.000000,0.000000,0.000000,0.000000,0.000000,0.088602,3,0
1350000,-0.000971,34.842365,0.013206,-0.002956,25.988390,-0.023298,0.000451,0.035656,1.572097,-0.068966,0.000501,-0.004717,-0.000089,-0.009795,0.000007,0.000847,0.001006,0.067303,0.026935,0.204542,0.204516,0.161632,0.402472,0.000000,0.000000,0.000000,0.000000,0.000000,0.000000,0.000000,0.000000,0.000000,0.000000,0.000000,0.000000,0.065021,3,0
1360000,-0.000967,35.103100,0.014236,-0.002927,25.994349,-0.021918,0.000463,0.035859,1.572100,-0.069115,0.000508,-0.005161,-0.000091,-0.009838,0.000007,0.000452,0.001001,0.023750,0.047193,0.204709,0.204682,0.161273,0.399745,0.000000,0.000000,0.000000,0.000000,0.000000,0.000000,0.000000,0.000000,0.000000,0.000000,0.000000,0.000000,0.022966,3,0
1370000,-0.000962,35.362457,0.015118,-0.002862,25.997828,-0.020693,0.000469,0.035874,1.572107,-0.068997,0.000514,-0.005544,-0.000093,-0.009800,0.000007,0.000328,0.000996,-0.018379,0.041027,0.204877,0.204849,0.160916,0.397090,0.000000,0.000000,0.000000,0.000000,0.000000,0.000000,0.000000,0.000000,0.000000,0.000000,0.000000,0.000000,0.017772,3,0
1380000,-0.000956,35.622501,0.015090,-0.002786,26.002388,-0.020850,0.000470,0.035988,1.572107,-0.069000,0.000520,-0.005609,-0.000095,-0.009801,0.000007,0.000008,0.000990,0.000538,0.006826,0.205047,0.205018,0.160558,0.394506,0.000000,0.000000,0.000000,0.000000,0.000000,0.000000,0.000000,0.000000,0.000000,0.000000,0.000000,0.000000,0.001088,3,0
1390000,-0.000952,35.882534,0.014568,-0.002842,26.006876,-0.021476,0.000485,0.036086,1.572109,-0.068993,0.000526,-0.005498,-0.000097,-0.009800,0.000007,0.000022,0.000985,-0.001129,-0.011663,0.205219,0.205189,0.160202,0.391992,0.000000,0.000000,0.000000,0.000000,0.000000,0.000000,0.000000,0.000000,0.000000,0.000000,0.000000,0.000000,0.001448,3,0
1400000,-0.000948,36.141872,0.013956,-0.002886,26.010015,-0.022129,0.000491,0.036084,1.572124,-0.068851,0.000532,-0.005352,-0.000099,-0.009755,0.000007,0.000119,0.000981,-0.022655,-0.014993,0.205392,0.205361,0.159847,0.389545,0.000000,0.000000,0.000000,0.000000,0.000000,0.000000,0.000000,0.000000,0.000000,0.000000,0.000000,0.000000,0.021902,3,0
1410000,-0.000944,36.403931,0.014112,-0.002927,26.018026,-0.022183,0.000501,0.036468,1.572140,-0.069200,0.000539,-0.005501,-0.000101,-0.009867,0.000007,0.000539,0.000978,0.055912,0.014732,0.205567,0.205535,0.159493,0.387166,0.000000,0.000000,0.000000,0.000000,0.000000,0.000000,0.000000,0.000000,0.000000,0.000000,0.000000,0.000000,0.054009,3,0
1420000,-0.000941,36.663898,0.014329,-0.002966,26.022100,-0.021960,0.000513,0.036534,1.572147,-0.069153,0.000545,-0.005660,-0.000103,-0.009851,0.000007,0.000054,0.000974,-0.007435,0.016634,0.205744,0.205710,0.159140,0.384851,0.000000,0.000000,0.000000,0.000000,0.000000,0.000000,0.000000,0.000000,0.000000,0.000000,0.000000,0.000000,0.007237,3,0
1430000,-0.000938,36.923851,0.015239,-0.002971,26.026154,-0.021053,0.000512,0.036596,1.572154,-0.069096,0.000551,-0.006073,-0.000105,-0.009830,0.000007,0.000311,0.000971,-0.009022,0.042807,0.205923,0.205888,0.158789,0.382601,0.000000,0.000000,0.000000,0.000000,0.000000,0.000000,0.000000,0.000000,0.000000,0.000000,0.000000,0.000000,0.008755,3,0
1440000,-0.000935,37.182430,0.015106,-0.002967,26.027657,-0.021384,0.000519,0.036448,1.572169,-0.068785,0.000556,-0.006092,-0.000107,-0.009726,0.000007,0.000409,0.000968,-0.050343,0.002748,0.206103,0.206067,0.158440,0.380413,0.000000,0.000000,0.000000,0.000000,0.000000,0.000000,0.000000,0.000000,0.000000,0.000000,0.000000,0.000000,0.048623,3,0
1450000,-0.000931,37.443752,0.014336,-0.002908,26.034056,-0.022310,0.000522,0.036704,1.572174,-0.068964,0.000562,-0.005893,-0.000109,-0.009787,0.000007,0.000206,0.000964,0.029003,-0.020818,0.206286,0.206249,0.158093,0.378285,0.000000,0.000000,0.000000,0.000000,0.000000,0.000000,0.000000,0.000000,0.000000,0.000000,0.000000,0.000000,0.028019,3,0
1460000,-0.000926,37.701607,0.015232,-0.002772,26.034048,-0.021107,0.000534,0.036419,1.572188,-0.068515,0.000568,-0.006296,-0.000111,-0.009631,0.000007,0.001154,0.000960,-0.073349,0.042131,0.206471,0.206432,0.157748,0.376217,0.000000,0.000000,0.000000,0.000000,0.000000,0.000000,0.000000,0.000000,0.000000,0.000000,0.000000,0.000000,0.070822,3,0
1470000,-0.000922,37.960178,0.014332,-0.002805,26.035400,-0.022388,0.000548,0.036262,1.572204,-0.068196,0.000573,-0.006027,-0.000113,-0.009520,0.000007,0.000564,0.000955,-0.052902,-0.026443,0.206657,0.206617,0.157405,0.374208,0.000000,0.000000,0.000000,0.000000,0.000000,0.000000,0.000000,0.000000,0.000000,0.000000,0.000000,0.000000,0.051095,3,0
1480000,-0.000917,38.218758,0.013012,-0.002708,26.036753,-0.023999,0.000564,0.036098,1.572210,-0.067879,0.000579,-0.005600,-0.000115,-0.009409,0.000007,0.000742,0.000950,-0.053059,-0.042143,0.206846,0.206805,0.157064,0.372255,0.000000,0.000000,0.000000,0.000000,0.000000,0.000000,0.000000,0.000000,0.000000,0.000000,0.000000,0.000000,0.051247,3,0
1490000,-0.000912,38.477341,0.012282,-0.002664,26.037945,-0.024938,0.000563,0.035923,1.572219,-0.067561,0.000584,-0.005402,-0.000117,-0.009295,0.000007,0.000515,0.000945,-0.053226,-0.019004,0.207036,0.206994,0.156726,0.370357,0.000000,0.000000,0.000000,0.000000,0.000000,0.000000,0.000000,0.000000,0.000000,0.000000,0.000000,0.000000,0.051404,3,0
1500000,-0.000906,38.739361,0.011087,-0.002534,26.045475,-0.026351,0.000564,0.036265,1.572233,-0.067836,0.000590,-0.005051,-0.000119,-0.009397,0.000007,0.000549,0.000938,0.045998,-0.035860,0.207229,0.207185,0.156391,0.368513,0.000000,0.000000,0.000000,0.000000,0.000000,0.000000,0.000000,0.000000,0.000000,0.000000,0.000000,0.000000,0.044412,3,0
1510000,-0.000899,39.001328,0.010780,-0.002536,26.052767,-0.026706,0.000568,0.036587,1.572237,-0.068086,0.000596,-0.005046,-0.000121,-0.009490,0.000007,0.000289,0.000932,0.042328,-0.001204,0.207423,0.207378,0.156058,0.366723,0.000000,0.000000,0.000000,0.000000,0.000000,0.000000,0.000000,0.000000,0.000000,0.000000,0.000000,0.000000,0.040873,3,0
1520000,-0.000892,39.260490,0.010715,-0.002415,26.054852,-0.026882,0.000566,0.036470,1.572241,-0.067846,0.000601,-0.005116,-0.000123,-0.009399,0.000007,0.000277,0.000924,-0.040802,0.007626,0.207619,0.207573,0.155728,0.364983,0.000000,0.000000,0.000000,0.000000,0.000000,0.000000,0.000000,0.000000,0.000000,0.000000,0.000000,0.000000,0.039401,3,0
1530000,-0.000884,39.521019,0.010936,-0.002291,26.059341,-0.026669,0.000581,0.036566,1.572242,-0.067835,0.000607,-0.005309,-0.000125,-0.009394,0.000007,0.000060,0.000916,-0.001801,0.019057,0.207817,0.207769,0.155401,0.363294,0.000000,0.000000,0.000000,0.000000,0.000000,0.000000,0.000000,0.000000,0.000000,0.000000,0.000000,0.000000,0.001948,3,0
1540000,-0.000876,39.780140,0.011125,-0.002261,26.061199,-0.026529,0.000587,0.036418,1.572250,-0.067582,0.000611,-0.005478,-0.000127,-0.009295,0.000007,0.000357,0.000907,-0.043705,0.017411,0.208017,0.207967,0.155078,0.361653,0.000000,0.000000,0.000000,0.000000,0.000000,0.000000,0.000000,0.000000,0.000000,0.000000,0.000000,0.000000,0.042196,3,0
1550000,-0.000867,40.038570,0.010543,-0.002226,26.061827,-0.027091,0.000595,0.036161,1.572268,-0.067214,0.000616,-0.005335,-0.000129,-0.009150,0.000007,0.000692,0.000898,-0.064297,-0.012782,0.208218,0.208167,0.154757,0.360061,0.000000,0.000000,0.000000,0.000000,0.000000,0.000000,0.000000,0.000000,0.000000,0.000000,0.000000,0.000000,0.062075,3,0
1560000,-0.000858,40.297695,0.009782,-0.002088,26.063578,-0.028080,0.000595,0.036010,1.572285,-0.066962,0.000621,-0.005129,-0.000131,-0.009050,0.000007,0.000378,0.000889,-0.044430,-0.019244,0.208420,0.208368,0.154440,0.358513,0.000000,0.000000,0.000000,0.000000,0.000000,0.000000,0.000000,0.000000,0.000000,0.000000,0.000000,0.000000,0.042901,3,0
1570000,-0.000848,40.559566,0.010170,-0.001968,26.070286,-0.027747,0.000612,0.036299,1.572294,-0.067155,0.000626,-0.005410,-0.000133,-0.009127,0.000007,0.000305,0.000878,0.034370,0.026538,0.208624,0.208571,0.154126,0.357010,0.000000,0.000000,0.000000,0.000000,0.000000,0.000000,0.000000,0.000000,0.000000,0.000000,0.000000,0.000000,0.033191,3,0
1580000,-0.000838,40.821396,0.009073,-0.001972,26.076803,-0.028928,0.000617,0.036573,1.572310,-0.067329,0.000631,-0.005088,-0.000135,-0.009201,0.000007,0.000316,0.000868,0.030857,-0.031635,0.208830,0.208775,0.153815,0.355551,0.000000,0.000000,0.000000,0.000000,0.000000,0.000000,0.000000,0.000000,0.000000,0.000000,0.000000,0.000000,0.029789,3,0
1590000,-0.000828,41.083862,0.008332,-0.001974,26.084465,-0.029739,0.000623,0.036936,1.572325,-0.067591,0.000637,-0.004920,-0.000137,-0.009312,0.000007,0.000407,0.000858,0.047268,-0.017088,0.209036,0.208980,0.153508,0.354136,0.000000,0.000000,0.000000,0.000000,0.000000,0.000000,0.000000,0.000000,0.000000,0.000000,0.000000,0.000000,0.045624,3,0
1600000,-0.000818,41.344170,0.009080,-0.001894,26.087959,-0.028965,0.000625,0.036940,1.572333,-0.067499,0.000641,-0.005345,-0.000139,-0.009270,0.000007,0.000317,0.000848,-0.016487,0.040985,0.209244,0.209186,0.153205,0.352761,0.000000,0.000000,0.000000,0.000000,0.000000,0.000000,0.000000,0.000000,0.000000,0.000000,0.000000,0.000000,0.015924,3,0
1610000,-0.000807,41.605133,0.009912,-0.001776,26.092691,-0.028107,0.000623,0.037033,1.572345,-0.067506,0.000645,-0.005809,-0.000141,-0.009270,0.000007,0.000317,0.000836,0.001476,0.044180,0.209453,0.209393,0.152905,0.351427,0.000000,0.000000,0.000000,0.000000,0.000000,0.000000,0.000000,0.000000,0.000000,0.000000,0.000000,0.000000,0.001649,3,0
1620000,-0.000796,41.866768,0.008739,-0.001736,26.098469,-0.029657,0.000629,0.037236,1.572349,-0.067608,0.000650,-0.005448,-0.000143,-0.009318,0.000008,0.000252,0.000825,0.018772,-0.034655,0.209662,0.209601,0.152609,0.350131,0.000000,0.000000,0.000000,0.000000,0.000000,0.000000,0.000000,0.000000,0.000000,0.000000,0.000000,0.000000,0.018126,3,0
1630000,-0.000786,42.129032,0.009002,-0.001751,26.105284,-0.029535,0.000646,0.037526,1.572366,-0.067797,0.000654,-0.005694,-0.000145,-0.009400,0.000008,0.000284,0.000814,0.035381,0.022596,0.209872,0.209810,0.152316,0.348873,0.000000,0.000000,0.000000,0.000000,0.000000,0.000000,0.000000,0.000000,0.000000,0.000000,0.000000,0.000000,0.034158,3,0
1640000,-0.000774,42.389843,0.008608,-0.001611,26.109426,-0.030108,0.000658,0.037580,1.572374,-0.067753,0.000659,-0.005652,-0.000147,-0.009381,0.000008,0.000013,0.000802,-0.008282,-0.003775,0.210083,0.210019,0.152027,0.347653,0.000000,0.000000,0.000000,0.000000,0.000000,0.000000,0.000000,0.000000,0.000000,0.000000,0.000000,0.000000,0.008029,3,0
1650000,-0.000763,42.648514,0.008839,-0.001593,26.109636,-0.029730,0.000655,0.037271,1.572388,-0.067383,0.000662,-0.005853,-0.000149,-0.009209,0.000008,0.000863,0.000791,-0.070347,0.020367,0.210294,0.210228,0.151742,0.346469,0.000000,0.000000,0.000000,0.000000,0.000000,0.000000,0.000000,0.000000,0.000000,0.000000,0.000000,0.000000,0.067879,3,0
1660000,-0.000752,42.906467,0.009922,-0.001594,26.108477,-0.028236,0.000667,0.036824,1.572404,-0.066912,0.000666,-0.006407,-0.000151,-0.008985,0.000007,0.001785,0.000779,-0.090469,0.053751,0.210505,0.210438,0.151461,0.345319,0.000000,0.000000,0.000000,0.000000,0.000000,0.000000,0.000000,0.000000,0.000000,0.000000,0.000000,0.000000,0.087284,3,0
1670000,-0.000740,43.165131,0.010348,-0.001486,26.108513,-0.027778,0.000681,0.036495,1.572406,-0.066552,0.000669,-0.006685,-0.000153,-0.008812,0.000007,0.000913,0.000767,-0.070110,0.027464,0.210716,0.210648,0.151184,0.344202,0.000000,0.000000,0.000000,0.000000,0.000000,0.000000,0.000000,0.000000,0.000000,0.000000,0.000000,0.000000,0.067646,3,0
1680000,-0.000729,43.423801,0.009085,-0.001468,26.108624,-0.029288,0.000697,0.036187,1.572422,-0.066196,0.000673,-0.006239,-0.000154,-0.008642,0.000007,0.001054,0.000755,-0.070343,-0.039834,0.210928,0.210858,0.150911,0.343118,0.000000,0.000000,0.000000,0.000000,0.000000,0.000000,0.000000,0.000000,0.000000,0.000000,0.000000,0.000000,0.067886,3,0
1690000,-0.000717,43.685238,0.009479,-0.001412,26.113697,-0.028840,0.000694,0.036335,1.572422,-0.066240,0.000676,-0.006540,-0.000156,-0.008662,0.000007,0.000137,0.000743,0.008923,0.027606,0.211139,0.211067,0.150642,0.342064,0.000000,0.000000,0.000000,0.000000,0.000000,0.000000,0.000000,0.000000,0.000000,0.000000,0.000000,0.000000,0.008647,3,0
1700000,-0.000706,43.944538,0.008298,-0.001390,26.114775,-0.030365,0.000693,0.036113,1.572441,-0.065974,0.000680,-0.006135,-0.000158,-0.008532,0.000007,0.000676,0.000731,-0.053772,-0.036058,0.211350,0.211277,0.150376,0.341040,0.000000,0.000000,0.000000,0.000000,0.000000,0.000000,0.000000,0.000000,0.000000,0.000000,0.000000,0.000000,0.051896,3,0
1710000,-0.000696,44.201714,0.007050,-0.001441,26.111925,-0.031591,0.000696,0.035531,1.572446,-0.065413,0.000683,-0.005681,-0.000159,-0.008251,0.000007,0.002349,0.000721,-0.114292,-0.039052,0.211560,0.211485,0.150115,0.340046,0.000000,0.000000,0.000000,0.000000,0.000000,0.000000,0.000000,0.000000,0.000000,0.000000,0.000000,0.000000,0.110277,3,0
1720000,-0.000684,44.462379,0.008106,-0.001308,26.115444,-0.030347,0.000711,0.035527,1.572448,-0.065346,0.000686,-0.006277,-0.000161,-0.008212,0.000007,0.000519,0.000709,-0.013622,0.054883,0.211769,0.211693,0.149857,0.339079,0.000000,0.000000,0.000000,0.000000,0.000000,0.000000,0.000000,0.000000,0.000000,0.000000,0.000000,0.000000,0.013140,3,0
