time_us,pos_x,pos_y,pos_z,vel_x,vel_y,vel_z,roll,pitch,yaw,bias_ax,bias_ay,bias_az,bias_gx,bias_gy,bias_gz,nis,innov_x,innov_y,innov_z,cov_pos_x,cov_pos_y,cov_pos_z,cov_yaw,des_speed,des_heading,des_climb,pid_speed,pid_yaw,pid_alt,speed_meas,yaw_meas,climb_meas,fwd_accel,yaw_rate,vert_accel,drift_m,nav_mode,mission_state
0,-0.000004,0.150001,0.000003,-0.000616,25.000193,0.000799,0.000003,0.000022,1.570814,0.000000,0.000000,0.000000,0.000000,0.000000,0.000000,0.006250,0.000006,-0.250004,-0.000008,2.400038,2.400038,3.600017,1.000518,0.000000,0.000000,0.000000,0.000000,0.000000,0.000000,0.000000,0.000000,0.000000,0.000000,0.000000,0.000000,0.150001,1,0
10000,-0.000011,0.359554,0.028336,-0.001184,25.000521,0.001697,0.000000,0.000032,1.570822,0.000000,0.000000,-0.000000,0.000000,0.000000,0.000000,0.002980,0.000016,-0.141583,0.075510,1.714420,1.714420,2.250079,1.001073,0.000000,0.000000,0.000000,0.000000,0.000000,0.000000,0.000000,0.000000,0.000000,0.000000,0.000000,0.000000,0.101128,3,0
20000,-0.000022,0.575701,0.029486,-0.001726,25.000578,0.002310,0.000016,0.000038,1.570823,0.000002,0.000000,-0.000000,-0.000000,0.000000,-0.000000,0.003011,0.000028,-0.152348,0.004132,1.333616,1.333616,1.636554,1.001655,0.000000,0.000000,0.000000,0.000000,0.000000,0.000000,0.000000,0.000000,0.000000,0.000000,0.000000,0.000000,0.118486,3,0
30000,-0.000037,0.791227,0.028982,-0.002294,25.000444,0.003197,0.000026,0.000048,1.570826,0.000005,0.000000,-0.000000,-0.000000,0.000000,-0.000000,0.004902,0.000045,-0.189587,-0.002501,1.091392,1.091392,1.286065,1.002257,0.000000,0.000000,0.000000,0.000000,0.000000,0.000000,0.000000,0.000000,0.000000,0.000000,0.000000,0.000000,0.155102,3,0
40000,-0.000055,1.037017,0.022147,-0.002796,25.000923,0.003855,0.000025,0.000056,1.570835,0.000006,0.000000,0.000001,0.000000,0.000000,-0.000000,0.000314,0.000065,-0.027413,-0.038940,0.923811,0.923811,1.059385,1.002869,0.000000,0.000000,0.000000,0.000000,0.000000,0.000000,0.000000,0.000000,0.000000,0.000000,0.000000,0.000000,0.023192,3,0
50000,-0.000076,1.274441,0.017160,-0.003240,25.000832,0.004445,0.000024,0.000064,1.570842,0.000010,0.000000,0.000002,0.000000,0.000000,-0.000000,0.001443,0.000087,-0.094295,-0.033523,0.801036,0.801036,0.900822,1.003484,0.000000,0.000000,0.000000,0.000000,0.000000,0.000000,0.000000,0.000000,0.000000,0.000000,0.000000,0.000000,0.081706,3,0
60000,-0.000101,1.529875,0.021281,-0.003861,25.001698,0.005461,0.000028,0.000083,1.570848,0.000007,0.000000,0.000000,-0.000000,0.000000,-0.000000,0.000451,0.000114,0.045979,0.031141,0.707270,0.707270,0.783741,1.004094,0.000000,0.000000,0.000000,0.000000,0.000000,0.000000,0.000000,0.000000,0.000000,0.000000,0.000000,0.000000,0.040559,3,0
70000,-0.000129,1.776673,0.026036,-0.004298,25.002056,0.006347,0.000035,0.000097,1.570855,0.000010,0.000000,-0.000003,-0.000000,0.000000,-0.000000,0.000382,0.000144,-0.030553,0.040595,0.633370,0.633370,0.693801,1.004688,0.000000,0.000000,0.000000,0.000000,0.000000,0.000000,0.000000,0.000000,0.000000,0.000000,0.000000,0.000000,0.027328,3,0
80000,-0.000160,2.017287,0.022812,-0.004853,25.001881,0.007014,0.000041,0.000113,1.570866,0.000020,0.000000,0.000000,-0.000000,0.000000,-0.000000,0.001612,0.000177,-0.098444,-0.031766,0.573673,0.573673,0.622594,1.005260,0.000000,0.000000,0.000000,0.000000,0.000000,0.000000,0.000000,0.000000,0.000000,0.000000,0.000000,0.000000,0.089032,3,0
90000,-0.000195,2.267214,0.022996,-0.005388,25.002480,0.007940,0.000052,0.000120,1.570873,0.000020,0.000000,0.000000,-0.000000,0.000000,-0.000000,0.000000,0.000214,-0.001115,0.001117,0.524488,0.524488,0.564865,1.005801,0.000000,0.000000,0.000000,0.000000,0.000000,0.000000,0.000000,0.000000,0.000000,0.000000,0.000000,0.000000,0.001036,3,0
100000,-0.000234,2.516238,0.020596,-0.005930,25.002954,0.008530,0.000052,0.000141,1.570873,0.000022,0.000000,0.000005,-0.000000,0.000000,-0.000000,0.000151,0.000255,-0.012501,-0.028871,0.483304,0.483304,0.517162,1.006301,0.000000,0.000000,0.000000,0.000000,0.000000,0.000000,0.000000,0.000000,0.000000,0.000000,0.000000,0.000000,0.011497,3,0
110000,-0.000276,2.761583,0.020666,-0.006407,25.002737,0.009272,0.000051,0.000155,1.570884,0.000033,0.000000,0.000005,-0.000000,0.000000,-0.000000,0.000607,0.000298,-0.062739,-0.000278,0.448354,0.448354,0.477121,1.006754,0.000000,0.000000,0.000000,0.000000,0.000000,0.000000,0.000000,0.000000,0.000000,0.000000,0.000000,0.000000,0.058051,3,0
120000,-0.000322,3.019243,0.025117,-0.007037,25.004528,0.010794,0.000059,0.000167,1.570884,0.000009,0.000000,-0.000008,-0.000000,-0.000000,0.000000,0.002390,0.000346,0.109374,0.058896,0.418359,0.418359,0.443071,1.007150,0.000000,0.000000,0.000000,0.000000,0.000000,0.000000,0.000000,0.000000,0.000000,0.000000,0.000000,0.000000,0.101748,3,0
130000,-0.000372,3.273895,0.028481,-0.007535,25.005938,0.012261,0.000072,0.000177,1.570892,-0.000009,0.000000,-0.000020,-0.000000,-0.000000,0.000000,0.001115,0.000398,0.070365,0.047079,0.392370,0.392370,0.413797,1.007481,0.000000,0.000000,0.000000,0.000000,0.000000,0.000000,0.000000,0.000000,0.000000,0.000000,0.000000,0.000000,0.065764,3,0
140000,-0.000425,3.529750,0.031838,-0.008082,25.007608,0.013595,0.000077,0.000191,1.570894,-0.000036,0.000000,-0.000034,-0.000000,-0.000001,0.000000,0.001769,0.000452,0.094004,0.049848,0.369667,0.369667,0.388393,1.007739,0.000000,0.000000,0.000000,0.000000,0.000000,0.000000,0.000000,0.000000,0.000000,0.000000,0.000000,0.000000,0.088214,3,0
150000,-0.000482,3.780825,0.029796,-0.008678,25.008413,0.013788,0.000077,0.000196,1.570905,-0.000042,0.000001,-0.000022,-0.000000,-0.000001,0.000000,0.000246,0.000511,0.017041,-0.035795,0.349696,0.349696,0.366172,1.007915,0.000000,0.000000,0.000000,0.000000,0.000000,0.000000,0.000000,0.000000,0.000000,0.000000,0.000000,0.000000,0.016055,3,0
160000,-0.000541,4.030065,0.029512,-0.009143,25.008738,0.014375,0.000076,0.000204,1.570911,-0.000036,0.000001,-0.000019,-0.000000,-0.000001,0.000000,0.000046,0.000573,-0.015374,-0.007416,0.332022,0.332022,0.346600,1.008002,0.000000,0.000000,0.000000,0.000000,0.000000,0.000000,0.000000,0.000000,0.000000,0.000000,0.000000,0.000000,0.014534,3,0
170000,-0.000604,4.279832,0.028700,-0.009637,25.009264,0.014865,0.000076,0.000222,1.570917,-0.000034,0.000001,-0.000012,-0.000000,-0.000001,0.000000,0.000055,0.000638,-0.006191,-0.017553,0.316299,0.316299,0.329260,1.007991,0.000000,0.000000,0.000000,0.000000,0.000000,0.000000,0.000000,0.000000,0.000000,0.000000,0.000000,0.000000,0.005896,3,0
180000,-0.000670,4.535061,0.028896,-0.010149,25.011536,0.015591,0.000092,0.000248,1.570932,-0.000082,0.000001,-0.000012,-0.000000,-0.000002,0.000000,0.001642,0.000706,0.101857,0.000769,0.302248,0.302248,0.313817,1.007875,0.000000,0.000000,0.000000,0.000000,0.000000,0.000000,0.000000,0.000000,0.000000,0.000000,0.000000,0.000000,0.096728,3,0
190000,-0.000740,4.785453,0.028393,-0.010724,25.012079,0.016062,0.000099,0.000265,1.570945,-0.000085,0.000002,-0.000005,-0.000000,-0.000002,0.000000,0.000033,0.000778,0.005638,-0.013325,0.289643,0.289643,0.300003,1.007645,0.000000,0.000000,0.000000,0.000000,0.000000,0.000000,0.000000,0.000000,0.000000,0.000000,0.000000,0.000000,0.005416,3,0
200000,-0.000813,5.035291,0.026561,-0.011189,25.012438,0.016032,0.000106,0.000272,1.570946,-0.000081,0.000002,0.000018,-0.000000,-0.000002,0.000000,0.000282,0.000852,-0.006213,-0.041712,0.278298,0.278298,0.287598,1.007295,0.000000,0.000000,0.000000,0.000000,0.000000,0.000000,0.000000,0.000000,0.000000,0.000000,0.000000,0.000000,0.005980,3,0
210000,-0.000888,5.291744,0.025398,-0.011705,25.015762,0.016195,0.000103,0.000306,1.570950,-0.000172,0.000003,0.000037,-0.000000,-0.000005,0.000000,0.003322,0.000930,0.141523,-0.028874,0.268057,0.268057,0.276421,1.006816,0.000000,0.000000,0.000000,0.000000,0.000000,0.000000,0.000000,0.000000,0.000000,0.000000,0.000000,0.000000,0.135203,3,0
220000,-0.000967,5.547238,0.026059,-0.012207,25.018814,0.017043,0.000102,0.000347,1.570958,-0.000258,0.000004,0.000029,-0.000000,-0.000007,0.000000,0.002455,0.001011,0.123583,0.011098,0.258791,0.258791,0.266321,1.006202,0.000000,0.000000,0.000000,0.000000,0.000000,0.000000,0.000000,0.000000,0.000000,0.000000,0.000000,0.000000,0.118257,3,0
230000,-0.001048,5.798563,0.026750,-0.012656,25.020020,0.018233,0.000099,0.000357,1.570966,-0.000279,0.000005,0.000020,-0.000000,-0.000008,0.000000,0.000140,0.001094,0.027090,0.011931,0.250390,0.250390,0.257172,1.005447,0.000000,0.000000,0.000000,0.000000,0.000000,0.000000,0.000000,0.000000,0.000000,0.000000,0.000000,0.000000,0.025980,3,0
240000,-0.001133,6.050957,0.027857,-0.013225,25.021757,0.019660,0.000111,0.000386,1.570963,-0.000324,0.000006,0.000002,-0.000000,-0.000010,0.000000,0.000545,0.001181,0.054058,0.022048,0.242761,0.242761,0.248866,1.004542,0.000000,0.000000,0.000000,0.000000,0.000000,0.000000,0.000000,0.000000,0.000000,0.000000,0.000000,0.000000,0.051883,3,0
250000,-0.001220,6.304321,0.029691,-0.013718,25.024027,0.021133,0.000125,0.000411,1.570961,-0.000395,0.000007,-0.000034,-0.000000,-0.000012,0.000000,0.001287,0.001270,0.079953,0.040552,0.235825,0.235825,0.241314,1.003481,0.000000,0.000000,0.000000,0.000000,0.000000,0.000000,0.000000,0.000000,0.000000,0.000000,0.000000,0.000000,0.076820,3,0
260000,-0.001310,6.557057,0.029818,-0.014176,25.026087,0.021892,0.000122,0.000446,1.570958,-0.000457,0.000008,-0.000031,-0.000000,-0.000014,0.000000,0.000681,0.001363,0.065112,-0.002359,0.229512,0.229512,0.234436,1.002259,0.000000,0.000000,0.000000,0.000000,0.000000,0.000000,0.000000,0.000000,0.000000,0.000000,0.000000,0.000000,0.062635,3,0
270000,-0.001404,6.814411,0.029250,-0.014755,25.031223,0.022233,0.000127,0.000522,1.570972,-0.000653,0.000009,-0.000010,-0.000000,-0.000022,0.000000,0.005866,0.001458,0.190055,-0.020909,0.223763,0.223763,0.228165,1.000870,0.000000,0.000000,0.000000,0.000000,0.000000,0.000000,0.000000,0.000000,0.000000,0.000000,0.000000,0.000000,0.182973,3,0
280000,-0.001501,7.070240,0.028666,-0.015299,25.035601,0.022687,0.000138,0.000589,1.570982,-0.000820,0.000011,0.000014,-0.000000,-0.000029,0.000000,0.003755,0.001557,0.151317,-0.022004,0.218526,0.218526,0.222443,0.999309,0.000000,0.000000,0.000000,0.000000,0.000000,0.000000,0.000000,0.000000,0.000000,0.000000,0.000000,0.000000,0.145814,3,0
290000,-0.001599,7.322542,0.029987,-0.015731,25.037525,0.024167,0.000142,0.000622,1.570986,-0.000885,0.000013,-0.000021,-0.000000,-0.000031,0.000000,0.000622,0.001658,0.054476,0.030010,0.213756,0.213756,0.217219,0.997569,0.000000,0.000000,0.000000,0.000000,0.000000,0.000000,0.000000,0.000000,0.000000,0.000000,0.000000,0.000000,0.052560,3,0
300000,-0.001701,7.577119,0.031164,-0.016279,25.041384,0.025793,0.000158,0.000692,1.570987,-0.001036,0.000015,-0.000054,-0.000001,-0.000038,0.000000,0.002435,0.001763,0.120217,0.026151,0.209412,0.209412,0.212446,0.995647,0.000000,0.000000,0.000000,0.000000,0.000000,0.000000,0.000000,0.000000,0.000000,0.000000,0.000000,0.000000,0.116034,3,0
310000,-0.001805,7.831786,0.032013,-0.016729,25.045324,0.026872,0.000170,0.000757,1.570987,-0.001201,0.000018,-0.000076,-0.000001,-0.000045,0.000000,0.002522,0.001869,0.124028,0.016863,0.205459,0.205459,0.208087,0.993538,0.000000,0.000000,0.000000,0.000000,0.000000,0.000000,0.000000,0.000000,0.000000,0.000000,0.000000,0.000000,0.119794,3,0
320000,-0.001911,8.088550,0.033414,-0.017269,25.051302,0.028595,0.000172,0.000849,1.570997,-0.001466,0.000021,-0.000122,-0.000001,-0.000058,0.000000,0.005832,0.001978,0.187385,0.033046,0.201865,0.201865,0.204105,0.991239,0.000000,0.000000,0.000000,0.000000,0.000000,0.000000,0.000000,0.000000,0.000000,0.000000,0.000000,0.000000,0.181090,3,0
330000,-0.002019,8.340718,0.034631,-0.017659,25.053324,0.030065,0.000187,0.000879,1.571012,-0.001541,0.000024,-0.000164,-0.000001,-0.000061,0.000000,0.000524,0.002089,0.049834,0.027653,0.198601,0.198601,0.200469,0.988746,0.000000,0.000000,0.000000,0.000000,0.000000,0.000000,0.000000,0.000000,0.000000,0.000000,0.000000,0.000000,0.048227,3,0
340000,-0.002129,8.593735,0.033974,-0.018092,25.056284,0.029832,0.000190,0.000924,1.571023,-0.001661,0.000027,-0.000118,-0.000001,-0.000067,0.000000,0.001070,0.002201,0.075950,-0.029342,0.195643,0.195643,0.197151,0.986056,0.000000,0.000000,0.000000,0.000000,0.000000,0.000000,0.000000,0.000000,0.000000,0.000000,0.000000,0.000000,0.073504,3,0
350000,-0.002241,8.847559,0.033332,-0.018530,25.060070,0.029684,0.000201,0.000983,1.571026,-0.001830,0.000031,-0.000069,-0.000001,-0.000076,0.000000,0.001791,0.002315,0.101208,-0.029274,0.192968,0.192968,0.194125,0.983167,0.000000,0.000000,0.000000,0.000000,0.000000,0.000000,0.000000,0.000000,0.000000,0.000000,0.000000,0.000000,0.097978,3,0
360000,-0.002354,9.103419,0.033647,-0.018910,25.066004,0.030479,0.000201,0.001087,1.571022,-0.002120,0.000036,-0.000070,-0.000002,-0.000091,0.000001,0.004416,0.002431,0.165408,0.000342,0.190554,0.190554,0.191370,0.980076,0.000000,0.000000,0.000000,0.000000,0.000000,0.000000,0.000000,0.000000,0.000000,0.000000,0.000000,0.000000,0.160173,3,0
370000,-0.002467,9.358110,0.034726,-0.019270,25.070908,0.031857,0.000213,0.001174,1.571028,-0.002357,0.000040,-0.000114,-0.000002,-0.000104,0.000001,0.002749,0.002547,0.128157,0.024396,0.188382,0.188382,0.188863,0.976783,0.000000,0.000000,0.000000,0.000000,0.000000,0.000000,0.000000,0.000000,0.000000,0.000000,0.000000,0.000000,0.124158,3,0
380000,-0.002582,9.615394,0.036219,-0.019661,25.078686,0.033657,0.000212,0.001314,1.571026,-0.002765,0.000045,-0.000187,-0.000002,-0.000126,0.000001,0.007443,0.002665,0.211358,0.037577,0.186436,0.186436,0.186586,0.973286,0.000000,0.000000,0.000000,0.000000,0.000000,0.000000,0.000000,0.000000,0.000000,0.000000,0.000000,0.000000,0.204807,3,0
390000,-0.002699,9.869055,0.035147,-0.020183,25.082561,0.032911,0.000213,0.001399,1.571033,-0.002954,0.000051,-0.000094,-0.000002,-0.000137,0.000001,0.001745,0.002785,0.093150,-0.046022,0.184700,0.184700,0.184522,0.969585,0.000000,0.000000,0.000000,0.000000,0.000000,0.000000,0.000000,0.000000,0.000000,0.000000,0.000000,0.000000,0.090323,3,0
400000,-0.002817,10.124088,0.036493,-0.020540,25.088055,0.034880,0.000214,0.001505,1.571041,-0.003245,0.000057,-0.000164,-0.000003,-0.000154,0.000001,0.003239,0.002905,0.137633,0.033114,0.183159,0.183159,0.182656,0.965679,0.000000,0.000000,0.000000,0.000000,0.000000,0.000000,0.000000,0.000000,0.000000,0.000000,0.000000,0.000000,0.133462,3,0
410000,-0.002935,10.382259,0.036650,-0.020891,25.097382,0.035436,0.000215,0.001693,1.571036,-0.003776,0.000064,-0.000150,-0.000003,-0.000186,0.000001,0.009346,0.003027,0.240365,-0.006603,0.181799,0.181799,0.180971,0.961571,0.000000,0.000000,0.000000,0.000000,0.000000,0.000000,0.000000,0.000000,0.000000,0.000000,0.000000,0.000000,0.233100,3,0
420000,-0.003054,10.639881,0.038003,-0.021243,25.106119,0.037435,0.000227,0.001877,1.571047,-0.004285,0.000071,-0.000226,-0.000004,-0.000218,0.000001,0.008049,0.003148,0.220649,0.033083,0.180609,0.180609,0.179456,0.957260,0.000000,0.000000,0.000000,0.000000,0.000000,0.000000,0.000000,0.000000,0.000000,0.000000,0.000000,0.000000,0.214029,3,0
430000,-0.003174,10.896385,0.037215,-0.021721,25.113638,0.036968,0.000232,0.002040,1.571056,-0.004720,0.000079,-0.000132,-0.000004,-0.000245,0.000001,0.005585,0.003272,0.181607,-0.039424,0.179576,0.179576,0.178097,0.952748,0.000000,0.000000,0.000000,0.000000,0.000000,0.000000,0.000000,0.000000,0.000000,0.000000,0.000000,0.000000,0.176200,3,0
440000,-0.003295,11.154769,0.036766,-0.022030,25.123667,0.036728,0.000238,0.002256,1.571057,-0.005326,0.000088,-0.000062,-0.000005,-0.000285,0.000002,0.009684,0.003396,0.243090,-0.028000,0.178690,0.178690,0.176883,0.948038,0.000000,0.000000,0.000000,0.000000,0.000000,0.000000,0.000000,0.000000,0.000000,0.000000,0.000000,0.000000,0.235873,3,0
450000,-0.003416,11.410863,0.037431,-0.022457,25.130856,0.037862,0.000244,0.002409,1.571060,-0.005750,0.000097,-0.000088,-0.000005,-0.000313,0.000002,0.004342,0.003521,0.163516,0.009895,0.177940,0.177940,0.175803,0.943132,0.000000,0.000000,0.000000,0.000000,0.000000,0.000000,0.000000,0.000000,0.000000,0.000000,0.000000,0.000000,0.158703,3,0
460000,-0.003539,11.669429,0.038401,-0.022871,25.141445,0.039310,0.000258,0.002646,1.571071,-0.006409,0.000107,-0.000142,-0.000006,-0.000358,0.000002,0.009799,0.003646,0.245291,0.020094,0.177318,0.177318,0.174847,0.938033,0.000000,0.000000,0.000000,0.000000,0.000000,0.000000,0.000000,0.000000,0.000000,0.000000,0.000000,0.000000,0.238068,3,0
470000,-0.003660,11.927487,0.039741,-0.023162,25.151373,0.041201,0.000274,0.002866,1.571074,-0.007035,0.000117,-0.000233,-0.000007,-0.000402,0.000002,0.008373,0.003772,0.225165,0.032396,0.176814,0.176814,0.174006,0.932746,0.000000,0.000000,0.000000,0.000000,0.000000,0.000000,0.000000,0.000000,0.000000,0.000000,0.000000,0.000000,0.218560,3,0
480000,-0.003782,12.182715,0.039476,-0.023492,25.157377,0.040948,0.000280,0.003009,1.571088,-0.007398,0.000129,-0.000165,-0.000008,-0.000427,0.000002,0.002663,0.003897,0.126040,-0.023634,0.176419,0.176419,0.173271,0.927273,0.000000,0.000000,0.000000,0.000000,0.000000,0.000000,0.000000,0.000000,0.000000,0.000000,0.000000,0.000000,0.122392,3,0
490000,-0.003905,12.441008,0.038559,-0.023911,25.167770,0.039920,0.000297,0.003254,1.571083,-0.008079,0.000141,-0.000026,-0.000008,-0.000477,0.000003,0.008802,0.004023,0.228572,-0.046317,0.176127,0.176127,0.172634,0.921620,0.000000,0.000000,0.000000,0.000000,0.000000,0.000000,0.000000,0.000000,0.000000,0.000000,0.000000,0.000000,0.221896,3,0
500000,-0.004028,12.698232,0.037936,-0.024273,25.176662,0.039411,0.000299,0.003466,1.571079,-0.008660,0.000154,0.000084,-0.000009,-0.000521,0.000003,0.005981,0.004150,0.188843,-0.035904,0.175930,0.175930,0.172087,0.915791,0.000000,0.000000,0.000000,0.000000,0.000000,0.000000,0.000000,0.000000,0.000000,0.000000,0.000000,0.000000,0.183350,3,0
510000,-0.004152,12.954409,0.037156,-0.024670,25.183998,0.038738,0.000305,0.003655,1.571076,-0.009136,0.000167,0.000216,-0.000010,-0.000557,0.000003,0.003929,0.004277,0.150198,-0.041331,0.175820,0.175820,0.171622,0.909792,0.000000,0.000000,0.000000,0.000000,0.000000,0.000000,0.000000,0.000000,0.000000,0.000000,0.000000,0.000000,0.145856,3,0
520000,-0.004275,13.212470,0.038487,-0.025025,25.194273,0.040700,0.000325,0.003919,1.571086,-0.009829,0.000182,0.000107,-0.000011,-0.000611,0.000003,0.007450,0.004404,0.212009,0.032865,0.175791,0.175790,0.171234,0.903629,0.000000,0.000000,0.000000,0.000000,0.000000,0.000000,0.000000,0.000000,0.000000,0.000000,0.000000,0.000000,0.205843,3,0
530000,-0.004397,13.470060,0.039477,-0.025322,25.203754,0.042291,0.000340,0.004174,1.571080,-0.010476,0.000197,0.000038,-0.000013,-0.000663,0.000004,0.006058,0.004530,0.192392,0.020215,0.175836,0.175836,0.170915,0.897308,0.000000,0.000000,0.000000,0.000000,0.000000,0.000000,0.000000,0.000000,0.000000,0.000000,0.000000,0.000000,0.186806,3,0
540000,-0.004519,13.726023,0.040538,-0.025689,25.210749,0.043920,0.000351,0.004349,1.571089,-0.010938,0.000213,-0.000039,-0.000014,-0.000701,0.000004,0.002966,0.004656,0.133497,0.022169,0.175950,0.175950,0.170659,0.890834,0.000000,0.000000,0.000000,0.000000,0.000000,0.000000,0.000000,0.000000,0.000000,0.000000,0.000000,0.000000,0.129661,3,0
550000,-0.004640,13.985046,0.041569,-0.025931,25.222435,0.045461,0.000355,0.004668,1.571086,-0.011775,0.000230,-0.000114,-0.000016,-0.000770,0.000004,0.009028,0.004781,0.235286,0.020627,0.176127,0.176127,0.170460,0.884216,0.000000,0.000000,0.000000,0.000000,0.000000,0.000000,0.000000,0.000000,0.000000,0.000000,0.000000,0.000000,0.228426,3,0
560000,-0.004760,14.240087,0.043130,-0.026194,25.227940,0.047877,0.000367,0.004819,1.571082,-0.012123,0.000248,-0.000257,-0.000017,-0.000800,0.000004,0.001719,0.004904,0.095416,0.038676,0.176361,0.176361,0.170314,0.877459,0.000000,0.000000,0.000000,0.000000,0.000000,0.000000,0.000000,0.000000,0.000000,0.000000,0.000000,0.000000,0.092734,3,0
570000,-0.004879,14.498211,0.044417,-0.026462,25.238358,0.049948,0.000372,0.005105,1.571091,-0.012866,0.000267,-0.000365,-0.000019,-0.000864,0.000005,0.006484,0.005027,0.198142,0.028195,0.176648,0.176648,0.170215,0.870572,0.000000,0.000000,0.000000,0.000000,0.000000,0.000000,0.000000,0.000000,0.000000,0.000000,0.000000,0.000000,0.192370,3,0
580000,-0.004998,14.755284,0.044906,-0.026813,25.247078,0.050769,0.000384,0.005337,1.571098,-0.013475,0.000287,-0.000363,-0.000021,-0.000918,0.000005,0.004072,0.005149,0.158580,-0.000615,0.176982,0.176982,0.170158,0.863561,0.000000,0.000000,0.000000,0.000000,0.000000,0.000000,0.000000,0.000000,0.000000,0.000000,0.000000,0.000000,0.153983,3,0
590000,-0.005114,15.012492,0.044699,-0.026988,25.255865,0.050428,0.000389,0.005592,1.571102,-0.014103,0.000308,-0.000262,-0.000022,-0.000975,0.000005,0.004241,0.005270,0.159845,-0.025399,0.177359,0.177359,0.170138,0.856435,0.000000,0.000000,0.000000,0.000000,0.000000,0.000000,0.000000,0.000000,0.000000,0.000000,0.000000,0.000000,0.155204,3,0
600000,-0.005230,15.269243,0.043737,-0.027268,25.263826,0.049268,0.000404,0.005820,1.571115,-0.014671,0.000330,-0.000049,-0.000024,-0.001027,0.000006,0.003663,0.005390,0.141098,-0.052010,0.177775,0.177774,0.170152,0.849200,0.000000,0.000000,0.000000,0.000000,0.000000,0.000000,0.000000,0.000000,0.000000,0.000000,0.000000,0.000000,0.137017,3,0
610000,-0.005344,15.527904,0.043371,-0.027426,25.274855,0.048810,0.000419,0.006158,1.571110,-0.015504,0.000352,0.000078,-0.000026,-0.001105,0.000006,0.006776,0.005507,0.202330,-0.030516,0.178224,0.178224,0.170196,0.841866,0.000000,0.000000,0.000000,0.000000,0.000000,0.000000,0.000000,0.000000,0.000000,0.000000,0.000000,0.000000,0.196392,3,0
620000,-0.005455,15.788457,0.042383,-0.027566,25.288942,0.047568,0.000431,0.006584,1.571115,-0.016604,0.000376,0.000301,-0.000028,-0.001210,0.000007,0.011516,0.005622,0.261621,-0.052282,0.178705,0.178704,0.170265,0.834440,0.000000,0.000000,0.000000,0.000000,0.000000,0.000000,0.000000,0.000000,0.000000,0.000000,0.000000,0.000000,0.253888,3,0
630000,-0.005565,16.044949,0.041920,-0.027815,25.296160,0.046923,0.000454,0.006799,1.571121,-0.017120,0.000401,0.000447,-0.000031,-0.001261,0.000007,0.002521,0.005736,0.120199,-0.033264,0.179212,0.179211,0.170356,0.826930,0.000000,0.000000,0.000000,0.000000,0.000000,0.000000,0.000000,0.000000,0.000000,0.000000,0.000000,0.000000,0.116742,3,0
640000,-0.005673,16.302773,0.040966,-0.028006,25.305624,0.045411,0.000475,0.007098,1.571123,-0.017829,0.000427,0.000672,-0.000033,-0.001331,0.000007,0.004648,0.005848,0.161819,-0.050263,0.179742,0.179742,0.170466,0.819344,0.000000,0.000000,0.000000,0.000000,0.000000,0.000000,0.000000,0.000000,0.000000,0.000000,0.000000,0.000000,0.157073,3,0
650000,-0.005779,16.563110,0.041385,-0.028238,25.319304,0.046220,0.000487,0.007529,1.571123,-0.018909,0.000454,0.000677,-0.000036,-0.001440,0.000008,0.009461,0.005958,0.241840,-0.001445,0.180292,0.180292,0.170591,0.811691,0.000000,0.000000,0.000000,0.000000,0.000000,0.000000,0.000000,0.000000,0.000000,0.000000,0.000000,0.000000,0.234645,3,0
660000,-0.005884,16.821747,0.040436,-0.028370,25.329893,0.044996,0.000502,0.007877,1.571130,-0.019729,0.000481,0.000910,-0.000039,-0.001525,0.000008,0.005655,0.006066,0.180157,-0.049843,0.180859,0.180859,0.170729,0.803978,0.000000,0.000000,0.000000,0.000000,0.000000,0.000000,0.000000,0.000000,0.000000,0.000000,0.000000,0.000000,0.174826,3,0
670000,-0.005985,17.078695,0.040548,-0.028503,25.337473,0.045166,0.000524,0.008109,1.571132,-0.020286,0.000510,0.000967,-0.000042,-0.001583,0.000009,0.002365,0.006172,0.120203,-0.012074,0.181440,0.181439,0.170878,0.796214,0.000000,0.000000,0.000000,0.000000,0.000000,0.000000,0.000000,0.000000,0.000000,0.000000,0.000000,0.000000,0.116721,3,0
680000,-0.006086,17.338186,0.039350,-0.028692,25.349403,0.043337,0.000543,0.008507,1.571139,-0.021235,0.000540,0.001248,-0.000045,-0.001685,0.000009,0.007088,0.006276,0.201118,-0.058010,0.182032,0.182031,0.171033,0.788406,0.000000,0.000000,0.000000,0.000000,0.000000,0.000000,0.000000,0.000000,0.000000,0.000000,0.000000,0.000000,0.195112,3,0
690000,-0.006183,17.597178,0.039318,-0.028842,25.360355,0.043273,0.000566,0.008864,1.571138,-0.022098,0.000571,0.001328,-0.000048,-0.001778,0.000010,0.005289,0.006377,0.180056,-0.016475,0.182632,0.182632,0.171194,0.780563,0.000000,0.000000,0.000000,0.000000,0.000000,0.000000,0.000000,0.000000,0.000000,0.000000,0.000000,0.000000,0.174683,3,0
700000,-0.006278,17.856880,0.040482,-0.028908,25.372374,0.044956,0.000577,0.009279,1.571130,-0.023069,0.000602,0.001198,-0.000052,-0.001886,0.000010,0.006527,0.006476,0.199261,0.025495,0.183239,0.183238,0.171358,0.772692,0.000000,0.000000,0.000000,0.000000,0.000000,0.000000,0.000000,0.000000,0.000000,0.000000,0.000000,0.000000,0.193278,3,0
710000,-0.006370,18.116074,0.041215,-0.029028,25.383488,0.046057,0.000592,0.009650,1.571126,-0.023950,0.000635,0.001146,-0.000055,-0.001985,0.000011,0.005140,0.006572,0.177982,0.009747,0.183849,0.183849,0.171522,0.764802,0.000000,0.000000,0.000000,0.000000,0.000000,0.000000,0.000000,0.000000,0.000000,0.000000,0.000000,0.000000,0.172647,3,0
720000,-0.006460,18.376593,0.042204,-0.029117,25.396774,0.047596,0.000619,0.010114,1.571132,-0.025040,0.000669,0.001049,-0.000059,-0.002109,0.000012,0.007659,0.006665,0.216860,0.018323,0.184462,0.184461,0.171686,0.756899,0.000000,0.000000,0.000000,0.000000,0.000000,0.000000,0.000000,0.000000,0.000000,0.000000,0.000000,0.000000,0.210293,3,0
730000,-0.006547,18.637810,0.043771,-0.029249,25.411085,0.049778,0.000645,0.010614,1.571137,-0.026235,0.000703,0.000844,-0.000063,-0.002248,0.000012,0.009125,0.006756,0.234514,0.038016,0.185074,0.185074,0.171847,0.748991,0.000000,0.000000,0.000000,0.000000,0.000000,0.000000,0.000000,0.000000,0.000000,0.000000,0.000000,0.000000,0.227376,3,0
740000,-0.006632,18.899105,0.044191,-0.029299,25.425396,0.050346,0.000670,0.011139,1.571127,-0.027432,0.000739,0.000857,-0.000067,-0.002390,0.000013,0.008670,0.006844,0.231579,-0.002833,0.185685,0.185685,0.172004,0.741085,0.000000,0.000000,0.000000,0.000000,0.000000,0.000000,0.000000,0.000000,0.000000,0.000000,0.000000,0.000000,0.224511,3,0
750000,-0.006713,19.160475,0.045520,-0.029349,25.439728,0.052312,0.000692,0.011663,1.571121,-0.028630,0.000775,0.000697,-0.000072,-0.002534,0.000014,0.008577,0.006929,0.228565,0.028657,0.186293,0.186292,0.172155,0.733188,0.000000,0.000000,0.000000,0.000000,0.000000,0.000000,0.000000,0.000000,0.000000,0.000000,0.000000,0.000000,0.221572,3,0
760000,-0.006792,19.418819,0.046488,-0.029381,25.448565,0.053751,0.000707,0.011980,1.571122,-0.029299,0.000813,0.000610,-0.000077,-0.002616,0.000014,0.002613,0.007011,0.126083,0.015290,0.186895,0.186895,0.172300,0.725307,0.000000,0.000000,0.000000,0.000000,0.000000,0.000000,0.000000,0.000000,0.000000,0.000000,0.000000,0.000000,0.122345,3,0
770000,-0.006869,19.680370,0.047402,-0.029410,25.462891,0.054897,0.000730,0.012511,1.571124,-0.030511,0.000851,0.000534,-0.000081,-0.002767,0.000015,0.008244,0.007090,0.225471,0.013022,0.187492,0.187491,0.172436,0.717447,0.000000,0.000000,0.000000,0.000000,0.000000,0.000000,0.000000,0.000000,0.000000,0.000000,0.000000,0.000000,0.218534,3,0
780000,-0.006943,19.940115,0.046688,-0.029450,25.473801,0.053719,0.000751,0.012923,1.571122,-0.031395,0.000890,0.000786,-0.000086,-0.002880,0.000016,0.004589,0.007167,0.162565,-0.044060,0.188081,0.188080,0.172564,0.709616,0.000000,0.000000,0.000000,0.000000,0.000000,0.000000,0.000000,0.000000,0.000000,0.000000,0.000000,0.000000,0.157622,3,0
790000,-0.007014,20.199942,0.046963,-0.029493,25.484850,0.054229,0.000770,0.013327,1.571118,-0.032282,0.000930,0.000838,-0.000091,-0.002994,0.000017,0.004214,0.007242,0.161137,-0.009329,0.188662,0.188661,0.172681,0.701820,0.000000,0.000000,0.000000,0.000000,0.000000,0.000000,0.000000,0.000000,0.000000,0.000000,0.000000,0.000000,0.156226,3,0
800000,-0.007083,20.462355,0.045721,-0.029450,25.500221,0.052486,0.000786,0.013924,1.571126,-0.033613,0.000971,0.001203,-0.000096,-0.003168,0.000018,0.009864,0.007313,0.239141,-0.062123,0.189234,0.189233,0.172788,0.694064,0.000000,0.000000,0.000000,0.000000,0.000000,0.000000,0.000000,0.000000,0.000000,0.000000,0.000000,0.000000,0.231706,3,0
810000,-0.007148,20.722296,0.046911,-0.029433,25.511061,0.054220,0.000813,0.014346,1.571123,-0.034486,0.001013,0.001063,-0.000102,-0.003285,0.000018,0.003996,0.007381,0.155483,0.022952,0.189796,0.189794,0.172883,0.686353,0.000000,0.000000,0.000000,0.000000,0.000000,0.000000,0.000000,0.000000,0.000000,0.000000,0.000000,0.000000,0.150736,3,0
820000,-0.007211,20.984201,0.046452,-0.029524,25.525255,0.053582,0.000829,0.014918,1.571116,-0.035699,0.001056,0.001272,-0.000108,-0.003449,0.000019,0.007561,0.007447,0.213497,-0.034856,0.190346,0.190345,0.172965,0.678694,0.000000,0.000000,0.000000,0.000000,0.000000,0.000000,0.000000,0.000000,0.000000,0.000000,0.000000,0.000000,0.206850,3,0
830000,-0.007272,21.243626,0.045151,-0.029478,25.534889,0.051408,0.000857,0.015279,1.571108,-0.036447,0.001099,0.001663,-0.000113,-0.003552,0.000020,0.003410,0.007510,0.130358,-0.063802,0.190885,0.190884,0.173036,0.671091,0.000000,0.000000,0.000000,0.000000,0.000000,0.000000,0.000000,0.000000,0.000000,0.000000,0.000000,0.000000,0.126419,3,0
840000,-0.007330,21.504391,0.044688,-0.029480,25.546713,0.050612,0.000883,0.015761,1.571103,-0.037426,0.001143,0.001872,-0.000119,-0.003689,0.000020,0.004805,0.007571,0.169020,-0.033955,0.191413,0.191411,0.173093,0.663548,0.000000,0.000000,0.000000,0.000000,0.000000,0.000000,0.000000,0.000000,0.000000,0.000000,0.000000,0.000000,0.163792,3,0
850000,-0.007384,21.764574,0.046001,-0.029423,25.557375,0.052409,0.000916,0.016175,1.571106,-0.038282,0.001188,0.001693,-0.000126,-0.003811,0.000021,0.003607,0.007629,0.146683,0.027887,0.191927,0.191925,0.173137,0.656070,0.000000,0.000000,0.000000,0.000000,0.000000,0.000000,0.000000,0.000000,0.000000,0.000000,0.000000,0.000000,0.142183,3,0
860000,-0.007436,22.025455,0.046163,-0.029430,25.569159,0.052693,0.000949,0.016644,1.571103,-0.039252,0.001233,0.001771,-0.000132,-0.003951,0.000022,0.004411,0.007683,0.164698,-0.012697,0.192429,0.192427,0.173167,0.648662,0.000000,0.000000,0.000000,0.000000,0.000000,0.000000,0.000000,0.000000,0.000000,0.000000,0.000000,0.000000,0.159588,3,0
870000,-0.007486,22.284468,0.046376,-0.029373,25.577530,0.052839,0.000978,0.016973,1.571108,-0.039860,0.001279,0.001840,-0.000139,-0.004040,0.000022,0.001723,0.007735,0.102488,-0.010977,0.192917,0.192915,0.173183,0.641328,0.000000,0.000000,0.000000,0.000000,0.000000,0.000000,0.000000,0.000000,0.000000,0.000000,0.000000,0.000000,0.099474,3,0
880000,-0.007533,22.545473,0.047558,-0.029359,25.589384,0.054650,0.001001,0.017457,1.571112,-0.040826,0.001326,0.001690,-0.000146,-0.004184,0.000023,0.004296,0.007784,0.161453,0.022477,0.193393,0.193391,0.173185,0.634070,0.000000,0.000000,0.000000,0.000000,0.000000,0.000000,0.000000,0.000000,0.000000,0.000000,0.000000,0.000000,0.156431,3,0
890000,-0.007578,22.807808,0.048231,-0.029404,25.603367,0.055415,0.001021,0.018044,1.571103,-0.042022,0.001373,0.001656,-0.000153,-0.004365,0.000024,0.006369,0.007831,0.198513,0.004393,0.193854,0.193852,0.173172,0.626893,0.000000,0.000000,0.000000,0.000000,0.000000,0.000000,0.000000,0.000000,0.000000,0.000000,0.000000,0.000000,0.192248,3,0
900000,-0.007622,23.067591,0.047685,-0.029403,25.612564,0.054449,0.001054,0.018426,1.571114,-0.042720,0.001422,0.001909,-0.000160,-0.004472,0.000025,0.002377,0.007877,0.114948,-0.038225,0.194303,0.194300,0.173146,0.619799,0.000000,0.000000,0.000000,0.000000,0.000000,0.000000,0.000000,0.000000,0.000000,0.000000,0.000000,0.000000,0.111486,3,0
910000,-0.007664,23.328072,0.048862,-0.029464,25.622906,0.056250,0.001076,0.018850,1.571117,-0.043535,0.001470,0.001759,-0.000168,-0.004599,0.000026,0.002955,0.007921,0.133377,0.021756,0.194737,0.194735,0.173105,0.612791,0.000000,0.000000,0.000000,0.000000,0.000000,0.000000,0.000000,0.000000,0.000000,0.000000,0.000000,0.000000,0.129277,3,0
920000,-0.007703,23.588598,0.048879,-0.029353,25.633286,0.056153,0.001109,0.019280,1.571124,-0.044342,0.001519,0.001885,-0.000176,-0.004727,0.000026,0.002845,0.007962,0.131218,-0.019006,0.195159,0.195156,0.173050,0.605873,0.000000,0.000000,0.000000,0.000000,0.000000,0.000000,0.000000,0.000000,0.000000,0.000000,0.000000,0.000000,0.127183,3,0
930000,-0.007741,23.847870,0.048690,-0.029329,25.641209,0.055746,0.001135,0.019589,1.571128,-0.044895,0.001569,0.002063,-0.000184,-0.004817,0.000027,0.001406,0.008001,0.089254,-0.026179,0.195566,0.195563,0.172981,0.599047,0.000000,0.000000,0.000000,0.000000,0.000000,0.000000,0.000000,0.000000,0.000000,0.000000,0.000000,0.000000,0.086690,3,0
940000,-0.007776,24.106546,0.049377,-0.029330,25.648060,0.056609,0.001175,0.019846,1.571126,-0.045320,0.001619,0.002031,-0.000192,-0.004886,0.000027,0.000769,0.008039,0.068449,0.004334,0.195961,0.195958,0.172899,0.592314,0.000000,0.000000,0.000000,0.000000,0.000000,0.000000,0.000000,0.000000,0.000000,0.000000,0.000000,0.000000,0.066669,3,0
950000,-0.007808,24.367237,0.050407,-0.029181,25.658394,0.058126,0.001208,0.020281,1.571130,-0.046119,0.001670,0.001915,-0.000200,-0.005019,0.000028,0.002684,0.008073,0.127768,0.015974,0.196343,0.196339,0.172802,0.585677,0.000000,0.000000,0.000000,0.000000,0.000000,0.000000,0.000000,0.000000,0.000000,0.000000,0.000000,0.000000,0.123833,3,0
960000,-0.007839,24.630569,0.049725,-0.029133,25.673170,0.057005,0.001249,0.020974,1.571133,-0.047408,0.001721,0.002220,-0.000209,-0.005237,0.000029,0.007090,0.008104,0.204916,-0.043836,0.196711,0.196708,0.172692,0.579138,0.000000,0.000000,0.000000,0.000000,0.000000,0.000000,0.000000,0.000000,0.000000,0.000000,0.000000,0.000000,0.198351,3,0
970000,-0.007867,24.889324,0.050481,-0.029044,25.679741,0.057957,0.001273,0.021220,1.571128,-0.047792,0.001773,0.002173,-0.000218,-0.005302,0.000030,0.000611,0.008134,0.060709,0.006297,0.197068,0.197064,0.172569,0.572698,0.000000,0.000000,0.000000,0.000000,0.000000,0.000000,0.000000,0.000000,0.000000,0.000000,0.000000,0.000000,0.059240,3,0
980000,-0.007893,25.152060,0.051575,-0.029022,25.693317,0.059404,0.001314,0.021846,1.571126,-0.048931,0.001825,0.002037,-0.000227,-0.005500,0.000031,0.005261,0.008162,0.179586,0.017922,0.197412,0.197407,0.172433,0.566359,0.000000,0.000000,0.000000,0.000000,0.000000,0.000000,0.000000,0.000000,0.000000,0.000000,0.000000,0.000000,0.173859,3,0
990000,-0.007918,25.410212,0.051115,-0.028971,25.698481,0.058691,0.001355,0.022028,1.571124,-0.049161,0.001877,0.002306,-0.000236,-0.005541,0.000031,0.000440,0.008187,0.035990,-0.036939,0.197744,0.197739,0.172284,0.560122,0.000000,0.000000,0.000000,0.000000,0.000000,0.000000,0.000000,0.000000,0.000000,0.000000,0.000000,0.000000,0.035691,3,0
1000000,-0.007941,25.670393,0.051528,-0.028857,25.707308,0.059273,0.001395,0.022407,1.571116,-0.049774,0.001930,0.002348,-0.000245,-0.005651,0.000032,0.001498,0.008212,0.095846,-0.006206,0.198065,0.198059,0.172122,0.553987,0.000000,0.000000,0.000000,0.000000,0.000000,0.000000,0.000000,0.000000,0.000000,0.000000,0.000000,0.000000,0.093021,3,0
1010000,-0.007960,25.933233,0.052808,-0.028701,25.720615,0.060907,0.001430,0.023029,1.571119,-0.050888,0.001983,0.002162,-0.000255,-0.005853,0.000033,0.004957,0.008232,0.173519,0.024043,0.198374,0.198369,0.171949,0.547956,0.000000,0.000000,0.000000,0.000000,0.000000,0.000000,0.000000,0.000000,0.000000,0.000000,0.000000,0.000000,0.167972,3,0
1020000,-0.007978,26.196066,0.053955,-0.028678,25.733685,0.062347,0.001457,0.023651,1.571122,-0.051976,0.002036,0.002014,-0.000265,-0.006054,0.000034,0.004669,0.008251,0.168970,0.018828,0.198673,0.198667,0.171764,0.542029,0.000000,0.000000,0.000000,0.000000,0.000000,0.000000,0.000000,0.000000,0.000000,0.000000,0.000000,0.000000,0.163571,3,0
1030000,-0.007994,26.458231,0.053407,-0.028510,25.745417,0.061428,0.001483,0.024214,1.571129,-0.052911,0.002090,0.002318,-0.000275,-0.006230,0.000035,0.003650,0.008267,0.144554,-0.040982,0.198961,0.198955,0.171568,0.536207,0.000000,0.000000,0.000000,0.000000,0.000000,0.000000,0.000000,0.000000,0.000000,0.000000,0.000000,0.000000,0.139988,3,0
1040000,-0.008007,26.721052,0.053912,-0.028334,25.758181,0.062030,0.001511,0.024824,1.571134,-0.053952,0.002144,0.002340,-0.000285,-0.006428,0.000036,0.004168,0.008282,0.160578,-0.003769,0.199240,0.199233,0.171361,0.530490,0.000000,0.000000,0.000000,0.000000,0.000000,0.000000,0.000000,0.000000,0.000000,0.000000,0.000000,0.000000,0.155451,3,0
1050000,-0.008019,26.982536,0.054667,-0.028234,25.768518,0.062997,0.001555,0.025294,1.571127,-0.054708,0.002198,0.002299,-0.000295,-0.006574,0.000037,0.002194,0.008295,0.116291,0.004647,0.199508,0.199502,0.171143,0.524879,0.000000,0.000000,0.000000,0.000000,0.000000,0.000000,0.000000,0.000000,0.000000,0.000000,0.000000,0.000000,0.112710,3,0
1060000,-0.008027,27.243361,0.055775,-0.028017,25.777468,0.064459,0.001602,0.025693,1.571132,-0.055315,0.002252,0.002165,-0.000306,-0.006693,0.000037,0.001457,0.008304,0.093252,0.016700,0.199768,0.199761,0.170915,0.519372,0.000000,0.000000,0.000000,0.000000,0.000000,0.000000,0.000000,0.000000,0.000000,0.000000,0.000000,0.000000,0.090506,3,0
1070000,-0.008033,27.506184,0.056804,-0.027936,25.789852,0.065802,0.001637,0.026292,1.571133,-0.056297,0.002306,0.002052,-0.000317,-0.006888,0.000038,0.003685,0.008311,0.150402,0.013507,0.200020,0.200012,0.170677,0.513972,0.000000,0.000000,0.000000,0.000000,0.000000,0.000000,0.000000,0.000000,0.000000,0.000000,0.000000,0.000000,0.145611,3,0
1080000,-0.008037,27.768986,0.057875,-0.027710,25.802107,0.066889,0.001679,0.026883,1.571124,-0.057251,0.002361,0.001930,-0.000328,-0.007080,0.000040,0.003475,0.008315,0.145882,0.014659,0.200263,0.200255,0.170430,0.508677,0.000000,0.000000,0.000000,0.000000,0.000000,0.000000,0.000000,0.000000,0.000000,0.000000,0.000000,0.000000,0.141243,3,0
1090000,-0.008042,28.027786,0.057375,-0.027641,25.807230,0.065795,0.001710,0.027052,1.571120,-0.057396,0.002416,0.002255,-0.000339,-0.007111,0.000040,0.000366,0.008319,0.022106,-0.041320,0.200498,0.200490,0.170174,0.503487,0.000000,0.000000,0.000000,0.000000,0.000000,0.000000,0.000000,0.000000,0.000000,0.000000,0.000000,0.000000,0.022828,3,0
1100000,-0.008043,28.289946,0.057852,-0.027457,25.818045,0.066184,0.001757,0.027571,1.571117,-0.058191,0.002471,0.002299,-0.000350,-0.007277,0.000041,0.002379,0.008321,0.121077,-0.006360,0.200726,0.200717,0.169910,0.498401,0.000000,0.000000,0.000000,0.000000,0.000000,0.000000,0.000000,0.000000,0.000000,0.000000,0.000000,0.000000,0.117301,3,0
1110000,-0.008043,28.548098,0.058106,-0.027319,25.821795,0.066464,0.001794,0.027645,1.571127,-0.058178,0.002525,0.002418,-0.000362,-0.007274,0.000041,0.000047,0.008321,-0.002039,-0.014717,0.200947,0.200938,0.169637,0.493420,0.000000,0.000000,0.000000,0.000000,0.000000,0.000000,0.000000,0.000000,0.000000,0.000000,0.000000,0.000000,0.008281,3,0
1120000,-0.008040,28.808962,0.057598,-0.027074,25.830133,0.065537,0.001840,0.028028,1.571137,-0.058691,0.002581,0.002750,-0.000373,-0.007385,0.000041,0.001264,0.008318,0.077711,-0.041608,0.201162,0.201152,0.169357,0.488541,0.000000,0.000000,0.000000,0.000000,0.000000,0.000000,0.000000,0.000000,0.000000,0.000000,0.000000,0.000000,0.075531,3,0
1130000,-0.008034,29.071157,0.058395,-0.026821,25.840714,0.066527,0.001877,0.028537,1.571145,-0.059447,0.002636,0.002701,-0.000385,-0.007549,0.000042,0.002143,0.008314,0.114946,0.005049,0.201371,0.201360,0.169069,0.483765,0.000000,0.000000,0.000000,0.000000,0.000000,0.000000,0.000000,0.000000,0.000000,0.000000,0.000000,0.000000,0.111380,3,0
1140000,-0.008029,29.332005,0.057115,-0.026685,25.848822,0.064733,0.001912,0.028894,1.571141,-0.059919,0.002691,0.003265,-0.000397,-0.007654,0.000043,0.001607,0.008306,0.071314,-0.069270,0.201575,0.201563,0.168774,0.479091,0.000000,0.000000,0.000000,0.000000,0.000000,0.000000,0.000000,0.000000,0.000000,0.000000,0.000000,0.000000,0.069379,3,0
1150000,-0.008021,29.592852,0.056154,-0.026514,25.856865,0.063412,0.001955,0.029247,1.571135,-0.060374,0.002747,0.003734,-0.000409,-0.007758,0.000044,0.001307,0.008299,0.068811,-0.057388,0.201773,0.201761,0.168473,0.474518,0.000000,0.000000,0.000000,0.000000,0.000000,0.000000,0.000000,0.000000,0.000000,0.000000,0.000000,0.000000,0.066974,3,0
1160000,-0.008012,29.855036,0.055374,-0.026385,25.867212,0.062316,0.001987,0.029754,1.571137,-0.061075,0.002802,0.004145,-0.000421,-0.007918,0.000045,0.002235,0.008290,0.106066,-0.050416,0.201967,0.201954,0.168166,0.470046,0.000000,0.000000,0.000000,0.000000,0.000000,0.000000,0.000000,0.000000,0.000000,0.000000,0.000000,0.000000,0.102804,3,0
1170000,-0.008001,30.117863,0.055444,-0.026274,25.878635,0.062268,0.002029,0.030334,1.571141,-0.061880,0.002857,0.004301,-0.000433,-0.008104,0.000046,0.002474,0.008280,0.122082,-0.019680,0.202157,0.202143,0.167853,0.465674,0.000000,0.000000,0.000000,0.000000,0.000000,0.000000,0.000000,0.000000,0.000000,0.000000,0.000000,0.000000,0.118239,3,0
1180000,-0.007988,30.381325,0.056482,-0.026060,25.891016,0.063492,0.002065,0.030979,1.571142,-0.062785,0.002912,0.004165,-0.000446,-0.008315,0.000047,0.003090,0.008267,0.137445,0.015043,0.202342,0.202329,0.167534,0.461400,0.000000,0.000000,0.000000,0.000000,0.000000,0.000000,0.000000,0.000000,0.000000,0.000000,0.000000,0.000000,0.133052,3,0
1190000,-0.007974,30.642735,0.055840,-0.025903,25.899570,0.062579,0.002108,0.031377,1.571152,-0.063265,0.002967,0.004547,-0.000459,-0.008430,0.000048,0.001201,0.008252,0.072649,-0.045838,0.202525,0.202510,0.167211,0.457223,0.000000,0.000000,0.000000,0.000000,0.000000,0.000000,0.000000,0.000000,0.000000,0.000000,0.000000,0.000000,0.070644,3,0
1200000,-0.007959,30.904799,0.055562,-0.025762,25.909166,0.061820,0.002147,0.031848,1.571158,-0.063855,0.003021,0.004816,-0.000471,-0.008573,0.000048,0.001469,0.008237,0.089457,-0.032376,0.202704,0.202689,0.166883,0.453141,0.000000,0.000000,0.000000,0.000000,0.000000,0.000000,0.000000,0.000000,0.000000,0.000000,0.000000,0.000000,0.086797,3,0
1210000,-0.007941,31.167501,0.056857,-0.025573,25.919775,0.063282,0.002191,0.032386,1.571153,-0.064549,0.003075,0.004597,-0.000485,-0.008742,0.000049,0.001904,0.008220,0.105600,0.024540,0.202881,0.202865,0.166550,0.449155,0.000000,0.000000,0.000000,0.000000,0.000000,0.000000,0.000000,0.000000,0.000000,0.000000,0.000000,0.000000,0.102340,3,0
1220000,-0.007924,31.428831,0.055885,-0.025417,25.927914,0.061822,0.002236,0.032750,1.571162,-0.064955,0.003130,0.005092,-0.000498,-0.008844,0.000050,0.001163,0.008200,0.061459,-0.057952,0.203055,0.203038,0.166214,0.445263,0.000000,0.000000,0.000000,0.000000,0.000000,0.000000,0.000000,0.000000,0.000000,0.000000,0.000000,0.000000,0.059898,3,0
1230000,-0.007905,31.690809,0.056172,-0.025255,25.937017,0.062113,0.002284,0.033183,1.571164,-0.065469,0.003184,0.005190,-0.000511,-0.008973,0.000051,0.001023,0.008182,0.078356,-0.011981,0.203227,0.203210,0.165875,0.441463,0.000000,0.000000,0.000000,0.000000,0.000000,0.000000,0.000000,0.000000,0.000000,0.000000,0.000000,0.000000,0.076112,3,0
1240000,-0.007884,31.950058,0.057428,-0.025142,25.941219,0.063375,0.002335,0.033268,1.571171,-0.065437,0.003237,0.004991,-0.000525,-0.008964,0.000051,0.000099,0.008161,-0.004805,0.022850,0.203398,0.203380,0.165532,0.437754,0.000000,0.000000,0.000000,0.000000,0.000000,0.000000,0.000000,0.000000,0.000000,0.000000,0.000000,0.000000,0.009147,3,0
1250000,-0.007861,32.213367,0.058495,-0.024907,25.952490,0.064435,0.002386,0.033844,1.571178,-0.066179,0.003290,0.004839,-0.000539,-0.009156,0.000052,0.002130,0.008138,0.113602,0.015997,0.203567,0.203548,0.165186,0.434134,0.000000,0.000000,0.000000,0.000000,0.000000,0.000000,0.000000,0.000000,0.000000,0.000000,0.000000,0.000000,0.110030,3,0
1260000,-0.007839,32.473259,0.057086,-0.024629,25.957602,0.062586,0.002430,0.034000,1.571190,-0.066242,0.003345,0.005502,-0.000552,-0.009175,0.000052,0.000936,0.008112,0.009212,-0.075021,0.203735,0.203715,0.164837,0.430603,0.000000,0.000000,0.000000,0.000000,0.000000,0.000000,0.000000,0.000000,0.000000,0.000000,0.000000,0.000000,0.011854,3,0
1270000,-0.007814,32.735172,0.056611,-0.024324,25.966167,0.061776,0.002474,0.034400,1.571195,-0.066683,0.003398,0.005852,-0.000566,-0.009293,0.000053,0.001001,0.008087,0.067333,-0.040106,0.203903,0.203881,0.164487,0.427159,0.000000,0.000000,0.000000,0.000000,0.000000,0.000000,0.000000,0.000000,0.000000,0.000000,0.000000,0.000000,0.065508,3,0
1280000,-0.007787,32.994350,0.055825,-0.024100,25.969833,0.060612,0.002529,0.034442,1.571208,-0.066582,0.003451,0.006315,-0.000580,-0.009268,0.000053,0.000482,0.008059,-0.015759,-0.051609,0.204069,0.204047,0.164134,0.423801,0.000000,0.000000,0.000000,0.000000,0.000000,0.000000,0.000000,0.000000,0.000000,0.000000,0.000000,0.000000,0.017104,3,0
1290000,-0.007760,33.254215,0.054478,-0.023967,25.974558,0.058709,0.002572,0.034569,1.571209,-0.066607,0.003505,0.006961,-0.000594,-0.009277,0.000053,0.000847,0.008031,0.003334,-0.071781,0.204236,0.204213,0.163780,0.420526,0.000000,0.000000,0.000000,0.000000,0.000000,0.000000,0.000000,0.000000,0.000000,0.000000,0.000000,0.000000,0.008399,3,0
1300000,-0.007731,33.512039,0.054865,-0.023822,25.975574,0.059065,0.002618,0.034419,1.571224,-0.066233,0.003556,0.007038,-0.000608,-0.009173,0.000053,0.000558,0.008003,-0.057789,-0.007845,0.204402,0.204378,0.163425,0.417333,0.000000,0.000000,0.000000,0.000000,0.000000,0.000000,0.000000,0.000000,0.000000,0.000000,0.000000,0.000000,0.056353,3,0
1310000,-0.007702,33.771248,0.054672,-0.023673,25.979034,0.058869,0.002666,0.034455,1.571239,-0.066122,0.003608,0.007306,-0.000622,-0.009143,0.000053,0.000198,0.007972,-0.017437,-0.029210,0.204569,0.204544,0.163068,0.414222,0.000000,0.000000,0.000000,0.000000,0.000000,0.000000,0.000000,0.000000,0.000000,0.000000,0.000000,0.000000,0.018523,3,0
1320000,-0.007670,34.034531,0.054678,-0.023401,25.989752,0.058639,0.002721,0.035017,1.571249,-0.066772,0.003660,0.007488,-0.000637,-0.009330,0.000054,0.001726,0.007940,0.101017,-0.021186,0.204736,0.204710,0.162711,0.411191,0.000000,0.000000,0.000000,0.000000,0.000000,0.000000,0.000000,0.000000,0.000000,0.000000,0.000000,0.000000,0.097870,3,0
1330000,-0.007639,34.297764,0.053778,-0.023207,26.000267,0.057267,0.002779,0.035566,1.571243,-0.067390,0.003712,0.007979,-0.000651,-0.009511,0.000055,0.001979,0.007907,0.096050,-0.054644,0.204904,0.204876,0.162353,0.408239,0.000000,0.000000,0.000000,0.000000,0.000000,0.000000,0.000000,0.000000,0.000000,0.000000,0.000000,0.000000,0.093076,3,0
1340000,-0.007605,34.560928,0.054160,-0.023019,26.010529,0.057555,0.002820,0.036090,1.571239,-0.067973,0.003762,0.008031,-0.000666,-0.009683,0.000056,0.001355,0.007874,0.091141,-0.006796,0.205072,0.205044,0.161995,0.405363,0.000000,0.000000,0.000000,0.000000,0.000000,0.000000,0.000000,0.000000,0.000000,0.000000,0.000000,0.000000,0.088352,3,0
1350000,-0.007571,34.819286,0.052967,-0.022740,26.012177,0.055873,0.002866,0.035957,1.571248,-0.067639,0.003814,0.008652,-0.000680,-0.009586,0.000055,0.001169,0.007837,-0.052856,-0.066118,0.205241,0.205212,0.161636,0.402564,0.000000,0.000000,0.000000,0.000000,0.000000,0.000000,0.000000,0.000000,0.000000,0.000000,0.000000,0.000000,0.051618,3,0
1360000,-0.007534,35.079700,0.051953,-0.022400,26.017321,0.054417,0.002919,0.036108,1.571246,-0.067685,0.003864,0.009200,-0.000695,-0.009602,0.000056,0.000576,0.007799,0.006832,-0.058674,0.205412,0.205381,0.161278,0.399838,0.000000,0.000000,0.000000,0.000000,0.000000,0.000000,0.000000,0.000000,0.000000,0.000000,0.000000,0.000000,0.010008,3,0
1370000,-0.007495,35.342133,0.051648,-0.022111,26.026066,0.053758,0.002965,0.036530,1.571240,-0.068093,0.003914,0.009487,-0.000709,-0.009728,0.000057,0.000838,0.007760,0.064430,-0.031446,0.205583,0.205551,0.160921,0.397185,0.000000,0.000000,0.000000,0.000000,0.000000,0.000000,0.000000,0.000000,0.000000,0.000000,0.000000,0.000000,0.062668,3,0
1380000,-0.007453,35.601784,0.051949,-0.021755,26.029623,0.054070,0.003007,0.036556,1.571252,-0.067973,0.003963,0.009577,-0.000725,-0.009691,0.000056,0.000083,0.007718,-0.019180,-0.009226,0.205756,0.205723,0.160563,0.394602,0.000000,0.000000,0.000000,0.000000,0.000000,0.000000,0.000000,0.000000,0.000000,0.000000,0.000000,0.000000,0.019967,3,0
1390000,-0.007411,35.860752,0.051725,-0.021505,26.031893,0.053700,0.003054,0.036481,1.571270,-0.067721,0.004011,0.009859,-0.000740,-0.009613,0.000056,0.000409,0.007673,-0.040321,-0.029107,0.205930,0.205896,0.160207,0.392089,0.000000,0.000000,0.000000,0.000000,0.000000,0.000000,0.000000,0.000000,0.000000,0.000000,0.000000,0.000000,0.039643,3,0
1400000,-0.007366,36.121761,0.052256,-0.021246,26.037756,0.054410,0.003098,0.036684,1.571275,-0.067838,0.004059,0.009860,-0.000755,-0.009650,0.000057,0.000066,0.007628,0.018753,-0.000399,0.206106,0.206070,0.159852,0.389644,0.000000,0.000000,0.000000,0.000000,0.000000,0.000000,0.000000,0.000000,0.000000,0.000000,0.000000,0.000000,0.019549,3,0
1410000,-0.007320,36.384792,0.052455,-0.020991,26.047281,0.054431,0.003149,0.037161,1.571274,-0.068308,0.004106,0.009970,-0.000770,-0.009804,0.000058,0.000959,0.007580,0.075745,-0.012667,0.206283,0.206247,0.159498,0.387266,0.000000,0.000000,0.000000,0.000000,0.000000,0.000000,0.000000,0.000000,0.000000,0.000000,0.000000,0.000000,0.073505,3,0
1420000,-0.007275,36.646400,0.051423,-0.020778,26.054085,0.053190,0.003207,0.037431,1.571288,-0.068504,0.004154,0.010539,-0.000785,-0.009872,0.000058,0.000741,0.007532,0.031288,-0.059481,0.206462,0.206424,0.159146,0.384953,0.000000,0.000000,0.000000,0.000000,0.000000,0.000000,0.000000,0.000000,0.000000,0.000000,0.000000,0.000000,0.031065,3,0
1430000,-0.007228,36.904545,0.050302,-0.020409,26.054657,0.051774,0.003256,0.037197,1.571301,-0.068068,0.004202,0.011161,-0.000800,-0.009728,0.000058,0.001477,0.007484,-0.071358,-0.063184,0.206643,0.206604,0.158795,0.382705,0.000000,0.000000,0.000000,0.000000,0.000000,0.000000,0.000000,0.000000,0.000000,0.000000,0.000000,0.000000,0.069291,3,0
1440000,-0.007178,37.166801,0.051166,-0.020156,26.062557,0.052519,0.003307,0.037556,1.571313,-0.068362,0.004247,0.011025,-0.000816,-0.009828,0.000058,0.000411,0.007435,0.048191,0.013307,0.206826,0.206785,0.158446,0.380519,0.000000,0.000000,0.000000,0.000000,0.000000,0.000000,0.000000,0.000000,0.000000,0.000000,0.000000,0.000000,0.047082,3,0
1450000,-0.007128,37.426960,0.050000,-0.019788,26.066511,0.051094,0.003355,0.037587,1.571324,-0.068272,0.004293,0.011658,-0.000830,-0.009800,0.000058,0.000722,0.007380,-0.015354,-0.064526,0.207010,0.206968,0.158099,0.378394,0.000000,0.000000,0.000000,0.000000,0.000000,0.000000,0.000000,0.000000,0.000000,0.000000,0.000000,0.000000,0.016462,3,0
1460000,-0.007077,37.688465,0.049555,-0.019601,26.072878,0.050486,0.003409,0.037820,1.571331,-0.068410,0.004338,0.012012,-0.000846,-0.009850,0.000059,0.000306,0.007328,0.022629,-0.036432,0.207196,0.207152,0.157754,0.376328,0.000000,0.000000,0.000000,0.000000,0.000000,0.000000,0.000000,0.000000,0.000000,0.000000,0.000000,0.000000,0.022957,3,0
1470000,-0.007024,37.949917,0.050208,-0.019406,26.079077,0.051160,0.003459,0.038027,1.571338,-0.068526,0.004382,0.011954,-0.000861,-0.009891,0.000059,0.000075,0.007275,0.019485,0.005596,0.207384,0.207339,0.157411,0.374321,0.000000,0.000000,0.000000,0.000000,0.000000,0.000000,0.000000,0.000000,0.000000,0.000000,0.000000,0.000000,0.020082,3,0
1480000,-0.006969,38.207893,0.050142,-0.019015,26.078880,0.051089,0.003510,0.037709,1.571344,-0.068032,0.004425,0.012196,-0.000877,-0.009714,0.000058,0.001202,0.007218,-0.082996,-0.022957,0.207574,0.207527,0.157070,0.372371,0.000000,0.000000,0.000000,0.000000,0.000000,0.000000,0.000000,0.000000,0.000000,0.000000,0.000000,0.000000,0.080434,3,0
1490000,-0.006912,38.465183,0.050733,-0.018622,26.077257,0.051720,0.003555,0.037285,1.571349,-0.067425,0.004467,0.012194,-0.000892,-0.009491,0.000057,0.001697,0.007160,-0.102425,0.001996,0.207765,0.207717,0.156733,0.370474,0.000000,0.000000,0.000000,0.000000,0.000000,0.000000,0.000000,0.000000,0.000000,0.000000,0.000000,0.000000,0.099118,3,0
1500000,-0.006855,38.726631,0.050919,-0.018357,26.083212,0.051949,0.003611,0.037489,1.571352,-0.067532,0.004510,0.012319,-0.000908,-0.009532,0.000058,0.000087,0.007100,0.018002,-0.012815,0.207958,0.207909,0.156397,0.368632,0.000000,0.000000,0.000000,0.000000,0.000000,0.000000,0.000000,0.000000,0.000000,0.000000,0.000000,0.000000,0.018679,3,0
1510000,-0.006796,38.986649,0.051585,-0.018147,26.086555,0.052805,0.003668,0.037473,1.571354,-0.067386,0.004551,0.012272,-0.000923,-0.009476,0.000058,0.000111,0.007040,-0.024834,0.005141,0.208153,0.208102,0.156065,0.366843,0.000000,0.000000,0.000000,0.000000,0.000000,0.000000,0.000000,0.000000,0.000000,0.000000,0.000000,0.000000,0.024916,3,0
1520000,-0.006739,39.245968,0.050411,-0.017859,26.088587,0.051406,0.003718,0.037331,1.571352,-0.067120,0.004593,0.012949,-0.000938,-0.009378,0.000057,0.001066,0.006979,-0.046341,-0.066231,0.208350,0.208297,0.155735,0.365106,0.000000,0.000000,0.000000,0.000000,0.000000,0.000000,0.000000,0.000000,0.000000,0.000000,0.000000,0.000000,0.045251,3,0
1530000,-0.006677,39.505947,0.051671,-0.017489,26.091782,0.052787,0.003776,0.037292,1.571359,-0.066961,0.004632,0.012667,-0.000954,-0.009315,0.000057,0.000259,0.006918,-0.027378,0.028368,0.208548,0.208494,0.155408,0.363418,0.000000,0.000000,0.000000,0.000000,0.000000,0.000000,0.000000,0.000000,0.000000,0.000000,0.000000,0.000000,0.027251,3,0
1540000,-0.006615,39.763828,0.052643,-0.017235,26.090933,0.053869,0.003820,0.036913,1.571376,-0.066454,0.004670,0.012520,-0.000970,-0.009113,0.000057,0.001312,0.006854,-0.088596,0.016139,0.208747,0.208692,0.155085,0.361778,0.000000,0.000000,0.000000,0.000000,0.000000,0.000000,0.000000,0.000000,0.000000,0.000000,0.000000,0.000000,0.085766,3,0
1550000,-0.006553,40.023109,0.052787,-0.016963,26.092766,0.053906,0.003877,0.036759,1.571377,-0.066181,0.004709,0.012693,-0.000985,-0.009005,0.000056,0.000424,0.006789,-0.048286,-0.015966,0.208948,0.208891,0.154764,0.360187,0.000000,0.000000,0.000000,0.000000,0.000000,0.000000,0.000000,0.000000,0.000000,0.000000,0.000000,0.000000,0.047066,3,0
1560000,-0.006489,40.283066,0.053083,-0.016609,26.095732,0.054269,0.003934,0.036703,1.571392,-0.066016,0.004747,0.012802,-0.001000,-0.008938,0.000056,0.000161,0.006723,-0.029282,-0.009990,0.209151,0.209092,0.154447,0.358641,0.000000,0.000000,0.000000,0.000000,0.000000,0.000000,0.000000,0.000000,0.000000,0.000000,0.000000,0.000000,0.028999,3,0
1570000,-0.006425,40.543007,0.052647,-0.016274,26.098513,0.053509,0.003979,0.036636,1.571395,-0.065846,0.004786,0.013206,-0.001015,-0.008870,0.000056,0.000402,0.006656,-0.030838,-0.038555,0.209354,0.209294,0.154133,0.357139,0.000000,0.000000,0.000000,0.000000,0.000000,0.000000,0.000000,0.000000,0.000000,0.000000,0.000000,0.000000,0.030459,3,0
1580000,-0.006358,40.801514,0.053916,-0.015923,26.098686,0.055115,0.004029,0.036338,1.571406,-0.065446,0.004821,0.012936,-0.001031,-0.008700,0.000055,0.000967,0.006589,-0.072140,0.027577,0.209559,0.209497,0.153823,0.355681,0.000000,0.000000,0.000000,0.000000,0.000000,0.000000,0.000000,0.000000,0.000000,0.000000,0.000000,0.000000,0.069904,3,0
1590000,-0.006293,41.059345,0.052789,-0.015620,26.097517,0.053719,0.004073,0.035927,1.571422,-0.064943,0.004859,0.013651,-0.001045,-0.008490,0.000055,0.002096,0.006518,-0.092098,-0.066764,0.209765,0.209701,0.153516,0.354265,0.000000,0.000000,0.000000,0.000000,0.000000,0.000000,0.000000,0.000000,0.000000,0.000000,0.000000,0.000000,0.089120,3,0
1600000,-0.006225,41.316475,0.052836,-0.015292,26.095055,0.053671,0.004134,0.035397,1.571439,-0.064338,0.004894,0.013891,-0.001060,-0.008230,0.000053,0.002071,0.006450,-0.111374,-0.020616,0.209971,0.209906,0.153212,0.352890,0.000000,0.000000,0.000000,0.000000,0.000000,0.000000,0.000000,0.000000,0.000000,0.000000,0.000000,0.000000,0.107663,3,0
1610000,-0.006156,41.576416,0.052234,-0.014883,26.097775,0.052927,0.004180,0.035318,1.571442,-0.064175,0.004930,0.014372,-0.001075,-0.008162,0.000053,0.000489,0.006378,-0.030537,-0.045228,0.210179,0.210112,0.152913,0.351555,0.000000,0.000000,0.000000,0.000000,0.000000,0.000000,0.000000,0.000000,0.000000,0.000000,0.000000,0.000000,0.030116,3,0
1620000,-0.006085,41.834221,0.053070,-0.014582,26.096582,0.053984,0.004223,0.034877,1.571443,-0.063685,0.004963,0.014280,-0.001090,-0.007942,0.000053,0.001378,0.006306,-0.091717,0.010773,0.210387,0.210318,0.152617,0.350260,0.000000,0.000000,0.000000,0.000000,0.000000,0.000000,0.000000,0.000000,0.000000,0.000000,0.000000,0.000000,0.088706,3,0
1630000,-0.006012,42.096916,0.054103,-0.014298,26.104351,0.054973,0.004278,0.035238,1.571441,-0.063938,0.004996,0.014060,-0.001105,-0.008056,0.000053,0.000441,0.006232,0.048069,0.019768,0.210595,0.210525,0.152324,0.349002,0.000000,0.000000,0.000000,0.000000,0.000000,0.000000,0.000000,0.000000,0.000000,0.000000,0.000000,0.000000,0.046775,3,0
1640000,-0.005941,42.353966,0.053941,-0.013949,26.101555,0.054771,0.004332,0.034665,1.571460,-0.063336,0.005029,0.014403,-0.001120,-0.007780,0.000052,0.002288,0.006156,-0.115311,-0.029653,0.210804,0.210733,0.152036,0.347781,0.000000,0.000000,0.000000,0.000000,0.000000,0.000000,0.000000,0.000000,0.000000,0.000000,0.000000,0.000000,0.111429,3,0
1650000,-0.005867,42.611725,0.054379,-0.013647,26.100018,0.055463,0.004382,0.034206,1.571476,-0.062849,0.005060,0.014487,-0.001135,-0.007553,0.000051,0.001433,0.006081,-0.094025,-0.005774,0.211014,0.210940,0.151751,0.346594,0.000000,0.000000,0.000000,0.000000,0.000000,0.000000,0.000000,0.000000,0.000000,0.000000,0.000000,0.000000,0.090911,3,0
1660000,-0.005794,42.868790,0.054772,-0.013384,26.097214,0.055788,0.004433,0.033634,1.571486,-0.062269,0.005091,0.014601,-0.001149,-0.007278,0.000050,0.002078,0.006005,-0.113224,-0.007983,0.211223,0.211148,0.151470,0.345442,0.000000,0.000000,0.000000,0.000000,0.000000,0.000000,0.000000,0.000000,0.000000,0.000000,0.000000,0.000000,0.109395,3,0
1670000,-0.005721,43.127281,0.054181,-0.012967,26.097050,0.055162,0.004484,0.033296,1.571488,-0.061905,0.005123,0.015121,-0.001163,-0.007105,0.000050,0.001196,0.005928,-0.072071,-0.046756,0.211433,0.211356,0.151193,0.344322,0.000000,0.000000,0.000000,0.000000,0.000000,0.000000,0.000000,0.000000,0.000000,0.000000,0.000000,0.000000,0.069781,3,0
1680000,-0.005644,43.386448,0.054999,-0.012654,26.098038,0.056256,0.004532,0.033062,1.571492,-0.061643,0.005152,0.015031,-0.001178,-0.006976,0.000049,0.000460,0.005851,-0.052258,0.009637,0.211642,0.211564,0.150920,0.343234,0.000000,0.000000,0.000000,0.000000,0.000000,0.000000,0.000000,0.000000,0.000000,0.000000,0.000000,0.000000,0.050726,3,0
1690000,-0.005570,43.646320,0.054155,-0.012359,26.100391,0.055135,0.004585,0.032951,1.571503,-0.061480,0.005182,0.015652,-0.001192,-0.006899,0.000049,0.000704,0.005772,-0.033131,-0.056676,0.211851,0.211771,0.150650,0.342178,0.000000,0.000000,0.000000,0.000000,0.000000,0.000000,0.000000,0.000000,0.000000,0.000000,0.000000,0.000000,0.032460,3,0
1700000,-0.005492,43.908955,0.054730,-0.011963,26.107624,0.055783,0.004643,0.033306,1.571514,-0.061700,0.005210,0.015627,-0.001206,-0.007010,0.000050,0.000330,0.005693,0.044918,0.001257,0.212060,0.211978,0.150385,0.341150,0.000000,0.000000,0.000000,0.000000,0.000000,0.000000,0.000000,0.000000,0.000000,0.000000,0.000000,0.000000,0.043678,3,0
1710000,-0.005415,44.165901,0.054400,-0.011694,26.104246,0.055385,0.004685,0.032678,1.571528,-0.061127,0.005238,0.016065,-0.001220,-0.006718,0.000049,0.002485,0.005613,-0.118397,-0.037312,0.212268,0.212185,0.150124,0.340153,0.000000,0.000000,0.000000,0.000000,0.000000,0.000000,0.000000,0.000000,0.000000,0.000000,0.000000,0.000000,0.114352,3,0
1720000,-0.005338,44.424267,0.054240,-0.011350,26.103643,0.055243,0.004741,0.032299,1.571532,-0.060758,0.005266,0.016413,-0.001233,-0.006527,0.000048,0.001107,0.005533,-0.077126,-0.029890,0.212475,0.212391,0.149866,0.339184,0.000000,0.000000,0.000000,0.000000,0.000000,0.000000,0.000000,0.000000,0.000000,0.000000,0.000000,0.000000,0.074597,3,0
