time_us,pos_x,pos_y,pos_z,vel_x,vel_y,vel_z,roll,pitch,yaw,bias_ax,bias_ay,bias_az,bias_gx,bias_gy,bias_gz,nis,innov_x,innov_y,innov_z,cov_pos_x,cov_pos_y,cov_pos_z,cov_yaw,des_speed,des_heading,des_climb,pid_speed,pid_yaw,pid_alt,speed_meas,yaw_meas,climb_meas,fwd_accel,yaw_rate,vert_accel,drift_m,nav_mode,mission_state
0,-0.000004,0.149998,0.000004,-0.000740,24.999611,0.001029,-0.000015,0.000004,1.570803,0.000000,0.000000,0.000000,0.000000,0.000000,0.000000,0.006250,0.000007,-0.249999,-0.000010,2.400038,2.400038,3.600017,1.000518,0.000000,0.000000,0.000000,0.000000,0.000000,0.000000,0.000000,0.000000,0.000000,0.000000,0.000000,0.000000,0.149998,1,0
10000,-0.000012,0.359541,-0.021637,-0.001297,24.999142,0.001924,-0.000031,0.000007,1.570800,0.000000,0.000000,0.000000,0.000000,0.000000,0.000000,0.002733,0.000017,-0.141566,-0.057761,1.714420,1.714420,2.250079,1.001073,0.000000,0.000000,0.000000,0.000000,0.000000,0.000000,0.000000,0.000000,0.000000,0.000000,0.000000,0.000000,0.101115,3,0
20000,-0.000025,0.575675,-0.029898,-0.002005,24.998461,0.003041,-0.000035,0.000010,1.570796,0.000002,0.000000,0.000000,0.000000,0.000000,-0.000000,0.003119,0.000032,-0.152315,-0.030403,1.333616,1.333616,1.636554,1.001655,0.000000,0.000000,0.000000,0.000000,0.000000,0.000000,0.000000,0.000000,0.000000,0.000000,0.000000,0.000000,0.118460,3,0
30000,-0.000042,0.809261,-0.019623,-0.002602,24.997837,0.004429,-0.000054,0.000009,1.570800,0.000003,0.000000,-0.000000,-0.000000,0.000000,-0.000000,0.001406,0.000051,-0.090137,0.047739,1.091392,1.091392,1.286065,1.002257,0.000000,0.000000,0.000000,0.000000,0.000000,0.000000,0.000000,0.000000,0.000000,0.000000,0.000000,0.000000,0.073741,3,0
40000,-0.000062,1.046124,-0.018403,-0.003182,24.997282,0.005533,-0.000076,0.000018,1.570800,0.000006,0.000000,-0.000001,-0.000000,0.000000,-0.000000,0.001029,0.000074,-0.085171,0.006599,0.923811,0.923811,1.059385,1.002869,0.000000,0.000000,0.000000,0.000000,0.000000,0.000000,0.000000,0.000000,0.000000,0.000000,0.000000,0.000000,0.072057,3,0
50000,-0.000088,1.287604,-0.020793,-0.003893,24.996815,0.006597,-0.000090,0.000032,1.570794,0.000009,0.000000,0.000000,-0.000000,0.000000,-0.000000,0.000622,0.000101,-0.063603,-0.016364,0.801036,0.801036,0.900822,1.003484,0.000000,0.000000,0.000000,0.000000,0.000000,0.000000,0.000000,0.000000,0.000000,0.000000,0.000000,0.000000,0.055111,3,0
60000,-0.000118,1.527384,-0.018493,-0.004605,24.996040,0.007880,-0.000101,0.000047,1.570803,0.000014,0.000000,-0.000001,-0.000000,0.000000,-0.000000,0.001140,0.000134,-0.086409,0.017012,0.707270,0.707270,0.783741,1.004094,0.000000,0.000000,0.000000,0.000000,0.000000,0.000000,0.000000,0.000000,0.000000,0.000000,0.000000,0.000000,0.076223,3,0
70000,-0.000152,1.770189,-0.018775,-0.005167,24.995256,0.008860,-0.000120,0.000048,1.570804,0.000019,0.000000,-0.000001,-0.000000,0.000000,-0.000000,0.000686,0.000170,-0.067755,-0.003207,0.633370,0.633370,0.693801,1.004688,0.000000,0.000000,0.000000,0.000000,0.000000,0.000000,0.000000,0.000000,0.000000,0.000000,0.000000,0.000000,0.060602,3,0
80000,-0.000190,2.018957,-0.018088,-0.005766,24.994986,0.009835,-0.000122,0.000051,1.570809,0.000020,0.000000,-0.000001,-0.000000,0.000000,-0.000000,0.000028,0.000210,-0.012369,0.005673,0.573673,0.573673,0.622594,1.005260,0.000000,0.000000,0.000000,0.000000,0.000000,0.000000,0.000000,0.000000,0.000000,0.000000,0.000000,0.000000,0.011188,3,0
90000,-0.000232,2.272143,-0.017191,-0.006460,24.994995,0.011084,-0.000126,0.000064,1.570813,0.000016,0.000000,-0.000002,-0.000000,0.000000,-0.000000,0.000219,0.000254,0.037050,0.008363,0.524488,0.524488,0.564865,1.005801,0.000000,0.000000,0.000000,0.000000,0.000000,0.000000,0.000000,0.000000,0.000000,0.000000,0.000000,0.000000,0.033812,3,0
100000,-0.000279,2.523896,-0.014482,-0.007098,24.994955,0.012375,-0.000145,0.000066,1.570810,0.000012,0.000000,-0.000007,-0.000000,0.000000,-0.000000,0.000214,0.000303,0.022411,0.030022,0.483304,0.483304,0.517162,1.006301,0.000000,0.000000,0.000000,0.000000,0.000000,0.000000,0.000000,0.000000,0.000000,0.000000,0.000000,0.000000,0.020608,3,0
110000,-0.000330,2.781958,-0.016412,-0.007830,24.995836,0.013343,-0.000151,0.000077,1.570816,-0.000008,0.000000,-0.000002,-0.000000,-0.000000,0.000000,0.001922,0.000357,0.108600,-0.025978,0.448354,0.448354,0.477121,1.006754,0.000000,0.000000,0.000000,0.000000,0.000000,0.000000,0.000000,0.000000,0.000000,0.000000,0.000000,0.000000,0.100485,3,0
120000,-0.000387,3.033967,-0.015715,-0.008548,24.995953,0.014367,-0.000171,0.000076,1.570809,-0.000015,0.000000,-0.000004,-0.000000,-0.000000,0.000000,0.000143,0.000416,0.029439,0.007509,0.418359,0.418359,0.443071,1.007150,0.000000,0.000000,0.000000,0.000000,0.000000,0.000000,0.000000,0.000000,0.000000,0.000000,0.000000,0.000000,0.027389,3,0
130000,-0.000447,3.283669,-0.017504,-0.009189,24.995764,0.015302,-0.000179,0.000082,1.570810,-0.000014,0.000000,0.000003,-0.000000,-0.000000,0.000000,0.000126,0.000479,-0.003903,-0.028213,0.392370,0.392370,0.413797,1.007481,0.000000,0.000000,0.000000,0.000000,0.000000,0.000000,0.000000,0.000000,0.000000,0.000000,0.000000,0.000000,0.003675,3,0
140000,-0.000513,3.533922,-0.014730,-0.009926,24.995626,0.016979,-0.000192,0.000096,1.570807,-0.000015,0.000001,-0.000008,-0.000000,-0.000000,0.000000,0.000257,0.000547,0.004822,0.040309,0.369667,0.369667,0.388393,1.007739,0.000000,0.000000,0.000000,0.000000,0.000000,0.000000,0.000000,0.000000,0.000000,0.000000,0.000000,0.000000,0.004554,3,0
150000,-0.000582,3.790427,-0.015895,-0.010487,24.997021,0.017822,-0.000201,0.000116,1.570807,-0.000053,0.000001,-0.000001,-0.000000,-0.000001,0.000000,0.002059,0.000618,0.112391,-0.022062,0.349696,0.349696,0.366172,1.007915,0.000000,0.000000,0.000000,0.000000,0.000000,0.000000,0.000000,0.000000,0.000000,0.000000,0.000000,0.000000,0.105842,3,0
160000,-0.000655,4.041220,-0.014868,-0.011166,24.996954,0.019208,-0.000213,0.000120,1.570804,-0.000058,0.000001,-0.000006,-0.000000,-0.000001,0.000000,0.000068,0.000694,0.014904,0.014487,0.332022,0.332022,0.346600,1.008002,0.000000,0.000000,0.000000,0.000000,0.000000,0.000000,0.000000,0.000000,0.000000,0.000000,0.000000,0.000000,0.014094,3,0
170000,-0.000733,4.296567,-0.015247,-0.011866,24.998337,0.020026,-0.000221,0.000150,1.570810,-0.000102,0.000001,-0.000002,-0.000000,-0.000002,0.000000,0.001662,0.000774,0.102053,-0.010576,0.316299,0.316299,0.329260,1.007991,0.000000,0.000000,0.000000,0.000000,0.000000,0.000000,0.000000,0.000000,0.000000,0.000000,0.000000,0.000000,0.096676,3,0
180000,-0.000815,4.546836,-0.014016,-0.012432,24.998184,0.021442,-0.000240,0.000165,1.570814,-0.000105,0.000002,-0.000011,-0.000000,-0.000002,0.000000,0.000065,0.000858,0.005724,0.019483,0.302249,0.302249,0.313817,1.007875,0.000000,0.000000,0.000000,0.000000,0.000000,0.000000,0.000000,0.000000,0.000000,0.000000,0.000000,0.000000,0.005496,3,0
190000,-0.000900,4.800366,-0.016554,-0.013056,24.999338,0.021599,-0.000257,0.000187,1.570805,-0.000144,0.000002,0.000018,-0.000000,-0.000003,0.000000,0.001341,0.000945,0.073518,-0.055252,0.289644,0.289644,0.300003,1.007646,0.000000,0.000000,0.000000,0.000000,0.000000,0.000000,0.000000,0.000000,0.000000,0.000000,0.000000,0.000000,0.069974,3,0
200000,-0.000988,5.056760,-0.015870,-0.013618,25.001595,0.022874,-0.000264,0.000218,1.570801,-0.000224,0.000003,0.000012,-0.000000,-0.000006,0.000000,0.003043,0.001036,0.138040,0.009542,0.278299,0.278299,0.287598,1.007296,0.000000,0.000000,0.000000,0.000000,0.000000,0.000000,0.000000,0.000000,0.000000,0.000000,0.000000,0.000000,0.131641,3,0
210000,-0.001081,5.314808,-0.015610,-0.014335,25.004902,0.023752,-0.000279,0.000262,1.570795,-0.000339,0.000004,0.000012,-0.000000,-0.000009,0.000000,0.005148,0.001132,0.179806,0.000480,0.268058,0.268058,0.276421,1.006817,0.000000,0.000000,0.000000,0.000000,0.000000,0.000000,0.000000,0.000000,0.000000,0.000000,0.000000,0.000000,0.171776,3,0
220000,-0.001179,5.566624,-0.014046,-0.015073,25.005558,0.025562,-0.000301,0.000281,1.570789,-0.000368,0.000004,-0.000008,-0.000000,-0.000010,0.000000,0.000408,0.001232,0.040999,0.029593,0.258792,0.258792,0.266321,1.006204,0.000000,0.000000,0.000000,0.000000,0.000000,0.000000,0.000000,0.000000,0.000000,0.000000,0.000000,0.000000,0.039248,3,0
230000,-0.001280,5.824471,-0.014654,-0.015711,25.009159,0.026051,-0.000307,0.000329,1.570778,-0.000510,0.000005,0.000007,-0.000000,-0.000015,0.000000,0.005637,0.001336,0.186756,-0.020343,0.250392,0.250392,0.257172,1.005448,0.000000,0.000000,0.000000,0.000000,0.000000,0.000000,0.000000,0.000000,0.000000,0.000000,0.000000,0.000000,0.178967,3,0
240000,-0.001386,6.080530,-0.016856,-0.016388,25.012218,0.025920,-0.000319,0.000382,1.570781,-0.000632,0.000007,0.000055,-0.000000,-0.000019,0.000000,0.004050,0.001445,0.147541,-0.059626,0.242763,0.242763,0.248866,1.004543,0.000000,0.000000,0.000000,0.000000,0.000000,0.000000,0.000000,0.000000,0.000000,0.000000,0.000000,0.000000,0.141578,3,0
250000,-0.001495,6.332634,-0.016423,-0.016981,25.013092,0.027031,-0.000329,0.000408,1.570787,-0.000677,0.000008,0.000052,-0.000000,-0.000020,0.000000,0.000411,0.001556,0.050482,0.004056,0.235827,0.235827,0.241314,1.003483,0.000000,0.000000,0.000000,0.000000,0.000000,0.000000,0.000000,0.000000,0.000000,0.000000,0.000000,0.000000,0.048521,3,0
260000,-0.001609,6.586456,-0.017283,-0.017700,25.015083,0.027445,-0.000331,0.000442,1.570791,-0.000769,0.000010,0.000079,-0.000000,-0.000024,0.000000,0.001631,0.001673,0.096554,-0.029197,0.229514,0.229515,0.234436,1.002261,0.000000,0.000000,0.000000,0.000000,0.000000,0.000000,0.000000,0.000000,0.000000,0.000000,0.000000,0.000000,0.092874,3,0
270000,-0.001725,6.841861,-0.017970,-0.018246,25.018415,0.027764,-0.000348,0.000487,1.570781,-0.000915,0.000012,0.000105,-0.000000,-0.000030,0.000000,0.003290,0.001792,0.140894,-0.025530,0.223766,0.223766,0.228165,1.000872,0.000000,0.000000,0.000000,0.000000,0.000000,0.000000,0.000000,0.000000,0.000000,0.000000,0.000000,0.000000,0.135650,3,0
280000,-0.001845,7.095112,-0.017926,-0.018961,25.020397,0.028700,-0.000351,0.000515,1.570776,-0.001008,0.000014,0.000113,-0.000000,-0.000033,0.000000,0.001147,0.001915,0.084245,-0.006602,0.218529,0.218530,0.222443,0.999310,0.000000,0.000000,0.000000,0.000000,0.000000,0.000000,0.000000,0.000000,0.000000,0.000000,0.000000,0.000000,0.081198,3,0
290000,-0.001969,7.351332,-0.016070,-0.019655,25.024548,0.030903,-0.000354,0.000576,1.570771,-0.001207,0.000016,0.000062,-0.000001,-0.000042,0.000000,0.004884,0.002042,0.168917,0.043036,0.213760,0.213760,0.217219,0.997570,0.000000,0.000000,0.000000,0.000000,0.000000,0.000000,0.000000,0.000000,0.000000,0.000000,0.000000,0.000000,0.162910,3,0
300000,-0.002096,7.608240,-0.017456,-0.020207,25.029499,0.030780,-0.000357,0.000668,1.570777,-0.001447,0.000019,0.000122,-0.000001,-0.000052,0.000000,0.006240,0.002172,0.190959,-0.048195,0.209416,0.209416,0.212446,0.995648,0.000000,0.000000,0.000000,0.000000,0.000000,0.000000,0.000000,0.000000,0.000000,0.000000,0.000000,0.000000,0.184307,3,0
310000,-0.002227,7.864442,-0.017951,-0.020890,25.034101,0.031155,-0.000369,0.000755,1.570772,-0.001677,0.000022,0.000153,-0.000001,-0.000062,0.000000,0.004881,0.002306,0.172549,-0.023435,0.205463,0.205464,0.208087,0.993539,0.000000,0.000000,0.000000,0.000000,0.000000,0.000000,0.000000,0.000000,0.000000,0.000000,0.000000,0.000000,0.166655,3,0
320000,-0.002361,8.121998,-0.018275,-0.021541,25.039995,0.031592,-0.000380,0.000852,1.570764,-0.001981,0.000025,0.000180,-0.000001,-0.000076,0.000001,0.007468,0.002443,0.214484,-0.018958,0.201870,0.201870,0.204105,0.991240,0.000000,0.000000,0.000000,0.000000,0.000000,0.000000,0.000000,0.000000,0.000000,0.000000,0.000000,0.000000,0.207281,3,0
330000,-0.002497,8.378866,-0.019605,-0.022076,25.045660,0.031140,-0.000390,0.000948,1.570768,-0.002273,0.000029,0.000253,-0.000001,-0.000090,0.000001,0.006550,0.002582,0.195415,-0.049532,0.198607,0.198607,0.200469,0.988747,0.000000,0.000000,0.000000,0.000000,0.000000,0.000000,0.000000,0.000000,0.000000,0.000000,0.000000,0.000000,0.188963,3,0
340000,-0.002635,8.632503,-0.018971,-0.022595,25.048517,0.032594,-0.000400,0.000999,1.570772,-0.002428,0.000033,0.000238,-0.000001,-0.000098,0.000001,0.001549,0.002724,0.097523,0.009469,0.195650,0.195650,0.197151,0.986057,0.000000,0.000000,0.000000,0.000000,0.000000,0.000000,0.000000,0.000000,0.000000,0.000000,0.000000,0.000000,0.094379,3,0
350000,-0.002775,8.884997,-0.019524,-0.023163,25.050287,0.032704,-0.000403,0.001033,1.570772,-0.002532,0.000038,0.000284,-0.000002,-0.000103,0.000001,0.000753,0.002867,0.062526,-0.027450,0.192975,0.192975,0.194125,0.983167,0.000000,0.000000,0.000000,0.000000,0.000000,0.000000,0.000000,0.000000,0.000000,0.000000,0.000000,0.000000,0.060578,3,0
360000,-0.002918,9.140830,-0.018733,-0.023752,25.055588,0.034307,-0.000422,0.001146,1.570761,-0.002826,0.000044,0.000259,-0.000002,-0.000119,0.000001,0.004579,0.003014,0.167833,0.014160,0.190562,0.190562,0.191370,0.980077,0.000000,0.000000,0.000000,0.000000,0.000000,0.000000,0.000000,0.000000,0.000000,0.000000,0.000000,0.000000,0.162529,3,0
370000,-0.003063,9.395486,-0.019426,-0.024294,25.059748,0.034535,-0.000422,0.001232,1.570757,-0.003067,0.000049,0.000320,-0.000002,-0.000132,0.000001,0.002935,0.003162,0.130616,-0.033308,0.188391,0.188392,0.188863,0.976783,0.000000,0.000000,0.000000,0.000000,0.000000,0.000000,0.000000,0.000000,0.000000,0.000000,0.000000,0.000000,0.126552,3,0
380000,-0.003210,9.649640,-0.019181,-0.024907,25.063570,0.035553,-0.000432,0.001314,1.570753,-0.003289,0.000056,0.000327,-0.000002,-0.000144,0.000001,0.002120,0.003313,0.114465,-0.003571,0.186446,0.186447,0.186586,0.973286,0.000000,0.000000,0.000000,0.000000,0.000000,0.000000,0.000000,0.000000,0.000000,0.000000,0.000000,0.000000,0.110954,3,0
390000,-0.003359,9.903930,-0.019829,-0.025485,25.067566,0.035777,-0.000442,0.001398,1.570750,-0.003529,0.000063,0.000394,-0.000003,-0.000158,0.000001,0.002454,0.003466,0.118698,-0.033058,0.184711,0.184712,0.184522,0.969585,0.000000,0.000000,0.000000,0.000000,0.000000,0.000000,0.000000,0.000000,0.000000,0.000000,0.000000,0.000000,0.115093,3,0
400000,-0.003510,10.158354,-0.020815,-0.026037,25.071796,0.035511,-0.000448,0.001502,1.570742,-0.003789,0.000070,0.000487,-0.000003,-0.000173,0.000001,0.002759,0.003621,0.122795,-0.044537,0.183171,0.183171,0.182656,0.965680,0.000000,0.000000,0.000000,0.000000,0.000000,0.000000,0.000000,0.000000,0.000000,0.000000,0.000000,0.000000,0.119098,3,0
410000,-0.003664,10.415924,-0.019659,-0.026646,25.079826,0.037444,-0.000457,0.001679,1.570735,-0.004288,0.000079,0.000430,-0.000004,-0.000203,0.000001,0.008379,0.003778,0.226149,0.026220,0.181813,0.181813,0.180971,0.961571,0.000000,0.000000,0.000000,0.000000,0.000000,0.000000,0.000000,0.000000,0.000000,0.000000,0.000000,0.000000,0.219326,3,0
420000,-0.003819,10.671758,-0.019610,-0.027195,25.085869,0.038033,-0.000466,0.001825,1.570727,-0.004674,0.000088,0.000455,-0.000004,-0.000227,0.000001,0.004547,0.003937,0.167288,-0.011225,0.180623,0.180624,0.179456,0.957260,0.000000,0.000000,0.000000,0.000000,0.000000,0.000000,0.000000,0.000000,0.000000,0.000000,0.000000,0.000000,0.162296,3,0
430000,-0.003975,10.925319,-0.017918,-0.027725,25.089161,0.040635,-0.000478,0.001900,1.570723,-0.004890,0.000098,0.000350,-0.000005,-0.000241,0.000002,0.001632,0.004097,0.090303,0.043812,0.179592,0.179592,0.178097,0.952748,0.000000,0.000000,0.000000,0.000000,0.000000,0.000000,0.000000,0.000000,0.000000,0.000000,0.000000,0.000000,0.087691,3,0
440000,-0.004132,11.182005,-0.017214,-0.028294,25.096640,0.042048,-0.000480,0.002081,1.570717,-0.005375,0.000108,0.000326,-0.000006,-0.000273,0.000002,0.006137,0.004259,0.194529,0.009719,0.178707,0.178707,0.176883,0.948038,0.000000,0.000000,0.000000,0.000000,0.000000,0.000000,0.000000,0.000000,0.000000,0.000000,0.000000,0.000000,0.188780,3,0
450000,-0.004291,11.438790,-0.017243,-0.028804,25.104263,0.042687,-0.000479,0.002264,1.570705,-0.005884,0.000120,0.000367,-0.000006,-0.000307,0.000002,0.006268,0.004422,0.196195,-0.015761,0.177958,0.177959,0.175803,0.943132,0.000000,0.000000,0.000000,0.000000,0.000000,0.000000,0.000000,0.000000,0.000000,0.000000,0.000000,0.000000,0.190424,3,0
460000,-0.004451,11.696266,-0.016144,-0.029404,25.112967,0.044653,-0.000489,0.002476,1.570695,-0.006468,0.000132,0.000306,-0.000007,-0.000347,0.000002,0.007748,0.004587,0.217637,0.022666,0.177337,0.177338,0.174847,0.938033,0.000000,0.000000,0.000000,0.000000,0.000000,0.000000,0.000000,0.000000,0.000000,0.000000,0.000000,0.000000,0.211251,3,0
470000,-0.004612,11.954423,-0.016286,-0.029915,25.122683,0.045064,-0.000495,0.002711,1.570696,-0.007132,0.000145,0.000363,-0.000008,-0.000393,0.000003,0.009265,0.004752,0.238379,-0.020684,0.176835,0.176835,0.174006,0.932745,0.000000,0.000000,0.000000,0.000000,0.000000,0.000000,0.000000,0.000000,0.000000,0.000000,0.000000,0.000000,0.231400,3,0
480000,-0.004773,12.212082,-0.015043,-0.030380,25.131767,0.047250,-0.000498,0.002946,1.570687,-0.007761,0.000159,0.000285,-0.000009,-0.000438,0.000003,0.007857,0.004918,0.218672,0.026996,0.176442,0.176443,0.173271,0.927272,0.000000,0.000000,0.000000,0.000000,0.000000,0.000000,0.000000,0.000000,0.000000,0.000000,0.000000,0.000000,0.212295,3,0
490000,-0.004934,12.470426,-0.015550,-0.030791,25.141981,0.047058,-0.000505,0.003213,1.570689,-0.008474,0.000175,0.000387,-0.000010,-0.000491,0.000003,0.009454,0.005083,0.239226,-0.034420,0.176152,0.176152,0.172634,0.921618,0.000000,0.000000,0.000000,0.000000,0.000000,0.000000,0.000000,0.000000,0.000000,0.000000,0.000000,0.000000,0.232255,3,0
500000,-0.005095,12.729445,-0.015392,-0.031188,25.153128,0.047662,-0.000507,0.003497,1.570673,-0.009270,0.000191,0.000422,-0.000012,-0.000550,0.000004,0.010884,0.005248,0.259085,-0.011267,0.175956,0.175957,0.172087,0.915789,0.000000,0.000000,0.000000,0.000000,0.000000,0.000000,0.000000,0.000000,0.000000,0.000000,0.000000,0.000000,0.251538,3,0
510000,-0.005255,12.986221,-0.015222,-0.031651,25.161076,0.048447,-0.000521,0.003711,1.570660,-0.009837,0.000208,0.000457,-0.000013,-0.000594,0.000004,0.005201,0.005413,0.178864,-0.011156,0.175848,0.175849,0.171622,0.909790,0.000000,0.000000,0.000000,0.000000,0.000000,0.000000,0.000000,0.000000,0.000000,0.000000,0.000000,0.000000,0.173701,3,0
520000,-0.005415,13.241957,-0.013652,-0.032170,25.167446,0.050979,-0.000520,0.003889,1.570650,-0.010297,0.000226,0.000333,-0.000014,-0.000630,0.000004,0.003436,0.005579,0.140677,0.037647,0.175820,0.175821,0.171234,0.903627,0.000000,0.000000,0.000000,0.000000,0.000000,0.000000,0.000000,0.000000,0.000000,0.000000,0.000000,0.000000,0.136662,3,0
530000,-0.005576,13.498999,-0.012967,-0.032610,25.175783,0.052382,-0.000525,0.004119,1.570649,-0.010913,0.000245,0.000314,-0.000016,-0.000679,0.000004,0.005432,0.005744,0.183062,0.005724,0.175868,0.175869,0.170915,0.897305,0.000000,0.000000,0.000000,0.000000,0.000000,0.000000,0.000000,0.000000,0.000000,0.000000,0.000000,0.000000,0.177784,3,0
540000,-0.005734,13.758500,-0.011721,-0.032968,25.188036,0.054519,-0.000522,0.004462,1.570650,-0.011826,0.000266,0.000226,-0.000018,-0.000754,0.000005,0.011371,0.005908,0.263875,0.024971,0.175984,0.175985,0.170659,0.890831,0.000000,0.000000,0.000000,0.000000,0.000000,0.000000,0.000000,0.000000,0.000000,0.000000,0.000000,0.000000,0.256199,3,0
550000,-0.005892,14.018097,-0.012398,-0.033302,25.200382,0.053751,-0.000526,0.004809,1.570637,-0.012760,0.000287,0.000381,-0.000019,-0.000832,0.000005,0.011473,0.006070,0.262678,-0.043385,0.176163,0.176164,0.170460,0.884212,0.000000,0.000000,0.000000,0.000000,0.000000,0.000000,0.000000,0.000000,0.000000,0.000000,0.000000,0.000000,0.255034,3,0
560000,-0.006049,14.273698,-0.012210,-0.033695,25.206429,0.054367,-0.000539,0.004984,1.570627,-0.013207,0.000310,0.000428,-0.000021,-0.000870,0.000006,0.002449,0.006232,0.122231,-0.012706,0.176399,0.176400,0.170314,0.877455,0.000000,0.000000,0.000000,0.000000,0.000000,0.000000,0.000000,0.000000,0.000000,0.000000,0.000000,0.000000,0.118791,3,0
570000,-0.006205,14.530033,-0.012000,-0.034091,25.213669,0.054929,-0.000552,0.005202,1.570625,-0.013749,0.000334,0.000474,-0.000023,-0.000917,0.000006,0.003426,0.006393,0.144873,-0.012156,0.176688,0.176689,0.170215,0.870567,0.000000,0.000000,0.000000,0.000000,0.000000,0.000000,0.000000,0.000000,0.000000,0.000000,0.000000,0.000000,0.140744,3,0
580000,-0.006359,14.785920,-0.013134,-0.034394,25.220030,0.053709,-0.000552,0.005389,1.570612,-0.014237,0.000359,0.000707,-0.000025,-0.000960,0.000006,0.003195,0.006552,0.127013,-0.059760,0.177024,0.177026,0.170158,0.863556,0.000000,0.000000,0.000000,0.000000,0.000000,0.000000,0.000000,0.000000,0.000000,0.000000,0.000000,0.000000,0.123430,3,0
590000,-0.006511,15.044305,-0.013164,-0.034678,25.230448,0.053939,-0.000552,0.005711,1.570598,-0.015059,0.000386,0.000788,-0.000028,-0.001035,0.000007,0.007140,0.006709,0.209003,-0.020389,0.177404,0.177405,0.170138,0.856429,0.000000,0.000000,0.000000,0.000000,0.000000,0.000000,0.000000,0.000000,0.000000,0.000000,0.000000,0.000000,0.202928,3,0
600000,-0.006662,15.302806,-0.013282,-0.035082,25.240982,0.054103,-0.000558,0.006038,1.570582,-0.015900,0.000413,0.000884,-0.000030,-0.001112,0.000007,0.007158,0.006865,0.208941,-0.023596,0.177821,0.177823,0.170152,0.849194,0.000000,0.000000,0.000000,0.000000,0.000000,0.000000,0.000000,0.000000,0.000000,0.000000,0.000000,0.000000,0.202859,3,0
610000,-0.006810,15.563196,-0.011905,-0.035415,25.254662,0.056431,-0.000557,0.006467,1.570577,-0.017004,0.000442,0.000761,-0.000033,-0.001216,0.000008,0.011794,0.007019,0.268396,0.029029,0.178274,0.178275,0.170196,0.841859,0.000000,0.000000,0.000000,0.000000,0.000000,0.000000,0.000000,0.000000,0.000000,0.000000,0.000000,0.000000,0.260511,3,0
620000,-0.006957,15.822498,-0.010971,-0.035680,25.266447,0.057951,-0.000564,0.006838,1.570560,-0.017956,0.000472,0.000706,-0.000036,-0.001307,0.000009,0.008333,0.007171,0.226537,0.012663,0.178756,0.178758,0.170265,0.834432,0.000000,0.000000,0.000000,0.000000,0.000000,0.000000,0.000000,0.000000,0.000000,0.000000,0.000000,0.000000,0.219898,3,0
630000,-0.007103,16.082500,-0.009912,-0.036096,25.279228,0.059739,-0.000567,0.007247,1.570557,-0.019010,0.000504,0.000633,-0.000039,-0.001410,0.000009,0.009791,0.007322,0.245420,0.016477,0.179266,0.179267,0.170356,0.826921,0.000000,0.000000,0.000000,0.000000,0.000000,0.000000,0.000000,0.000000,0.000000,0.000000,0.000000,0.000000,0.238195,3,0
640000,-0.007248,16.342007,-0.010417,-0.036475,25.291115,0.059245,-0.000563,0.007640,1.570558,-0.019990,0.000536,0.000808,-0.000042,-0.001508,0.000010,0.008359,0.007471,0.223839,-0.039221,0.179798,0.179800,0.170466,0.819335,0.000000,0.000000,0.000000,0.000000,0.000000,0.000000,0.000000,0.000000,0.000000,0.000000,0.000000,0.000000,0.217252,3,0
650000,-0.007390,16.601021,-0.010524,-0.036757,25.302197,0.059133,-0.000562,0.008012,1.570553,-0.020896,0.000570,0.000922,-0.000046,-0.001600,0.000011,0.006756,0.007619,0.202757,-0.024930,0.180351,0.180352,0.170591,0.811680,0.000000,0.000000,0.000000,0.000000,0.000000,0.000000,0.000000,0.000000,0.000000,0.000000,0.000000,0.000000,0.196802,3,0
660000,-0.007531,16.861341,-0.009212,-0.037051,25.315308,0.061274,-0.000570,0.008445,1.570540,-0.021996,0.000606,0.000804,-0.000049,-0.001713,0.000011,0.009562,0.007765,0.241817,0.024923,0.180920,0.180921,0.170729,0.803967,0.000000,0.000000,0.000000,0.000000,0.000000,0.000000,0.000000,0.000000,0.000000,0.000000,0.000000,0.000000,0.234647,3,0
670000,-0.007669,17.119352,-0.009979,-0.037315,25.324501,0.060234,-0.000561,0.008756,1.570528,-0.022739,0.000642,0.001036,-0.000053,-0.001791,0.000012,0.004548,0.007908,0.160275,-0.048821,0.181503,0.181505,0.170877,0.796202,0.000000,0.000000,0.000000,0.000000,0.000000,0.000000,0.000000,0.000000,0.000000,0.000000,0.000000,0.000000,0.155615,3,0
680000,-0.007805,17.377480,-0.009346,-0.037597,25.333744,0.061372,-0.000561,0.009066,1.570517,-0.023496,0.000680,0.001032,-0.000057,-0.001872,0.000012,0.004179,0.008049,0.160597,0.000658,0.182097,0.182099,0.171033,0.788393,0.000000,0.000000,0.000000,0.000000,0.000000,0.000000,0.000000,0.000000,0.000000,0.000000,0.000000,0.000000,0.155919,3,0
690000,-0.007938,17.638145,-0.007808,-0.037873,25.347288,0.063853,-0.000555,0.009548,1.570502,-0.024648,0.000719,0.000872,-0.000061,-0.001998,0.000013,0.009509,0.008188,0.240320,0.032000,0.182700,0.182702,0.171194,0.780550,0.000000,0.000000,0.000000,0.000000,0.000000,0.000000,0.000000,0.000000,0.000000,0.000000,0.000000,0.000000,0.233137,3,0
700000,-0.008069,17.897076,-0.008294,-0.038035,25.357573,0.063215,-0.000543,0.009909,1.570495,-0.025517,0.000760,0.001072,-0.000066,-0.002094,0.000014,0.005404,0.008323,0.178307,-0.039756,0.183309,0.183311,0.171357,0.772678,0.000000,0.000000,0.000000,0.000000,0.000000,0.000000,0.000000,0.000000,0.000000,0.000000,0.000000,0.000000,0.173047,3,0
710000,-0.008197,18.156717,-0.008794,-0.038240,25.369038,0.062519,-0.000535,0.010324,1.570486,-0.026495,0.000802,0.001277,-0.000070,-0.002204,0.000015,0.006577,0.008456,0.197578,-0.039961,0.183923,0.183924,0.171522,0.764786,0.000000,0.000000,0.000000,0.000000,0.000000,0.000000,0.000000,0.000000,0.000000,0.000000,0.000000,0.000000,0.191698,3,0
720000,-0.008324,18.414009,-0.008737,-0.038538,25.376423,0.062621,-0.000537,0.010585,1.570479,-0.027081,0.000845,0.001382,-0.000075,-0.002272,0.000015,0.002279,0.008587,0.116730,-0.020203,0.184538,0.184540,0.171686,0.756882,0.000000,0.000000,0.000000,0.000000,0.000000,0.000000,0.000000,0.000000,0.000000,0.000000,0.000000,0.000000,0.113446,3,0
730000,-0.008446,18.673260,-0.008636,-0.038683,25.386980,0.062839,-0.000530,0.010977,1.570478,-0.027986,0.000889,0.001480,-0.000080,-0.002377,0.000016,0.005154,0.008715,0.177429,-0.018709,0.185153,0.185155,0.171847,0.748973,0.000000,0.000000,0.000000,0.000000,0.000000,0.000000,0.000000,0.000000,0.000000,0.000000,0.000000,0.000000,0.172161,3,0
740000,-0.008568,18.931990,-0.008892,-0.038991,25.396521,0.062626,-0.000526,0.011330,1.570463,-0.028796,0.000935,0.001648,-0.000086,-0.002474,0.000016,0.004132,0.008841,0.156618,-0.031245,0.185766,0.185768,0.172004,0.741066,0.000000,0.000000,0.000000,0.000000,0.000000,0.000000,0.000000,0.000000,0.000000,0.000000,0.000000,0.000000,0.152011,3,0
750000,-0.008686,19.189585,-0.008671,-0.039106,25.403969,0.063007,-0.000517,0.011618,1.570451,-0.029406,0.000982,0.001727,-0.000091,-0.002547,0.000017,0.002237,0.008964,0.116461,-0.014515,0.186376,0.186378,0.172155,0.733167,0.000000,0.000000,0.000000,0.000000,0.000000,0.000000,0.000000,0.000000,0.000000,0.000000,0.000000,0.000000,0.113176,3,0
760000,-0.008801,19.446671,-0.009450,-0.039325,25.410555,0.062013,-0.000515,0.011852,1.570446,-0.029923,0.001030,0.002003,-0.000097,-0.002611,0.000017,0.001939,0.009084,0.097338,-0.049463,0.186981,0.186984,0.172299,0.725284,0.000000,0.000000,0.000000,0.000000,0.000000,0.000000,0.000000,0.000000,0.000000,0.000000,0.000000,0.000000,0.094715,3,0
770000,-0.008915,19.706982,-0.009849,-0.039585,25.422745,0.061335,-0.000507,0.012329,1.570428,-0.030987,0.001079,0.002204,-0.000103,-0.002744,0.000018,0.006551,0.009202,0.198006,-0.035768,0.187581,0.187583,0.172436,0.717424,0.000000,0.000000,0.000000,0.000000,0.000000,0.000000,0.000000,0.000000,0.000000,0.000000,0.000000,0.000000,0.192022,3,0
780000,-0.009026,19.966747,-0.009014,-0.039743,25.433794,0.062862,-0.000499,0.012753,1.570423,-0.031944,0.001130,0.002160,-0.000109,-0.002866,0.000019,0.005030,0.009318,0.176119,0.007306,0.188172,0.188175,0.172563,0.709592,0.000000,0.000000,0.000000,0.000000,0.000000,0.000000,0.000000,0.000000,0.000000,0.000000,0.000000,0.000000,0.170834,3,0
790000,-0.009133,20.224716,-0.007898,-0.039896,25.441477,0.064787,-0.000496,0.013052,1.570409,-0.032577,0.001182,0.002063,-0.000116,-0.002948,0.000019,0.002194,0.009430,0.115032,0.016506,0.188756,0.188758,0.172680,0.701794,0.000000,0.000000,0.000000,0.000000,0.000000,0.000000,0.000000,0.000000,0.000000,0.000000,0.000000,0.000000,0.111788,3,0
800000,-0.009239,20.484041,-0.008977,-0.040059,25.451454,0.063082,-0.000493,0.013453,1.570403,-0.033440,0.001235,0.002418,-0.000123,-0.003061,0.000020,0.004489,0.009539,0.155170,-0.060275,0.189330,0.189333,0.172787,0.694036,0.000000,0.000000,0.000000,0.000000,0.000000,0.000000,0.000000,0.000000,0.000000,0.000000,0.000000,0.000000,0.150558,3,0
810000,-0.009341,20.746595,-0.010089,-0.040115,25.467014,0.061649,-0.000492,0.014097,1.570387,-0.034866,0.001289,0.002781,-0.000130,-0.003251,0.000021,0.010992,0.009645,0.253567,-0.060908,0.189894,0.189897,0.172882,0.686324,0.000000,0.000000,0.000000,0.000000,0.000000,0.000000,0.000000,0.000000,0.000000,0.000000,0.000000,0.000000,0.245718,3,0
820000,-0.009438,21.005409,-0.008907,-0.040154,25.475817,0.063657,-0.000474,0.014445,1.570387,-0.035604,0.001344,0.002662,-0.000137,-0.003352,0.000022,0.002803,0.009748,0.130007,0.019201,0.190447,0.190450,0.172965,0.678663,0.000000,0.000000,0.000000,0.000000,0.000000,0.000000,0.000000,0.000000,0.000000,0.000000,0.000000,0.000000,0.126233,3,0
830000,-0.009534,21.267469,-0.009657,-0.040250,25.490150,0.062734,-0.000468,0.015061,1.570378,-0.036916,0.001400,0.002958,-0.000145,-0.003533,0.000023,0.008853,0.009846,0.228928,-0.048470,0.190989,0.190991,0.173035,0.671057,0.000000,0.000000,0.000000,0.000000,0.000000,0.000000,0.000000,0.000000,0.000000,0.000000,0.000000,0.000000,0.221845,3,0
840000,-0.009626,21.528938,-0.008896,-0.040441,25.503359,0.063937,-0.000457,0.015621,1.570374,-0.038104,0.001458,0.002929,-0.000153,-0.003699,0.000024,0.006817,0.009944,0.205269,0.004313,0.191518,0.191521,0.173092,0.663513,0.000000,0.000000,0.000000,0.000000,0.000000,0.000000,0.000000,0.000000,0.000000,0.000000,0.000000,0.000000,0.198950,3,0
850000,-0.009716,21.789822,-0.007922,-0.040550,25.515440,0.065375,-0.000432,0.016130,1.570369,-0.039167,0.001516,0.002855,-0.000161,-0.003851,0.000025,0.005393,0.010038,0.182213,0.011256,0.192036,0.192038,0.173136,0.656034,0.000000,0.000000,0.000000,0.000000,0.000000,0.000000,0.000000,0.000000,0.000000,0.000000,0.000000,0.000000,0.176648,3,0
860000,-0.009804,22.048845,-0.008778,-0.040610,25.524113,0.064282,-0.000414,0.016494,1.570357,-0.039874,0.001576,0.003190,-0.000170,-0.003953,0.000026,0.002789,0.010128,0.119997,-0.052694,0.192540,0.192542,0.173166,0.648623,0.000000,0.000000,0.000000,0.000000,0.000000,0.000000,0.000000,0.000000,0.000000,0.000000,0.000000,0.000000,0.116559,3,0
870000,-0.009889,22.311779,-0.008060,-0.040780,25.539474,0.065332,-0.000406,0.017170,1.570336,-0.041289,0.001637,0.003171,-0.000179,-0.004161,0.000027,0.009200,0.010218,0.238586,0.002310,0.193031,0.193033,0.173182,0.641287,0.000000,0.000000,0.000000,0.000000,0.000000,0.000000,0.000000,0.000000,0.000000,0.000000,0.000000,0.000000,0.231123,3,0
880000,-0.009970,22.569609,-0.007037,-0.040824,25.545694,0.066821,-0.000382,0.017428,1.570336,-0.041737,0.001698,0.003088,-0.000188,-0.004228,0.000028,0.000947,0.010303,0.074892,0.012459,0.193508,0.193511,0.173184,0.634026,0.000000,0.000000,0.000000,0.000000,0.000000,0.000000,0.000000,0.000000,0.000000,0.000000,0.000000,0.000000,0.073160,3,0
890000,-0.010051,22.828165,-0.006815,-0.040968,25.553072,0.067316,-0.000366,0.017737,1.570338,-0.042311,0.001761,0.003192,-0.000197,-0.004315,0.000028,0.001523,0.010386,0.095306,-0.015835,0.193972,0.193975,0.173171,0.626847,0.000000,0.000000,0.000000,0.000000,0.000000,0.000000,0.000000,0.000000,0.000000,0.000000,0.000000,0.000000,0.092772,3,0
900000,-0.010127,23.088085,-0.005646,-0.040973,25.562834,0.069203,-0.000343,0.018168,1.570332,-0.043129,0.001824,0.003077,-0.000207,-0.004442,0.000029,0.002996,0.010466,0.134859,0.016799,0.194423,0.194425,0.173145,0.619751,0.000000,0.000000,0.000000,0.000000,0.000000,0.000000,0.000000,0.000000,0.000000,0.000000,0.000000,0.000000,0.130882,3,0
910000,-0.010201,23.350645,-0.005592,-0.041021,25.577084,0.069130,-0.000333,0.018819,1.570310,-0.044429,0.001888,0.003224,-0.000217,-0.004645,0.000031,0.007400,0.010543,0.212782,-0.022375,0.194860,0.194863,0.173104,0.612741,0.000000,0.000000,0.000000,0.000000,0.000000,0.000000,0.000000,0.000000,0.000000,0.000000,0.000000,0.000000,0.206124,3,0
920000,-0.010272,23.610636,-0.005745,-0.040990,25.586647,0.068851,-0.000312,0.019240,1.570300,-0.045222,0.001953,0.003423,-0.000227,-0.004771,0.000031,0.002843,0.010617,0.128988,-0.029582,0.195283,0.195286,0.173049,0.605821,0.000000,0.000000,0.000000,0.000000,0.000000,0.000000,0.000000,0.000000,0.000000,0.000000,0.000000,0.000000,0.125212,3,0
930000,-0.010343,23.871975,-0.006911,-0.041122,25.598423,0.066990,-0.000290,0.019775,1.570280,-0.046256,0.002020,0.003865,-0.000237,-0.004939,0.000033,0.005195,0.010690,0.167088,-0.064573,0.195694,0.195696,0.172980,0.598992,0.000000,0.000000,0.000000,0.000000,0.000000,0.000000,0.000000,0.000000,0.000000,0.000000,0.000000,0.000000,0.161967,3,0
940000,-0.010410,24.131395,-0.008178,-0.041139,25.606625,0.064993,-0.000268,0.020143,1.570278,-0.046907,0.002087,0.004333,-0.000248,-0.005046,0.000033,0.002513,0.010760,0.104418,-0.067467,0.196090,0.196093,0.172897,0.592256,0.000000,0.000000,0.000000,0.000000,0.000000,0.000000,0.000000,0.000000,0.000000,0.000000,0.000000,0.000000,0.101539,3,0
950000,-0.010475,24.392172,-0.007596,-0.041248,25.617197,0.066002,-0.000241,0.020624,1.570277,-0.047801,0.002154,0.004349,-0.000259,-0.005195,0.000034,0.003321,0.010829,0.143097,-0.002719,0.196474,0.196476,0.172800,0.585617,0.000000,0.000000,0.000000,0.000000,0.000000,0.000000,0.000000,0.000000,0.000000,0.000000,0.000000,0.000000,0.138806,3,0
960000,-0.010535,24.651676,-0.006678,-0.041178,25.625381,0.067491,-0.000215,0.020995,1.570266,-0.048435,0.002223,0.004285,-0.000271,-0.005302,0.000035,0.001672,0.010893,0.100883,0.008618,0.196845,0.196847,0.172690,0.579075,0.000000,0.000000,0.000000,0.000000,0.000000,0.000000,0.000000,0.000000,0.000000,0.000000,0.000000,0.000000,0.098141,3,0
970000,-0.010593,24.909924,-0.005314,-0.041185,25.631210,0.069628,-0.000192,0.021244,1.570270,-0.048813,0.002292,0.004115,-0.000283,-0.005367,0.000035,0.000689,0.010953,0.059967,0.023558,0.197203,0.197205,0.172567,0.572632,0.000000,0.000000,0.000000,0.000000,0.000000,0.000000,0.000000,0.000000,0.000000,0.000000,0.000000,0.000000,0.058956,3,0
980000,-0.010649,25.170855,-0.005945,-0.041116,25.641619,0.068548,-0.000178,0.021745,1.570265,-0.049699,0.002361,0.004447,-0.000295,-0.005521,0.000036,0.003510,0.011010,0.139605,-0.046412,0.197549,0.197551,0.172431,0.566290,0.000000,0.000000,0.000000,0.000000,0.000000,0.000000,0.000000,0.000000,0.000000,0.000000,0.000000,0.000000,0.135427,3,0
990000,-0.010702,25.432470,-0.005416,-0.041137,25.653240,0.069463,-0.000150,0.022313,1.570262,-0.050698,0.002432,0.004485,-0.000307,-0.005698,0.000038,0.003991,0.011067,0.156870,-0.005775,0.197883,0.197885,0.172282,0.560050,0.000000,0.000000,0.000000,0.000000,0.000000,0.000000,0.000000,0.000000,0.000000,0.000000,0.000000,0.000000,0.152072,3,0
1000000,-0.010753,25.695414,-0.005006,-0.041184,25.667109,0.069941,-0.000134,0.022997,1.570259,-0.051934,0.002503,0.004554,-0.000320,-0.005921,0.000039,0.006060,0.011120,0.193321,-0.010142,0.198205,0.198207,0.172120,0.553912,0.000000,0.000000,0.000000,0.000000,0.000000,0.000000,0.000000,0.000000,0.000000,0.000000,0.000000,0.000000,0.187244,3,0
1010000,-0.010800,25.955721,-0.003829,-0.041059,25.675978,0.071523,-0.000100,0.023410,1.570247,-0.052634,0.002574,0.004429,-0.000333,-0.006048,0.000040,0.001983,0.011170,0.109148,0.016376,0.198516,0.198518,0.171947,0.547878,0.000000,0.000000,0.000000,0.000000,0.000000,0.000000,0.000000,0.000000,0.000000,0.000000,0.000000,0.000000,0.106089,3,0
1020000,-0.010845,26.219353,-0.002729,-0.041072,25.690741,0.072852,-0.000074,0.024149,1.570233,-0.053963,0.002646,0.004322,-0.000346,-0.006295,0.000042,0.006925,0.011218,0.206573,0.013300,0.198817,0.198819,0.171762,0.541948,0.000000,0.000000,0.000000,0.000000,0.000000,0.000000,0.000000,0.000000,0.000000,0.000000,0.000000,0.000000,0.200022,3,0
1030000,-0.010888,26.481646,-0.001918,-0.041025,25.702894,0.073901,-0.000036,0.024767,1.570220,-0.055006,0.002719,0.004297,-0.000360,-0.006491,0.000043,0.004222,0.011262,0.161461,0.002624,0.199107,0.199108,0.171565,0.536123,0.000000,0.000000,0.000000,0.000000,0.000000,0.000000,0.000000,0.000000,0.000000,0.000000,0.000000,0.000000,0.156482,3,0
1040000,-0.010930,26.740635,-0.002966,-0.040887,25.709183,0.072540,-0.000004,0.025043,1.570216,-0.055384,0.002792,0.004774,-0.000374,-0.006563,0.000043,0.001205,0.011304,0.058075,-0.062936,0.199387,0.199388,0.171358,0.530403,0.000000,0.000000,0.000000,0.000000,0.000000,0.000000,0.000000,0.000000,0.000000,0.000000,0.000000,0.000000,0.057197,3,0
1050000,-0.010969,26.999668,-0.003093,-0.040838,25.715298,0.072416,0.000031,0.025312,1.570207,-0.055758,0.002866,0.005004,-0.000388,-0.006636,0.000044,0.000700,0.011345,0.057451,-0.030209,0.199657,0.199658,0.171140,0.524789,0.000000,0.000000,0.000000,0.000000,0.000000,0.000000,0.000000,0.000000,0.000000,0.000000,0.000000,0.000000,0.056611,3,0
1060000,-0.011003,27.260065,-0.002107,-0.040708,25.723761,0.073626,0.000068,0.025717,1.570199,-0.056386,0.002940,0.004931,-0.000402,-0.006759,0.000045,0.001535,0.011383,0.096540,0.008936,0.199918,0.199919,0.170912,0.519279,0.000000,0.000000,0.000000,0.000000,0.000000,0.000000,0.000000,0.000000,0.000000,0.000000,0.000000,0.000000,0.093971,3,0
1070000,-0.011036,27.522474,-0.001488,-0.040720,25.735716,0.074534,0.000101,0.026341,1.570184,-0.057391,0.003014,0.004959,-0.000417,-0.006960,0.000046,0.003851,0.011417,0.154119,-0.004372,0.200171,0.200172,0.170674,0.513875,0.000000,0.000000,0.000000,0.000000,0.000000,0.000000,0.000000,0.000000,0.000000,0.000000,0.000000,0.000000,0.149385,3,0
1080000,-0.011067,27.782215,-0.000859,-0.040675,25.742746,0.075473,0.000135,0.026663,1.570189,-0.057852,0.003089,0.004991,-0.000432,-0.007054,0.000047,0.000825,0.011450,0.070501,-0.004434,0.200415,0.200416,0.170427,0.508576,0.000000,0.000000,0.000000,0.000000,0.000000,0.000000,0.000000,0.000000,0.000000,0.000000,0.000000,0.000000,0.069039,3,0
1090000,-0.011097,28.044643,-0.000295,-0.040685,25.754475,0.076012,0.000176,0.027274,1.570184,-0.058826,0.003164,0.005039,-0.000447,-0.007254,0.000048,0.003588,0.011481,0.148630,-0.006857,0.200652,0.200652,0.170171,0.503382,0.000000,0.000000,0.000000,0.000000,0.000000,0.000000,0.000000,0.000000,0.000000,0.000000,0.000000,0.000000,0.144088,3,0
1100000,-0.011126,28.303730,0.000335,-0.040685,25.760235,0.076640,0.000210,0.027516,1.570185,-0.059121,0.003240,0.005076,-0.000463,-0.007316,0.000049,0.000353,0.011511,0.045115,-0.004873,0.200881,0.200881,0.169906,0.498293,0.000000,0.000000,0.000000,0.000000,0.000000,0.000000,0.000000,0.000000,0.000000,0.000000,0.000000,0.000000,0.045001,3,0
1110000,-0.011152,28.566851,0.000471,-0.040597,25.773056,0.076696,0.000251,0.028206,1.570177,-0.060197,0.003315,0.005249,-0.000479,-0.007543,0.000050,0.004418,0.011538,0.163671,-0.022446,0.201103,0.201103,0.169633,0.493307,0.000000,0.000000,0.000000,0.000000,0.000000,0.000000,0.000000,0.000000,0.000000,0.000000,0.000000,0.000000,0.158577,3,0
1120000,-0.011178,28.827278,-0.000316,-0.040491,25.780920,0.075471,0.000290,0.028584,1.570168,-0.060720,0.003392,0.005692,-0.000495,-0.007656,0.000051,0.001530,0.011564,0.079330,-0.055266,0.201319,0.201319,0.169353,0.488425,0.000000,0.000000,0.000000,0.000000,0.000000,0.000000,0.000000,0.000000,0.000000,0.000000,0.000000,0.000000,0.077476,3,0
1130000,-0.011201,29.087048,-0.000794,-0.040335,25.787542,0.074893,0.000320,0.028888,1.570157,-0.061099,0.003468,0.006048,-0.000511,-0.007739,0.000051,0.000867,0.011588,0.057373,-0.044094,0.201529,0.201529,0.169065,0.483646,0.000000,0.000000,0.000000,0.000000,0.000000,0.000000,0.000000,0.000000,0.000000,0.000000,0.000000,0.000000,0.056565,3,0
1140000,-0.011218,29.349510,0.000624,-0.040142,25.798779,0.076720,0.000358,0.029484,1.570141,-0.061989,0.003544,0.005847,-0.000528,-0.007936,0.000053,0.003069,0.011609,0.135479,0.023640,0.201733,0.201733,0.168770,0.478968,0.000000,0.000000,0.000000,0.000000,0.000000,0.000000,0.000000,0.000000,0.000000,0.000000,0.000000,0.000000,0.131404,3,0
1150000,-0.011234,29.607937,0.001480,-0.040075,25.802734,0.077605,0.000405,0.029612,1.570150,-0.062069,0.003620,0.005823,-0.000545,-0.007954,0.000053,0.000047,0.011625,0.012054,0.002887,0.201933,0.201932,0.168468,0.474391,0.000000,0.000000,0.000000,0.000000,0.000000,0.000000,0.000000,0.000000,0.000000,0.000000,0.000000,0.000000,0.016183,3,0
1160000,-0.011251,29.869083,0.000928,-0.040003,25.811531,0.076727,0.000432,0.030061,1.570140,-0.062673,0.003697,0.006213,-0.000562,-0.008092,0.000054,0.001738,0.011641,0.091530,-0.047579,0.202127,0.202126,0.168161,0.469915,0.000000,0.000000,0.000000,0.000000,0.000000,0.000000,0.000000,0.000000,0.000000,0.000000,0.000000,0.000000,0.089156,3,0
1170000,-0.011264,30.130898,0.000576,-0.039786,25.821451,0.076073,0.000463,0.030572,1.570124,-0.063390,0.003774,0.006543,-0.000579,-0.008258,0.000055,0.002182,0.011655,0.108597,-0.040148,0.202317,0.202316,0.167848,0.465538,0.000000,0.000000,0.000000,0.000000,0.000000,0.000000,0.000000,0.000000,0.000000,0.000000,0.000000,0.000000,0.105536,3,0
1180000,-0.011277,30.394039,-0.000645,-0.039715,25.833652,0.074415,0.000491,0.031246,1.570113,-0.064347,0.003852,0.007133,-0.000597,-0.008483,0.000057,0.004221,0.011668,0.144871,-0.071116,0.202504,0.202502,0.167529,0.461260,0.000000,0.000000,0.000000,0.000000,0.000000,0.000000,0.000000,0.000000,0.000000,0.000000,0.000000,0.000000,0.140432,3,0
1190000,-0.011286,30.655128,-0.001043,-0.039554,25.841972,0.073790,0.000529,0.031660,1.570099,-0.064877,0.003929,0.007477,-0.000615,-0.008610,0.000057,0.001337,0.011679,0.080395,-0.041177,0.202686,0.202684,0.167205,0.457078,0.000000,0.000000,0.000000,0.000000,0.000000,0.000000,0.000000,0.000000,0.000000,0.000000,0.000000,0.000000,0.078492,3,0
1200000,-0.011292,30.916882,-0.000283,-0.039351,25.851337,0.074587,0.000565,0.032146,1.570098,-0.065518,0.004005,0.007464,-0.000633,-0.008765,0.000059,0.001554,0.011687,0.097527,0.000702,0.202866,0.202864,0.166877,0.452992,0.000000,0.000000,0.000000,0.000000,0.000000,0.000000,0.000000,0.000000,0.000000,0.000000,0.000000,0.000000,0.094903,3,0
1210000,-0.011295,31.175924,0.000350,-0.039166,25.855820,0.075278,0.000616,0.032295,1.570101,-0.065614,0.004082,0.007501,-0.000652,-0.008788,0.000059,0.000059,0.011690,0.014589,-0.004379,0.203043,0.203040,0.166545,0.449001,0.000000,0.000000,0.000000,0.000000,0.000000,0.000000,0.000000,0.000000,0.000000,0.000000,0.000000,0.000000,0.018062,3,0
1220000,-0.011296,31.435663,0.001224,-0.039014,25.861414,0.076236,0.000666,0.032521,1.570103,-0.065836,0.004159,0.007463,-0.000671,-0.008843,0.000059,0.000209,0.011692,0.033808,0.004139,0.203218,0.203214,0.166208,0.445103,0.000000,0.000000,0.000000,0.000000,0.000000,0.000000,0.000000,0.000000,0.000000,0.000000,0.000000,0.000000,0.034561,3,0
1230000,-0.011298,31.694071,0.000392,-0.038915,25.864740,0.075245,0.000705,0.032584,1.570111,-0.065791,0.004236,0.007969,-0.000690,-0.008833,0.000059,0.000578,0.011692,-0.007324,-0.058093,0.203390,0.203386,0.165868,0.441299,0.000000,0.000000,0.000000,0.000000,0.000000,0.000000,0.000000,0.000000,0.000000,0.000000,0.000000,0.000000,0.013333,3,0
1240000,-0.011296,31.955879,0.000839,-0.038732,25.873983,0.075818,0.000740,0.033072,1.570114,-0.066394,0.004312,0.008060,-0.000709,-0.008987,0.000060,0.001407,0.011692,0.092056,-0.011255,0.203561,0.203556,0.165525,0.437584,0.000000,0.000000,0.000000,0.000000,0.000000,0.000000,0.000000,0.000000,0.000000,0.000000,0.000000,0.000000,0.089647,3,0
1250000,-0.011291,32.215637,0.002004,-0.038537,25.879425,0.077217,0.000785,0.033295,1.570103,-0.066582,0.004389,0.007931,-0.000729,-0.009036,0.000061,0.000191,0.011689,0.028946,0.014502,0.203730,0.203725,0.165179,0.433960,0.000000,0.000000,0.000000,0.000000,0.000000,0.000000,0.000000,0.000000,0.000000,0.000000,0.000000,0.000000,0.030159,3,0
1260000,-0.011286,32.478111,0.001475,-0.038320,25.889702,0.076566,0.000823,0.033853,1.570087,-0.067283,0.004465,0.008342,-0.000749,-0.009221,0.000062,0.002233,0.011681,0.107075,-0.047468,0.203899,0.203893,0.164830,0.430424,0.000000,0.000000,0.000000,0.000000,0.000000,0.000000,0.000000,0.000000,0.000000,0.000000,0.000000,0.000000,0.104046,3,0
1270000,-0.011280,32.739201,0.001135,-0.038212,25.897436,0.076122,0.000863,0.034224,1.570084,-0.067696,0.004542,0.008698,-0.000768,-0.009332,0.000063,0.000931,0.011675,0.063164,-0.040575,0.204066,0.204060,0.164479,0.426975,0.000000,0.000000,0.000000,0.000000,0.000000,0.000000,0.000000,0.000000,0.000000,0.000000,0.000000,0.000000,0.062046,3,0
1280000,-0.011271,33.001625,0.001395,-0.038044,25.907406,0.076190,0.000909,0.034759,1.570071,-0.068347,0.004617,0.008854,-0.000789,-0.009509,0.000064,0.001692,0.011668,0.100182,-0.018308,0.204233,0.204227,0.164127,0.423612,0.000000,0.000000,0.000000,0.000000,0.000000,0.000000,0.000000,0.000000,0.000000,0.000000,0.000000,0.000000,0.097425,3,0
1290000,-0.011260,33.263332,0.002302,-0.037900,25.915897,0.077426,0.000950,0.035194,1.570071,-0.068840,0.004693,0.008801,-0.000809,-0.009644,0.000065,0.000961,0.011657,0.076206,0.005123,0.204400,0.204393,0.163772,0.420332,0.000000,0.000000,0.000000,0.000000,0.000000,0.000000,0.000000,0.000000,0.000000,0.000000,0.000000,0.000000,0.074468,3,0
1300000,-0.011248,33.526371,0.002862,-0.037758,25.926722,0.077876,0.001005,0.035803,1.570067,-0.069568,0.004768,0.008862,-0.000830,-0.009848,0.000066,0.002073,0.011645,0.112598,-0.007827,0.204567,0.204559,0.163416,0.417136,0.000000,0.000000,0.000000,0.000000,0.000000,0.000000,0.000000,0.000000,0.000000,0.000000,0.000000,0.000000,0.109337,3,0
1310000,-0.011237,33.787331,0.001973,-0.037610,25.933752,0.076481,0.001042,0.036127,1.570058,-0.069882,0.004843,0.009418,-0.000851,-0.009938,0.000067,0.001010,0.011631,0.048237,-0.061517,0.204733,0.204725,0.163059,0.414021,0.000000,0.000000,0.000000,0.000000,0.000000,0.000000,0.000000,0.000000,0.000000,0.000000,0.000000,0.000000,0.047921,3,0
1320000,-0.011222,34.049625,0.002721,-0.037478,25.943117,0.077334,0.001087,0.036634,1.570043,-0.070430,0.004918,0.009416,-0.000872,-0.010095,0.000068,0.001196,0.011619,0.085388,-0.000705,0.204901,0.204891,0.162702,0.410986,0.000000,0.000000,0.000000,0.000000,0.000000,0.000000,0.000000,0.000000,0.000000,0.000000,0.000000,0.000000,0.083234,3,0
1330000,-0.011208,34.307808,0.002368,-0.037333,25.944921,0.076792,0.001132,0.036579,1.570047,-0.070191,0.004993,0.009807,-0.000893,-0.010026,0.000068,0.000539,0.011602,-0.037846,-0.042073,0.205068,0.205058,0.162344,0.408030,0.000000,0.000000,0.000000,0.000000,0.000000,0.000000,0.000000,0.000000,0.000000,0.000000,0.000000,0.000000,0.038236,3,0
1340000,-0.011191,34.567375,0.002364,-0.037151,25.949183,0.076555,0.001186,0.036697,1.570055,-0.070206,0.005067,0.010074,-0.000915,-0.010031,0.000068,0.000158,0.011586,0.002136,-0.028891,0.205237,0.205226,0.161985,0.405150,0.000000,0.000000,0.000000,0.000000,0.000000,0.000000,0.000000,0.000000,0.000000,0.000000,0.000000,0.000000,0.011379,3,0
1350000,-0.011171,34.828983,0.002888,-0.036830,25.957045,0.077028,0.001227,0.037080,1.570042,-0.070592,0.005141,0.010152,-0.000937,-0.010147,0.000069,0.000626,0.011567,0.060589,-0.009048,0.205406,0.205395,0.161626,0.402345,0.000000,0.000000,0.000000,0.000000,0.000000,0.000000,0.000000,0.000000,0.000000,0.000000,0.000000,0.000000,0.059570,3,0
1360000,-0.011151,35.088524,0.002353,-0.036597,25.961071,0.076311,0.001282,0.037189,1.570051,-0.070580,0.005215,0.010610,-0.000958,-0.010144,0.000069,0.000411,0.011544,-0.002308,-0.048952,0.205576,0.205564,0.161268,0.399615,0.000000,0.000000,0.000000,0.000000,0.000000,0.000000,0.000000,0.000000,0.000000,0.000000,0.000000,0.000000,0.011373,3,0
1370000,-0.011129,35.347382,0.001405,-0.036350,25.963774,0.075134,0.001330,0.037193,1.570049,-0.070437,0.005288,0.011217,-0.000980,-0.010101,0.000068,0.000779,0.011521,-0.023338,-0.064279,0.205748,0.205735,0.160910,0.396957,0.000000,0.000000,0.000000,0.000000,0.000000,0.000000,0.000000,0.000000,0.000000,0.000000,0.000000,0.000000,0.025142,3,0
1380000,-0.011107,35.606251,0.000555,-0.036187,25.966429,0.073882,0.001390,0.037181,1.570046,-0.070292,0.005362,0.011788,-0.001002,-0.010057,0.000068,0.000701,0.011498,-0.023800,-0.060224,0.205921,0.205907,0.160553,0.394369,0.000000,0.000000,0.000000,0.000000,0.000000,0.000000,0.000000,0.000000,0.000000,0.000000,0.000000,0.000000,0.025533,3,0
1390000,-0.011082,35.865128,-0.000248,-0.035919,25.969143,0.072849,0.001448,0.037182,1.570045,-0.070144,0.005435,0.012344,-0.001024,-0.010011,0.000068,0.000666,0.011473,-0.024269,-0.058234,0.206095,0.206080,0.160196,0.391852,0.000000,0.000000,0.000000,0.000000,0.000000,0.000000,0.000000,0.000000,0.000000,0.000000,0.000000,0.000000,0.025929,3,0
1400000,-0.011051,36.126060,0.001141,-0.035653,25.975519,0.074422,0.001508,0.037449,1.570041,-0.070359,0.005505,0.012105,-0.001047,-0.010080,0.000069,0.000316,0.011445,0.034885,0.024655,0.206271,0.206255,0.159841,0.389403,0.000000,0.000000,0.000000,0.000000,0.000000,0.000000,0.000000,0.000000,0.000000,0.000000,0.000000,0.000000,0.035454,3,0
1410000,-0.011019,36.386967,0.001959,-0.035364,25.981798,0.075175,0.001558,0.037707,1.570036,-0.070559,0.005576,0.012076,-0.001070,-0.010145,0.000069,0.000190,0.011411,0.032318,0.002656,0.206448,0.206432,0.159487,0.387021,0.000000,0.000000,0.000000,0.000000,0.000000,0.000000,0.000000,0.000000,0.000000,0.000000,0.000000,0.000000,0.033096,3,0
1420000,-0.010989,36.647179,0.000745,-0.035163,25.986626,0.073735,0.001612,0.037864,1.570041,-0.070625,0.005647,0.012793,-0.001093,-0.010169,0.000069,0.000937,0.011377,0.009895,-0.074483,0.206627,0.206610,0.159134,0.384703,0.000000,0.000000,0.000000,0.000000,0.000000,0.000000,0.000000,0.000000,0.000000,0.000000,0.000000,0.000000,0.014555,3,0
1430000,-0.010954,36.908051,0.001125,-0.034866,25.992523,0.074153,0.001675,0.038113,1.570043,-0.070797,0.005717,0.012922,-0.001116,-0.010227,0.000070,0.000177,0.011345,0.027939,-0.013701,0.206808,0.206789,0.158783,0.382449,0.000000,0.000000,0.000000,0.000000,0.000000,0.000000,0.000000,0.000000,0.000000,0.000000,0.000000,0.000000,0.029113,3,0
1440000,-0.010916,37.168892,0.002370,-0.034553,25.998280,0.075531,0.001733,0.038350,1.570040,-0.070951,0.005786,0.012735,-0.001140,-0.010279,0.000070,0.000183,0.011307,0.025436,0.018886,0.206990,0.206971,0.158433,0.380257,0.000000,0.000000,0.000000,0.000000,0.000000,0.000000,0.000000,0.000000,0.000000,0.000000,0.000000,0.000000,0.026879,3,0
1450000,-0.010877,37.431770,0.002845,-0.034290,26.007660,0.076151,0.001794,0.038874,1.570033,-0.071452,0.005854,0.012828,-0.001163,-0.010453,0.000072,0.001137,0.011266,0.082600,-0.010633,0.207174,0.207154,0.158086,0.378127,0.000000,0.000000,0.000000,0.000000,0.000000,0.000000,0.000000,0.000000,0.000000,0.000000,0.000000,0.000000,0.080485,3,0
1460000,-0.010840,37.692539,0.001700,-0.033960,26.013149,0.074833,0.001845,0.039087,1.570032,-0.071568,0.005923,0.013542,-0.001186,-0.010496,0.000072,0.000936,0.011224,0.018414,-0.072839,0.207360,0.207339,0.157740,0.376056,0.000000,0.000000,0.000000,0.000000,0.000000,0.000000,0.000000,0.000000,0.000000,0.000000,0.000000,0.000000,0.020811,3,0
1470000,-0.010800,37.951904,0.001117,-0.033755,26.016138,0.074178,0.001901,0.039082,1.570035,-0.071429,0.005991,0.014051,-0.001209,-0.010448,0.000072,0.000537,0.011184,-0.023743,-0.051264,0.207548,0.207526,0.157397,0.374045,0.000000,0.000000,0.000000,0.000000,0.000000,0.000000,0.000000,0.000000,0.000000,0.000000,0.000000,0.000000,0.025346,3,0
1480000,-0.010759,38.211262,0.000518,-0.033485,26.018984,0.073225,0.001954,0.039075,1.570040,-0.071286,0.006059,0.014567,-0.001233,-0.010397,0.000071,0.000551,0.011142,-0.024712,-0.051653,0.207738,0.207714,0.157056,0.372090,0.000000,0.000000,0.000000,0.000000,0.000000,0.000000,0.000000,0.000000,0.000000,0.000000,0.000000,0.000000,0.026178,3,0
1490000,-0.010715,38.470612,0.000543,-0.033232,26.021769,0.073239,0.002011,0.039050,1.570039,-0.071136,0.006125,0.014846,-0.001256,-0.010343,0.000071,0.000249,0.011098,-0.025673,-0.027565,0.207929,0.207905,0.156718,0.370191,0.000000,0.000000,0.000000,0.000000,0.000000,0.000000,0.000000,0.000000,0.000000,0.000000,0.000000,0.000000,0.027005,3,0
1500000,-0.010671,38.734093,0.000085,-0.032965,26.032026,0.072729,0.002069,0.039651,1.570024,-0.071683,0.006191,0.015288,-0.001280,-0.010548,0.000073,0.001737,0.011052,0.092651,-0.045520,0.208123,0.208097,0.156382,0.368345,0.000000,0.000000,0.000000,0.000000,0.000000,0.000000,0.000000,0.000000,0.000000,0.000000,0.000000,0.000000,0.090066,3,0
1510000,-0.010620,38.994732,0.001337,-0.032576,26.037022,0.074318,0.002129,0.039811,1.570029,-0.071728,0.006255,0.015087,-0.001305,-0.010565,0.000073,0.000094,0.011003,0.007977,0.019850,0.208318,0.208291,0.156049,0.366553,0.000000,0.000000,0.000000,0.000000,0.000000,0.000000,0.000000,0.000000,0.000000,0.000000,0.000000,0.000000,0.013119,3,0
1520000,-0.010568,39.255341,0.002611,-0.032243,26.041733,0.075670,0.002191,0.039950,1.570032,-0.071760,0.006317,0.014883,-0.001329,-0.010576,0.000073,0.000091,0.010950,0.005714,0.020164,0.208514,0.208486,0.155719,0.364811,0.000000,0.000000,0.000000,0.000000,0.000000,0.000000,0.000000,0.000000,0.000000,0.000000,0.000000,0.000000,0.011923,3,0
1530000,-0.010519,39.515934,0.001935,-0.031994,26.046490,0.074561,0.002241,0.040087,1.570034,-0.071783,0.006381,0.015446,-0.001353,-0.010587,0.000073,0.000522,0.010895,0.003479,-0.055553,0.208712,0.208683,0.155392,0.363121,0.000000,0.000000,0.000000,0.000000,0.000000,0.000000,0.000000,0.000000,0.000000,0.000000,0.000000,0.000000,0.011039,3,0
1540000,-0.010464,39.778561,0.002951,-0.031660,26.054766,0.075563,0.002311,0.040528,1.570028,-0.072130,0.006443,0.015329,-0.001377,-0.010725,0.000074,0.000634,0.010843,0.060905,0.010583,0.208912,0.208881,0.155068,0.361478,0.000000,0.000000,0.000000,0.000000,0.000000,0.000000,0.000000,0.000000,0.000000,0.000000,0.000000,0.000000,0.059712,3,0
1550000,-0.010408,40.039738,0.004149,-0.031397,26.060314,0.076718,0.002368,0.040740,1.570030,-0.072224,0.006503,0.015152,-0.001402,-0.010762,0.000075,0.000111,0.010785,0.016861,0.017019,0.209113,0.209081,0.154747,0.359884,0.000000,0.000000,0.000000,0.000000,0.000000,0.000000,0.000000,0.000000,0.000000,0.000000,0.000000,0.000000,0.019321,3,0
1560000,-0.010353,40.297413,0.004517,-0.031139,26.059364,0.076998,0.002426,0.040386,1.570025,-0.071747,0.006564,0.015336,-0.001427,-0.010567,0.000074,0.001234,0.010727,-0.085335,-0.016437,0.209315,0.209282,0.154430,0.358336,0.000000,0.000000,0.000000,0.000000,0.000000,0.000000,0.000000,0.000000,0.000000,0.000000,0.000000,0.000000,0.083011,3,0
1570000,-0.010295,40.559956,0.005613,-0.030839,26.067263,0.077952,0.002486,0.040798,1.570018,-0.072049,0.006623,0.015194,-0.001452,-0.010693,0.000075,0.000524,0.010669,0.054573,0.012847,0.209518,0.209484,0.154116,0.356832,0.000000,0.000000,0.000000,0.000000,0.000000,0.000000,0.000000,0.000000,0.000000,0.000000,0.000000,0.000000,0.053666,3,0
1580000,-0.010238,40.818966,0.005957,-0.030574,26.068634,0.078309,0.002548,0.040644,1.570015,-0.071780,0.006682,0.015387,-0.001476,-0.010580,0.000074,0.000456,0.010608,-0.049019,-0.017727,0.209722,0.209687,0.153805,0.355373,0.000000,0.000000,0.000000,0.000000,0.000000,0.000000,0.000000,0.000000,0.000000,0.000000,0.000000,0.000000,0.048405,3,0
1590000,-0.010177,41.080742,0.006642,-0.030131,26.075064,0.078942,0.002614,0.040927,1.570007,-0.071944,0.006740,0.015423,-0.001501,-0.010650,0.000075,0.000164,0.010546,0.029903,-0.003935,0.209927,0.209891,0.153498,0.353957,0.000000,0.000000,0.000000,0.000000,0.000000,0.000000,0.000000,0.000000,0.000000,0.000000,0.000000,0.000000,0.030600,3,0
1600000,-0.010115,41.343163,0.007034,-0.029724,26.082537,0.079362,0.002672,0.041314,1.569998,-0.072196,0.006797,0.015577,-0.001525,-0.010760,0.000075,0.000403,0.010481,0.046368,-0.015560,0.210134,0.210096,0.153194,0.352581,0.000000,0.000000,0.000000,0.000000,0.000000,0.000000,0.000000,0.000000,0.000000,0.000000,0.000000,0.000000,0.045872,3,0
1610000,-0.010052,41.604130,0.006955,-0.029327,26.087301,0.078978,0.002739,0.041449,1.570001,-0.072212,0.006854,0.015939,-0.001549,-0.010769,0.000076,0.000212,0.010415,0.002537,-0.034513,0.210341,0.210301,0.152894,0.351247,0.000000,0.000000,0.000000,0.000000,0.000000,0.000000,0.000000,0.000000,0.000000,0.000000,0.000000,0.000000,0.010344,3,0
1620000,-0.009987,41.865749,0.006881,-0.028944,26.093229,0.078818,0.002811,0.041684,1.570003,-0.072320,0.006910,0.016295,-0.001573,-0.010818,0.000076,0.000270,0.010348,0.019829,-0.034176,0.210548,0.210508,0.152597,0.349952,0.000000,0.000000,0.000000,0.000000,0.000000,0.000000,0.000000,0.000000,0.000000,0.000000,0.000000,0.000000,0.021577,3,0
1630000,-0.009919,42.124523,0.006924,-0.028501,26.093906,0.078916,0.002879,0.041434,1.570001,-0.071990,0.006966,0.016628,-0.001598,-0.010669,0.000075,0.000803,0.010278,-0.062943,-0.030302,0.210757,0.210715,0.152304,0.348695,0.000000,0.000000,0.000000,0.000000,0.000000,0.000000,0.000000,0.000000,0.000000,0.000000,0.000000,0.000000,0.061542,3,0
1640000,-0.009853,42.383301,0.005930,-0.028194,26.094410,0.077642,0.002949,0.041185,1.570001,-0.071665,0.007021,0.017399,-0.001621,-0.010522,0.000074,0.001488,0.010208,-0.063297,-0.071330,0.210965,0.210922,0.152015,0.347475,0.000000,0.000000,0.000000,0.000000,0.000000,0.000000,0.000000,0.000000,0.000000,0.000000,0.000000,0.000000,0.061878,3,0
1650000,-0.009782,42.645554,0.006040,-0.027779,26.101408,0.077601,0.003006,0.041518,1.570002,-0.071851,0.007074,0.017672,-0.001646,-0.010610,0.000075,0.000334,0.010137,0.035744,-0.026319,0.211174,0.211130,0.151730,0.346290,0.000000,0.000000,0.000000,0.000000,0.000000,0.000000,0.000000,0.000000,0.000000,0.000000,0.000000,0.000000,0.035842,3,0
1660000,-0.009708,42.906330,0.007082,-0.027447,26.105536,0.078796,0.003079,0.041590,1.570009,-0.071810,0.007125,0.017566,-0.001670,-0.010590,0.000075,0.000043,0.010063,-0.007912,0.010078,0.211384,0.211338,0.151449,0.345141,0.000000,0.000000,0.000000,0.000000,0.000000,0.000000,0.000000,0.000000,0.000000,0.000000,0.000000,0.000000,0.012347,3,0
1670000,-0.009636,43.164272,0.007059,-0.027152,26.104357,0.078582,0.003139,0.041176,1.570005,-0.071359,0.007177,0.017944,-0.001695,-0.010372,0.000074,0.001495,0.009986,-0.089821,-0.033380,0.211593,0.211545,0.151172,0.344025,0.000000,0.000000,0.000000,0.000000,0.000000,0.000000,0.000000,0.000000,0.000000,0.000000,0.000000,0.000000,0.087196,3,0
1680000,-0.009562,43.425018,0.007402,-0.026833,26.108221,0.078912,0.003193,0.041234,1.570009,-0.071311,0.007228,0.018142,-0.001719,-0.010350,0.000074,0.000084,0.009911,-0.009808,-0.018078,0.211802,0.211753,0.150898,0.342940,0.000000,0.000000,0.000000,0.000000,0.000000,0.000000,0.000000,0.000000,0.000000,0.000000,0.000000,0.000000,0.013454,3,0
1690000,-0.009488,43.683617,0.007449,-0.026508,26.108112,0.078899,0.003257,0.040918,1.570010,-0.070958,0.007277,0.018490,-0.001743,-0.010174,0.000073,0.000997,0.009834,-0.071804,-0.030641,0.212010,0.211960,0.150629,0.341887,0.000000,0.000000,0.000000,0.000000,0.000000,0.000000,0.000000,0.000000,0.000000,0.000000,0.000000,0.000000,0.069922,3,0
1700000,-0.009412,43.944313,0.007834,-0.026139,26.111959,0.079083,0.003312,0.040965,1.570003,-0.070899,0.007326,0.018672,-0.001767,-0.010145,0.000073,0.000084,0.009756,-0.012341,-0.016524,0.212218,0.212167,0.150363,0.340865,0.000000,0.000000,0.000000,0.000000,0.000000,0.000000,0.000000,0.000000,0.000000,0.000000,0.000000,0.000000,0.015179,3,0
1710000,-0.009334,44.204964,0.008354,-0.025728,26.115641,0.079622,0.003384,0.040993,1.570002,-0.070829,0.007373,0.018799,-0.001791,-0.010109,0.000073,0.000070,0.009675,-0.014648,-0.011345,0.212426,0.212373,0.150101,0.339872,0.000000,0.000000,0.000000,0.000000,0.000000,0.000000,0.000000,0.000000,0.000000,0.000000,0.000000,0.000000,0.016937,3,0
1720000,-0.009253,44.465569,0.009285,-0.025331,26.119158,0.080741,0.003446,0.041007,1.569997,-0.070748,0.007419,0.018751,-0.001815,-0.010066,0.000073,0.000064,0.009593,-0.016911,0.004798,0.212632,0.212578,0.149844,0.338908,0.000000,0.000000,0.000000,0.000000,0.000000,0.000000,0.000000,0.000000,0.000000,0.000000,0.000000,0.000000,0.018753,3,0
