time_us,pos_x,pos_y,pos_z,vel_x,vel_y,vel_z,roll,pitch,yaw,bias_ax,bias_ay,bias_az,bias_gx,bias_gy,bias_gz,nis,innov_x,innov_y,innov_z,cov_pos_x,cov_pos_y,cov_pos_z,cov_yaw,des_speed,des_heading,des_climb,pid_speed,pid_yaw,pid_alt,speed_meas,yaw_meas,climb_meas,fwd_accel,yaw_rate,vert_accel,drift_m,nav_mode,mission_state
0,-0.000001,0.149996,-0.000000,-0.000187,24.999357,-0.000109,0.000022,0.000001,1.570772,0.000000,0.000000,0.000000,0.000000,0.000000,0.000000,0.006250,0.000002,-0.249996,0.000001,2.400038,2.400038,3.600017,1.000518,0.000000,0.000000,0.000000,0.000000,0.000000,0.000000,0.000000,0.000000,0.000000,0.000000,0.000000,0.000000,0.149996,1,0
10000,-0.000002,0.353857,-0.029858,-0.000233,24.998646,-0.000011,0.000033,-0.000013,1.570747,0.000000,0.000000,0.000000,0.000000,0.000000,0.000000,0.003763,0.000003,-0.161439,-0.079619,1.714420,1.714420,2.250079,1.001073,0.000000,0.000000,0.000000,0.000000,0.000000,0.000000,0.000000,0.000000,0.000000,0.000000,0.000000,0.000000,0.115310,3,0
20000,-0.000004,0.566831,-0.028205,-0.000326,24.997822,-0.000023,0.000042,-0.000018,1.570735,0.000002,0.000000,0.000000,-0.000000,0.000000,-0.000000,0.003598,0.000006,-0.166503,0.006060,1.333616,1.333616,1.636554,1.001655,0.000000,0.000000,0.000000,0.000000,0.000000,0.000000,0.000000,0.000000,0.000000,0.000000,0.000000,0.000000,0.129495,3,0
30000,-0.000007,0.809252,-0.040696,-0.000363,24.997393,-0.000299,0.000065,-0.000021,1.570706,0.000003,0.000000,0.000001,0.000000,0.000000,-0.000000,0.000680,0.000008,-0.041529,-0.058271,1.091392,1.091392,1.286065,1.002257,0.000000,0.000000,0.000000,0.000000,0.000000,0.000000,0.000000,0.000000,0.000000,0.000000,0.000000,0.000000,0.033975,3,0
40000,-0.000010,1.043051,-0.042906,-0.000500,24.996555,-0.000109,0.000069,-0.000039,1.570691,0.000006,0.000000,0.000001,0.000000,0.000000,-0.000000,0.001577,0.000012,-0.105035,-0.012511,0.923811,0.923811,1.059385,1.002869,0.000000,0.000000,0.000000,0.000000,0.000000,0.000000,0.000000,0.000000,0.000000,0.000000,0.000000,0.000000,0.088863,3,0
50000,-0.000013,1.290241,-0.039360,-0.000560,24.996105,0.000268,0.000087,-0.000039,1.570663,0.000007,0.000000,0.000000,-0.000000,0.000000,-0.000000,0.000141,0.000015,-0.020762,0.023604,0.801036,0.801036,0.900822,1.003484,0.000000,0.000000,0.000000,0.000000,0.000000,0.000000,0.000000,0.000000,0.000000,0.000000,0.000000,0.000000,0.017990,3,0
60000,-0.000018,1.536733,-0.035956,-0.000658,24.995636,0.000440,0.000100,-0.000045,1.570649,0.000008,0.000000,-0.000001,-0.000000,0.000000,-0.000000,0.000225,0.000020,-0.029402,0.026041,0.707270,0.707270,0.783741,1.004094,0.000000,0.000000,0.000000,0.000000,0.000000,0.000000,0.000000,0.000000,0.000000,0.000000,0.000000,0.000000,0.025936,3,0
70000,-0.000023,1.774350,-0.036424,-0.000802,24.994371,0.000652,0.000110,-0.000047,1.570631,0.000018,0.000000,-0.000001,-0.000000,0.000000,-0.000000,0.002038,0.000026,-0.116856,-0.004103,0.633370,0.633370,0.693801,1.004688,0.000000,0.000000,0.000000,0.000000,0.000000,0.000000,0.000000,0.000000,0.000000,0.000000,0.000000,0.000000,0.104521,3,0
80000,-0.000029,2.020810,-0.032483,-0.000941,24.993776,0.001149,0.000121,-0.000060,1.570603,0.000021,0.000000,-0.000004,-0.000000,0.000000,-0.000000,0.000414,0.000032,-0.036399,0.037891,0.573673,0.573673,0.622594,1.005260,0.000000,0.000000,0.000000,0.000000,0.000000,0.000000,0.000000,0.000000,0.000000,0.000000,0.000000,0.000000,0.032919,3,0
90000,-0.000036,2.272084,-0.035524,-0.000984,24.993538,0.001055,0.000140,-0.000063,1.570587,0.000019,0.000000,-0.000000,-0.000000,0.000000,-0.000000,0.000195,0.000039,0.015331,-0.032443,0.524488,0.524488,0.564865,1.005801,0.000000,0.000000,0.000000,0.000000,0.000000,0.000000,0.000000,0.000000,0.000000,0.000000,0.000000,0.000000,0.013991,3,0
100000,-0.000042,2.525429,-0.034252,-0.001013,24.993628,0.001110,0.000146,-0.000077,1.570565,0.000013,0.000000,-0.000003,-0.000000,0.000000,-0.000000,0.000308,0.000046,0.042363,0.014642,0.483304,0.483304,0.517162,1.006301,0.000000,0.000000,0.000000,0.000000,0.000000,0.000000,0.000000,0.000000,0.000000,0.000000,0.000000,0.000000,0.038951,3,0
110000,-0.000049,2.780393,-0.036736,-0.001085,24.993967,0.001025,0.000155,-0.000089,1.570536,0.000000,0.000000,0.000003,-0.000000,-0.000000,0.000000,0.000850,0.000053,0.067323,-0.031399,0.448354,0.448354,0.477121,1.006754,0.000000,0.000000,0.000000,0.000000,0.000000,0.000000,0.000000,0.000000,0.000000,0.000000,0.000000,0.000000,0.062292,3,0
120000,-0.000057,3.033879,-0.035176,-0.001263,24.994228,0.001258,0.000176,-0.000089,1.570507,-0.000011,0.000000,-0.000001,-0.000000,-0.000000,0.000000,0.000470,0.000062,0.050903,0.020982,0.418359,0.418359,0.443071,1.007150,0.000000,0.000000,0.000000,0.000000,0.000000,0.000000,0.000000,0.000000,0.000000,0.000000,0.000000,0.000000,0.047354,3,0
130000,-0.000067,3.290069,-0.035467,-0.001483,24.995083,0.001378,0.000180,-0.000084,1.570478,-0.000035,0.000000,-0.000000,-0.000000,-0.000001,0.000000,0.001427,0.000072,0.095598,-0.004430,0.392369,0.392369,0.413797,1.007481,0.000000,0.000000,0.000000,0.000000,0.000000,0.000000,0.000000,0.000000,0.000000,0.000000,0.000000,0.000000,0.089346,3,0
140000,-0.000079,3.546044,-0.033247,-0.001645,24.996067,0.001786,0.000190,-0.000084,1.570450,-0.000064,0.000000,-0.000010,-0.000000,-0.000001,0.000000,0.001678,0.000084,0.097824,0.034091,0.369667,0.369667,0.388393,1.007739,0.000000,0.000000,0.000000,0.000000,0.000000,0.000000,0.000000,0.000000,0.000000,0.000000,0.000000,0.000000,0.091797,3,0
150000,-0.000090,3.792577,-0.032734,-0.001684,24.994896,0.002122,0.000196,-0.000095,1.570421,-0.000044,0.000000,-0.000013,-0.000000,-0.000001,0.000000,0.000552,0.000096,-0.058765,0.008068,0.349695,0.349695,0.366172,1.007915,0.000000,0.000000,0.000000,0.000000,0.000000,0.000000,0.000000,0.000000,0.000000,0.000000,0.000000,0.000000,0.055340,3,0
160000,-0.000102,4.046530,-0.035117,-0.001795,24.995703,0.001542,0.000221,-0.000086,1.570408,-0.000072,0.000000,0.000003,-0.000000,-0.000001,0.000000,0.001098,0.000108,0.072413,-0.041617,0.332021,0.332021,0.346600,1.008002,0.000000,0.000000,0.000000,0.000000,0.000000,0.000000,0.000000,0.000000,0.000000,0.000000,0.000000,0.000000,0.068406,3,0
170000,-0.000115,4.298441,-0.033261,-0.001977,24.995974,0.001925,0.000241,-0.000088,1.570384,-0.000088,0.000000,-0.000011,-0.000000,-0.000002,0.000000,0.000395,0.000122,0.037120,0.033561,0.316298,0.316298,0.329260,1.007991,0.000000,0.000000,0.000000,0.000000,0.000000,0.000000,0.000000,0.000000,0.000000,0.000000,0.000000,0.000000,0.035163,3,0
180000,-0.000130,4.553599,-0.035802,-0.002172,24.997309,0.001116,0.000261,-0.000078,1.570369,-0.000137,0.000000,0.000012,-0.000000,-0.000003,0.000000,0.002066,0.000137,0.103270,-0.048933,0.302247,0.302247,0.313817,1.007875,0.000000,0.000000,0.000000,0.000000,0.000000,0.000000,0.000000,0.000000,0.000000,0.000000,0.000000,0.000000,0.098067,3,0
190000,-0.000145,4.802953,-0.035842,-0.002225,24.996731,0.000979,0.000269,-0.000097,1.570352,-0.000130,0.000000,0.000012,-0.000000,-0.000003,0.000000,0.000026,0.000152,-0.012750,-0.001012,0.289642,0.289642,0.300003,1.007645,0.000000,0.000000,0.000000,0.000000,0.000000,0.000000,0.000000,0.000000,0.000000,0.000000,0.000000,0.000000,0.012135,3,0
200000,-0.000161,5.058279,-0.036143,-0.002345,24.998480,0.001026,0.000288,-0.000089,1.570328,-0.000198,0.000000,0.000016,-0.000000,-0.000005,0.000000,0.002131,0.000169,0.115601,-0.006507,0.278296,0.278296,0.287598,1.007295,0.000000,0.000000,0.000000,0.000000,0.000000,0.000000,0.000000,0.000000,0.000000,0.000000,0.000000,0.000000,0.110239,3,0
210000,-0.000176,5.307346,-0.034077,-0.002357,24.997763,0.001810,0.000311,-0.000100,1.570312,-0.000185,0.000001,-0.000012,-0.000000,-0.000004,0.000000,0.000383,0.000184,-0.020469,0.044626,0.268055,0.268055,0.276421,1.006816,0.000000,0.000000,0.000000,0.000000,0.000000,0.000000,0.000000,0.000000,0.000000,0.000000,0.000000,0.000000,0.019555,3,0
220000,-0.000192,5.559412,-0.035964,-0.002444,24.998306,0.001186,0.000326,-0.000105,1.570284,-0.000219,0.000001,0.000017,-0.000000,-0.000005,0.000000,0.000670,0.000201,0.048535,-0.042974,0.258788,0.258788,0.266321,1.006202,0.000000,0.000000,0.000000,0.000000,0.000000,0.000000,0.000000,0.000000,0.000000,0.000000,0.000000,0.000000,0.046442,3,0
230000,-0.000208,5.815831,-0.037467,-0.002541,25.001247,0.000432,0.000345,-0.000074,1.570266,-0.000336,0.000001,0.000044,-0.000000,-0.000009,0.000000,0.004001,0.000217,0.154282,-0.035312,0.250387,0.250387,0.257172,1.005446,0.000000,0.000000,0.000000,0.000000,0.000000,0.000000,0.000000,0.000000,0.000000,0.000000,0.000000,0.000000,0.147844,3,0
240000,-0.000226,6.068141,-0.038527,-0.002680,25.002113,0.000002,0.000351,-0.000057,1.570253,-0.000383,0.000001,0.000065,-0.000000,-0.000011,0.000000,0.000623,0.000235,0.056866,-0.025684,0.242757,0.242757,0.248866,1.004541,0.000000,0.000000,0.000000,0.000000,0.000000,0.000000,0.000000,0.000000,0.000000,0.000000,0.000000,0.000000,0.054566,3,0
250000,-0.000244,6.320633,-0.040253,-0.002837,25.003206,-0.000995,0.000357,-0.000048,1.570231,-0.000439,0.000001,0.000102,-0.000000,-0.000013,0.000000,0.000929,0.000254,0.062973,-0.042908,0.235820,0.235820,0.241314,1.003481,0.000000,0.000000,0.000000,0.000000,0.000000,0.000000,0.000000,0.000000,0.000000,0.000000,0.000000,0.000000,0.060499,3,0
260000,-0.000264,6.574057,-0.040301,-0.002980,25.004904,-0.000756,0.000370,-0.000036,1.570204,-0.000524,0.000001,0.000103,-0.000000,-0.000016,0.000000,0.001263,0.000274,0.088776,-0.001032,0.229506,0.229506,0.234436,1.002258,0.000000,0.000000,0.000000,0.000000,0.000000,0.000000,0.000000,0.000000,0.000000,0.000000,0.000000,0.000000,0.085380,3,0
270000,-0.000284,6.826117,-0.039457,-0.003154,25.005930,-0.000084,0.000379,-0.000024,1.570180,-0.000580,0.000002,0.000081,-0.000000,-0.000018,0.000000,0.000548,0.000295,0.054001,0.022336,0.223756,0.223756,0.228165,1.000869,0.000000,0.000000,0.000000,0.000000,0.000000,0.000000,0.000000,0.000000,0.000000,0.000000,0.000000,0.000000,0.051988,3,0
280000,-0.000304,7.081266,-0.038220,-0.003168,25.009062,0.000937,0.000397,0.000012,1.570163,-0.000734,0.000002,0.000044,-0.000000,-0.000024,0.000000,0.003320,0.000316,0.139874,0.033341,0.218519,0.218519,0.222443,0.999307,0.000000,0.000000,0.000000,0.000000,0.000000,0.000000,0.000000,0.000000,0.000000,0.000000,0.000000,0.000000,0.134780,3,0
290000,-0.000326,7.332912,-0.037240,-0.003309,25.009935,0.001764,0.000404,0.000022,1.570150,-0.000786,0.000002,0.000013,-0.000000,-0.000026,0.000000,0.000422,0.000338,0.043723,0.026744,0.213747,0.213747,0.217219,0.997567,0.000000,0.000000,0.000000,0.000000,0.000000,0.000000,0.000000,0.000000,0.000000,0.000000,0.000000,0.000000,0.042167,3,0
300000,-0.000347,7.584770,-0.036882,-0.003438,25.010899,0.001904,0.000412,0.000030,1.570128,-0.000849,0.000003,0.000001,-0.000000,-0.000029,0.000000,0.000425,0.000360,0.050497,0.009665,0.209402,0.209402,0.212446,0.995645,0.000000,0.000000,0.000000,0.000000,0.000000,0.000000,0.000000,0.000000,0.000000,0.000000,0.000000,0.000000,0.048735,3,0
310000,-0.000371,7.841594,-0.035461,-0.003621,25.015987,0.003170,0.000417,0.000110,1.570116,-0.001111,0.000003,-0.000052,-0.000000,-0.000041,0.000000,0.006458,0.000384,0.196206,0.040334,0.205448,0.205447,0.208087,0.993536,0.000000,0.000000,0.000000,0.000000,0.000000,0.000000,0.000000,0.000000,0.000000,0.000000,0.000000,0.000000,0.189488,3,0
320000,-0.000394,8.095061,-0.034333,-0.003714,25.018555,0.004107,0.000426,0.000149,1.570086,-0.001250,0.000004,-0.000097,-0.000000,-0.000047,0.000000,0.001725,0.000408,0.098361,0.032221,0.201852,0.201852,0.204105,0.991237,0.000000,0.000000,0.000000,0.000000,0.000000,0.000000,0.000000,0.000000,0.000000,0.000000,0.000000,0.000000,0.095053,3,0
330000,-0.000417,8.349320,-0.033999,-0.003720,25.021801,0.004331,0.000448,0.000203,1.570068,-0.001435,0.000004,-0.000110,-0.000000,-0.000056,0.000000,0.002457,0.000431,0.123176,0.008776,0.198587,0.198587,0.200469,0.988743,0.000000,0.000000,0.000000,0.000000,0.000000,0.000000,0.000000,0.000000,0.000000,0.000000,0.000000,0.000000,0.119099,3,0
340000,-0.000441,8.606278,-0.033470,-0.003848,25.027668,0.004690,0.000460,0.000307,1.570055,-0.001762,0.000005,-0.000134,-0.000000,-0.000072,0.000000,0.006932,0.000456,0.206825,0.014780,0.195627,0.195627,0.197151,0.986053,0.000000,0.000000,0.000000,0.000000,0.000000,0.000000,0.000000,0.000000,0.000000,0.000000,0.000000,0.000000,0.200082,3,0
350000,-0.000466,8.861331,-0.035173,-0.003992,25.031944,0.003373,0.000474,0.000374,1.570036,-0.002010,0.000006,-0.000044,-0.000000,-0.000084,0.000000,0.004035,0.000481,0.148597,-0.054172,0.192950,0.192950,0.194125,0.983163,0.000000,0.000000,0.000000,0.000000,0.000000,0.000000,0.000000,0.000000,0.000000,0.000000,0.000000,0.000000,0.143819,3,0
360000,-0.000490,9.114577,-0.033988,-0.004023,25.034544,0.004380,0.000484,0.000415,1.570017,-0.002172,0.000007,-0.000107,-0.000000,-0.000093,0.000000,0.001585,0.000506,0.092292,0.036116,0.190534,0.190534,0.191370,0.980073,0.000000,0.000000,0.000000,0.000000,0.000000,0.000000,0.000000,0.000000,0.000000,0.000000,0.000000,0.000000,0.089363,3,0
370000,-0.000515,9.368604,-0.035610,-0.004161,25.038136,0.002739,0.000496,0.000474,1.569987,-0.002388,0.000008,-0.000010,-0.000000,-0.000104,0.000000,0.002674,0.000532,0.117323,-0.052912,0.188361,0.188361,0.188863,0.976779,0.000000,0.000000,0.000000,0.000000,0.000000,0.000000,0.000000,0.000000,0.000000,0.000000,0.000000,0.000000,0.113641,3,0
380000,-0.000539,9.624617,-0.034385,-0.004134,25.043989,0.004111,0.000519,0.000584,1.569957,-0.002739,0.000008,-0.000084,-0.000000,-0.000124,0.000000,0.005548,0.000557,0.181322,0.038457,0.186413,0.186413,0.186586,0.973282,0.000000,0.000000,0.000000,0.000000,0.000000,0.000000,0.000000,0.000000,0.000000,0.000000,0.000000,0.000000,0.175690,3,0
390000,-0.000564,9.880095,-0.035058,-0.004261,25.049385,0.003504,0.000534,0.000687,1.569940,-0.003070,0.000010,-0.000037,-0.000000,-0.000143,0.000000,0.004422,0.000582,0.163798,-0.023264,0.184674,0.184674,0.184522,0.969580,0.000000,0.000000,0.000000,0.000000,0.000000,0.000000,0.000000,0.000000,0.000000,0.000000,0.000000,0.000000,0.158758,3,0
400000,-0.000589,10.133247,-0.035624,-0.004362,25.052134,0.003051,0.000553,0.000737,1.569927,-0.003255,0.000011,0.000005,-0.000001,-0.000153,0.000000,0.001292,0.000608,0.087176,-0.019824,0.183131,0.183131,0.182656,0.965675,0.000000,0.000000,0.000000,0.000000,0.000000,0.000000,0.000000,0.000000,0.000000,0.000000,0.000000,0.000000,0.084518,3,0
410000,-0.000614,10.390780,-0.036903,-0.004402,25.060108,0.001769,0.000577,0.000897,1.569902,-0.003767,0.000012,0.000101,-0.000001,-0.000184,0.000000,0.008973,0.000634,0.231576,-0.043464,0.181768,0.181768,0.180971,0.961566,0.000000,0.000000,0.000000,0.000000,0.000000,0.000000,0.000000,0.000000,0.000000,0.000000,0.000000,0.000000,0.224562,3,0
420000,-0.000639,10.645383,-0.035617,-0.004398,25.064840,0.003420,0.000592,0.000990,1.569889,-0.004073,0.000013,0.000003,-0.000001,-0.000203,0.000000,0.003149,0.000659,0.132992,0.042330,0.180575,0.180575,0.179456,0.957254,0.000000,0.000000,0.000000,0.000000,0.000000,0.000000,0.000000,0.000000,0.000000,0.000000,0.000000,0.000000,0.128991,3,0
430000,-0.000662,10.901907,-0.034676,-0.004363,25.072018,0.004597,0.000605,0.001141,1.569872,-0.004544,0.000015,-0.000070,-0.000001,-0.000232,0.000000,0.006387,0.000683,0.196405,0.030494,0.179539,0.179539,0.178097,0.952742,0.000000,0.000000,0.000000,0.000000,0.000000,0.000000,0.000000,0.000000,0.000000,0.000000,0.000000,0.000000,0.190529,3,0
440000,-0.000685,11.159711,-0.034019,-0.004353,25.080814,0.005220,0.000611,0.001327,1.569852,-0.005138,0.000016,-0.000121,-0.000001,-0.000271,0.000000,0.009229,0.000706,0.237995,0.020732,0.178650,0.178650,0.176883,0.948032,0.000000,0.000000,0.000000,0.000000,0.000000,0.000000,0.000000,0.000000,0.000000,0.000000,0.000000,0.000000,0.230909,3,0
450000,-0.000708,11.415233,-0.034353,-0.004424,25.086811,0.004944,0.000628,0.001464,1.569823,-0.005550,0.000018,-0.000087,-0.000001,-0.000298,0.000000,0.004118,0.000730,0.159012,-0.013246,0.177897,0.177897,0.175803,0.943126,0.000000,0.000000,0.000000,0.000000,0.000000,0.000000,0.000000,0.000000,0.000000,0.000000,0.000000,0.000000,0.154298,3,0
460000,-0.000730,11.669120,-0.034071,-0.004410,25.090691,0.005322,0.000644,0.001555,1.569792,-0.005824,0.000020,-0.000108,-0.000001,-0.000317,0.000000,0.001700,0.000752,0.102219,0.007936,0.177272,0.177271,0.174847,0.938026,0.000000,0.000000,0.000000,0.000000,0.000000,0.000000,0.000000,0.000000,0.000000,0.000000,0.000000,0.000000,0.099201,3,0
470000,-0.000753,11.926098,-0.034567,-0.004507,25.098875,0.004854,0.000664,0.001750,1.569762,-0.006398,0.000022,-0.000055,-0.000001,-0.000356,0.000000,0.006931,0.000776,0.206114,-0.019035,0.176764,0.176764,0.174006,0.932738,0.000000,0.000000,0.000000,0.000000,0.000000,0.000000,0.000000,0.000000,0.000000,0.000000,0.000000,0.000000,0.200043,3,0
480000,-0.000776,12.181431,-0.035431,-0.004625,25.104719,0.003684,0.000688,0.001889,1.569748,-0.006824,0.000024,0.000036,-0.000001,-0.000387,0.000001,0.003697,0.000799,0.147843,-0.031578,0.176366,0.176366,0.173271,0.927265,0.000000,0.000000,0.000000,0.000000,0.000000,0.000000,0.000000,0.000000,0.000000,0.000000,0.000000,0.000000,0.143500,3,0
490000,-0.000799,12.437488,-0.036796,-0.004722,25.111723,0.002066,0.000705,0.002053,1.569723,-0.007332,0.000026,0.000182,-0.000002,-0.000423,0.000001,0.005103,0.000823,0.170756,-0.048795,0.176070,0.176070,0.172634,0.921611,0.000000,0.000000,0.000000,0.000000,0.000000,0.000000,0.000000,0.000000,0.000000,0.000000,0.000000,0.000000,0.165748,3,0
500000,-0.000822,12.691928,-0.036262,-0.004681,25.116367,0.002863,0.000720,0.002179,1.569706,-0.007681,0.000029,0.000127,-0.000002,-0.000449,0.000001,0.002133,0.000846,0.113420,0.017832,0.175869,0.175869,0.172087,0.915782,0.000000,0.000000,0.000000,0.000000,0.000000,0.000000,0.000000,0.000000,0.000000,0.000000,0.000000,0.000000,0.110098,3,0
510000,-0.000844,12.948276,-0.037201,-0.004718,25.123983,0.001540,0.000743,0.002374,1.569690,-0.008242,0.000031,0.000235,-0.000002,-0.000492,0.000001,0.005254,0.000869,0.176994,-0.033843,0.175755,0.175755,0.171622,0.909782,0.000000,0.000000,0.000000,0.000000,0.000000,0.000000,0.000000,0.000000,0.000000,0.000000,0.000000,0.000000,0.171812,3,0
520000,-0.000866,13.203593,-0.037534,-0.004789,25.130062,0.001247,0.000748,0.002521,1.569660,-0.008698,0.000034,0.000275,-0.000002,-0.000527,0.000001,0.003161,0.000892,0.139236,-0.012282,0.175722,0.175722,0.171234,0.903618,0.000000,0.000000,0.000000,0.000000,0.000000,0.000000,0.000000,0.000000,0.000000,0.000000,0.000000,0.000000,0.135161,3,0
530000,-0.000888,13.462555,-0.038119,-0.004856,25.141548,0.000400,0.000756,0.002817,1.569641,-0.009578,0.000037,0.000346,-0.000002,-0.000597,0.000001,0.011139,0.000915,0.261559,-0.020960,0.175763,0.175763,0.170914,0.897296,0.000000,0.000000,0.000000,0.000000,0.000000,0.000000,0.000000,0.000000,0.000000,0.000000,0.000000,0.000000,0.253898,3,0
540000,-0.000909,13.718704,-0.038419,-0.004823,25.148796,0.000031,0.000778,0.003009,1.569613,-0.010137,0.000040,0.000384,-0.000003,-0.000642,0.000001,0.004239,0.000937,0.161513,-0.010742,0.175873,0.175872,0.170658,0.890822,0.000000,0.000000,0.000000,0.000000,0.000000,0.000000,0.000000,0.000000,0.000000,0.000000,0.000000,0.000000,0.156782,3,0
550000,-0.000931,13.973829,-0.039318,-0.004936,25.154377,-0.001278,0.000794,0.003162,1.569591,-0.010578,0.000043,0.000497,-0.000003,-0.000679,0.000001,0.002648,0.000959,0.123960,-0.031636,0.176045,0.176045,0.170460,0.884203,0.000000,0.000000,0.000000,0.000000,0.000000,0.000000,0.000000,0.000000,0.000000,0.000000,0.000000,0.000000,0.120326,3,0
560000,-0.000951,14.231447,-0.039276,-0.004869,25.163967,-0.001075,0.000810,0.003421,1.569567,-0.011333,0.000046,0.000490,-0.000003,-0.000742,0.000001,0.006914,0.000980,0.206718,0.001849,0.176275,0.176274,0.170314,0.877446,0.000000,0.000000,0.000000,0.000000,0.000000,0.000000,0.000000,0.000000,0.000000,0.000000,0.000000,0.000000,0.200648,3,0
570000,-0.000972,14.490362,-0.039181,-0.004931,25.175657,-0.000731,0.000822,0.003751,1.569542,-0.012259,0.000050,0.000476,-0.000003,-0.000822,0.000001,0.009886,0.001001,0.247189,0.003641,0.176557,0.176556,0.170214,0.870558,0.000000,0.000000,0.000000,0.000000,0.000000,0.000000,0.000000,0.000000,0.000000,0.000000,0.000000,0.000000,0.239917,3,0
580000,-0.000991,14.746459,-0.038371,-0.004891,25.182718,0.000307,0.000841,0.003958,1.569521,-0.012824,0.000053,0.000364,-0.000004,-0.000872,0.000001,0.003639,0.001021,0.147189,0.028850,0.176886,0.176886,0.170157,0.863546,0.000000,0.000000,0.000000,0.000000,0.000000,0.000000,0.000000,0.000000,0.000000,0.000000,0.000000,0.000000,0.142853,3,0
590000,-0.001010,15.003878,-0.037616,-0.004975,25.191938,0.001260,0.000855,0.004235,1.569504,-0.013569,0.000057,0.000258,-0.000004,-0.000938,0.000001,0.005904,0.001041,0.189204,0.026523,0.177258,0.177258,0.170138,0.856419,0.000000,0.000000,0.000000,0.000000,0.000000,0.000000,0.000000,0.000000,0.000000,0.000000,0.000000,0.000000,0.183618,3,0
600000,-0.001030,15.263783,-0.038033,-0.005060,25.205147,0.000875,0.000868,0.004638,1.569487,-0.014654,0.000061,0.000320,-0.000004,-0.001038,0.000001,0.011796,0.001061,0.269635,-0.015243,0.177668,0.177668,0.170152,0.849184,0.000000,0.000000,0.000000,0.000000,0.000000,0.000000,0.000000,0.000000,0.000000,0.000000,0.000000,0.000000,0.261653,3,0
610000,-0.001050,15.522023,-0.038160,-0.005139,25.215511,0.000598,0.000889,0.004964,1.569463,-0.015512,0.000065,0.000340,-0.000005,-0.001117,0.000001,0.007027,0.001082,0.208386,-0.004811,0.178113,0.178112,0.170195,0.841848,0.000000,0.000000,0.000000,0.000000,0.000000,0.000000,0.000000,0.000000,0.000000,0.000000,0.000000,0.000000,0.202203,3,0
620000,-0.001069,15.778021,-0.038420,-0.005114,25.222229,0.000298,0.000897,0.005174,1.569433,-0.016054,0.000069,0.000380,-0.000005,-0.001169,0.000001,0.002703,0.001102,0.128950,-0.009426,0.178588,0.178587,0.170264,0.834421,0.000000,0.000000,0.000000,0.000000,0.000000,0.000000,0.000000,0.000000,0.000000,0.000000,0.000000,0.000000,0.125116,3,0
630000,-0.001086,16.037130,-0.037962,-0.005028,25.233913,0.001003,0.000914,0.005538,1.569419,-0.017045,0.000073,0.000310,-0.000006,-0.001265,0.000002,0.008648,0.001120,0.230707,0.015973,0.179089,0.179089,0.170355,0.826910,0.000000,0.000000,0.000000,0.000000,0.000000,0.000000,0.000000,0.000000,0.000000,0.000000,0.000000,0.000000,0.223824,3,0
640000,-0.001103,16.294569,-0.038984,-0.005063,25.242819,-0.000299,0.000929,0.005819,1.569403,-0.017791,0.000078,0.000473,-0.000006,-0.001338,0.000002,0.004902,0.001137,0.170271,-0.036418,0.179614,0.179613,0.170465,0.819323,0.000000,0.000000,0.000000,0.000000,0.000000,0.000000,0.000000,0.000000,0.000000,0.000000,0.000000,0.000000,0.165178,3,0
650000,-0.001120,16.554527,-0.039290,-0.005100,25.255901,-0.000729,0.000937,0.006252,1.569384,-0.018911,0.000082,0.000522,-0.000007,-0.001450,0.000002,0.010178,0.001155,0.250683,-0.010699,0.180158,0.180158,0.170591,0.811668,0.000000,0.000000,0.000000,0.000000,0.000000,0.000000,0.000000,0.000000,0.000000,0.000000,0.000000,0.000000,0.243159,3,0
660000,-0.001137,16.815189,-0.039734,-0.005127,25.270132,-0.001186,0.000944,0.006724,1.569356,-0.020135,0.000087,0.000594,-0.000007,-0.001575,0.000002,0.011727,0.001172,0.268898,-0.015447,0.180720,0.180719,0.170729,0.803954,0.000000,0.000000,0.000000,0.000000,0.000000,0.000000,0.000000,0.000000,0.000000,0.000000,0.000000,0.000000,0.260802,3,0
670000,-0.001153,17.075348,-0.041096,-0.005134,25.283293,-0.003077,0.000962,0.007174,1.569337,-0.021279,0.000092,0.000820,-0.000008,-0.001694,0.000002,0.010198,0.001189,0.246639,-0.047515,0.181295,0.181294,0.170877,0.796189,0.000000,0.000000,0.000000,0.000000,0.000000,0.000000,0.000000,0.000000,0.000000,0.000000,0.000000,0.000000,0.239190,3,0
680000,-0.001169,17.336208,-0.040525,-0.005202,25.297581,-0.001946,0.000976,0.007666,1.569313,-0.022527,0.000097,0.000717,-0.000008,-0.001827,0.000002,0.011391,0.001206,0.264654,0.020996,0.181881,0.181880,0.171032,0.788380,0.000000,0.000000,0.000000,0.000000,0.000000,0.000000,0.000000,0.000000,0.000000,0.000000,0.000000,0.000000,0.256635,3,0
690000,-0.001184,17.596558,-0.041259,-0.005108,25.310854,-0.002877,0.000999,0.008131,1.569289,-0.023689,0.000102,0.000841,-0.000009,-0.001952,0.000002,0.009582,0.001221,0.242195,-0.025137,0.182475,0.182475,0.171193,0.780536,0.000000,0.000000,0.000000,0.000000,0.000000,0.000000,0.000000,0.000000,0.000000,0.000000,0.000000,0.000000,0.234832,3,0
700000,-0.001198,17.855183,-0.042057,-0.005078,25.321102,-0.004006,0.001007,0.008490,1.569260,-0.024569,0.000107,0.000977,-0.000009,-0.002048,0.000003,0.005383,0.001235,0.180504,-0.026970,0.183076,0.183076,0.171357,0.772663,0.000000,0.000000,0.000000,0.000000,0.000000,0.000000,0.000000,0.000000,0.000000,0.000000,0.000000,0.000000,0.175000,3,0
710000,-0.001210,18.113918,-0.043422,-0.004997,25.331394,-0.005753,0.001018,0.008845,1.569246,-0.025462,0.000113,0.001216,-0.000010,-0.002148,0.000003,0.005596,0.001248,0.180201,-0.046459,0.183681,0.183681,0.171521,0.764771,0.000000,0.000000,0.000000,0.000000,0.000000,0.000000,0.000000,0.000000,0.000000,0.000000,0.000000,0.000000,0.174689,3,0
720000,-0.001222,18.372763,-0.043048,-0.004961,25.341780,-0.005142,0.001044,0.009215,1.569217,-0.026366,0.000119,0.001136,-0.000011,-0.002251,0.000003,0.005259,0.001260,0.179789,0.015063,0.184288,0.184288,0.171685,0.756867,0.000000,0.000000,0.000000,0.000000,0.000000,0.000000,0.000000,0.000000,0.000000,0.000000,0.000000,0.000000,0.174271,3,0
730000,-0.001233,18.631100,-0.042699,-0.004952,25.351023,-0.004490,0.001065,0.009549,1.569203,-0.027179,0.000125,0.001061,-0.000011,-0.002345,0.000003,0.004135,0.001272,0.159388,0.013943,0.184895,0.184894,0.171846,0.748957,0.000000,0.000000,0.000000,0.000000,0.000000,0.000000,0.000000,0.000000,0.000000,0.000000,0.000000,0.000000,0.154481,3,0
740000,-0.001242,18.889545,-0.041361,-0.004815,25.360361,-0.002243,0.001074,0.009894,1.569188,-0.028003,0.000131,0.000800,-0.000012,-0.002442,0.000003,0.004479,0.001281,0.159386,0.048147,0.185500,0.185499,0.172003,0.741049,0.000000,0.000000,0.000000,0.000000,0.000000,0.000000,0.000000,0.000000,0.000000,0.000000,0.000000,0.000000,0.154462,3,0
750000,-0.001249,19.149330,-0.041741,-0.004683,25.372055,-0.002898,0.001084,0.010338,1.569164,-0.029047,0.000137,0.000868,-0.000013,-0.002567,0.000003,0.006423,0.001289,0.199026,-0.012462,0.186102,0.186101,0.172154,0.733150,0.000000,0.000000,0.000000,0.000000,0.000000,0.000000,0.000000,0.000000,0.000000,0.000000,0.000000,0.000000,0.192858,3,0
760000,-0.001256,19.410444,-0.041234,-0.004663,25.385967,-0.001985,0.001104,0.010874,1.569148,-0.030307,0.000143,0.000763,-0.000014,-0.002720,0.000003,0.009150,0.001297,0.237309,0.018579,0.186699,0.186698,0.172299,0.725267,0.000000,0.000000,0.000000,0.000000,0.000000,0.000000,0.000000,0.000000,0.000000,0.000000,0.000000,0.000000,0.229929,3,0
770000,-0.001262,19.672255,-0.041271,-0.004539,25.400846,-0.001844,0.001121,0.011461,1.569126,-0.031675,0.000149,0.000765,-0.000014,-0.002889,0.000004,0.010447,0.001302,0.254360,-0.000684,0.187290,0.187289,0.172435,0.717405,0.000000,0.000000,0.000000,0.000000,0.000000,0.000000,0.000000,0.000000,0.000000,0.000000,0.000000,0.000000,0.246423,3,0
780000,-0.001267,19.931637,-0.040336,-0.004578,25.411360,-0.000476,0.001147,0.011872,1.569099,-0.032608,0.000155,0.000573,-0.000015,-0.003007,0.000004,0.004916,0.001308,0.171310,0.033139,0.187873,0.187873,0.172562,0.709573,0.000000,0.000000,0.000000,0.000000,0.000000,0.000000,0.000000,0.000000,0.000000,0.000000,0.000000,0.000000,0.165952,3,0
790000,-0.001273,20.193605,-0.038853,-0.004602,25.426167,0.001910,0.001166,0.012469,1.569085,-0.033983,0.000161,0.000271,-0.000016,-0.003183,0.000004,0.010502,0.001314,0.249765,0.051592,0.188449,0.188448,0.172680,0.701774,0.000000,0.000000,0.000000,0.000000,0.000000,0.000000,0.000000,0.000000,0.000000,0.000000,0.000000,0.000000,0.241924,3,0
800000,-0.001276,20.454378,-0.039437,-0.004459,25.438845,0.001034,0.001175,0.012982,1.569060,-0.035131,0.000168,0.000393,-0.000017,-0.003332,0.000004,0.006942,0.001318,0.206314,-0.020968,0.189015,0.189014,0.172786,0.694016,0.000000,0.000000,0.000000,0.000000,0.000000,0.000000,0.000000,0.000000,0.000000,0.000000,0.000000,0.000000,0.199820,3,0
810000,-0.001280,20.711451,-0.039840,-0.004488,25.444767,0.000340,0.001195,0.013215,1.569045,-0.035607,0.000175,0.000479,-0.000018,-0.003395,0.000004,0.001188,0.001322,0.084568,-0.014342,0.189570,0.189570,0.172881,0.686303,0.000000,0.000000,0.000000,0.000000,0.000000,0.000000,0.000000,0.000000,0.000000,0.000000,0.000000,0.000000,0.081906,3,0
820000,-0.001283,20.968632,-0.038404,-0.004398,25.450909,0.002565,0.001211,0.013440,1.569024,-0.036095,0.000182,0.000176,-0.000019,-0.003460,0.000004,0.001589,0.001325,0.085861,0.049643,0.190115,0.190115,0.172964,0.678641,0.000000,0.000000,0.000000,0.000000,0.000000,0.000000,0.000000,0.000000,0.000000,0.000000,0.000000,0.000000,0.083151,3,0
830000,-0.001284,21.225920,-0.037746,-0.004283,25.457081,0.003479,0.001218,0.013685,1.568998,-0.036594,0.000189,0.000040,-0.000020,-0.003529,0.000004,0.001301,0.001326,0.087044,0.021922,0.190649,0.190648,0.173034,0.671035,0.000000,0.000000,0.000000,0.000000,0.000000,0.000000,0.000000,0.000000,0.000000,0.000000,0.000000,0.000000,0.084288,3,0
840000,-0.001285,21.485212,-0.038309,-0.004218,25.466719,0.002745,0.001230,0.014075,1.568980,-0.037450,0.000196,0.000169,-0.000021,-0.003647,0.000004,0.003593,0.001327,0.147757,-0.020767,0.191170,0.191170,0.173091,0.663490,0.000000,0.000000,0.000000,0.000000,0.000000,0.000000,0.000000,0.000000,0.000000,0.000000,0.000000,0.000000,0.143055,3,0
850000,-0.001285,21.745855,-0.037703,-0.004143,25.478683,0.003770,0.001242,0.014570,1.568963,-0.038541,0.000203,0.000041,-0.000022,-0.003801,0.000005,0.005680,0.001327,0.186550,0.019950,0.191679,0.191679,0.173135,0.656009,0.000000,0.000000,0.000000,0.000000,0.000000,0.000000,0.000000,0.000000,0.000000,0.000000,0.000000,0.000000,0.180594,3,0
860000,-0.001284,22.006557,-0.036686,-0.004095,25.490580,0.005314,0.001261,0.015086,1.568948,-0.039626,0.000210,-0.000178,-0.000023,-0.003957,0.000005,0.005661,0.001326,0.184212,0.033878,0.192176,0.192175,0.173165,0.648598,0.000000,0.000000,0.000000,0.000000,0.000000,0.000000,0.000000,0.000000,0.000000,0.000000,0.000000,0.000000,0.178317,3,0
870000,-0.001283,22.268593,-0.036341,-0.004071,25.504597,0.005886,0.001272,0.015699,1.568934,-0.040943,0.000217,-0.000245,-0.000024,-0.004148,0.000005,0.007936,0.001325,0.221575,0.010040,0.192659,0.192658,0.173181,0.641261,0.000000,0.000000,0.000000,0.000000,0.000000,0.000000,0.000000,0.000000,0.000000,0.000000,0.000000,0.000000,0.214464,3,0
880000,-0.001282,22.530025,-0.035334,-0.004086,25.517326,0.007302,0.001281,0.016262,1.568909,-0.042128,0.000224,-0.000462,-0.000025,-0.004324,0.000005,0.006495,0.001324,0.197948,0.032833,0.193129,0.193128,0.173182,0.634000,0.000000,0.000000,0.000000,0.000000,0.000000,0.000000,0.000000,0.000000,0.000000,0.000000,0.000000,0.000000,0.191580,3,0
890000,-0.001280,22.788935,-0.035158,-0.004016,25.525530,0.007602,0.001290,0.016607,1.568880,-0.042824,0.000231,-0.000487,-0.000026,-0.004428,0.000005,0.002146,0.001322,0.115295,0.003494,0.193585,0.193584,0.173170,0.626819,0.000000,0.000000,0.000000,0.000000,0.000000,0.000000,0.000000,0.000000,0.000000,0.000000,0.000000,0.000000,0.111583,3,0
900000,-0.001278,23.051773,-0.036121,-0.004007,25.540510,0.006155,0.001316,0.017295,1.568861,-0.044246,0.000238,-0.000249,-0.000027,-0.004645,0.000006,0.009041,0.001321,0.234005,-0.036013,0.194028,0.194027,0.173143,0.619722,0.000000,0.000000,0.000000,0.000000,0.000000,0.000000,0.000000,0.000000,0.000000,0.000000,0.000000,0.000000,0.226442,3,0
910000,-0.001276,23.312056,-0.037194,-0.003947,25.550856,0.004381,0.001327,0.017756,1.568834,-0.045164,0.000245,0.000015,-0.000028,-0.004787,0.000006,0.003875,0.001318,0.149925,-0.039311,0.194458,0.194457,0.173103,0.612711,0.000000,0.000000,0.000000,0.000000,0.000000,0.000000,0.000000,0.000000,0.000000,0.000000,0.000000,0.000000,0.145071,3,0
920000,-0.001273,23.574326,-0.037171,-0.003949,25.564657,0.004273,0.001337,0.018378,1.568807,-0.046442,0.000252,0.000016,-0.000030,-0.004989,0.000006,0.006950,0.001316,0.207600,-0.000679,0.194874,0.194872,0.173048,0.605790,0.000000,0.000000,0.000000,0.000000,0.000000,0.000000,0.000000,0.000000,0.000000,0.000000,0.000000,0.000000,0.200861,3,0
930000,-0.001269,23.836617,-0.038323,-0.003790,25.578215,0.002495,0.001344,0.019002,1.568783,-0.047705,0.000259,0.000299,-0.000031,-0.005190,0.000006,0.006963,0.001312,0.203621,-0.041408,0.195276,0.195275,0.172979,0.598959,0.000000,0.000000,0.000000,0.000000,0.000000,0.000000,0.000000,0.000000,0.000000,0.000000,0.000000,0.000000,0.196999,3,0
940000,-0.001264,24.098928,-0.037148,-0.003664,25.591726,0.004234,0.001353,0.019626,1.568765,-0.048948,0.000266,0.000017,-0.000032,-0.005392,0.000006,0.006682,0.001307,0.199615,0.039885,0.195666,0.195664,0.172896,0.592223,0.000000,0.000000,0.000000,0.000000,0.000000,0.000000,0.000000,0.000000,0.000000,0.000000,0.000000,0.000000,0.193110,3,0
950000,-0.001259,24.357361,-0.038490,-0.003675,25.598127,0.002347,0.001377,0.019904,1.568752,-0.049427,0.000274,0.000354,-0.000033,-0.005471,0.000006,0.001314,0.001301,0.076323,-0.048088,0.196042,0.196041,0.172799,0.585583,0.000000,0.000000,0.000000,0.000000,0.000000,0.000000,0.000000,0.000000,0.000000,0.000000,0.000000,0.000000,0.073838,3,0
960000,-0.001253,24.619764,-0.038552,-0.003536,25.611418,0.002189,0.001398,0.020549,1.568736,-0.050658,0.000281,0.000372,-0.000034,-0.005677,0.000007,0.006165,0.001295,0.195524,-0.002936,0.196406,0.196405,0.172689,0.579040,0.000000,0.000000,0.000000,0.000000,0.000000,0.000000,0.000000,0.000000,0.000000,0.000000,0.000000,0.000000,0.189127,3,0
970000,-0.001247,24.882177,-0.039595,-0.003553,25.624701,0.000839,0.001411,0.021176,1.568717,-0.051870,0.000288,0.000634,-0.000036,-0.005883,0.000007,0.006129,0.001289,0.191414,-0.037083,0.196757,0.196756,0.172565,0.572596,0.000000,0.000000,0.000000,0.000000,0.000000,0.000000,0.000000,0.000000,0.000000,0.000000,0.000000,0.000000,0.185141,3,0
980000,-0.001241,25.144600,-0.040813,-0.003547,25.637794,-0.000813,0.001432,0.021808,1.568696,-0.053061,0.000296,0.000939,-0.000037,-0.006089,0.000007,0.005949,0.001283,0.187292,-0.042656,0.197096,0.197095,0.172429,0.566253,0.000000,0.000000,0.000000,0.000000,0.000000,0.000000,0.000000,0.000000,0.000000,0.000000,0.000000,0.000000,0.181143,3,0
990000,-0.001234,25.407028,-0.040091,-0.003468,25.650633,0.000149,0.001448,0.022433,1.568681,-0.054230,0.000303,0.000749,-0.000038,-0.006294,0.000007,0.005513,0.001277,0.183165,0.025466,0.197424,0.197422,0.172280,0.560011,0.000000,0.000000,0.000000,0.000000,0.000000,0.000000,0.000000,0.000000,0.000000,0.000000,0.000000,0.000000,0.177142,3,0
1000000,-0.001227,25.668148,-0.040861,-0.003373,25.661032,-0.000775,0.001471,0.022933,1.568667,-0.055123,0.000310,0.000944,-0.000040,-0.006453,0.000007,0.003244,0.001269,0.139277,-0.026909,0.197739,0.197738,0.172119,0.553872,0.000000,0.000000,0.000000,0.000000,0.000000,0.000000,0.000000,0.000000,0.000000,0.000000,0.000000,0.000000,0.134691,3,0
1010000,-0.001218,25.929287,-0.040585,-0.003201,25.671377,-0.000354,0.001479,0.023424,1.568651,-0.056001,0.000317,0.000867,-0.000041,-0.006611,0.000008,0.003018,0.001260,0.136477,0.009904,0.198044,0.198042,0.171945,0.547837,0.000000,0.000000,0.000000,0.000000,0.000000,0.000000,0.000000,0.000000,0.000000,0.000000,0.000000,0.000000,0.131977,3,0
1020000,-0.001210,26.188473,-0.040651,-0.003204,25.678101,-0.000231,0.001498,0.023715,1.568624,-0.056479,0.000325,0.000881,-0.000042,-0.006699,0.000008,0.000884,0.001251,0.074022,-0.002211,0.198338,0.198336,0.171760,0.541906,0.000000,0.000000,0.000000,0.000000,0.000000,0.000000,0.000000,0.000000,0.000000,0.000000,0.000000,0.000000,0.071585,3,0
1030000,-0.001201,26.447702,-0.040826,-0.003166,25.684999,-0.000523,0.001512,0.024017,1.568594,-0.056953,0.000332,0.000925,-0.000044,-0.006787,0.000008,0.000869,0.001242,0.073195,-0.006005,0.198622,0.198620,0.171563,0.536080,0.000000,0.000000,0.000000,0.000000,0.000000,0.000000,0.000000,0.000000,0.000000,0.000000,0.000000,0.000000,0.070782,3,0
1040000,-0.001191,26.706316,-0.041282,-0.003050,25.690544,-0.001154,0.001523,0.024260,1.568576,-0.057294,0.000340,0.001043,-0.000045,-0.006851,0.000008,0.000484,0.001232,0.052446,-0.015758,0.198896,0.198894,0.171356,0.530359,0.000000,0.000000,0.000000,0.000000,0.000000,0.000000,0.000000,0.000000,0.000000,0.000000,0.000000,0.000000,0.050721,3,0
1050000,-0.001181,26.966299,-0.041861,-0.002944,25.698536,-0.001965,0.001545,0.024642,1.568546,-0.057894,0.000348,0.001193,-0.000047,-0.006966,0.000008,0.001427,0.001222,0.091959,-0.019855,0.199160,0.199158,0.171138,0.524743,0.000000,0.000000,0.000000,0.000000,0.000000,0.000000,0.000000,0.000000,0.000000,0.000000,0.000000,0.000000,0.088915,3,0
1060000,-0.001171,27.225653,-0.042163,-0.002914,25.705359,-0.002255,0.001566,0.024949,1.568529,-0.058354,0.000355,0.001268,-0.000048,-0.007056,0.000008,0.000816,0.001211,0.070440,-0.009922,0.199415,0.199413,0.170910,0.519232,0.000000,0.000000,0.000000,0.000000,0.000000,0.000000,0.000000,0.000000,0.000000,0.000000,0.000000,0.000000,0.068110,3,0
1070000,-0.001161,27.485704,-0.042466,-0.002917,25.713314,-0.002629,0.001581,0.025320,1.568502,-0.058939,0.000362,0.001341,-0.000050,-0.007171,0.000008,0.001301,0.001201,0.089325,-0.009818,0.199662,0.199659,0.170672,0.513827,0.000000,0.000000,0.000000,0.000000,0.000000,0.000000,0.000000,0.000000,0.000000,0.000000,0.000000,0.000000,0.086361,3,0
1080000,-0.001149,27.745121,-0.041674,-0.002737,25.719980,-0.001325,0.001602,0.025618,1.568477,-0.059382,0.000369,0.001113,-0.000051,-0.007260,0.000008,0.000874,0.001189,0.067741,0.028795,0.199901,0.199898,0.170425,0.508527,0.000000,0.000000,0.000000,0.000000,0.000000,0.000000,0.000000,0.000000,0.000000,0.000000,0.000000,0.000000,0.065495,3,0
1090000,-0.001137,28.005236,-0.041120,-0.002679,25.727774,-0.000595,0.001616,0.025987,1.568460,-0.059950,0.000376,0.000951,-0.000053,-0.007376,0.000008,0.001273,0.001177,0.086561,0.020068,0.200132,0.200129,0.170169,0.503332,0.000000,0.000000,0.000000,0.000000,0.000000,0.000000,0.000000,0.000000,0.000000,0.000000,0.000000,0.000000,0.083681,3,0
1100000,-0.001125,28.268026,-0.040643,-0.002555,25.740150,0.000179,0.001642,0.026645,1.568433,-0.061031,0.000383,0.000808,-0.000054,-0.007599,0.000009,0.004397,0.001164,0.164310,0.017117,0.200355,0.200352,0.169904,0.498241,0.000000,0.000000,0.000000,0.000000,0.000000,0.000000,0.000000,0.000000,0.000000,0.000000,0.000000,0.000000,0.158829,3,0
1110000,-0.001112,28.529470,-0.040163,-0.002533,25.750069,0.000757,0.001652,0.027161,1.568409,-0.061821,0.000389,0.000667,-0.000055,-0.007764,0.000009,0.002369,0.001151,0.120062,0.017042,0.200573,0.200569,0.169631,0.493254,0.000000,0.000000,0.000000,0.000000,0.000000,0.000000,0.000000,0.000000,0.000000,0.000000,0.000000,0.000000,0.116054,3,0
1120000,-0.001099,28.789583,-0.040616,-0.002392,25.757505,-0.000001,0.001671,0.027512,1.568380,-0.062331,0.000396,0.000795,-0.000057,-0.007873,0.000009,0.001002,0.001137,0.077185,-0.016220,0.200783,0.200780,0.169350,0.488370,0.000000,0.000000,0.000000,0.000000,0.000000,0.000000,0.000000,0.000000,0.000000,0.000000,0.000000,0.000000,0.074610,3,0
1130000,-0.001085,29.051712,-0.040731,-0.002362,25.768349,-0.000005,0.001690,0.028086,1.568362,-0.063223,0.000403,0.000822,-0.000058,-0.008065,0.000009,0.002941,0.001123,0.135059,-0.004032,0.200988,0.200984,0.169062,0.483589,0.000000,0.000000,0.000000,0.000000,0.000000,0.000000,0.000000,0.000000,0.000000,0.000000,0.000000,0.000000,0.130540,3,0
1140000,-0.001071,29.311161,-0.039434,-0.002232,25.774479,0.001734,0.001709,0.028347,1.568343,-0.063562,0.000409,0.000441,-0.000060,-0.008139,0.000009,0.000777,0.001108,0.051733,0.046180,0.201187,0.201183,0.168767,0.478910,0.000000,0.000000,0.000000,0.000000,0.000000,0.000000,0.000000,0.000000,0.000000,0.000000,0.000000,0.000000,0.050011,3,0
1150000,-0.001056,29.573305,-0.038246,-0.002100,25.785309,0.003422,0.001732,0.028920,1.568318,-0.064421,0.000415,0.000090,-0.000061,-0.008330,0.000009,0.003012,0.001093,0.130161,0.041780,0.201382,0.201378,0.168466,0.474332,0.000000,0.000000,0.000000,0.000000,0.000000,0.000000,0.000000,0.000000,0.000000,0.000000,0.000000,0.000000,0.125798,3,0
1160000,-0.001041,29.831427,-0.037532,-0.002037,25.788918,0.004300,0.001750,0.029018,1.568289,-0.064467,0.000422,-0.000112,-0.000063,-0.008340,0.000009,0.000103,0.001077,0.007063,0.024240,0.201572,0.201567,0.168158,0.469855,0.000000,0.000000,0.000000,0.000000,0.000000,0.000000,0.000000,0.000000,0.000000,0.000000,0.000000,0.000000,0.006905,3,0
1170000,-0.001024,30.090263,-0.037432,-0.001882,25.793728,0.004271,0.001772,0.029195,1.568267,-0.064647,0.000429,-0.000131,-0.000065,-0.008381,0.000009,0.000120,0.001060,0.027208,0.002140,0.201757,0.201752,0.167845,0.465477,0.000000,0.000000,0.000000,0.000000,0.000000,0.000000,0.000000,0.000000,0.000000,0.000000,0.000000,0.000000,0.026313,3,0
1180000,-0.001007,30.351141,-0.037870,-0.001713,25.802044,0.003550,0.001789,0.029608,1.568245,-0.065218,0.000435,0.000009,-0.000066,-0.008514,0.000010,0.001249,0.001042,0.086388,-0.017104,0.201939,0.201934,0.167526,0.461196,0.000000,0.000000,0.000000,0.000000,0.000000,0.000000,0.000000,0.000000,0.000000,0.000000,0.000000,0.000000,0.083485,3,0
1190000,-0.000989,30.611349,-0.037789,-0.001553,25.808989,0.003799,0.001798,0.029935,1.568229,-0.065641,0.000441,-0.000009,-0.000068,-0.008613,0.000010,0.000660,0.001023,0.063974,0.001657,0.202118,0.202112,0.167202,0.457013,0.000000,0.000000,0.000000,0.000000,0.000000,0.000000,0.000000,0.000000,0.000000,0.000000,0.000000,0.000000,0.061827,3,0
1200000,-0.000970,30.871567,-0.039066,-0.001390,25.815907,0.001994,0.001817,0.030265,1.568205,-0.066053,0.000448,0.000390,-0.000069,-0.008712,0.000010,0.000982,0.001003,0.062124,-0.047188,0.202293,0.202287,0.166874,0.452925,0.000000,0.000000,0.000000,0.000000,0.000000,0.000000,0.000000,0.000000,0.000000,0.000000,0.000000,0.000000,0.060036,3,0
1210000,-0.000951,31.133806,-0.040263,-0.001340,25.826328,0.000551,0.001835,0.030841,1.568194,-0.066847,0.000454,0.000758,-0.000071,-0.008904,0.000010,0.002625,0.000984,0.119898,-0.043701,0.202466,0.202460,0.166541,0.448932,0.000000,0.000000,0.000000,0.000000,0.000000,0.000000,0.000000,0.000000,0.000000,0.000000,0.000000,0.000000,0.115854,3,0
1220000,-0.000930,31.395348,-0.039270,-0.001152,25.835419,0.001944,0.001859,0.031327,1.568173,-0.067478,0.000459,0.000444,-0.000072,-0.009059,0.000010,0.001695,0.000963,0.096100,0.035769,0.202637,0.202630,0.166205,0.445033,0.000000,0.000000,0.000000,0.000000,0.000000,0.000000,0.000000,0.000000,0.000000,0.000000,0.000000,0.000000,0.092860,3,0
1230000,-0.000910,31.658220,-0.039546,-0.001111,25.846783,0.001473,0.001882,0.031957,1.568157,-0.068352,0.000464,0.000526,-0.000073,-0.009277,0.000010,0.002851,0.000942,0.132652,-0.010440,0.202805,0.202798,0.165865,0.441227,0.000000,0.000000,0.000000,0.000000,0.000000,0.000000,0.000000,0.000000,0.000000,0.000000,0.000000,0.000000,0.128171,3,0
1240000,-0.000889,31.920382,-0.038156,-0.001012,25.856819,0.003338,0.001891,0.032503,1.568145,-0.069061,0.000469,0.000082,-0.000075,-0.009456,0.000010,0.002291,0.000921,0.108210,0.050009,0.202973,0.202965,0.165522,0.437511,0.000000,0.000000,0.000000,0.000000,0.000000,0.000000,0.000000,0.000000,0.000000,0.000000,0.000000,0.000000,0.104555,3,0
1250000,-0.000867,32.178482,-0.038342,-0.000802,25.859488,0.002889,0.001912,0.032536,1.568130,-0.068964,0.000475,0.000153,-0.000076,-0.009431,0.000010,0.000046,0.000898,-0.014900,-0.007958,0.203138,0.203131,0.165175,0.433885,0.000000,0.000000,0.000000,0.000000,0.000000,0.000000,0.000000,0.000000,0.000000,0.000000,0.000000,0.000000,0.014423,3,0
1260000,-0.000845,32.436619,-0.039214,-0.000628,25.862192,0.001794,0.001931,0.032564,1.568108,-0.068870,0.000481,0.000445,-0.000078,-0.009407,0.000010,0.000209,0.000874,-0.014599,-0.032830,0.203303,0.203295,0.164827,0.430348,0.000000,0.000000,0.000000,0.000000,0.000000,0.000000,0.000000,0.000000,0.000000,0.000000,0.000000,0.000000,0.014132,3,0
1270000,-0.000822,32.699512,-0.040467,-0.000507,25.873280,0.000229,0.001946,0.033187,1.568086,-0.069689,0.000486,0.000846,-0.000079,-0.009624,0.000011,0.002854,0.000850,0.124813,-0.046149,0.203467,0.203459,0.164476,0.426897,0.000000,0.000000,0.000000,0.000000,0.000000,0.000000,0.000000,0.000000,0.000000,0.000000,0.000000,0.000000,0.120582,3,0
1280000,-0.000799,32.958988,-0.040392,-0.000461,25.878176,0.000317,0.001963,0.033373,1.568067,-0.069825,0.000491,0.000820,-0.000080,-0.009660,0.000011,0.000071,0.000827,0.020840,0.002708,0.203631,0.203622,0.164123,0.423532,0.000000,0.000000,0.000000,0.000000,0.000000,0.000000,0.000000,0.000000,0.000000,0.000000,0.000000,0.000000,0.020150,3,0
1290000,-0.000775,33.217129,-0.040172,-0.000298,25.880596,0.000465,0.001986,0.033379,1.568050,-0.069694,0.000496,0.000751,-0.000082,-0.009625,0.000011,0.000075,0.000802,-0.020016,0.007929,0.203795,0.203785,0.163768,0.420251,0.000000,0.000000,0.000000,0.000000,0.000000,0.000000,0.000000,0.000000,0.000000,0.000000,0.000000,0.000000,0.019352,3,0
1300000,-0.000750,33.476650,-0.039973,-0.000085,25.885445,0.000720,0.002012,0.033561,1.568032,-0.069824,0.000501,0.000684,-0.000083,-0.009660,0.000011,0.000073,0.000776,0.020000,0.007197,0.203958,0.203948,0.163412,0.417052,0.000000,0.000000,0.000000,0.000000,0.000000,0.000000,0.000000,0.000000,0.000000,0.000000,0.000000,0.000000,0.019336,3,0
1310000,-0.000724,33.738888,-0.040271,0.000061,25.895086,0.000384,0.002036,0.034093,1.568008,-0.070461,0.000505,0.000776,-0.000084,-0.009839,0.000011,0.001578,0.000750,0.098373,-0.010995,0.204122,0.204111,0.163055,0.413935,0.000000,0.000000,0.000000,0.000000,0.000000,0.000000,0.000000,0.000000,0.000000,0.000000,0.000000,0.000000,0.095031,3,0
1320000,-0.000698,34.001766,-0.039391,0.000232,25.905762,0.001528,0.002046,0.034694,1.567979,-0.071198,0.000508,0.000468,-0.000086,-0.010048,0.000011,0.002277,0.000722,0.114346,0.032582,0.204286,0.204275,0.162698,0.410898,0.000000,0.000000,0.000000,0.000000,0.000000,0.000000,0.000000,0.000000,0.000000,0.000000,0.000000,0.000000,0.110457,3,0
1330000,-0.000671,34.264603,-0.039887,0.000384,25.916193,0.000893,0.002061,0.035293,1.567948,-0.071906,0.000512,0.000630,-0.000087,-0.010252,0.000011,0.001997,0.000694,0.109787,-0.018613,0.204451,0.204440,0.162339,0.407939,0.000000,0.000000,0.000000,0.000000,0.000000,0.000000,0.000000,0.000000,0.000000,0.000000,0.000000,0.000000,0.106047,3,0
1340000,-0.000644,34.526043,-0.041089,0.000431,25.924019,-0.000756,0.002068,0.035687,1.567923,-0.072329,0.000516,0.001037,-0.000088,-0.010376,0.000011,0.001014,0.000667,0.065510,-0.044606,0.204617,0.204605,0.161981,0.405058,0.000000,0.000000,0.000000,0.000000,0.000000,0.000000,0.000000,0.000000,0.000000,0.000000,0.000000,0.000000,0.063274,3,0
1350000,-0.000617,34.788128,-0.041189,0.000603,25.932863,-0.001076,0.002087,0.036178,1.567910,-0.072856,0.000519,0.001058,-0.000089,-0.010532,0.000011,0.001092,0.000638,0.082298,-0.003117,0.204784,0.204771,0.161622,0.402251,0.000000,0.000000,0.000000,0.000000,0.000000,0.000000,0.000000,0.000000,0.000000,0.000000,0.000000,0.000000,0.079493,3,0
1360000,-0.000589,35.049500,-0.041244,0.000729,25.940426,-0.001292,0.002094,0.036545,1.567894,-0.073230,0.000522,0.001066,-0.000090,-0.010644,0.000012,0.000554,0.000610,0.058670,-0.001396,0.204952,0.204939,0.161263,0.399519,0.000000,0.000000,0.000000,0.000000,0.000000,0.000000,0.000000,0.000000,0.000000,0.000000,0.000000,0.000000,0.056670,3,0
1370000,-0.000560,35.310848,-0.041970,0.000925,25.947821,-0.002237,0.002119,0.036910,1.567869,-0.073584,0.000526,0.001308,-0.000091,-0.010753,0.000012,0.000611,0.000580,0.055645,-0.026394,0.205122,0.205107,0.160905,0.396860,0.000000,0.000000,0.000000,0.000000,0.000000,0.000000,0.000000,0.000000,0.000000,0.000000,0.000000,0.000000,0.053744,3,0
1380000,-0.000531,35.572842,-0.040902,0.001083,25.956278,-0.000832,0.002137,0.037356,1.567845,-0.074040,0.000528,0.000914,-0.000092,-0.010894,0.000012,0.001119,0.000550,0.072533,0.040974,0.205293,0.205277,0.160548,0.394272,0.000000,0.000000,0.000000,0.000000,0.000000,0.000000,0.000000,0.000000,0.000000,0.000000,0.000000,0.000000,0.070059,3,0
1390000,-0.000501,35.832764,-0.041481,0.001242,25.960855,-0.001432,0.002150,0.037503,1.567816,-0.074100,0.000531,0.001116,-0.000093,-0.010913,0.000012,0.000088,0.000519,0.009243,-0.021379,0.205465,0.205449,0.160191,0.391753,0.000000,0.000000,0.000000,0.000000,0.000000,0.000000,0.000000,0.000000,0.000000,0.000000,0.000000,0.000000,0.008937,3,0
1400000,-0.000470,36.094036,-0.041555,0.001426,25.967752,-0.001680,0.002157,0.037845,1.567791,-0.074397,0.000534,0.001130,-0.000094,-0.011007,0.000012,0.000363,0.000487,0.047459,-0.002006,0.205639,0.205622,0.159836,0.389302,0.000000,0.000000,0.000000,0.000000,0.000000,0.000000,0.000000,0.000000,0.000000,0.000000,0.000000,0.000000,0.045836,3,0
1410000,-0.000441,36.355286,-0.041942,0.001453,25.974592,-0.002126,0.002172,0.038167,1.567775,-0.074676,0.000537,0.001258,-0.000095,-0.011098,0.000012,0.000350,0.000456,0.044540,-0.013770,0.205815,0.205797,0.159481,0.386919,0.000000,0.000000,0.000000,0.000000,0.000000,0.000000,0.000000,0.000000,0.000000,0.000000,0.000000,0.000000,0.043013,3,0
1420000,-0.000410,36.615822,-0.041858,0.001658,25.980148,-0.001916,0.002192,0.038383,1.567755,-0.074811,0.000539,0.001216,-0.000095,-0.011142,0.000012,0.000079,0.000424,0.021767,0.004020,0.205992,0.205974,0.159128,0.384601,0.000000,0.000000,0.000000,0.000000,0.000000,0.000000,0.000000,0.000000,0.000000,0.000000,0.000000,0.000000,0.021023,3,0
1430000,-0.000378,36.875660,-0.042944,0.001815,25.984270,-0.003121,0.002208,0.038499,1.567744,-0.074812,0.000542,0.001607,-0.000096,-0.011143,0.000012,0.000264,0.000392,-0.000275,-0.040332,0.206171,0.206152,0.158777,0.382347,0.000000,0.000000,0.000000,0.000000,0.000000,0.000000,0.000000,0.000000,0.000000,0.000000,0.000000,0.000000,0.000465,3,0
1440000,-0.000346,37.134808,-0.044156,0.002011,25.987160,-0.004532,0.002215,0.038498,1.567719,-0.074682,0.000545,0.002046,-0.000097,-0.011100,0.000012,0.000402,0.000358,-0.021610,-0.044844,0.206353,0.206333,0.158427,0.380155,0.000000,0.000000,0.000000,0.000000,0.000000,0.000000,0.000000,0.000000,0.000000,0.000000,0.000000,0.000000,0.020877,3,0
1450000,-0.000313,37.395325,-0.044743,0.002205,25.992435,-0.005410,0.002231,0.038690,1.567689,-0.074790,0.000547,0.002243,-0.000098,-0.011137,0.000012,0.000116,0.000324,0.017399,-0.020404,0.206536,0.206515,0.158080,0.378024,0.000000,0.000000,0.000000,0.000000,0.000000,0.000000,0.000000,0.000000,0.000000,0.000000,0.000000,0.000000,0.016799,3,0
1460000,-0.000280,37.653763,-0.044286,0.002378,25.993864,-0.004957,0.002249,0.038574,1.567665,-0.074519,0.000549,0.002059,-0.000098,-0.011043,0.000012,0.000378,0.000290,-0.044380,0.019323,0.206721,0.206699,0.157734,0.375953,0.000000,0.000000,0.000000,0.000000,0.000000,0.000000,0.000000,0.000000,0.000000,0.000000,0.000000,0.000000,0.042851,3,0
1470000,-0.000246,37.912209,-0.043915,0.002472,25.995180,-0.004610,0.002261,0.038451,1.567643,-0.074250,0.000551,0.001908,-0.000099,-0.010947,0.000012,0.000358,0.000255,-0.044407,0.015889,0.206908,0.206885,0.157391,0.373939,0.000000,0.000000,0.000000,0.000000,0.000000,0.000000,0.000000,0.000000,0.000000,0.000000,0.000000,0.000000,0.042874,3,0
1480000,-0.000214,38.171352,-0.043165,0.002516,25.997810,-0.003769,0.002284,0.038429,1.567627,-0.074100,0.000552,0.001610,-0.000099,-0.010893,0.000012,0.000246,0.000221,-0.024563,0.030332,0.207096,0.207073,0.157050,0.371983,0.000000,0.000000,0.000000,0.000000,0.000000,0.000000,0.000000,0.000000,0.000000,0.000000,0.000000,0.000000,0.023713,3,0
1490000,-0.000182,38.434620,-0.043408,0.002567,26.007895,-0.003994,0.002299,0.039032,1.567613,-0.074661,0.000552,0.001671,-0.000100,-0.011097,0.000012,0.001430,0.000188,0.093967,-0.007407,0.207287,0.207262,0.156712,0.370083,0.000000,0.000000,0.000000,0.000000,0.000000,0.000000,0.000000,0.000000,0.000000,0.000000,0.000000,0.000000,0.090721,3,0
1500000,-0.000150,38.693008,-0.043808,0.002666,26.008984,-0.004338,0.002319,0.038878,1.567592,-0.074365,0.000554,0.001819,-0.000100,-0.010988,0.000012,0.000437,0.000155,-0.050125,-0.014110,0.207479,0.207454,0.156376,0.368236,0.000000,0.000000,0.000000,0.000000,0.000000,0.000000,0.000000,0.000000,0.000000,0.000000,0.000000,0.000000,0.048393,3,0
1510000,-0.000117,38.955540,-0.044508,0.002842,26.017588,-0.005398,0.002331,0.039348,1.567573,-0.074774,0.000554,0.002059,-0.000100,-0.011142,0.000012,0.000869,0.000121,0.069172,-0.024755,0.207673,0.207647,0.156043,0.366443,0.000000,0.000000,0.000000,0.000000,0.000000,0.000000,0.000000,0.000000,0.000000,0.000000,0.000000,0.000000,0.066773,3,0
1520000,-0.000085,39.218006,-0.043620,0.002958,26.025999,-0.004471,0.002343,0.039801,1.567552,-0.075151,0.000553,0.001678,-0.000100,-0.011284,0.000012,0.000899,0.000088,0.064980,0.036754,0.207869,0.207842,0.155713,0.364701,0.000000,0.000000,0.000000,0.000000,0.000000,0.000000,0.000000,0.000000,0.000000,0.000000,0.000000,0.000000,0.062733,3,0
1530000,-0.000053,39.478348,-0.043309,0.002980,26.030478,-0.004092,0.002366,0.039919,1.567541,-0.075157,0.000553,0.001539,-0.000100,-0.011286,0.000012,0.000031,0.000055,0.001217,0.013746,0.208066,0.208038,0.155385,0.363010,0.000000,0.000000,0.000000,0.000000,0.000000,0.000000,0.000000,0.000000,0.000000,0.000000,0.000000,0.000000,0.001180,3,0
1540000,-0.000022,39.740055,-0.043836,0.003041,26.037350,-0.004837,0.002384,0.040238,1.567520,-0.075382,0.000553,0.001721,-0.000100,-0.011375,0.000012,0.000300,0.000022,0.039013,-0.018506,0.208266,0.208236,0.155061,0.361368,0.000000,0.000000,0.000000,0.000000,0.000000,0.000000,0.000000,0.000000,0.000000,0.000000,0.000000,0.000000,0.037655,3,0
1550000,0.000009,39.998947,-0.043332,0.003149,26.038837,-0.004095,0.002403,0.040096,1.567490,-0.075130,0.000553,0.001512,-0.000100,-0.011274,0.000012,0.000382,-0.000010,-0.043854,0.021117,0.208466,0.208436,0.154740,0.359772,0.000000,0.000000,0.000000,0.000000,0.000000,0.000000,0.000000,0.000000,0.000000,0.000000,0.000000,0.000000,0.042328,3,0
1560000,0.000041,40.261986,-0.043829,0.003313,26.047863,-0.004934,0.002422,0.040625,1.567475,-0.075556,0.000553,0.001676,-0.000100,-0.011446,0.000012,0.000951,-0.000043,0.074947,-0.017135,0.208668,0.208637,0.154423,0.358223,0.000000,0.000000,0.000000,0.000000,0.000000,0.000000,0.000000,0.000000,0.000000,0.000000,0.000000,0.000000,0.072338,3,0
1570000,0.000073,40.524952,-0.044221,0.003482,26.056662,-0.005355,0.002425,0.041126,1.567456,-0.075952,0.000551,0.001798,-0.000100,-0.011609,0.000012,0.000821,-0.000076,0.070240,-0.012872,0.208871,0.208839,0.154108,0.356719,0.000000,0.000000,0.000000,0.000000,0.000000,0.000000,0.000000,0.000000,0.000000,0.000000,0.000000,0.000000,0.067795,3,0
1580000,0.000106,40.782993,-0.042917,0.003617,26.056408,-0.003763,0.002439,0.040811,1.567442,-0.075538,0.000551,0.001266,-0.000100,-0.011435,0.000012,0.001317,-0.000110,-0.073544,0.052494,0.209076,0.209042,0.153797,0.355260,0.000000,0.000000,0.000000,0.000000,0.000000,0.000000,0.000000,0.000000,0.000000,0.000000,0.000000,0.000000,0.070973,3,0
1590000,0.000137,41.045200,-0.041755,0.003658,26.063692,-0.002328,0.002462,0.041179,1.567428,-0.075790,0.000549,0.000767,-0.000099,-0.011540,0.000012,0.000704,-0.000142,0.046116,0.047206,0.209282,0.209247,0.153490,0.353843,0.000000,0.000000,0.000000,0.000000,0.000000,0.000000,0.000000,0.000000,0.000000,0.000000,0.000000,0.000000,0.044518,3,0
1600000,0.000170,41.303200,-0.042887,0.003865,26.063168,-0.003598,0.002479,0.040860,1.567406,-0.075371,0.000550,0.001240,-0.000099,-0.011362,0.000012,0.001269,-0.000176,-0.077011,-0.043998,0.209489,0.209453,0.153186,0.352468,0.000000,0.000000,0.000000,0.000000,0.000000,0.000000,0.000000,0.000000,0.000000,0.000000,0.000000,0.000000,0.074330,3,0
1610000,0.000202,41.564678,-0.043428,0.003905,26.069088,-0.004194,0.002492,0.041093,1.567389,-0.075496,0.000549,0.001442,-0.000098,-0.011417,0.000012,0.000146,-0.000209,0.022816,-0.019653,0.209697,0.209659,0.152886,0.351133,0.000000,0.000000,0.000000,0.000000,0.000000,0.000000,0.000000,0.000000,0.000000,0.000000,0.000000,0.000000,0.022016,3,0
1620000,0.000234,41.824013,-0.043048,0.004064,26.070932,-0.003833,0.002513,0.040972,1.567370,-0.075281,0.000547,0.001277,-0.000098,-0.011321,0.000012,0.000300,-0.000243,-0.039928,0.016334,0.209905,0.209867,0.152589,0.349837,0.000000,0.000000,0.000000,0.000000,0.000000,0.000000,0.000000,0.000000,0.000000,0.000000,0.000000,0.000000,0.038529,3,0
1630000,0.000267,42.085430,-0.043777,0.004182,26.076679,-0.004804,0.002526,0.041188,1.567358,-0.075382,0.000546,0.001559,-0.000097,-0.011368,0.000012,0.000175,-0.000276,0.018780,-0.027013,0.210114,0.210075,0.152297,0.348580,0.000000,0.000000,0.000000,0.000000,0.000000,0.000000,0.000000,0.000000,0.000000,0.000000,0.000000,0.000000,0.018118,3,0
1640000,0.000298,42.345409,-0.044935,0.004212,26.079594,-0.006215,0.002541,0.041168,1.567332,-0.075259,0.000545,0.002031,-0.000097,-0.011313,0.000012,0.000407,-0.000309,-0.024029,-0.043967,0.210324,0.210283,0.152007,0.347359,0.000000,0.000000,0.000000,0.000000,0.000000,0.000000,0.000000,0.000000,0.000000,0.000000,0.000000,0.000000,0.023199,3,0
1650000,0.000329,42.603260,-0.044806,0.004250,26.078609,-0.005821,0.002558,0.040768,1.567303,-0.074813,0.000545,0.001974,-0.000096,-0.011106,0.000012,0.001176,-0.000341,-0.085247,0.006791,0.210534,0.210492,0.151722,0.346175,0.000000,0.000000,0.000000,0.000000,0.000000,0.000000,0.000000,0.000000,0.000000,0.000000,0.000000,0.000000,0.082257,3,0
1660000,0.000359,42.865295,-0.043544,0.004303,26.085207,-0.004350,0.002566,0.041068,1.567290,-0.074989,0.000541,0.001404,-0.000095,-0.011187,0.000012,0.000643,-0.000372,0.034611,0.052663,0.210744,0.210701,0.151441,0.345024,0.000000,0.000000,0.000000,0.000000,0.000000,0.000000,0.000000,0.000000,0.000000,0.000000,0.000000,0.000000,0.033407,3,0
1670000,0.000390,43.123775,-0.042464,0.004462,26.085091,-0.003073,0.002589,0.040769,1.567266,-0.074636,0.000540,0.000945,-0.000094,-0.011017,0.000012,0.001068,-0.000404,-0.068455,0.044006,0.210955,0.210910,0.151163,0.343906,0.000000,0.000000,0.000000,0.000000,0.000000,0.000000,0.000000,0.000000,0.000000,0.000000,0.000000,0.000000,0.066041,3,0
1680000,0.000420,43.382263,-0.042739,0.004582,26.085012,-0.003277,0.002592,0.040470,1.567238,-0.074290,0.000538,0.001071,-0.000093,-0.010849,0.000012,0.000772,-0.000436,-0.068512,-0.010371,0.211165,0.211119,0.150890,0.342821,0.000000,0.000000,0.000000,0.000000,0.000000,0.000000,0.000000,0.000000,0.000000,0.000000,0.000000,0.000000,0.066106,3,0
1690000,0.000452,43.644943,-0.042915,0.004761,26.092672,-0.003414,0.002609,0.040866,1.567219,-0.074544,0.000536,0.001117,-0.000092,-0.010974,0.000012,0.000418,-0.000468,0.050697,-0.005242,0.211375,0.211328,0.150620,0.341767,0.000000,0.000000,0.000000,0.000000,0.000000,0.000000,0.000000,0.000000,0.000000,0.000000,0.000000,0.000000,0.048914,3,0
1700000,0.000484,43.905457,-0.043992,0.004926,26.096235,-0.004794,0.002620,0.040886,1.567208,-0.074481,0.000534,0.001573,-0.000091,-0.010945,0.000012,0.000311,-0.000501,-0.013268,-0.041680,0.211585,0.211537,0.150354,0.340744,0.000000,0.000000,0.000000,0.000000,0.000000,0.000000,0.000000,0.000000,0.000000,0.000000,0.000000,0.000000,0.012819,3,0
1710000,0.000516,44.167332,-0.044985,0.005047,26.102242,-0.005804,0.002637,0.041146,1.567196,-0.074603,0.000531,0.001977,-0.000089,-0.011008,0.000012,0.000325,-0.000535,0.024368,-0.037602,0.211795,0.211745,0.150093,0.339751,0.000000,0.000000,0.000000,0.000000,0.000000,0.000000,0.000000,0.000000,0.000000,0.000000,0.000000,0.000000,0.023504,3,0
1720000,0.000547,44.427719,-0.043832,0.005134,26.105333,-0.004318,0.002646,0.041132,1.567170,-0.074508,0.000528,0.001453,-0.000088,-0.010957,0.000012,0.000436,-0.000568,-0.018898,0.048285,0.212003,0.211952,0.149835,0.338785,0.000000,0.000000,0.000000,0.000000,0.000000,0.000000,0.000000,0.000000,0.000000,0.000000,0.000000,0.000000,0.018227,3,0
