time_us,pos_x,pos_y,pos_z,vel_x,vel_y,vel_z,roll,pitch,yaw,bias_ax,bias_ay,bias_az,bias_gx,bias_gy,bias_gz,nis,innov_x,innov_y,innov_z,cov_pos_x,cov_pos_y,cov_pos_z,cov_yaw,des_speed,des_heading,des_climb,pid_speed,pid_yaw,pid_alt,speed_meas,yaw_meas,climb_meas,fwd_accel,yaw_rate,vert_accel,drift_m,nav_mode,mission_state
0,0.000003,0.150001,0.000003,0.000511,25.000153,0.000738,-0.000005,0.000009,1.570802,0.000000,0.000000,0.000000,0.000000,0.000000,0.000000,0.006250,-0.000005,-0.250004,-0.000007,2.400038,2.400038,3.600017,1.000518,0.000000,0.000000,0.000000,0.000000,0.000000,0.000000,0.000000,0.000000,0.000000,0.000000,0.000000,0.000000,0.150001,1,0
10000,0.000009,0.359552,0.007178,0.000914,25.000296,0.001498,-0.000008,0.000011,1.570806,0.000000,-0.000000,-0.000000,0.000000,0.000000,0.000000,0.002424,-0.000012,-0.141581,0.019093,1.714420,1.714420,2.250079,1.001073,0.000000,0.000000,0.000000,0.000000,0.000000,0.000000,0.000000,0.000000,0.000000,0.000000,0.000000,0.000000,0.101126,3,0
20000,0.000018,0.584535,-0.000878,0.001445,25.000418,0.002020,-0.000016,0.000003,1.570808,0.000001,-0.000000,0.000000,-0.000000,0.000000,0.000000,0.001749,-0.000023,-0.112586,-0.029610,1.333616,1.333616,1.636554,1.001655,0.000000,0.000000,0.000000,0.000000,0.000000,0.000000,0.000000,0.000000,0.000000,0.000000,0.000000,0.000000,0.087562,3,0
30000,0.000031,0.805683,-0.002196,0.001949,25.000269,0.002767,-0.000020,0.000012,1.570818,0.000004,-0.000000,0.000000,-0.000000,0.000000,0.000000,0.003438,-0.000038,-0.158660,-0.006279,1.091392,1.091392,1.286065,1.002257,0.000000,0.000000,0.000000,0.000000,0.000000,0.000000,0.000000,0.000000,0.000000,0.000000,0.000000,0.000000,0.129800,3,0
40000,0.000047,1.046184,0.003806,0.002467,25.000462,0.003393,-0.000026,0.000011,1.570825,0.000006,-0.000000,-0.000001,0.000000,0.000000,0.000000,0.000694,-0.000055,-0.061745,0.033809,0.923811,0.923811,1.059385,1.002869,0.000000,0.000000,0.000000,0.000000,0.000000,0.000000,0.000000,0.000000,0.000000,0.000000,0.000000,0.000000,0.052238,3,0
50000,0.000066,1.292996,0.003881,0.002882,25.000736,0.003922,-0.000018,0.000012,1.570834,0.000007,-0.000000,-0.000001,0.000000,0.000000,0.000000,0.000083,-0.000076,-0.023942,0.000238,0.801036,0.801036,0.900822,1.003484,0.000000,0.000000,0.000000,0.000000,0.000000,0.000000,0.000000,0.000000,0.000000,0.000000,0.000000,0.000000,0.020746,3,0
60000,0.000088,1.541554,-0.000943,0.003375,25.001064,0.004307,-0.000022,0.000015,1.570840,0.000008,-0.000000,0.000001,0.000000,0.000000,0.000000,0.000224,-0.000099,-0.012331,-0.037279,0.707270,0.707270,0.783741,1.004094,0.000000,0.000000,0.000000,0.000000,0.000000,0.000000,0.000000,0.000000,0.000000,0.000000,0.000000,0.000000,0.010878,3,0
70000,0.000113,1.797605,0.002889,0.003880,25.001972,0.005248,-0.000026,0.000023,1.570850,0.000003,-0.000000,-0.000001,0.000000,-0.000000,-0.000000,0.000645,-0.000126,0.057169,0.032706,0.633370,0.633370,0.693801,1.004688,0.000000,0.000000,0.000000,0.000000,0.000000,0.000000,0.000000,0.000000,0.000000,0.000000,0.000000,0.000000,0.051135,3,0
80000,0.000142,2.053322,-0.002109,0.004419,25.002951,0.005516,-0.000033,0.000034,1.570862,-0.000003,-0.000000,0.000004,0.000000,-0.000000,-0.000000,0.000889,-0.000157,0.059536,-0.048738,0.573673,0.573673,0.622594,1.005260,0.000000,0.000000,0.000000,0.000000,0.000000,0.000000,0.000000,0.000000,0.000000,0.000000,0.000000,0.000000,0.053843,3,0
90000,0.000175,2.296631,0.001663,0.004934,25.002607,0.006389,-0.000033,0.000030,1.570869,0.000007,-0.000000,-0.000001,0.000000,0.000000,0.000000,0.001134,-0.000192,-0.076916,0.039425,0.524488,0.524488,0.564865,1.005801,0.000000,0.000000,0.000000,0.000000,0.000000,0.000000,0.000000,0.000000,0.000000,0.000000,0.000000,0.000000,0.070193,3,0
100000,0.000210,2.548088,0.003231,0.005405,25.003099,0.007138,-0.000038,0.000024,1.570868,0.000004,-0.000000,-0.000004,0.000000,0.000000,0.000000,0.000094,-0.000229,0.017720,0.017381,0.483304,0.483304,0.517162,1.006301,0.000000,0.000000,0.000000,0.000000,0.000000,0.000000,0.000000,0.000000,0.000000,0.000000,0.000000,0.000000,0.016294,3,0
110000,0.000249,2.798481,0.001161,0.005881,25.003479,0.007657,-0.000044,0.000026,1.570877,0.000003,-0.000000,0.000001,0.000000,-0.000000,-0.000000,0.000116,-0.000269,0.004805,-0.027021,0.448354,0.448354,0.477121,1.006754,0.000000,0.000000,0.000000,0.000000,0.000000,0.000000,0.000000,0.000000,0.000000,0.000000,0.000000,0.000000,0.004453,3,0
120000,0.000290,3.043870,0.000730,0.006225,25.003059,0.008421,-0.000053,0.000024,1.570881,0.000018,-0.000000,0.000003,0.000000,0.000000,0.000000,0.000697,-0.000311,-0.066682,-0.006986,0.418359,0.418359,0.443071,1.007150,0.000000,0.000000,0.000000,0.000000,0.000000,0.000000,0.000000,0.000000,0.000000,0.000000,0.000000,0.000000,0.062033,3,0
130000,0.000333,3.296896,-0.000271,0.006630,25.003996,0.008930,-0.000062,0.000036,1.570890,0.000006,-0.000000,0.000007,0.000000,0.000000,0.000000,0.000365,-0.000356,0.045754,-0.015845,0.392370,0.392370,0.413797,1.007481,0.000000,0.000000,0.000000,0.000000,0.000000,0.000000,0.000000,0.000000,0.000000,0.000000,0.000000,0.000000,0.042763,3,0
140000,0.000380,3.543967,0.001357,0.007161,25.003757,0.009861,-0.000068,0.000034,1.570891,0.000020,-0.000000,-0.000000,0.000000,0.000000,0.000000,0.000452,-0.000404,-0.048251,0.023681,0.369667,0.369667,0.388393,1.007739,0.000000,0.000000,0.000000,0.000000,0.000000,0.000000,0.000000,0.000000,0.000000,0.000000,0.000000,0.000000,0.045280,3,0
150000,0.000429,3.795336,-0.002285,0.007609,25.004576,0.009589,-0.000070,0.000035,1.570891,0.000013,-0.000001,0.000020,0.000000,0.000000,0.000000,0.000671,-0.000456,0.022742,-0.061383,0.349696,0.349696,0.366172,1.007915,0.000000,0.000000,0.000000,0.000000,0.000000,0.000000,0.000000,0.000000,0.000000,0.000000,0.000000,0.000000,0.021421,3,0
160000,0.000482,4.044834,-0.002529,0.008130,25.004848,0.009980,-0.000063,0.000033,1.570898,0.000017,-0.000001,0.000022,0.000000,0.000000,0.000000,0.000021,-0.000511,-0.009965,-0.005969,0.332022,0.332022,0.346600,1.008002,0.000000,0.000000,0.000000,0.000000,0.000000,0.000000,0.000000,0.000000,0.000000,0.000000,0.000000,0.000000,0.009427,3,0
170000,0.000539,4.294833,-0.003628,0.008660,25.005297,0.010267,-0.000074,0.000032,1.570912,0.000017,-0.000001,0.000031,0.000000,0.000000,0.000000,0.000076,-0.000569,-0.001041,-0.021961,0.316298,0.316298,0.329260,1.007991,0.000000,0.000000,0.000000,0.000000,0.000000,0.000000,0.000000,0.000000,0.000000,0.000000,0.000000,0.000000,0.001124,3,0
180000,0.000598,4.552272,-0.004067,0.009115,25.008184,0.010616,-0.000073,0.000045,1.570911,-0.000053,-0.000001,0.000036,0.000000,-0.000002,-0.000000,0.003416,-0.000630,0.146533,-0.010449,0.302248,0.302248,0.313817,1.007875,0.000000,0.000000,0.000000,0.000000,0.000000,0.000000,0.000000,0.000000,0.000000,0.000000,0.000000,0.000000,0.139153,3,0
190000,0.000661,4.801801,-0.004219,0.009546,25.008385,0.011018,-0.000078,0.000036,1.570925,-0.000047,-0.000002,0.000039,0.000000,-0.000001,-0.000000,0.000026,-0.000694,-0.011539,-0.005266,0.289643,0.289643,0.300003,1.007645,0.000000,0.000000,0.000000,0.000000,0.000000,0.000000,0.000000,0.000000,0.000000,0.000000,0.000000,0.000000,0.011002,3,0
200000,0.000725,5.057298,-0.005021,0.009941,25.010843,0.011495,-0.000088,0.000064,1.570925,-0.000115,-0.000002,0.000050,0.000000,-0.000003,-0.000000,0.002221,-0.000760,0.116630,-0.019199,0.278297,0.278298,0.287598,1.007295,0.000000,0.000000,0.000000,0.000000,0.000000,0.000000,0.000000,0.000000,0.000000,0.000000,0.000000,0.000000,0.111223,3,0
210000,0.000792,5.307422,-0.005024,0.010418,25.011326,0.012102,-0.000095,0.000071,1.570931,-0.000115,-0.000003,0.000052,0.000000,-0.000003,-0.000000,0.000001,-0.000829,0.000260,-0.002695,0.268057,0.268057,0.276421,1.006816,0.000000,0.000000,0.000000,0.000000,0.000000,0.000000,0.000000,0.000000,0.000000,0.000000,0.000000,0.000000,0.000830,3,0
220000,0.000861,5.564767,-0.007227,0.010775,25.014994,0.011911,-0.000087,0.000107,1.570945,-0.000232,-0.000003,0.000088,0.000000,-0.000007,-0.000000,0.004919,-0.000900,0.167589,-0.052539,0.258790,0.258790,0.266321,1.006202,0.000000,0.000000,0.000000,0.000000,0.000000,0.000000,0.000000,0.000000,0.000000,0.000000,0.000000,0.000000,0.160363,3,0
230000,0.000932,5.821129,-0.007607,0.011127,25.018541,0.012235,-0.000086,0.000149,1.570949,-0.000345,-0.000004,0.000097,0.000000,-0.000011,-0.000000,0.003556,-0.000973,0.148754,-0.011772,0.250389,0.250389,0.257172,1.005446,0.000000,0.000000,0.000000,0.000000,0.000000,0.000000,0.000000,0.000000,0.000000,0.000000,0.000000,0.000000,0.142549,3,0
240000,0.001006,6.071789,-0.006879,0.011601,25.019180,0.013069,-0.000083,0.000147,1.570948,-0.000355,-0.000005,0.000085,0.000000,-0.000011,-0.000000,0.000055,-0.001048,0.011630,0.014472,0.242760,0.242760,0.248866,1.004541,0.000000,0.000000,0.000000,0.000000,0.000000,0.000000,0.000000,0.000000,0.000000,0.000000,0.000000,0.000000,0.011204,3,0
250000,0.001083,6.327435,-0.005894,0.012092,25.022747,0.014037,-0.000088,0.000191,1.570951,-0.000478,-0.000006,0.000066,0.000000,-0.000015,-0.000000,0.003150,-0.001127,0.138662,0.021108,0.235824,0.235824,0.241314,1.003481,0.000000,0.000000,0.000000,0.000000,0.000000,0.000000,0.000000,0.000000,0.000000,0.000000,0.000000,0.000000,0.133217,3,0
260000,0.001161,6.583076,-0.005778,0.012425,25.026522,0.014729,-0.000085,0.000231,1.570960,-0.000614,-0.000007,0.000067,0.000000,-0.000020,-0.000000,0.003206,-0.001207,0.141407,-0.000815,0.229511,0.229511,0.234436,1.002258,0.000000,0.000000,0.000000,0.000000,0.000000,0.000000,0.000000,0.000000,0.000000,0.000000,0.000000,0.000000,0.136003,3,0
270000,0.001243,6.837240,-0.006305,0.012924,25.029499,0.015085,-0.000083,0.000273,1.570971,-0.000722,-0.000008,0.000085,0.000000,-0.000025,-0.000000,0.001800,-0.001291,0.104395,-0.017922,0.223762,0.223762,0.228165,1.000869,0.000000,0.000000,0.000000,0.000000,0.000000,0.000000,0.000000,0.000000,0.000000,0.000000,0.000000,0.000000,0.100510,3,0
280000,0.001327,7.089324,-0.004660,0.013401,25.031240,0.016544,-0.000086,0.000289,1.570978,-0.000776,-0.000010,0.000042,0.000000,-0.000027,-0.000000,0.000645,-0.001377,0.048992,0.040165,0.218525,0.218525,0.222443,0.999307,0.000000,0.000000,0.000000,0.000000,0.000000,0.000000,0.000000,0.000000,0.000000,0.000000,0.000000,0.000000,0.047226,3,0
290000,0.001412,7.342319,-0.004387,0.013729,25.033560,0.017084,-0.000079,0.000327,1.570991,-0.000865,-0.000012,0.000038,0.000000,-0.000030,-0.000000,0.000910,-0.001464,0.075196,0.002838,0.213754,0.213754,0.217219,0.997567,0.000000,0.000000,0.000000,0.000000,0.000000,0.000000,0.000000,0.000000,0.000000,0.000000,0.000000,0.000000,0.072531,3,0
300000,0.001500,7.598247,-0.005082,0.014110,25.038254,0.016955,-0.000081,0.000393,1.570995,-0.001066,-0.000014,0.000069,0.000000,-0.000039,-0.000000,0.004221,-0.001554,0.160119,-0.024587,0.209410,0.209410,0.212446,0.995645,0.000000,0.000000,0.000000,0.000000,0.000000,0.000000,0.000000,0.000000,0.000000,0.000000,0.000000,0.000000,0.154538,3,0
310000,0.001589,7.852840,-0.004910,0.014563,25.042160,0.017709,-0.000079,0.000449,1.571007,-0.001230,-0.000016,0.000069,0.000001,-0.000046,-0.000000,0.002428,-0.001646,0.122811,-0.000156,0.205456,0.205456,0.208087,0.993536,0.000000,0.000000,0.000000,0.000000,0.000000,0.000000,0.000000,0.000000,0.000000,0.000000,0.000000,0.000000,0.118616,3,0
320000,0.001680,8.108194,-0.005153,0.014868,25.046762,0.017943,-0.000084,0.000512,1.571006,-0.001437,-0.000018,0.000086,0.000001,-0.000056,-0.000000,0.003482,-0.001738,0.146484,-0.012489,0.201862,0.201862,0.204105,0.991237,0.000000,0.000000,0.000000,0.000000,0.000000,0.000000,0.000000,0.000000,0.000000,0.000000,0.000000,0.000000,0.141566,3,0
330000,0.001773,8.365590,-0.003655,0.015295,25.053417,0.019569,-0.000077,0.000614,1.571007,-0.001750,-0.000021,0.000028,0.000001,-0.000071,-0.000000,0.007298,-0.001834,0.209146,0.039290,0.198598,0.198598,0.200469,0.988744,0.000000,0.000000,0.000000,0.000000,0.000000,0.000000,0.000000,0.000000,0.000000,0.000000,0.000000,0.000000,0.202231,3,0
340000,0.001868,8.620387,-0.004655,0.015712,25.057861,0.019286,-0.000079,0.000688,1.571011,-0.001957,-0.000024,0.000086,0.000001,-0.000081,-0.000000,0.002966,-0.001930,0.130594,-0.036607,0.195640,0.195640,0.197151,0.986054,0.000000,0.000000,0.000000,0.000000,0.000000,0.000000,0.000000,0.000000,0.000000,0.000000,0.000000,0.000000,0.126350,3,0
350000,0.001963,8.877204,-0.004380,0.016055,25.064360,0.019863,-0.000073,0.000797,1.571012,-0.002280,-0.000027,0.000082,0.000001,-0.000097,-0.000000,0.006061,-0.002029,0.193815,0.002396,0.192964,0.192964,0.194125,0.983164,0.000000,0.000000,0.000000,0.000000,0.000000,0.000000,0.000000,0.000000,0.000000,0.000000,0.000000,0.000000,0.187592,3,0
360000,0.002061,9.133426,-0.004755,0.016477,25.070410,0.019821,-0.000082,0.000901,1.571020,-0.002588,-0.000031,0.000113,0.000001,-0.000114,-0.000001,0.005023,-0.002129,0.175481,-0.018160,0.190549,0.190549,0.191370,0.980074,0.000000,0.000000,0.000000,0.000000,0.000000,0.000000,0.000000,0.000000,0.000000,0.000000,0.000000,0.000000,0.169920,3,0
370000,0.002161,9.386591,-0.004257,0.016920,25.073494,0.020685,-0.000088,0.000958,1.571028,-0.002732,-0.000035,0.000096,0.000002,-0.000121,-0.000001,0.001003,-0.002231,0.078229,0.009352,0.188378,0.188378,0.188863,0.976780,0.000000,0.000000,0.000000,0.000000,0.000000,0.000000,0.000000,0.000000,0.000000,0.000000,0.000000,0.000000,0.075804,3,0
380000,0.002262,9.641776,-0.003362,0.017209,25.078722,0.022076,-0.000084,0.001060,1.571033,-0.003009,-0.000040,0.000054,0.000002,-0.000137,-0.000001,0.003385,-0.002334,0.143097,0.021900,0.186431,0.186431,0.186586,0.973283,0.000000,0.000000,0.000000,0.000000,0.000000,0.000000,0.000000,0.000000,0.000000,0.000000,0.000000,0.000000,0.138669,3,0
390000,0.002363,9.896459,-0.004842,0.017610,25.083515,0.021091,-0.000083,0.001151,1.571050,-0.003265,-0.000044,0.000166,0.000002,-0.000151,-0.000001,0.003080,-0.002438,0.126406,-0.055529,0.184695,0.184695,0.184522,0.969582,0.000000,0.000000,0.000000,0.000000,0.000000,0.000000,0.000000,0.000000,0.000000,0.000000,0.000000,0.000000,0.122538,3,0
400000,0.002467,10.153090,-0.004526,0.017983,25.090662,0.021915,-0.000079,0.001277,1.571051,-0.003667,-0.000050,0.000159,0.000002,-0.000175,-0.000001,0.005820,-0.002544,0.189737,0.003210,0.183153,0.183153,0.182655,0.965677,0.000000,0.000000,0.000000,0.000000,0.000000,0.000000,0.000000,0.000000,0.000000,0.000000,0.000000,0.000000,0.183962,3,0
410000,0.002570,10.410406,-0.004667,0.018272,25.098858,0.022333,-0.000080,0.001435,1.571065,-0.004134,-0.000056,0.000186,0.000003,-0.000203,-0.000001,0.007244,-0.002650,0.211338,-0.012216,0.181793,0.181793,0.180971,0.961568,0.000000,0.000000,0.000000,0.000000,0.000000,0.000000,0.000000,0.000000,0.000000,0.000000,0.000000,0.000000,0.204951,3,0
420000,0.002674,10.668390,-0.004252,0.018586,25.107857,0.023157,-0.000076,0.001624,1.571077,-0.004669,-0.000062,0.000171,0.000003,-0.000236,-0.000001,0.008727,-0.002757,0.232246,0.006218,0.180602,0.180602,0.179456,0.957257,0.000000,0.000000,0.000000,0.000000,0.000000,0.000000,0.000000,0.000000,0.000000,0.000000,0.000000,0.000000,0.225272,3,0
430000,0.002778,10.924057,-0.004586,0.018915,25.114223,0.023053,-0.000088,0.001756,1.571079,-0.005036,-0.000069,0.000217,0.000004,-0.000259,-0.000001,0.003850,-0.002864,0.153081,-0.019233,0.179568,0.179568,0.178097,0.952745,0.000000,0.000000,0.000000,0.000000,0.000000,0.000000,0.000000,0.000000,0.000000,0.000000,0.000000,0.000000,0.148525,3,0
440000,0.002884,11.178661,-0.003531,0.019318,25.119360,0.024817,-0.000093,0.001850,1.571096,-0.005325,-0.000076,0.000148,0.000004,-0.000278,-0.000001,0.002302,-0.002973,0.116018,0.027710,0.178681,0.178681,0.176883,0.948035,0.000000,0.000000,0.000000,0.000000,0.000000,0.000000,0.000000,0.000000,0.000000,0.000000,0.000000,0.000000,0.112600,3,0
450000,0.002989,11.432236,-0.002566,0.019567,25.123178,0.026467,-0.000088,0.001924,1.571104,-0.005532,-0.000084,0.000086,0.000005,-0.000292,-0.000001,0.001132,-0.003081,0.080030,0.024202,0.177931,0.177931,0.175803,0.943129,0.000000,0.000000,0.000000,0.000000,0.000000,0.000000,0.000000,0.000000,0.000000,0.000000,0.000000,0.000000,0.077714,3,0
460000,0.003095,11.687744,-0.004013,0.019802,25.129639,0.024993,-0.000088,0.002069,1.571114,-0.005921,-0.000093,0.000244,0.000005,-0.000318,-0.000002,0.003940,-0.003189,0.144481,-0.058939,0.177308,0.177308,0.174847,0.938030,0.000000,0.000000,0.000000,0.000000,0.000000,0.000000,0.000000,0.000000,0.000000,0.000000,0.000000,0.000000,0.140245,3,0
470000,0.003199,11.942217,-0.003707,0.020047,25.134590,0.025693,-0.000087,0.002168,1.571115,-0.006220,-0.000102,0.000239,0.000006,-0.000339,-0.000002,0.001874,-0.003296,0.107576,0.001722,0.176803,0.176803,0.174006,0.932742,0.000000,0.000000,0.000000,0.000000,0.000000,0.000000,0.000000,0.000000,0.000000,0.000000,0.000000,0.000000,0.104455,3,0
480000,0.003304,12.196262,-0.002277,0.020316,25.138973,0.027992,-0.000098,0.002264,1.571123,-0.006484,-0.000112,0.000123,0.000006,-0.000358,-0.000002,0.001623,-0.003404,0.091601,0.040344,0.176408,0.176408,0.173271,0.927269,0.000000,0.000000,0.000000,0.000000,0.000000,0.000000,0.000000,0.000000,0.000000,0.000000,0.000000,0.000000,0.088970,3,0
490000,0.003409,12.453976,-0.001428,0.020692,25.148592,0.029440,-0.000112,0.002484,1.571125,-0.007124,-0.000122,0.000064,0.000007,-0.000405,-0.000002,0.007557,-0.003512,0.215211,0.019560,0.176115,0.176115,0.172634,0.921616,0.000000,0.000000,0.000000,0.000000,0.000000,0.000000,0.000000,0.000000,0.000000,0.000000,0.000000,0.000000,0.208922,3,0
500000,0.003514,12.711796,-0.002110,0.020985,25.158375,0.028952,-0.000110,0.002715,1.571140,-0.007788,-0.000133,0.000170,0.000008,-0.000454,-0.000002,0.007729,-0.003620,0.215827,-0.034321,0.175917,0.175917,0.172087,0.915787,0.000000,0.000000,0.000000,0.000000,0.000000,0.000000,0.000000,0.000000,0.000000,0.000000,0.000000,0.000000,0.209529,3,0
510000,0.003619,12.966231,-0.002425,0.021262,25.163305,0.028751,-0.000106,0.002821,1.571155,-0.008096,-0.000145,0.000238,0.000009,-0.000478,-0.000002,0.001600,-0.003728,0.097061,-0.021327,0.175806,0.175806,0.171622,0.909787,0.000000,0.000000,0.000000,0.000000,0.000000,0.000000,0.000000,0.000000,0.000000,0.000000,0.000000,0.000000,0.094287,3,0
520000,0.003724,13.223742,-0.002025,0.021544,25.172737,0.029556,-0.000115,0.003052,1.571169,-0.008751,-0.000157,0.000225,0.000010,-0.000529,-0.000003,0.006502,-0.003836,0.200397,0.003739,0.175776,0.175776,0.171234,0.903624,0.000000,0.000000,0.000000,0.000000,0.000000,0.000000,0.000000,0.000000,0.000000,0.000000,0.000000,0.000000,0.194561,3,0
530000,0.003829,13.482539,-0.003213,0.021869,25.184174,0.028235,-0.000130,0.003346,1.571171,-0.009562,-0.000170,0.000402,0.000011,-0.000594,-0.000003,0.009840,-0.003944,0.240974,-0.052320,0.175821,0.175821,0.170914,0.897302,0.000000,0.000000,0.000000,0.000000,0.000000,0.000000,0.000000,0.000000,0.000000,0.000000,0.000000,0.000000,0.233944,3,0
540000,0.003933,13.739693,-0.003550,0.022070,25.193090,0.027955,-0.000128,0.003580,1.571174,-0.010188,-0.000184,0.000479,0.000012,-0.000645,-0.000003,0.005372,-0.004052,0.180852,-0.021950,0.175934,0.175934,0.170658,0.890829,0.000000,0.000000,0.000000,0.000000,0.000000,0.000000,0.000000,0.000000,0.000000,0.000000,0.000000,0.000000,0.175593,3,0
550000,0.004036,13.994640,-0.002380,0.022385,25.198540,0.029704,-0.000128,0.003717,1.571175,-0.010552,-0.000199,0.000367,0.000013,-0.000675,-0.000003,0.001861,-0.004159,0.102520,0.031179,0.176110,0.176110,0.170460,0.884210,0.000000,0.000000,0.000000,0.000000,0.000000,0.000000,0.000000,0.000000,0.000000,0.000000,0.000000,0.000000,0.099593,3,0
560000,0.004139,14.252670,-0.001839,0.022632,25.208933,0.030564,-0.000138,0.003996,1.571193,-0.011302,-0.000215,0.000335,0.000015,-0.000738,-0.000004,0.006835,-0.004265,0.205337,0.008434,0.176344,0.176344,0.170314,0.877453,0.000000,0.000000,0.000000,0.000000,0.000000,0.000000,0.000000,0.000000,0.000000,0.000000,0.000000,0.000000,0.199345,3,0
570000,0.004242,14.511407,-0.002310,0.022896,25.220343,0.030274,-0.000141,0.004312,1.571198,-0.012147,-0.000231,0.000440,0.000016,-0.000812,-0.000004,0.008353,-0.004370,0.225509,-0.027612,0.176629,0.176630,0.170214,0.870566,0.000000,0.000000,0.000000,0.000000,0.000000,0.000000,0.000000,0.000000,0.000000,0.000000,0.000000,0.000000,0.218911,3,0
580000,0.004343,14.767913,-0.002690,0.023150,25.228142,0.030045,-0.000142,0.004531,1.571204,-0.012706,-0.000248,0.000534,0.000017,-0.000861,-0.000004,0.003526,-0.004475,0.145567,-0.024302,0.176963,0.176963,0.170157,0.863555,0.000000,0.000000,0.000000,0.000000,0.000000,0.000000,0.000000,0.000000,0.000000,0.000000,0.000000,0.000000,0.141340,3,0
590000,0.004443,15.025737,-0.002844,0.023312,25.238098,0.030224,-0.000148,0.004815,1.571212,-0.013442,-0.000266,0.000599,0.000019,-0.000927,-0.000004,0.005712,-0.004579,0.187167,-0.016289,0.177339,0.177339,0.170138,0.856428,0.000000,0.000000,0.000000,0.000000,0.000000,0.000000,0.000000,0.000000,0.000000,0.000000,0.000000,0.000000,0.181689,3,0
600000,0.004541,15.286044,-0.001743,0.023421,25.252090,0.031854,-0.000147,0.005222,1.571226,-0.014518,-0.000284,0.000483,0.000021,-0.001026,-0.000005,0.011676,-0.004680,0.267183,0.028031,0.177753,0.177753,0.170152,0.849194,0.000000,0.000000,0.000000,0.000000,0.000000,0.000000,0.000000,0.000000,0.000000,0.000000,0.000000,0.000000,0.259308,3,0
610000,0.004638,15.545271,-0.002726,0.023642,25.264193,0.030500,-0.000164,0.005581,1.571229,-0.015445,-0.000304,0.000676,0.000023,-0.001113,-0.000005,0.008563,-0.004780,0.225405,-0.046018,0.178202,0.178202,0.170195,0.841859,0.000000,0.000000,0.000000,0.000000,0.000000,0.000000,0.000000,0.000000,0.000000,0.000000,0.000000,0.000000,0.218759,3,0
620000,0.004734,15.802240,-0.002877,0.023916,25.272383,0.030417,-0.000182,0.005816,1.571234,-0.016055,-0.000324,0.000745,0.000024,-0.001171,-0.000006,0.003445,-0.004880,0.144968,-0.016258,0.178682,0.178682,0.170265,0.834433,0.000000,0.000000,0.000000,0.000000,0.000000,0.000000,0.000000,0.000000,0.000000,0.000000,0.000000,0.000000,0.140730,3,0
630000,0.004830,16.060534,-0.002159,0.024155,25.282701,0.031583,-0.000184,0.006126,1.571252,-0.016854,-0.000346,0.000681,0.000027,-0.001249,-0.000006,0.005637,-0.004979,0.186100,0.014415,0.179187,0.179188,0.170356,0.826922,0.000000,0.000000,0.000000,0.000000,0.000000,0.000000,0.000000,0.000000,0.000000,0.000000,0.000000,0.000000,0.180607,3,0
640000,0.004924,16.320137,-0.002207,0.024393,25.295189,0.031700,-0.000189,0.006516,1.571273,-0.017843,-0.000368,0.000739,0.000029,-0.001347,-0.000006,0.008281,-0.005076,0.225887,-0.012982,0.179717,0.179717,0.170465,0.819336,0.000000,0.000000,0.000000,0.000000,0.000000,0.000000,0.000000,0.000000,0.000000,0.000000,0.000000,0.000000,0.219177,3,0
650000,0.005017,16.576265,-0.001083,0.024628,25.301752,0.033386,-0.000195,0.006713,1.571278,-0.018314,-0.000391,0.000609,0.000031,-0.001394,-0.000007,0.001926,-0.005173,0.105309,0.028251,0.180266,0.180266,0.170591,0.811683,0.000000,0.000000,0.000000,0.000000,0.000000,0.000000,0.000000,0.000000,0.000000,0.000000,0.000000,0.000000,0.102267,3,0
660000,0.005110,16.833136,0.000035,0.024874,25.309557,0.035063,-0.000201,0.006948,1.571281,-0.018893,-0.000415,0.000480,0.000034,-0.001454,-0.000007,0.002751,-0.005269,0.127419,0.027409,0.180831,0.180831,0.170729,0.803970,0.000000,0.000000,0.000000,0.000000,0.000000,0.000000,0.000000,0.000000,0.000000,0.000000,0.000000,0.000000,0.123685,3,0
670000,0.005201,17.092546,-0.001105,0.025051,25.321606,0.033544,-0.000217,0.007342,1.571297,-0.019859,-0.000439,0.000730,0.000036,-0.001555,-0.000007,0.007472,-0.005363,0.208412,-0.052515,0.181411,0.181411,0.170877,0.796205,0.000000,0.000000,0.000000,0.000000,0.000000,0.000000,0.000000,0.000000,0.000000,0.000000,0.000000,0.000000,0.202177,3,0
680000,0.005290,17.352066,-0.000572,0.025131,25.333778,0.034417,-0.000222,0.007727,1.571313,-0.020837,-0.000465,0.000696,0.000039,-0.001659,-0.000008,0.006958,-0.005456,0.207306,0.006782,0.182002,0.182002,0.171033,0.788397,0.000000,0.000000,0.000000,0.000000,0.000000,0.000000,0.000000,0.000000,0.000000,0.000000,0.000000,0.000000,0.201087,3,0
690000,0.005378,17.612900,-0.001135,0.025362,25.347980,0.033511,-0.000231,0.008208,1.571323,-0.022016,-0.000491,0.000853,0.000042,-0.001787,-0.000008,0.009937,-0.005546,0.245850,-0.031874,0.182601,0.182601,0.171194,0.780554,0.000000,0.000000,0.000000,0.000000,0.000000,0.000000,0.000000,0.000000,0.000000,0.000000,0.000000,0.000000,0.238428,3,0
700000,0.005464,17.872608,-0.000417,0.025546,25.360090,0.034538,-0.000245,0.008624,1.571329,-0.023008,-0.000519,0.000784,0.000045,-0.001897,-0.000009,0.006728,-0.005636,0.203541,0.013320,0.183206,0.183206,0.171357,0.772683,0.000000,0.000000,0.000000,0.000000,0.000000,0.000000,0.000000,0.000000,0.000000,0.000000,0.000000,0.000000,0.197402,3,0
710000,0.005549,18.133026,-0.000538,0.025671,25.373339,0.034467,-0.000258,0.009073,1.571341,-0.024107,-0.000547,0.000868,0.000048,-0.002020,-0.000010,0.008013,-0.005724,0.222015,-0.016465,0.183816,0.183816,0.171522,0.764793,0.000000,0.000000,0.000000,0.000000,0.000000,0.000000,0.000000,0.000000,0.000000,0.000000,0.000000,0.000000,0.215285,3,0
720000,0.005630,18.394754,0.000235,0.025715,25.388685,0.035914,-0.000277,0.009606,1.571357,-0.025412,-0.000576,0.000789,0.000051,-0.002169,-0.000010,0.010932,-0.005809,0.259649,0.014760,0.184427,0.184427,0.171686,0.756889,0.000000,0.000000,0.000000,0.000000,0.000000,0.000000,0.000000,0.000000,0.000000,0.000000,0.000000,0.000000,0.251732,3,0
730000,0.005710,18.652880,-0.000061,0.025798,25.397594,0.035586,-0.000297,0.009912,1.571359,-0.026110,-0.000606,0.000910,0.000055,-0.002250,-0.000011,0.003120,-0.005891,0.136919,-0.023033,0.185039,0.185039,0.171847,0.748981,0.000000,0.000000,0.000000,0.000000,0.000000,0.000000,0.000000,0.000000,0.000000,0.000000,0.000000,0.000000,0.132819,3,0
740000,0.005787,18.914190,0.000902,0.025950,25.412039,0.037174,-0.000307,0.010422,1.571365,-0.027333,-0.000636,0.000795,0.000058,-0.002395,-0.000011,0.009113,-0.005972,0.236525,0.021031,0.185648,0.185648,0.172004,0.741074,0.000000,0.000000,0.000000,0.000000,0.000000,0.000000,0.000000,0.000000,0.000000,0.000000,0.000000,0.000000,0.229279,3,0
750000,0.005863,19.175575,0.000524,0.025987,25.426313,0.036739,-0.000317,0.010937,1.571371,-0.028557,-0.000668,0.000937,0.000062,-0.002542,-0.000012,0.008922,-0.006051,0.233494,-0.026261,0.186255,0.186255,0.172155,0.733177,0.000000,0.000000,0.000000,0.000000,0.000000,0.000000,0.000000,0.000000,0.000000,0.000000,0.000000,0.000000,0.226322,3,0
760000,0.005937,19.433319,0.000128,0.026136,25.434240,0.036290,-0.000329,0.011200,1.571375,-0.029147,-0.000700,0.001086,0.000066,-0.002615,-0.000012,0.002116,-0.006128,0.111118,-0.026784,0.186857,0.186856,0.172299,0.725295,0.000000,0.000000,0.000000,0.000000,0.000000,0.000000,0.000000,0.000000,0.000000,0.000000,0.000000,0.000000,0.107820,3,0
770000,0.006009,19.694897,0.000245,0.026204,25.448725,0.036688,-0.000344,0.011730,1.571386,-0.030389,-0.000733,0.001133,0.000070,-0.002769,-0.000013,0.008634,-0.006203,0.230995,-0.008698,0.187452,0.187452,0.172436,0.717436,0.000000,0.000000,0.000000,0.000000,0.000000,0.000000,0.000000,0.000000,0.000000,0.000000,0.000000,0.000000,0.223858,3,0
780000,0.006078,19.954046,0.001140,0.026228,25.458746,0.038199,-0.000362,0.012088,1.571402,-0.031195,-0.000767,0.001027,0.000074,-0.002871,-0.000014,0.003605,-0.006275,0.148182,0.018178,0.188041,0.188040,0.172563,0.709604,0.000000,0.000000,0.000000,0.000000,0.000000,0.000000,0.000000,0.000000,0.000000,0.000000,0.000000,0.000000,0.143666,3,0
790000,0.006145,20.213911,0.000019,0.026241,25.469837,0.036698,-0.000370,0.012495,1.571418,-0.032115,-0.000802,0.001332,0.000079,-0.002990,-0.000014,0.004966,-0.006344,0.167236,-0.052404,0.188621,0.188620,0.172681,0.701808,0.000000,0.000000,0.000000,0.000000,0.000000,0.000000,0.000000,0.000000,0.000000,0.000000,0.000000,0.000000,0.162094,3,0
800000,0.006209,20.471973,-0.000867,0.026236,25.477654,0.035458,-0.000392,0.012769,1.571425,-0.032706,-0.000838,0.001589,0.000083,-0.003067,-0.000015,0.002131,-0.006411,0.106050,-0.043682,0.189191,0.189191,0.172787,0.694051,0.000000,0.000000,0.000000,0.000000,0.000000,0.000000,0.000000,0.000000,0.000000,0.000000,0.000000,0.000000,0.102893,3,0
810000,0.006270,20.730761,-0.000443,0.026237,25.486597,0.035989,-0.000405,0.013092,1.571440,-0.033415,-0.000874,0.001574,0.000088,-0.003162,-0.000015,0.002579,-0.006475,0.126213,0.002333,0.189752,0.189752,0.172882,0.686340,0.000000,0.000000,0.000000,0.000000,0.000000,0.000000,0.000000,0.000000,0.000000,0.000000,0.000000,0.000000,0.122382,3,0
820000,0.006328,20.989635,0.000684,0.026232,25.495691,0.037608,-0.000433,0.013424,1.571460,-0.034129,-0.000911,0.001411,0.000093,-0.003258,-0.000016,0.002673,-0.006536,0.125763,0.026528,0.190302,0.190301,0.172965,0.678680,0.000000,0.000000,0.000000,0.000000,0.000000,0.000000,0.000000,0.000000,0.000000,0.000000,0.000000,0.000000,0.121939,3,0
830000,0.006386,21.249229,0.000246,0.026309,25.505930,0.037051,-0.000449,0.013812,1.571480,-0.034962,-0.000948,0.001584,0.000098,-0.003372,-0.000016,0.003535,-0.006595,0.145100,-0.028381,0.190840,0.190839,0.173035,0.671076,0.000000,0.000000,0.000000,0.000000,0.000000,0.000000,0.000000,0.000000,0.000000,0.000000,0.000000,0.000000,0.140629,3,0
840000,0.006442,21.508900,-0.000676,0.026424,25.516218,0.035923,-0.000466,0.014199,1.571486,-0.035795,-0.000987,0.001862,0.000103,-0.003489,-0.000017,0.003672,-0.006654,0.143829,-0.044971,0.191366,0.191365,0.173092,0.663533,0.000000,0.000000,0.000000,0.000000,0.000000,0.000000,0.000000,0.000000,0.000000,0.000000,0.000000,0.000000,0.139389,3,0
850000,0.006496,21.766733,-0.000103,0.026526,25.523109,0.036724,-0.000482,0.014448,1.571497,-0.036278,-0.001026,0.001815,0.000109,-0.003558,-0.000017,0.001123,-0.006711,0.082844,0.007288,0.191880,0.191879,0.173136,0.656055,0.000000,0.000000,0.000000,0.000000,0.000000,0.000000,0.000000,0.000000,0.000000,0.000000,0.000000,0.000000,0.080457,3,0
860000,0.006550,22.027210,-0.000134,0.026622,25.534620,0.036816,-0.000506,0.014914,1.571518,-0.037238,-0.001065,0.001901,0.000115,-0.003696,-0.000018,0.004319,-0.006766,0.162882,-0.013891,0.192381,0.192380,0.173166,0.648647,0.000000,0.000000,0.000000,0.000000,0.000000,0.000000,0.000000,0.000000,0.000000,0.000000,0.000000,0.000000,0.157796,3,0
870000,0.006600,22.286469,-0.000089,0.026563,25.543758,0.036767,-0.000526,0.015270,1.571535,-0.037956,-0.001106,0.001972,0.000120,-0.003801,-0.000018,0.002388,-0.006819,0.120960,-0.011267,0.192868,0.192867,0.173182,0.641311,0.000000,0.000000,0.000000,0.000000,0.000000,0.000000,0.000000,0.000000,0.000000,0.000000,0.000000,0.000000,0.117257,3,0
880000,0.006649,22.545797,0.001010,0.026632,25.552885,0.038521,-0.000539,0.015624,1.571537,-0.038674,-0.001147,0.001805,0.000127,-0.003908,-0.000019,0.002434,-0.006870,0.120035,0.025182,0.193343,0.193342,0.173184,0.634053,0.000000,0.000000,0.000000,0.000000,0.000000,0.000000,0.000000,0.000000,0.000000,0.000000,0.000000,0.000000,0.116357,3,0
890000,0.006696,22.809048,0.001730,0.026686,25.568819,0.039516,-0.000557,0.016322,1.571555,-0.040111,-0.001188,0.001724,0.000133,-0.004125,-0.000020,0.009190,-0.006919,0.238316,0.011641,0.193804,0.193802,0.173172,0.626875,0.000000,0.000000,0.000000,0.000000,0.000000,0.000000,0.000000,0.000000,0.000000,0.000000,0.000000,0.000000,0.230715,3,0
900000,0.006741,23.068453,0.002216,0.026703,25.577698,0.040275,-0.000574,0.016685,1.571566,-0.040803,-0.001230,0.001701,0.000139,-0.004231,-0.000020,0.002107,-0.006967,0.114056,0.003003,0.194251,0.194250,0.173145,0.619780,0.000000,0.000000,0.000000,0.000000,0.000000,0.000000,0.000000,0.000000,0.000000,0.000000,0.000000,0.000000,0.110569,3,0
910000,0.006784,23.330502,0.002014,0.026622,25.591194,0.039992,-0.000594,0.017272,1.571577,-0.041980,-0.001273,0.001839,0.000146,-0.004415,-0.000021,0.006055,-0.007011,0.192503,-0.020980,0.194685,0.194683,0.173105,0.612772,0.000000,0.000000,0.000000,0.000000,0.000000,0.000000,0.000000,0.000000,0.000000,0.000000,0.000000,0.000000,0.186380,3,0
920000,0.006825,23.588697,0.002379,0.026656,25.597776,0.040497,-0.000618,0.017508,1.571596,-0.042407,-0.001316,0.001847,0.000153,-0.004482,-0.000021,0.000787,-0.007055,0.069471,-0.001329,0.195105,0.195103,0.173050,0.605853,0.000000,0.000000,0.000000,0.000000,0.000000,0.000000,0.000000,0.000000,0.000000,0.000000,0.000000,0.000000,0.067559,3,0
930000,0.006864,23.852150,0.003050,0.026659,25.613390,0.041335,-0.000643,0.018223,1.571608,-0.043822,-0.001359,0.001777,0.000160,-0.004710,-0.000023,0.008453,-0.007096,0.228666,0.009274,0.195512,0.195510,0.172981,0.599025,0.000000,0.000000,0.000000,0.000000,0.000000,0.000000,0.000000,0.000000,0.000000,0.000000,0.000000,0.000000,0.221323,3,0
940000,0.006901,24.114309,0.003715,0.026594,25.626638,0.042088,-0.000671,0.018819,1.571621,-0.044965,-0.001403,0.001712,0.000167,-0.004897,-0.000023,0.005463,-0.007134,0.183723,0.008809,0.195906,0.195904,0.172898,0.592292,0.000000,0.000000,0.000000,0.000000,0.000000,0.000000,0.000000,0.000000,0.000000,0.000000,0.000000,0.000000,0.177859,3,0
950000,0.006938,24.373888,0.003048,0.026645,25.635242,0.041196,-0.000691,0.019163,1.571638,-0.045593,-0.001448,0.001976,0.000174,-0.005001,-0.000024,0.001864,-0.007172,0.100344,-0.037916,0.196287,0.196284,0.172801,0.585654,0.000000,0.000000,0.000000,0.000000,0.000000,0.000000,0.000000,0.000000,0.000000,0.000000,0.000000,0.000000,0.097307,3,0
960000,0.006972,24.637424,0.003616,0.026636,25.650547,0.041937,-0.000709,0.019881,1.571653,-0.046967,-0.001493,0.001931,0.000182,-0.005232,-0.000025,0.007701,-0.007208,0.218378,0.005505,0.196654,0.196652,0.172691,0.579114,0.000000,0.000000,0.000000,0.000000,0.000000,0.000000,0.000000,0.000000,0.000000,0.000000,0.000000,0.000000,0.211337,3,0
970000,0.007005,24.898998,0.004231,0.026661,25.662367,0.042884,-0.000742,0.020412,1.571671,-0.047936,-0.001538,0.001878,0.000190,-0.005398,-0.000026,0.003813,-0.007243,0.153475,0.006734,0.197010,0.197007,0.172568,0.572674,0.000000,0.000000,0.000000,0.000000,0.000000,0.000000,0.000000,0.000000,0.000000,0.000000,0.000000,0.000000,0.148601,3,0
980000,0.007037,25.159285,0.004160,0.026668,25.671633,0.042797,-0.000760,0.020820,1.571676,-0.048638,-0.001585,0.002002,0.000198,-0.005520,-0.000027,0.002024,-0.007276,0.110451,-0.017480,0.197353,0.197350,0.172432,0.566333,0.000000,0.000000,0.000000,0.000000,0.000000,0.000000,0.000000,0.000000,0.000000,0.000000,0.000000,0.000000,0.107049,3,0
990000,0.007065,25.418949,0.005441,0.026526,25.679792,0.044744,-0.000779,0.021148,1.571681,-0.049202,-0.001631,0.001783,0.000206,-0.005619,-0.000027,0.001416,-0.007306,0.088619,0.029554,0.197684,0.197681,0.172283,0.560095,0.000000,0.000000,0.000000,0.000000,0.000000,0.000000,0.000000,0.000000,0.000000,0.000000,0.000000,0.000000,0.085992,3,0
1000000,0.007093,25.680630,0.004186,0.026483,25.691425,0.042720,-0.000797,0.021686,1.571687,-0.050144,-0.001678,0.002215,0.000214,-0.005788,-0.000028,0.004057,-0.007334,0.146936,-0.059264,0.198004,0.198000,0.172121,0.553960,0.000000,0.000000,0.000000,0.000000,0.000000,0.000000,0.000000,0.000000,0.000000,0.000000,0.000000,0.000000,0.142261,3,0
1010000,0.007120,25.939693,0.003607,0.026503,25.698137,0.041882,-0.000815,0.021956,1.571701,-0.050556,-0.001725,0.002474,0.000222,-0.005864,-0.000028,0.000871,-0.007362,0.064049,-0.035235,0.198313,0.198309,0.171948,0.547928,0.000000,0.000000,0.000000,0.000000,0.000000,0.000000,0.000000,0.000000,0.000000,0.000000,0.000000,0.000000,0.062338,3,0
1020000,0.007145,26.200777,0.003580,0.026520,25.708344,0.041640,-0.000835,0.022412,1.571720,-0.051349,-0.001773,0.002586,0.000231,-0.006010,-0.000029,0.002485,-0.007389,0.122980,-0.015521,0.198610,0.198606,0.171763,0.542000,0.000000,0.000000,0.000000,0.000000,0.000000,0.000000,0.000000,0.000000,0.000000,0.000000,0.000000,0.000000,0.119122,3,0
1030000,0.007168,26.460562,0.003375,0.026399,25.716261,0.041379,-0.000859,0.022751,1.571736,-0.051869,-0.001820,0.002748,0.000240,-0.006108,-0.000030,0.001129,-0.007413,0.080460,-0.021837,0.198898,0.198893,0.171567,0.536177,0.000000,0.000000,0.000000,0.000000,0.000000,0.000000,0.000000,0.000000,0.000000,0.000000,0.000000,0.000000,0.078121,3,0
1040000,0.007190,26.719061,0.002832,0.026367,25.721718,0.040441,-0.000892,0.022945,1.571747,-0.052125,-0.001869,0.003002,0.000249,-0.006157,-0.000030,0.000440,-0.007436,0.039267,-0.033552,0.199175,0.199170,0.171360,0.530459,0.000000,0.000000,0.000000,0.000000,0.000000,0.000000,0.000000,0.000000,0.000000,0.000000,0.000000,0.000000,0.038637,3,0
1050000,0.007210,26.978933,0.003161,0.026343,25.729605,0.040974,-0.000911,0.023282,1.571754,-0.052638,-0.001917,0.003020,0.000258,-0.006256,-0.000030,0.001013,-0.007457,0.078896,-0.002754,0.199443,0.199438,0.171142,0.524847,0.000000,0.000000,0.000000,0.000000,0.000000,0.000000,0.000000,0.000000,0.000000,0.000000,0.000000,0.000000,0.076613,3,0
1060000,0.007229,27.242149,0.002458,0.026325,25.743288,0.039945,-0.000945,0.023964,1.571766,-0.053791,-0.001966,0.003314,0.000267,-0.006482,-0.000031,0.005289,-0.007477,0.176762,-0.038943,0.199702,0.199696,0.170914,0.519340,0.000000,0.000000,0.000000,0.000000,0.000000,0.000000,0.000000,0.000000,0.000000,0.000000,0.000000,0.000000,0.171028,3,0
1070000,0.007245,27.504017,0.002503,0.026135,25.754284,0.040035,-0.000968,0.024483,1.571785,-0.054654,-0.002014,0.003406,0.000277,-0.006654,-0.000032,0.002845,-0.007495,0.132078,-0.012439,0.199952,0.199946,0.170676,0.513938,0.000000,0.000000,0.000000,0.000000,0.000000,0.000000,0.000000,0.000000,0.000000,0.000000,0.000000,0.000000,0.127881,3,0
1080000,0.007260,27.764557,0.002085,0.026074,25.762903,0.039391,-0.000989,0.024861,1.571797,-0.055236,-0.002063,0.003628,0.000287,-0.006772,-0.000033,0.001413,-0.007510,0.088768,-0.028807,0.200194,0.200188,0.170429,0.508642,0.000000,0.000000,0.000000,0.000000,0.000000,0.000000,0.000000,0.000000,0.000000,0.000000,0.000000,0.000000,0.086111,3,0
1090000,0.007275,28.023787,0.001158,0.026037,25.769079,0.038114,-0.001021,0.025096,1.571795,-0.055544,-0.002113,0.003995,0.000297,-0.006835,-0.000033,0.000715,-0.007525,0.046808,-0.046673,0.200428,0.200422,0.170173,0.503451,0.000000,0.000000,0.000000,0.000000,0.000000,0.000000,0.000000,0.000000,0.000000,0.000000,0.000000,0.000000,0.045823,3,0
1100000,0.007286,28.283052,0.000193,0.025823,25.775299,0.036788,-0.001045,0.025339,1.571798,-0.055847,-0.002163,0.004372,0.000307,-0.006899,-0.000034,0.000716,-0.007537,0.045944,-0.047620,0.200655,0.200648,0.169908,0.498364,0.000000,0.000000,0.000000,0.000000,0.000000,0.000000,0.000000,0.000000,0.000000,0.000000,0.000000,0.000000,0.044999,3,0
1110000,0.007296,28.542349,0.000168,0.025761,25.781406,0.036642,-0.001075,0.025576,1.571804,-0.056143,-0.002212,0.004482,0.000317,-0.006962,-0.000034,0.000367,-0.007549,0.045040,-0.013931,0.200875,0.200868,0.169636,0.493380,0.000000,0.000000,0.000000,0.000000,0.000000,0.000000,0.000000,0.000000,0.000000,0.000000,0.000000,0.000000,0.044139,3,0
1120000,0.007303,28.805672,0.001458,0.025668,25.794598,0.038511,-0.001104,0.026256,1.571818,-0.057217,-0.002261,0.004208,0.000328,-0.007191,-0.000035,0.004484,-0.007557,0.163385,0.032835,0.201089,0.201081,0.169355,0.488501,0.000000,0.000000,0.000000,0.000000,0.000000,0.000000,0.000000,0.000000,0.000000,0.000000,0.000000,0.000000,0.158080,3,0
1130000,0.007310,29.067633,0.001925,0.025626,25.805265,0.039105,-0.001138,0.026764,1.571835,-0.057999,-0.002311,0.004177,0.000338,-0.007360,-0.000036,0.002276,-0.007564,0.118593,0.003011,0.201297,0.201288,0.169067,0.483724,0.000000,0.000000,0.000000,0.000000,0.000000,0.000000,0.000000,0.000000,0.000000,0.000000,0.000000,0.000000,0.114847,3,0
1140000,0.007315,29.330248,0.003256,0.025562,25.816919,0.041019,-0.001172,0.027352,1.571840,-0.058886,-0.002360,0.003895,0.000350,-0.007555,-0.000037,0.003119,-0.007570,0.134832,0.033472,0.201499,0.201490,0.168773,0.479049,0.000000,0.000000,0.000000,0.000000,0.000000,0.000000,0.000000,0.000000,0.000000,0.000000,0.000000,0.000000,0.130511,3,0
1150000,0.007321,29.590172,0.002345,0.025521,25.823616,0.039978,-0.001205,0.027633,1.571850,-0.059224,-0.002410,0.004281,0.000360,-0.007632,-0.000037,0.000789,-0.007575,0.051010,-0.047169,0.201696,0.201687,0.168471,0.474475,0.000000,0.000000,0.000000,0.000000,0.000000,0.000000,0.000000,0.000000,0.000000,0.000000,0.000000,0.000000,0.049832,3,0
1160000,0.007326,29.849443,0.001915,0.025419,25.829184,0.039587,-0.001245,0.027836,1.571850,-0.059420,-0.002461,0.004527,0.000372,-0.007677,-0.000038,0.000294,-0.007580,0.029566,-0.029815,0.201889,0.201879,0.168164,0.470002,0.000000,0.000000,0.000000,0.000000,0.000000,0.000000,0.000000,0.000000,0.000000,0.000000,0.000000,0.000000,0.029493,3,0
1170000,0.007328,30.112091,0.000658,0.025202,25.840630,0.037924,-0.001281,0.028425,1.571869,-0.060266,-0.002511,0.005012,0.000383,-0.007873,-0.000039,0.003212,-0.007582,0.128057,-0.058914,0.202078,0.202067,0.167851,0.465627,0.000000,0.000000,0.000000,0.000000,0.000000,0.000000,0.000000,0.000000,0.000000,0.000000,0.000000,0.000000,0.123956,3,0
1180000,0.007328,30.373367,0.000971,0.025077,25.849543,0.038165,-0.001323,0.028833,1.571880,-0.060820,-0.002560,0.005025,0.000394,-0.008002,-0.000039,0.001145,-0.007583,0.083961,-0.002260,0.202262,0.202252,0.167532,0.461351,0.000000,0.000000,0.000000,0.000000,0.000000,0.000000,0.000000,0.000000,0.000000,0.000000,0.000000,0.000000,0.081461,3,0
1190000,0.007327,30.632626,0.000028,0.024914,25.854630,0.036919,-0.001367,0.029002,1.571892,-0.060962,-0.002611,0.005428,0.000406,-0.008037,-0.000040,0.000451,-0.007581,0.021387,-0.047674,0.202444,0.202432,0.167209,0.457172,0.000000,0.000000,0.000000,0.000000,0.000000,0.000000,0.000000,0.000000,0.000000,0.000000,0.000000,0.000000,0.021923,3,0
1200000,0.007323,30.895262,0.000473,0.024761,25.865755,0.037386,-0.001402,0.029560,1.571901,-0.061752,-0.002660,0.005394,0.000418,-0.008226,-0.000041,0.002326,-0.007579,0.119898,0.002946,0.202622,0.202610,0.166881,0.453089,0.000000,0.000000,0.000000,0.000000,0.000000,0.000000,0.000000,0.000000,0.000000,0.000000,0.000000,0.000000,0.116080,3,0
1210000,0.007317,31.159208,0.001276,0.024634,25.878973,0.038583,-0.001447,0.030285,1.571906,-0.062774,-0.002710,0.005248,0.000430,-0.008475,-0.000042,0.003935,-0.007574,0.155334,0.015693,0.202797,0.202785,0.166548,0.449101,0.000000,0.000000,0.000000,0.000000,0.000000,0.000000,0.000000,0.000000,0.000000,0.000000,0.000000,0.000000,0.150264,3,0
1220000,0.007311,31.421762,0.000217,0.024427,25.889614,0.037118,-0.001490,0.030830,1.571922,-0.063498,-0.002759,0.005688,0.000442,-0.008655,-0.000043,0.002392,-0.007566,0.109922,-0.051946,0.202971,0.202957,0.166212,0.445206,0.000000,0.000000,0.000000,0.000000,0.000000,0.000000,0.000000,0.000000,0.000000,0.000000,0.000000,0.000000,0.106451,3,0
1230000,0.007302,31.683603,0.000972,0.024256,25.898937,0.038034,-0.001525,0.031273,1.571934,-0.064061,-0.002809,0.005560,0.000454,-0.008796,-0.000044,0.001227,-0.007558,0.085810,0.014007,0.203142,0.203128,0.165872,0.441404,0.000000,0.000000,0.000000,0.000000,0.000000,0.000000,0.000000,0.000000,0.000000,0.000000,0.000000,0.000000,0.083228,3,0
1240000,0.007293,31.947449,0.000083,0.024087,25.911642,0.036670,-0.001563,0.031970,1.571943,-0.064993,-0.002858,0.005947,0.000466,-0.009035,-0.000045,0.003590,-0.007547,0.141937,-0.045624,0.203311,0.203296,0.165529,0.437693,0.000000,0.000000,0.000000,0.000000,0.000000,0.000000,0.000000,0.000000,0.000000,0.000000,0.000000,0.000000,0.137317,3,0
1250000,0.007281,32.208538,0.000046,0.023880,25.919226,0.036669,-0.001600,0.032313,1.571944,-0.065366,-0.002908,0.006071,0.000479,-0.009132,-0.000045,0.000565,-0.007536,0.056873,-0.014664,0.203479,0.203464,0.165183,0.434072,0.000000,0.000000,0.000000,0.000000,0.000000,0.000000,0.000000,0.000000,0.000000,0.000000,0.000000,0.000000,0.055423,3,0
1260000,0.007267,32.472309,0.000757,0.023678,25.931526,0.037537,-0.001640,0.032977,1.571953,-0.066239,-0.002956,0.005946,0.000492,-0.009360,-0.000047,0.002912,-0.007522,0.133652,0.012851,0.203646,0.203630,0.164835,0.430539,0.000000,0.000000,0.000000,0.000000,0.000000,0.000000,0.000000,0.000000,0.000000,0.000000,0.000000,0.000000,0.129320,3,0
1270000,0.007252,32.735352,-0.000526,0.023421,25.942331,0.035748,-0.001687,0.033545,1.571957,-0.066947,-0.003005,0.006472,0.000504,-0.009550,-0.000048,0.002485,-0.007505,0.108303,-0.060224,0.203813,0.203795,0.164484,0.427092,0.000000,0.000000,0.000000,0.000000,0.000000,0.000000,0.000000,0.000000,0.000000,0.000000,0.000000,0.000000,0.104869,3,0
1280000,0.007235,32.998348,-0.001609,0.023172,25.953009,0.034370,-0.001733,0.034107,1.571978,-0.067623,-0.003054,0.006932,0.000517,-0.009734,-0.000048,0.002182,-0.007488,0.103577,-0.052424,0.203978,0.203960,0.164132,0.423732,0.000000,0.000000,0.000000,0.000000,0.000000,0.000000,0.000000,0.000000,0.000000,0.000000,0.000000,0.000000,0.100309,3,0
1290000,0.007214,33.258579,-0.000720,0.022975,25.958548,0.035645,-0.001766,0.034283,1.571978,-0.067748,-0.003103,0.006752,0.000531,-0.009767,-0.000049,0.000133,-0.007469,0.019382,0.019843,0.204144,0.204125,0.163777,0.420456,0.000000,0.000000,0.000000,0.000000,0.000000,0.000000,0.000000,0.000000,0.000000,0.000000,0.000000,0.000000,0.020068,3,0
1300000,0.007193,33.520840,-0.000287,0.022741,25.967709,0.036332,-0.001808,0.034734,1.571997,-0.068248,-0.003150,0.006718,0.000544,-0.009906,-0.000049,0.000969,-0.007446,0.077156,0.002891,0.204309,0.204290,0.163422,0.417263,0.000000,0.000000,0.000000,0.000000,0.000000,0.000000,0.000000,0.000000,0.000000,0.000000,0.000000,0.000000,0.074874,3,0
1310000,0.007170,33.783741,-0.001215,0.022438,25.977869,0.035215,-0.001851,0.035264,1.571999,-0.068851,-0.003199,0.007139,0.000557,-0.010077,-0.000050,0.001767,-0.007422,0.093113,-0.047293,0.204475,0.204454,0.163065,0.414152,0.000000,0.000000,0.000000,0.000000,0.000000,0.000000,0.000000,0.000000,0.000000,0.000000,0.000000,0.000000,0.090221,3,0
1320000,0.007146,34.043877,-0.002227,0.022224,25.983036,0.033845,-0.001880,0.035417,1.572003,-0.068911,-0.003247,0.007599,0.000570,-0.010096,-0.000051,0.000434,-0.007397,0.009022,-0.050395,0.204641,0.204620,0.162708,0.411120,0.000000,0.000000,0.000000,0.000000,0.000000,0.000000,0.000000,0.000000,0.000000,0.000000,0.000000,0.000000,0.011265,3,0
1330000,0.007120,34.305363,-0.003226,0.021957,25.990532,0.032769,-0.001926,0.035736,1.572017,-0.069214,-0.003295,0.008049,0.000584,-0.010186,-0.000051,0.000761,-0.007370,0.047016,-0.049441,0.204808,0.204786,0.162349,0.408167,0.000000,0.000000,0.000000,0.000000,0.000000,0.000000,0.000000,0.000000,0.000000,0.000000,0.000000,0.000000,0.045961,3,0
1340000,0.007090,34.568848,-0.002044,0.021762,26.001509,0.034327,-0.001968,0.036326,1.572022,-0.069875,-0.003341,0.007742,0.000598,-0.010379,-0.000052,0.001899,-0.007342,0.103516,0.031933,0.204976,0.204952,0.161991,0.405291,0.000000,0.000000,0.000000,0.000000,0.000000,0.000000,0.000000,0.000000,0.000000,0.000000,0.000000,0.000000,0.100234,3,0
1350000,0.007062,34.831600,-0.002769,0.021608,26.011099,0.033283,-0.002000,0.036801,1.572033,-0.070376,-0.003388,0.008099,0.000611,-0.010530,-0.000053,0.001251,-0.007311,0.078468,-0.039382,0.205144,0.205120,0.161633,0.402491,0.000000,0.000000,0.000000,0.000000,0.000000,0.000000,0.000000,0.000000,0.000000,0.000000,0.000000,0.000000,0.076107,3,0
1360000,0.007032,35.092934,-0.002994,0.021461,26.018047,0.033089,-0.002037,0.037081,1.572050,-0.070595,-0.003434,0.008289,0.000625,-0.010597,-0.000053,0.000268,-0.007281,0.034286,-0.020758,0.205314,0.205289,0.161275,0.399766,0.000000,0.000000,0.000000,0.000000,0.000000,0.000000,0.000000,0.000000,0.000000,0.000000,0.000000,0.000000,0.033850,3,0
1370000,0.007001,35.351509,-0.002571,0.021249,26.019884,0.033884,-0.002077,0.036949,1.572053,-0.070290,-0.003480,0.008268,0.000639,-0.010503,-0.000053,0.000384,-0.007249,-0.048206,0.002882,0.205485,0.205458,0.160917,0.397112,0.000000,0.000000,0.000000,0.000000,0.000000,0.000000,0.000000,0.000000,0.000000,0.000000,0.000000,0.000000,0.047078,3,0
1380000,0.006969,35.614872,-0.002957,0.021046,26.030180,0.033197,-0.002109,0.037487,1.572070,-0.070863,-0.003526,0.008509,0.000653,-0.010682,-0.000054,0.001450,-0.007216,0.090778,-0.026666,0.205657,0.205630,0.160560,0.394529,0.000000,0.000000,0.000000,0.000000,0.000000,0.000000,0.000000,0.000000,0.000000,0.000000,0.000000,0.000000,0.087938,3,0
1390000,0.006936,35.873386,-0.002299,0.020886,26.031670,0.034197,-0.002156,0.037336,1.572065,-0.070527,-0.003571,0.008405,0.000667,-0.010576,-0.000054,0.000490,-0.007182,-0.053413,0.011682,0.205831,0.205802,0.160204,0.392016,0.000000,0.000000,0.000000,0.000000,0.000000,0.000000,0.000000,0.000000,0.000000,0.000000,0.000000,0.000000,0.052043,3,0
1400000,0.006901,36.133965,-0.002364,0.020616,26.036953,0.034248,-0.002195,0.037483,1.572073,-0.070566,-0.003616,0.008552,0.000681,-0.010589,-0.000054,0.000053,-0.007146,0.006119,-0.015468,0.206007,0.205977,0.159848,0.389572,0.000000,0.000000,0.000000,0.000000,0.000000,0.000000,0.000000,0.000000,0.000000,0.000000,0.000000,0.000000,0.009083,3,0
1410000,0.006866,36.395203,-0.002162,0.020439,26.043234,0.034629,-0.002230,0.037714,1.572090,-0.070714,-0.003660,0.008600,0.000696,-0.010637,-0.000054,0.000104,-0.007110,0.023792,-0.005372,0.206184,0.206153,0.159494,0.387194,0.000000,0.000000,0.000000,0.000000,0.000000,0.000000,0.000000,0.000000,0.000000,0.000000,0.000000,0.000000,0.023976,3,0
1420000,0.006829,36.653664,-0.001353,0.020205,26.044416,0.035897,-0.002264,0.037529,1.572094,-0.070351,-0.003703,0.008446,0.000710,-0.010517,-0.000054,0.000607,-0.007072,-0.058598,0.016836,0.206363,0.206330,0.159142,0.384881,0.000000,0.000000,0.000000,0.000000,0.000000,0.000000,0.000000,0.000000,0.000000,0.000000,0.000000,0.000000,0.056990,3,0
1430000,0.006790,36.912815,-0.000012,0.019973,26.046801,0.037640,-0.002314,0.037439,1.572106,-0.070112,-0.003746,0.008097,0.000725,-0.010435,-0.000054,0.000467,-0.007033,-0.038765,0.036635,0.206543,0.206510,0.158791,0.382632,0.000000,0.000000,0.000000,0.000000,0.000000,0.000000,0.000000,0.000000,0.000000,0.000000,0.000000,0.000000,0.038037,3,0
1440000,0.006750,37.171284,0.000499,0.019677,26.047951,0.038244,-0.002348,0.037247,1.572107,-0.069749,-0.003789,0.008061,0.000740,-0.010311,-0.000053,0.000579,-0.006991,-0.059399,0.004546,0.206726,0.206691,0.158442,0.380445,0.000000,0.000000,0.000000,0.000000,0.000000,0.000000,0.000000,0.000000,0.000000,0.000000,0.000000,0.000000,0.057746,3,0
1450000,0.006708,37.432503,0.000883,0.019350,26.054079,0.038885,-0.002392,0.037453,1.572111,-0.069871,-0.003831,0.008059,0.000754,-0.010353,-0.000054,0.000073,-0.006948,0.020065,-0.000081,0.206910,0.206874,0.158094,0.378320,0.000000,0.000000,0.000000,0.000000,0.000000,0.000000,0.000000,0.000000,0.000000,0.000000,0.000000,0.000000,0.020503,3,0
1460000,0.006666,37.694382,-0.000013,0.019077,26.061132,0.037621,-0.002425,0.037754,1.572123,-0.070097,-0.003874,0.008532,0.000769,-0.010435,-0.000054,0.000614,-0.006903,0.037090,-0.048743,0.207096,0.207059,0.157749,0.376253,0.000000,0.000000,0.000000,0.000000,0.000000,0.000000,0.000000,0.000000,0.000000,0.000000,0.000000,0.000000,0.036416,3,0
1470000,0.006622,37.955513,0.000532,0.018812,26.066786,0.038457,-0.002459,0.037932,1.572123,-0.070179,-0.003915,0.008468,0.000783,-0.010464,-0.000054,0.000044,-0.006859,0.013691,0.006279,0.207284,0.207245,0.157406,0.374244,0.000000,0.000000,0.000000,0.000000,0.000000,0.000000,0.000000,0.000000,0.000000,0.000000,0.000000,0.000000,0.014784,3,0
1480000,0.006575,38.215916,0.001635,0.018567,26.071159,0.039854,-0.002504,0.037988,1.572127,-0.070124,-0.003955,0.008201,0.000798,-0.010443,-0.000054,0.000140,-0.006812,-0.008957,0.027165,0.207474,0.207434,0.157066,0.372294,0.000000,0.000000,0.000000,0.000000,0.000000,0.000000,0.000000,0.000000,0.000000,0.000000,0.000000,0.000000,0.010858,3,0
1490000,0.006529,38.474926,0.001312,0.018297,26.072954,0.039586,-0.002540,0.037824,1.572125,-0.069824,-0.003996,0.008490,0.000813,-0.010334,-0.000054,0.000551,-0.006762,-0.050732,-0.028218,0.207666,0.207624,0.156728,0.370398,0.000000,0.000000,0.000000,0.000000,0.000000,0.000000,0.000000,0.000000,0.000000,0.000000,0.000000,0.000000,0.049414,3,0
1500000,0.006480,38.735992,0.002006,0.017962,26.078398,0.040248,-0.002581,0.037969,1.572124,-0.069873,-0.004035,0.008375,0.000827,-0.010352,-0.000054,0.000039,-0.006713,0.008301,0.011344,0.207860,0.207816,0.156393,0.368557,0.000000,0.000000,0.000000,0.000000,0.000000,0.000000,0.000000,0.000000,0.000000,0.000000,0.000000,0.000000,0.010307,3,0
1510000,0.006432,38.995655,0.000787,0.017654,26.081194,0.038926,-0.002634,0.037896,1.572136,-0.069675,-0.004076,0.009013,0.000842,-0.010281,-0.000054,0.000836,-0.006661,-0.034149,-0.062850,0.208055,0.208010,0.156060,0.366768,0.000000,0.000000,0.000000,0.000000,0.000000,0.000000,0.000000,0.000000,0.000000,0.000000,0.000000,0.000000,0.033599,3,0
1520000,0.006382,39.258057,-0.000203,0.017308,26.088923,0.037571,-0.002686,0.038237,1.572152,-0.069934,-0.004115,0.009540,0.000856,-0.010382,-0.000055,0.000775,-0.006609,0.044102,-0.052930,0.208252,0.208206,0.155730,0.365031,0.000000,0.000000,0.000000,0.000000,0.000000,0.000000,0.000000,0.000000,0.000000,0.000000,0.000000,0.000000,0.043036,3,0
1530000,0.006329,39.519695,0.000013,0.017047,26.095100,0.037807,-0.002729,0.038447,1.572156,-0.070050,-0.004153,0.009599,0.000871,-0.010428,-0.000055,0.000079,-0.006556,0.020172,-0.006162,0.208450,0.208403,0.155403,0.363343,0.000000,0.000000,0.000000,0.000000,0.000000,0.000000,0.000000,0.000000,0.000000,0.000000,0.000000,0.000000,0.020473,3,0
1540000,0.006275,39.780598,0.000054,0.016745,26.099812,0.037712,-0.002764,0.038539,1.572169,-0.070034,-0.004190,0.009734,0.000885,-0.010422,-0.000055,0.000037,-0.006500,-0.002987,-0.013204,0.208650,0.208601,0.155080,0.361704,0.000000,0.000000,0.000000,0.000000,0.000000,0.000000,0.000000,0.000000,0.000000,0.000000,0.000000,0.000000,0.006907,3,0
1550000,0.006220,40.040768,-0.000329,0.016474,26.103090,0.037315,-0.002807,0.038512,1.572176,-0.069890,-0.004228,0.010044,0.000900,-0.010366,-0.000055,0.000255,-0.006443,-0.025387,-0.029874,0.208852,0.208801,0.154759,0.360113,0.000000,0.000000,0.000000,0.000000,0.000000,0.000000,0.000000,0.000000,0.000000,0.000000,0.000000,0.000000,0.025286,3,0
1560000,0.006164,40.299515,0.000525,0.016261,26.103758,0.038375,-0.002852,0.038237,1.572184,-0.069513,-0.004264,0.009873,0.000914,-0.010212,-0.000055,0.000779,-0.006387,-0.066921,0.017881,0.209055,0.209002,0.154442,0.358568,0.000000,0.000000,0.000000,0.000000,0.000000,0.000000,0.000000,0.000000,0.000000,0.000000,0.000000,0.000000,0.064880,3,0
1570000,0.006108,40.558258,0.000586,0.016004,26.104403,0.038411,-0.002900,0.037967,1.572181,-0.069137,-0.004300,0.010025,0.000929,-0.010058,-0.000054,0.000763,-0.006328,-0.067249,-0.013377,0.209259,0.209205,0.154128,0.357069,0.000000,0.000000,0.000000,0.000000,0.000000,0.000000,0.000000,0.000000,0.000000,0.000000,0.000000,0.000000,0.065194,3,0
1580000,0.006049,40.819759,0.001844,0.015749,26.109900,0.039863,-0.002946,0.038129,1.572189,-0.069203,-0.004334,0.009670,0.000944,-0.010083,-0.000054,0.000218,-0.006269,0.011944,0.034048,0.209464,0.209408,0.153818,0.355611,0.000000,0.000000,0.000000,0.000000,0.000000,0.000000,0.000000,0.000000,0.000000,0.000000,0.000000,0.000000,0.013025,3,0
1590000,0.005991,41.077732,0.003060,0.015552,26.108910,0.041332,-0.002997,0.037716,1.572196,-0.068704,-0.004367,0.009367,0.000959,-0.009869,-0.000054,0.001480,-0.006209,-0.090580,0.030847,0.209670,0.209613,0.153510,0.354197,0.000000,0.000000,0.000000,0.000000,0.000000,0.000000,0.000000,0.000000,0.000000,0.000000,0.000000,0.000000,0.087611,3,0
1600000,0.005935,41.337822,0.001953,0.015317,26.111803,0.040059,-0.003051,0.037649,1.572205,-0.068540,-0.004402,0.010001,0.000973,-0.009802,-0.000054,0.000742,-0.006148,-0.030483,-0.060069,0.209877,0.209818,0.153207,0.352824,0.000000,0.000000,0.000000,0.000000,0.000000,0.000000,0.000000,0.000000,0.000000,0.000000,0.000000,0.000000,0.030027,3,0
1610000,0.005876,41.599945,0.002531,0.015022,26.118336,0.040497,-0.003093,0.037910,1.572203,-0.068688,-0.004435,0.009921,0.000987,-0.009866,-0.000054,0.000136,-0.006089,0.027462,0.007143,0.210085,0.210025,0.152907,0.351491,0.000000,0.000000,0.000000,0.000000,0.000000,0.000000,0.000000,0.000000,0.000000,0.000000,0.000000,0.000000,0.027148,3,0
1620000,0.005816,41.861309,0.002875,0.014780,26.123478,0.040839,-0.003133,0.038024,1.572204,-0.068708,-0.004467,0.009946,0.001001,-0.009876,-0.000054,0.000009,-0.006027,0.003822,-0.002501,0.210294,0.210232,0.152611,0.350198,0.000000,0.000000,0.000000,0.000000,0.000000,0.000000,0.000000,0.000000,0.000000,0.000000,0.000000,0.000000,0.006887,3,0
1630000,0.005757,42.124035,0.001723,0.014468,26.131088,0.039212,-0.003184,0.038369,1.572204,-0.068925,-0.004500,0.010584,0.001015,-0.009978,-0.000055,0.000878,-0.005965,0.040588,-0.061139,0.210503,0.210439,0.152319,0.348943,0.000000,0.000000,0.000000,0.000000,0.000000,0.000000,0.000000,0.000000,0.000000,0.000000,0.000000,0.000000,0.039568,3,0
1640000,0.005696,42.383877,0.001941,0.014162,26.133080,0.039313,-0.003229,0.038224,1.572212,-0.068698,-0.004532,0.010673,0.001029,-0.009874,-0.000055,0.000316,-0.005903,-0.043304,-0.007483,0.210713,0.210647,0.152030,0.347723,0.000000,0.000000,0.000000,0.000000,0.000000,0.000000,0.000000,0.000000,0.000000,0.000000,0.000000,0.000000,0.042173,3,0
1650000,0.005634,42.646484,0.001768,0.013860,26.140144,0.038913,-0.003272,0.038534,1.572224,-0.068879,-0.004562,0.010901,0.001043,-0.009960,-0.000055,0.000279,-0.005838,0.034779,-0.022112,0.210922,0.210855,0.151745,0.346539,0.000000,0.000000,0.000000,0.000000,0.000000,0.000000,0.000000,0.000000,0.000000,0.000000,0.000000,0.000000,0.034020,3,0
1660000,0.005571,42.903431,0.000939,0.013514,26.136850,0.038227,-0.003324,0.037891,1.572217,-0.068221,-0.004594,0.011466,0.001057,-0.009652,-0.000054,0.003068,-0.005772,-0.128510,-0.050010,0.211132,0.211063,0.151464,0.345391,0.000000,0.000000,0.000000,0.000000,0.000000,0.000000,0.000000,0.000000,0.000000,0.000000,0.000000,0.000000,0.124129,3,0
1670000,0.005505,43.162476,0.001488,0.013133,26.137302,0.039113,-0.003377,0.037584,1.572226,-0.067879,-0.004623,0.011422,0.001071,-0.009486,-0.000053,0.000740,-0.005706,-0.067360,0.005557,0.211342,0.211272,0.151187,0.344276,0.000000,0.000000,0.000000,0.000000,0.000000,0.000000,0.000000,0.000000,0.000000,0.000000,0.000000,0.000000,0.065220,3,0
1680000,0.005440,43.420815,0.000664,0.012766,26.136396,0.038104,-0.003414,0.037176,1.572228,-0.067439,-0.004653,0.011978,0.001085,-0.009274,-0.000053,0.001646,-0.005636,-0.087860,-0.049542,0.211552,0.211480,0.150914,0.343192,0.000000,0.000000,0.000000,0.000000,0.000000,0.000000,0.000000,0.000000,0.000000,0.000000,0.000000,0.000000,0.084952,3,0
1690000,0.005372,43.678429,0.000780,0.012467,26.134134,0.038493,-0.003463,0.036625,1.572240,-0.066905,-0.004682,0.012135,0.001099,-0.009009,-0.000052,0.001892,-0.005568,-0.107639,-0.012124,0.211761,0.211688,0.150645,0.342139,0.000000,0.000000,0.000000,0.000000,0.000000,0.000000,0.000000,0.000000,0.000000,0.000000,0.000000,0.000000,0.103983,3,0
1700000,0.005303,43.937454,0.000706,0.012138,26.134375,0.038553,-0.003504,0.036320,1.572247,-0.066576,-0.004710,0.012363,0.001113,-0.008844,-0.000051,0.000789,-0.005497,-0.067047,-0.019396,0.211970,0.211895,0.150379,0.341116,0.000000,0.000000,0.000000,0.000000,0.000000,0.000000,0.000000,0.000000,0.000000,0.000000,0.000000,0.000000,0.064903,3,0
1710000,0.005235,44.198578,-0.000104,0.011797,26.138561,0.037608,-0.003550,0.036365,1.572251,-0.066538,-0.004738,0.012889,0.001126,-0.008828,-0.000051,0.000390,-0.005425,-0.008015,-0.048062,0.212179,0.212102,0.150118,0.340122,0.000000,0.000000,0.000000,0.000000,0.000000,0.000000,0.000000,0.000000,0.000000,0.000000,0.000000,0.000000,0.009350,3,0
1720000,0.005165,44.455418,-0.000177,0.011520,26.134733,0.037542,-0.003587,0.035670,1.572244,-0.065915,-0.004765,0.013139,0.001139,-0.008504,-0.000050,0.002787,-0.005353,-0.130028,-0.019827,0.212387,0.212308,0.149861,0.339157,0.000000,0.000000,0.000000,0.000000,0.000000,0.000000,0.000000,0.000000,0.000000,0.000000,0.000000,0.000000,0.125541,3,0
