time_us,pos_x,pos_y,pos_z,vel_x,vel_y,vel_z,roll,pitch,yaw,bias_ax,bias_ay,bias_az,bias_gx,bias_gy,bias_gz,nis,innov_x,innov_y,innov_z,cov_pos_x,cov_pos_y,cov_pos_z,cov_yaw,des_speed,des_heading,des_climb,pid_speed,pid_yaw,pid_alt,speed_meas,yaw_meas,climb_meas,fwd_accel,yaw_rate,vert_accel,drift_m,nav_mode,mission_state
0,0.000000,0.149996,0.000003,0.000047,24.999323,0.000801,0.000004,-0.000013,1.570800,0.000000,0.000000,0.000000,0.000000,0.000000,0.000000,0.006250,-0.000000,-0.249996,-0.000008,2.400038,2.400038,3.600017,1.000518,0.000000,0.000000,0.000000,0.000000,0.000000,0.000000,0.000000,0.000000,0.000000,0.000000,0.000000,0.000000,0.149996,1,0
10000,0.000002,0.376578,-0.025391,0.000241,24.998888,0.001566,0.000010,-0.000027,1.570800,0.000000,-0.000000,0.000000,0.000000,0.000000,0.000000,0.001277,-0.000003,-0.081924,-0.067760,1.714420,1.714420,2.250079,1.001073,0.000000,0.000000,0.000000,0.000000,0.000000,0.000000,0.000000,0.000000,0.000000,0.000000,0.000000,0.000000,0.058515,3,0
20000,0.000004,0.611015,-0.037247,0.000283,24.998352,0.002144,0.000011,-0.000027,1.570812,0.000001,-0.000000,0.000001,-0.000000,0.000000,0.000000,0.000864,-0.000005,-0.069954,-0.043550,1.333616,1.333616,1.636554,1.001655,0.000000,0.000000,0.000000,0.000000,0.000000,0.000000,0.000000,0.000000,0.000000,0.000000,0.000000,0.000000,0.054405,3,0
30000,0.000007,0.834555,-0.037204,0.000495,24.997505,0.003065,0.000012,-0.000041,1.570824,0.000003,-0.000000,0.000001,-0.000000,0.000000,0.000000,0.002881,-0.000009,-0.145354,0.000059,1.091392,1.091392,1.286065,1.002257,0.000000,0.000000,0.000000,0.000000,0.000000,0.000000,0.000000,0.000000,0.000000,0.000000,0.000000,0.000000,0.118914,3,0
40000,0.000011,1.076701,-0.028446,0.000575,24.996868,0.003895,0.000013,-0.000042,1.570819,0.000005,-0.000000,-0.000001,0.000000,0.000000,0.000000,0.000699,-0.000013,-0.050823,0.049396,0.923811,0.923811,1.059385,1.002869,0.000000,0.000000,0.000000,0.000000,0.000000,0.000000,0.000000,0.000000,0.000000,0.000000,0.000000,0.000000,0.042997,3,0
50000,0.000015,1.324710,-0.024644,0.000693,24.996449,0.004820,0.000008,-0.000049,1.570833,0.000005,-0.000000,-0.000002,0.000000,0.000000,0.000000,0.000120,-0.000018,-0.014658,0.025007,0.801036,0.801036,0.900822,1.003484,0.000000,0.000000,0.000000,0.000000,0.000000,0.000000,0.000000,0.000000,0.000000,0.000000,0.000000,0.000000,0.012701,3,0
60000,0.000020,1.567141,-0.019080,0.000749,24.995689,0.005872,0.000014,-0.000051,1.570833,0.000009,-0.000000,-0.000004,0.000000,0.000000,0.000000,0.000857,-0.000023,-0.063873,0.042161,0.707270,0.707270,0.783741,1.004094,0.000000,0.000000,0.000000,0.000000,0.000000,0.000000,0.000000,0.000000,0.000000,0.000000,0.000000,0.000000,0.056344,3,0
70000,0.000027,1.812042,-0.025083,0.000956,24.995060,0.006222,0.000028,-0.000058,1.570832,0.000013,-0.000000,-0.000000,0.000000,0.000000,0.000000,0.000747,-0.000030,-0.047872,-0.052473,0.633370,0.633370,0.693801,1.004688,0.000000,0.000000,0.000000,0.000000,0.000000,0.000000,0.000000,0.000000,0.000000,0.000000,0.000000,0.000000,0.042818,3,0
80000,0.000034,2.064406,-0.025486,0.001079,24.994791,0.007119,0.000026,-0.000070,1.570828,0.000011,-0.000000,0.000000,0.000000,0.000000,0.000000,0.000100,-0.000037,0.025299,-0.004577,0.573673,0.573673,0.622594,1.005260,0.000000,0.000000,0.000000,0.000000,0.000000,0.000000,0.000000,0.000000,0.000000,0.000000,0.000000,0.000000,0.022880,3,0
90000,0.000041,2.311879,-0.024025,0.001137,24.994221,0.008135,0.000039,-0.000073,1.570827,0.000014,-0.000000,-0.000002,0.000000,0.000000,0.000000,0.000154,-0.000045,-0.028276,0.014672,0.524488,0.524488,0.564865,1.005801,0.000000,0.000000,0.000000,0.000000,0.000000,0.000000,0.000000,0.000000,0.000000,0.000000,0.000000,0.000000,0.025804,3,0
100000,0.000049,2.560423,-0.021257,0.001244,24.993696,0.009076,0.000044,-0.000094,1.570836,0.000017,-0.000000,-0.000006,0.000000,0.000000,0.000000,0.000193,-0.000054,-0.017317,0.031088,0.483304,0.483304,0.517162,1.006301,0.000000,0.000000,0.000000,0.000000,0.000000,0.000000,0.000000,0.000000,0.000000,0.000000,0.000000,0.000000,0.015922,3,0
110000,0.000059,2.811287,-0.024816,0.001401,24.993532,0.009291,0.000039,-0.000094,1.570832,0.000015,-0.000000,0.000002,0.000000,0.000000,0.000000,0.000348,-0.000063,0.012449,-0.045980,0.448354,0.448354,0.477121,1.006754,0.000000,0.000000,0.000000,0.000000,0.000000,0.000000,0.000000,0.000000,0.000000,0.000000,0.000000,0.000000,0.011519,3,0
120000,0.000068,3.068159,-0.026821,0.001482,24.994333,0.009668,0.000048,-0.000104,1.570831,-0.000007,-0.000000,0.000008,0.000000,-0.000000,-0.000000,0.001661,-0.000073,0.099528,-0.028499,0.418359,0.418359,0.443071,1.007150,0.000000,0.000000,0.000000,0.000000,0.000000,0.000000,0.000000,0.000000,0.000000,0.000000,0.000000,0.000000,0.092589,3,0
130000,0.000080,3.322108,-0.027655,0.001673,24.994612,0.010200,0.000049,-0.000101,1.570827,-0.000023,-0.000000,0.000012,0.000000,-0.000001,-0.000000,0.000614,-0.000085,0.061318,-0.013596,0.392370,0.392370,0.413797,1.007481,0.000000,0.000000,0.000000,0.000000,0.000000,0.000000,0.000000,0.000000,0.000000,0.000000,0.000000,0.000000,0.057308,3,0
140000,0.000093,3.572428,-0.030628,0.001912,24.994209,0.010319,0.000050,-0.000111,1.570836,-0.000025,-0.000000,0.000025,0.000000,-0.000001,-0.000000,0.000359,-0.000099,0.006156,-0.047614,0.369667,0.369667,0.388393,1.007739,0.000000,0.000000,0.000000,0.000000,0.000000,0.000000,0.000000,0.000000,0.000000,0.000000,0.000000,0.000000,0.005777,3,0
150000,0.000107,3.827832,-0.031380,0.002137,24.995073,0.010978,0.000045,-0.000118,1.570832,-0.000056,-0.000000,0.000030,0.000000,-0.000001,-0.000000,0.001412,-0.000114,0.093780,-0.014154,0.349696,0.349696,0.366172,1.007915,0.000000,0.000000,0.000000,0.000000,0.000000,0.000000,0.000000,0.000000,0.000000,0.000000,0.000000,0.000000,0.088315,3,0
160000,0.000123,4.076535,-0.033022,0.002234,24.994366,0.011440,0.000059,-0.000138,1.570834,-0.000048,-0.000000,0.000041,0.000000,-0.000001,-0.000000,0.000225,-0.000130,-0.022480,-0.030470,0.332022,0.332022,0.346600,1.008002,0.000000,0.000000,0.000000,0.000000,0.000000,0.000000,0.000000,0.000000,0.000000,0.000000,0.000000,0.000000,0.021236,3,0
170000,0.000138,4.329994,-0.034853,0.002363,24.994991,0.011805,0.000066,-0.000144,1.570838,-0.000076,-0.000000,0.000056,0.000000,-0.000002,-0.000000,0.000904,-0.000146,0.066766,-0.035627,0.316299,0.316299,0.329260,1.007991,0.000000,0.000000,0.000000,0.000000,0.000000,0.000000,0.000000,0.000000,0.000000,0.000000,0.000000,0.000000,0.063247,3,0
180000,0.000155,4.585557,-0.036605,0.002491,24.996536,0.011918,0.000071,-0.000128,1.570845,-0.000129,-0.000000,0.000073,0.000000,-0.000003,-0.000000,0.002170,-0.000163,0.111483,-0.035885,0.302248,0.302248,0.313817,1.007875,0.000000,0.000000,0.000000,0.000000,0.000000,0.000000,0.000000,0.000000,0.000000,0.000000,0.000000,0.000000,0.105868,3,0
190000,0.000172,4.842957,-0.034216,0.002541,24.998789,0.013422,0.000066,-0.000118,1.570843,-0.000211,-0.000000,0.000049,0.000000,-0.000005,-0.000000,0.004090,-0.000181,0.154090,0.045252,0.289643,0.289643,0.300003,1.007645,0.000000,0.000000,0.000000,0.000000,0.000000,0.000000,0.000000,0.000000,0.000000,0.000000,0.000000,0.000000,0.146652,3,0
200000,0.000190,5.092759,-0.033662,0.002725,24.998384,0.014362,0.000072,-0.000123,1.570849,-0.000209,-0.000001,0.000044,0.000000,-0.000005,-0.000000,0.000014,-0.000199,-0.003939,0.008583,0.278298,0.278298,0.287598,1.007295,0.000000,0.000000,0.000000,0.000000,0.000000,0.000000,0.000000,0.000000,0.000000,0.000000,0.000000,0.000000,0.003761,3,0
210000,0.000208,5.344724,-0.031624,0.002784,24.998816,0.015678,0.000072,-0.000127,1.570843,-0.000237,-0.000001,0.000019,0.000000,-0.000006,-0.000000,0.000582,-0.000218,0.044448,0.041007,0.268057,0.268057,0.276421,1.006816,0.000000,0.000000,0.000000,0.000000,0.000000,0.000000,0.000000,0.000000,0.000000,0.000000,0.000000,0.000000,0.042463,3,0
220000,0.000227,5.595188,-0.031047,0.002866,24.998617,0.016543,0.000083,-0.000135,1.570839,-0.000245,-0.000001,0.000012,0.000000,-0.000006,-0.000000,0.000034,-0.000237,0.011147,0.009313,0.258791,0.258791,0.266321,1.006202,0.000000,0.000000,0.000000,0.000000,0.000000,0.000000,0.000000,0.000000,0.000000,0.000000,0.000000,0.000000,0.010668,3,0
230000,0.000246,5.850116,-0.029710,0.003023,25.000698,0.017966,0.000093,-0.000116,1.570843,-0.000335,-0.000001,-0.000008,0.000000,-0.000009,-0.000000,0.002360,-0.000257,0.118505,0.027133,0.250390,0.250390,0.257172,1.005446,0.000000,0.000000,0.000000,0.000000,0.000000,0.000000,0.000000,0.000000,0.000000,0.000000,0.000000,0.000000,0.113560,3,0
240000,0.000267,6.103446,-0.030823,0.003190,25.002176,0.017869,0.000096,-0.000102,1.570856,-0.000403,-0.000001,0.000017,0.000000,-0.000011,-0.000000,0.001238,-0.000278,0.082223,-0.031308,0.242761,0.242761,0.248866,1.004541,0.000000,0.000000,0.000000,0.000000,0.000000,0.000000,0.000000,0.000000,0.000000,0.000000,0.000000,0.000000,0.078897,3,0
250000,0.000289,6.357677,-0.032106,0.003338,25.004135,0.017970,0.000104,-0.000090,1.570858,-0.000498,-0.000002,0.000050,0.000000,-0.000015,-0.000000,0.002053,-0.000300,0.107184,-0.036563,0.235825,0.235825,0.241314,1.003481,0.000000,0.000000,0.000000,0.000000,0.000000,0.000000,0.000000,0.000000,0.000000,0.000000,0.000000,0.000000,0.102971,3,0
260000,0.000311,6.611213,-0.030516,0.003472,25.005808,0.019525,0.000104,-0.000070,1.570852,-0.000586,-0.000002,0.000016,0.000000,-0.000018,-0.000000,0.001548,-0.000323,0.091481,0.035902,0.229512,0.229512,0.234436,1.002258,0.000000,0.000000,0.000000,0.000000,0.000000,0.000000,0.000000,0.000000,0.000000,0.000000,0.000000,0.000000,0.087982,3,0
270000,0.000335,6.866342,-0.031593,0.003668,25.008659,0.019430,0.000110,-0.000032,1.570857,-0.000727,-0.000002,0.000050,0.000000,-0.000024,-0.000000,0.003154,-0.000348,0.136113,-0.033639,0.223763,0.223763,0.228165,1.000869,0.000000,0.000000,0.000000,0.000000,0.000000,0.000000,0.000000,0.000000,0.000000,0.000000,0.000000,0.000000,0.131037,3,0
280000,0.000359,7.123674,-0.030640,0.003757,25.013327,0.020796,0.000106,0.000028,1.570859,-0.000946,-0.000003,0.000028,0.000000,-0.000032,-0.000000,0.006426,-0.000372,0.199016,0.020220,0.218526,0.218526,0.222443,0.999307,0.000000,0.000000,0.000000,0.000000,0.000000,0.000000,0.000000,0.000000,0.000000,0.000000,0.000000,0.000000,0.191768,3,0
290000,0.000385,7.379515,-0.029952,0.003984,25.017136,0.022004,0.000119,0.000083,1.570868,-0.001135,-0.000003,0.000013,0.000000,-0.000040,-0.000000,0.004158,-0.000399,0.160306,0.013007,0.213756,0.213756,0.217219,0.997567,0.000000,0.000000,0.000000,0.000000,0.000000,0.000000,0.000000,0.000000,0.000000,0.000000,0.000000,0.000000,0.154595,3,0
300000,0.000411,7.631898,-0.030375,0.004099,25.018578,0.022390,0.000126,0.000096,1.570880,-0.001215,-0.000004,0.000035,0.000000,-0.000044,-0.000000,0.000702,-0.000426,0.063457,-0.018391,0.209412,0.209412,0.212446,0.995645,0.000000,0.000000,0.000000,0.000000,0.000000,0.000000,0.000000,0.000000,0.000000,0.000000,0.000000,0.000000,0.061243,3,0
310000,0.000438,7.885822,-0.030743,0.004273,25.021280,0.022535,0.000140,0.000136,1.570880,-0.001361,-0.000004,0.000058,0.000000,-0.000050,-0.000000,0.001969,-0.000454,0.109243,-0.017236,0.205458,0.205458,0.208087,0.993536,0.000000,0.000000,0.000000,0.000000,0.000000,0.000000,0.000000,0.000000,0.000000,0.000000,0.000000,0.000000,0.105504,3,0
320000,0.000467,8.139856,-0.031768,0.004480,25.024126,0.022217,0.000143,0.000172,1.570891,-0.001522,-0.000005,0.000110,0.000000,-0.000058,-0.000000,0.002303,-0.000483,0.113720,-0.036954,0.201864,0.201864,0.204105,0.991237,0.000000,0.000000,0.000000,0.000000,0.000000,0.000000,0.000000,0.000000,0.000000,0.000000,0.000000,0.000000,0.109895,3,0
330000,0.000496,8.397292,-0.031330,0.004638,25.030090,0.022945,0.000140,0.000277,1.570904,-0.001848,-0.000006,0.000101,0.000000,-0.000073,-0.000000,0.007628,-0.000513,0.217477,0.006288,0.198601,0.198601,0.200469,0.988743,0.000000,0.000000,0.000000,0.000000,0.000000,0.000000,0.000000,0.000000,0.000000,0.000000,0.000000,0.000000,0.210279,3,0
340000,0.000526,8.653416,-0.031892,0.004691,25.035248,0.022870,0.000145,0.000369,1.570901,-0.002130,-0.000006,0.000139,0.000000,-0.000087,-0.000000,0.005241,-0.000543,0.178648,-0.024281,0.195643,0.195643,0.197151,0.986053,0.000000,0.000000,0.000000,0.000000,0.000000,0.000000,0.000000,0.000000,0.000000,0.000000,0.000000,0.000000,0.172824,3,0
350000,0.000555,8.910222,-0.030032,0.004796,25.041164,0.025159,0.000149,0.000459,1.570905,-0.002465,-0.000007,0.000056,0.000000,-0.000104,-0.000000,0.006909,-0.000574,0.200779,0.050173,0.192967,0.192967,0.194125,0.983163,0.000000,0.000000,0.000000,0.000000,0.000000,0.000000,0.000000,0.000000,0.000000,0.000000,0.000000,0.000000,0.194322,3,0
360000,0.000586,9.167057,-0.030871,0.004951,25.047390,0.024998,0.000164,0.000571,1.570903,-0.002820,-0.000008,0.000116,0.000000,-0.000123,-0.000000,0.006799,-0.000605,0.202338,-0.034471,0.190553,0.190553,0.191370,0.980072,0.000000,0.000000,0.000000,0.000000,0.000000,0.000000,0.000000,0.000000,0.000000,0.000000,0.000000,0.000000,0.195913,3,0
370000,0.000616,9.420809,-0.031635,0.004991,25.050591,0.024715,0.000170,0.000635,1.570912,-0.003013,-0.000010,0.000176,0.000000,-0.000133,-0.000000,0.001932,-0.000636,0.104472,-0.032452,0.188382,0.188382,0.188863,0.976779,0.000000,0.000000,0.000000,0.000000,0.000000,0.000000,0.000000,0.000000,0.000000,0.000000,0.000000,0.000000,0.101194,3,0
380000,0.000646,9.675938,-0.030599,0.005055,25.055275,0.026119,0.000171,0.000719,1.570914,-0.003301,-0.000011,0.000127,0.000000,-0.000149,-0.000000,0.003681,-0.000667,0.148873,0.025159,0.186436,0.186436,0.186586,0.973282,0.000000,0.000000,0.000000,0.000000,0.000000,0.000000,0.000000,0.000000,0.000000,0.000000,0.000000,0.000000,0.144249,3,0
390000,0.000676,9.929946,-0.031295,0.005157,25.058758,0.025761,0.000177,0.000783,1.570922,-0.003528,-0.000012,0.000190,0.000001,-0.000162,-0.000000,0.002198,-0.000698,0.112366,-0.031312,0.184699,0.184699,0.184522,0.969580,0.000000,0.000000,0.000000,0.000000,0.000000,0.000000,0.000000,0.000000,0.000000,0.000000,0.000000,0.000000,0.108909,3,0
400000,0.000708,10.185915,-0.030361,0.005315,25.064692,0.027093,0.000189,0.000904,1.570932,-0.003901,-0.000014,0.000144,0.000001,-0.000184,-0.000000,0.005105,-0.000730,0.176385,0.021988,0.183158,0.183158,0.182656,0.965675,0.000000,0.000000,0.000000,0.000000,0.000000,0.000000,0.000000,0.000000,0.000000,0.000000,0.000000,0.000000,0.171002,3,0
410000,0.000739,10.441978,-0.031516,0.005456,25.070938,0.026426,0.000189,0.001027,1.570942,-0.004296,-0.000015,0.000249,0.000001,-0.000208,-0.000000,0.005532,-0.000762,0.178781,-0.047580,0.181798,0.181798,0.180971,0.961566,0.000000,0.000000,0.000000,0.000000,0.000000,0.000000,0.000000,0.000000,0.000000,0.000000,0.000000,0.000000,0.173365,3,0
420000,0.000772,10.697536,-0.030400,0.005598,25.076527,0.027968,0.000187,0.001141,1.570951,-0.004668,-0.000017,0.000184,0.000001,-0.000231,-0.000000,0.004330,-0.000796,0.161204,0.028288,0.180608,0.180608,0.179456,0.957254,0.000000,0.000000,0.000000,0.000000,0.000000,0.000000,0.000000,0.000000,0.000000,0.000000,0.000000,0.000000,0.156354,3,0
430000,0.000805,10.955588,-0.030132,0.005797,25.085407,0.028827,0.000191,0.001329,1.570958,-0.005252,-0.000019,0.000186,0.000001,-0.000268,-0.000000,0.009589,-0.000830,0.243530,-0.000722,0.179575,0.179575,0.178097,0.952742,0.000000,0.000000,0.000000,0.000000,0.000000,0.000000,0.000000,0.000000,0.000000,0.000000,0.000000,0.000000,0.236243,3,0
440000,0.000839,11.208966,-0.029409,0.005904,25.088499,0.030091,0.000185,0.001394,1.570955,-0.005463,-0.000021,0.000149,0.000001,-0.000282,-0.000000,0.001196,-0.000864,0.084784,0.014498,0.178688,0.178688,0.176883,0.948032,0.000000,0.000000,0.000000,0.000000,0.000000,0.000000,0.000000,0.000000,0.000000,0.000000,0.000000,0.000000,0.082263,3,0
450000,0.000872,11.463692,-0.027913,0.006014,25.093374,0.032088,0.000190,0.001508,1.570952,-0.005799,-0.000024,0.000044,0.000001,-0.000304,-0.000000,0.002981,-0.000899,0.129559,0.040574,0.177939,0.177938,0.175803,0.943125,0.000000,0.000000,0.000000,0.000000,0.000000,0.000000,0.000000,0.000000,0.000000,0.000000,0.000000,0.000000,0.125719,3,0
460000,0.000906,11.719734,-0.028613,0.006068,25.099968,0.031691,0.000191,0.001658,1.570965,-0.006264,-0.000026,0.000139,0.000001,-0.000336,-0.000000,0.005041,-0.000934,0.172969,-0.035320,0.177316,0.177316,0.174847,0.938026,0.000000,0.000000,0.000000,0.000000,0.000000,0.000000,0.000000,0.000000,0.000000,0.000000,0.000000,0.000000,0.167860,3,0
470000,0.000940,11.977071,-0.028481,0.006253,25.108576,0.032075,0.000190,0.001859,1.570972,-0.006862,-0.000029,0.000158,0.000002,-0.000377,-0.000001,0.007487,-0.000969,0.215043,-0.006635,0.176812,0.176812,0.174006,0.932738,0.000000,0.000000,0.000000,0.000000,0.000000,0.000000,0.000000,0.000000,0.000000,0.000000,0.000000,0.000000,0.208708,3,0
480000,0.000976,12.233338,-0.027133,0.006451,25.115612,0.033998,0.000188,0.002033,1.570966,-0.007370,-0.000032,0.000056,0.000002,-0.000414,-0.000001,0.005230,-0.001005,0.176289,0.035343,0.176417,0.176417,0.173271,0.927265,0.000000,0.000000,0.000000,0.000000,0.000000,0.000000,0.000000,0.000000,0.000000,0.000000,0.000000,0.000000,0.171108,3,0
490000,0.001012,12.491480,-0.027008,0.006605,25.125441,0.034269,0.000183,0.002266,1.570974,-0.008078,-0.000035,0.000079,0.000002,-0.000465,-0.000001,0.009174,-0.001042,0.238013,-0.007661,0.176125,0.176125,0.172634,0.921611,0.000000,0.000000,0.000000,0.000000,0.000000,0.000000,0.000000,0.000000,0.000000,0.000000,0.000000,0.000000,0.231029,3,0
500000,0.001048,12.748552,-0.026166,0.006727,25.133783,0.035491,0.000191,0.002476,1.570975,-0.008688,-0.000038,0.000026,0.000002,-0.000511,-0.000001,0.006419,-0.001079,0.198441,0.017186,0.175927,0.175927,0.172087,0.915782,0.000000,0.000000,0.000000,0.000000,0.000000,0.000000,0.000000,0.000000,0.000000,0.000000,0.000000,0.000000,0.192625,3,0
510000,0.001084,13.002829,-0.025284,0.006811,25.137976,0.036866,0.000192,0.002578,1.570980,-0.009007,-0.000042,-0.000032,0.000003,-0.000535,-0.000001,0.001682,-0.001116,0.100316,0.018169,0.175817,0.175817,0.171622,0.909782,0.000000,0.000000,0.000000,0.000000,0.000000,0.000000,0.000000,0.000000,0.000000,0.000000,0.000000,0.000000,0.097383,3,0
520000,0.001119,13.259014,-0.024598,0.006907,25.145065,0.037952,0.000190,0.002753,1.570990,-0.009543,-0.000045,-0.000068,0.000003,-0.000577,-0.000001,0.004374,-0.001153,0.164061,0.010872,0.175788,0.175787,0.171234,0.903618,0.000000,0.000000,0.000000,0.000000,0.000000,0.000000,0.000000,0.000000,0.000000,0.000000,0.000000,0.000000,0.159258,3,0
530000,0.001155,13.514172,-0.024342,0.007006,25.150721,0.038391,0.000188,0.002905,1.570993,-0.009968,-0.000049,-0.000053,0.000003,-0.000611,-0.000001,0.002591,-0.001190,0.126472,-0.004568,0.175833,0.175833,0.170914,0.897296,0.000000,0.000000,0.000000,0.000000,0.000000,0.000000,0.000000,0.000000,0.000000,0.000000,0.000000,0.000000,0.122771,3,0
540000,0.001191,13.772397,-0.024798,0.007165,25.161102,0.038020,0.000187,0.003180,1.570995,-0.010761,-0.000054,0.000051,0.000004,-0.000676,-0.000001,0.008634,-0.001227,0.229078,-0.029844,0.175947,0.175946,0.170658,0.890822,0.000000,0.000000,0.000000,0.000000,0.000000,0.000000,0.000000,0.000000,0.000000,0.000000,0.000000,0.000000,0.222364,3,0
550000,0.001228,14.029568,-0.024140,0.007330,25.169699,0.039274,0.000194,0.003411,1.571003,-0.011435,-0.000058,0.000017,0.000004,-0.000732,-0.000001,0.005819,-0.001265,0.189418,0.009448,0.176123,0.176123,0.170460,0.884203,0.000000,0.000000,0.000000,0.000000,0.000000,0.000000,0.000000,0.000000,0.000000,0.000000,0.000000,0.000000,0.183862,3,0
560000,0.001264,14.285115,-0.023148,0.007387,25.175846,0.040763,0.000203,0.003573,1.571008,-0.011913,-0.000063,-0.000060,0.000004,-0.000773,-0.000001,0.002845,-0.001302,0.130948,0.020888,0.176357,0.176357,0.170314,0.877446,0.000000,0.000000,0.000000,0.000000,0.000000,0.000000,0.000000,0.000000,0.000000,0.000000,0.000000,0.000000,0.127105,3,0
570000,0.001301,14.544909,-0.022309,0.007570,25.188665,0.041972,0.000203,0.003945,1.571023,-0.012936,-0.000068,-0.000117,0.000005,-0.000861,-0.000001,0.012085,-0.001341,0.272918,0.014925,0.176643,0.176643,0.170214,0.870558,0.000000,0.000000,0.000000,0.000000,0.000000,0.000000,0.000000,0.000000,0.000000,0.000000,0.000000,0.000000,0.264886,3,0
580000,0.001338,14.804803,-0.020856,0.007665,25.201565,0.044010,0.000214,0.004320,1.571029,-0.013978,-0.000073,-0.000258,0.000005,-0.000953,-0.000001,0.012129,-0.001378,0.271421,0.036225,0.176977,0.176977,0.170157,0.863546,0.000000,0.000000,0.000000,0.000000,0.000000,0.000000,0.000000,0.000000,0.000000,0.000000,0.000000,0.000000,0.263419,3,0
590000,0.001374,15.060682,-0.019709,0.007733,25.207903,0.045681,0.000217,0.004511,1.571030,-0.014492,-0.000078,-0.000357,0.000006,-0.001000,-0.000001,0.002860,-0.001416,0.130672,0.024650,0.177354,0.177353,0.170138,0.856419,0.000000,0.000000,0.000000,0.000000,0.000000,0.000000,0.000000,0.000000,0.000000,0.000000,0.000000,0.000000,0.126818,3,0
600000,0.001410,15.320242,-0.019029,0.007851,25.220240,0.046801,0.000211,0.004880,1.571044,-0.015507,-0.000084,-0.000388,0.000006,-0.001093,-0.000002,0.010315,-0.001453,0.252429,0.007557,0.177769,0.177768,0.170152,0.849183,0.000000,0.000000,0.000000,0.000000,0.000000,0.000000,0.000000,0.000000,0.000000,0.000000,0.000000,0.000000,0.244954,3,0
610000,0.001446,15.576956,-0.019897,0.007931,25.227945,0.045543,0.000213,0.005117,1.571050,-0.016132,-0.000090,-0.000189,0.000007,-0.001151,-0.000002,0.004089,-0.001490,0.151775,-0.047371,0.178218,0.178218,0.170195,0.841848,0.000000,0.000000,0.000000,0.000000,0.000000,0.000000,0.000000,0.000000,0.000000,0.000000,0.000000,0.000000,0.147274,3,0
620000,0.001480,15.837360,-0.020744,0.007930,25.241747,0.044550,0.000208,0.005553,1.571059,-0.017279,-0.000097,0.000009,0.000007,-0.001261,-0.000002,0.012370,-0.001526,0.272684,-0.046239,0.178698,0.178697,0.170264,0.834421,0.000000,0.000000,0.000000,0.000000,0.000000,0.000000,0.000000,0.000000,0.000000,0.000000,0.000000,0.000000,0.264567,3,0
630000,0.001514,16.097862,-0.019937,0.007988,25.255527,0.045875,0.000214,0.005983,1.571069,-0.018440,-0.000103,-0.000046,0.000008,-0.001374,-0.000002,0.011862,-0.001561,0.270569,0.012383,0.179204,0.179204,0.170355,0.826910,0.000000,0.000000,0.000000,0.000000,0.000000,0.000000,0.000000,0.000000,0.000000,0.000000,0.000000,0.000000,0.262492,3,0
640000,0.001549,16.354292,-0.019861,0.008141,25.262447,0.045853,0.000222,0.006195,1.571065,-0.019006,-0.000110,0.000015,0.000009,-0.001430,-0.000002,0.002730,-0.001597,0.129200,-0.013690,0.179734,0.179734,0.170465,0.819323,0.000000,0.000000,0.000000,0.000000,0.000000,0.000000,0.000000,0.000000,0.000000,0.000000,0.000000,0.000000,0.125340,3,0
650000,0.001583,16.610861,-0.020603,0.008216,25.269535,0.044685,0.000227,0.006414,1.571070,-0.019592,-0.000117,0.000210,0.000009,-0.001489,-0.000002,0.003072,-0.001632,0.131126,-0.042446,0.180284,0.180283,0.170591,0.811668,0.000000,0.000000,0.000000,0.000000,0.000000,0.000000,0.000000,0.000000,0.000000,0.000000,0.000000,0.000000,0.127196,3,0
660000,0.001617,16.869366,-0.020964,0.008298,25.279821,0.044386,0.000224,0.006761,1.571072,-0.020468,-0.000125,0.000344,0.000010,-0.001579,-0.000002,0.006127,-0.001667,0.192549,-0.028761,0.180850,0.180849,0.170729,0.803954,0.000000,0.000000,0.000000,0.000000,0.000000,0.000000,0.000000,0.000000,0.000000,0.000000,0.000000,0.000000,0.186752,3,0
670000,0.001651,17.125580,-0.021372,0.008450,25.286030,0.044018,0.000234,0.006958,1.571084,-0.020991,-0.000133,0.000488,0.000011,-0.001634,-0.000002,0.002207,-0.001702,0.112854,-0.030256,0.181430,0.181430,0.170877,0.796189,0.000000,0.000000,0.000000,0.000000,0.000000,0.000000,0.000000,0.000000,0.000000,0.000000,0.000000,0.000000,0.109454,3,0
680000,0.001685,17.383745,-0.022375,0.008575,25.295702,0.042757,0.000227,0.007286,1.571093,-0.021815,-0.000141,0.000736,0.000012,-0.001722,-0.000002,0.005350,-0.001737,0.174637,-0.050962,0.182021,0.182021,0.171032,0.788380,0.000000,0.000000,0.000000,0.000000,0.000000,0.000000,0.000000,0.000000,0.000000,0.000000,0.000000,0.000000,0.169347,3,0
690000,0.001718,17.642027,-0.022310,0.008671,25.305399,0.042933,0.000230,0.007623,1.571088,-0.022653,-0.000149,0.000800,0.000013,-0.001813,-0.000003,0.004966,-0.001772,0.174803,-0.013005,0.182621,0.182621,0.171193,0.780535,0.000000,0.000000,0.000000,0.000000,0.000000,0.000000,0.000000,0.000000,0.000000,0.000000,0.000000,0.000000,0.169492,3,0
700000,0.001752,17.902248,-0.021326,0.008802,25.318424,0.044424,0.000225,0.008071,1.571102,-0.023796,-0.000158,0.000703,0.000014,-0.001939,-0.000003,0.008944,-0.001807,0.234484,0.019135,0.183228,0.183227,0.171357,0.772663,0.000000,0.000000,0.000000,0.000000,0.000000,0.000000,0.000000,0.000000,0.000000,0.000000,0.000000,0.000000,0.227330,3,0
710000,0.001785,18.159519,-0.021720,0.008866,25.326155,0.043761,0.000218,0.008335,1.571111,-0.024455,-0.000167,0.000854,0.000015,-0.002013,-0.000003,0.003007,-0.001842,0.133163,-0.029533,0.183838,0.183837,0.171521,0.764771,0.000000,0.000000,0.000000,0.000000,0.000000,0.000000,0.000000,0.000000,0.000000,0.000000,0.000000,0.000000,0.129096,3,0
720000,0.001818,18.419970,-0.022812,0.008919,25.339275,0.042030,0.000222,0.008804,1.571122,-0.025630,-0.000176,0.001135,0.000016,-0.002147,-0.000003,0.009286,-0.001876,0.233635,-0.053710,0.184450,0.184449,0.171685,0.756867,0.000000,0.000000,0.000000,0.000000,0.000000,0.000000,0.000000,0.000000,0.000000,0.000000,0.000000,0.000000,0.226461,3,0
730000,0.001850,18.678057,-0.022123,0.008946,25.348171,0.043186,0.000230,0.009131,1.571132,-0.026404,-0.000186,0.001086,0.000017,-0.002237,-0.000003,0.003744,-0.001909,0.151962,0.009080,0.185062,0.185061,0.171846,0.748957,0.000000,0.000000,0.000000,0.000000,0.000000,0.000000,0.000000,0.000000,0.000000,0.000000,0.000000,0.000000,0.147288,3,0
740000,0.001880,18.939333,-0.022422,0.008949,25.362524,0.042887,0.000224,0.009667,1.571139,-0.027705,-0.000196,0.001225,0.000018,-0.002391,-0.000003,0.010333,-0.001940,0.251606,-0.025835,0.185672,0.185672,0.172003,0.741049,0.000000,0.000000,0.000000,0.000000,0.000000,0.000000,0.000000,0.000000,0.000000,0.000000,0.000000,0.000000,0.243827,3,0
750000,0.001911,19.198215,-0.022497,0.009039,25.372440,0.042658,0.000230,0.010033,1.571137,-0.028592,-0.000206,0.001322,0.000019,-0.002498,-0.000004,0.004669,-0.001972,0.169098,-0.017762,0.186279,0.186279,0.172154,0.733150,0.000000,0.000000,0.000000,0.000000,0.000000,0.000000,0.000000,0.000000,0.000000,0.000000,0.000000,0.000000,0.163860,3,0
760000,0.001940,19.458435,-0.022507,0.009032,25.384684,0.042759,0.000231,0.010495,1.571152,-0.029697,-0.000217,0.001407,0.000021,-0.002633,-0.000004,0.007046,-0.002002,0.208300,-0.015498,0.186882,0.186881,0.172299,0.725267,0.000000,0.000000,0.000000,0.000000,0.000000,0.000000,0.000000,0.000000,0.000000,0.000000,0.000000,0.000000,0.201822,3,0
770000,0.001968,19.716877,-0.021618,0.009031,25.393703,0.044171,0.000240,0.010841,1.571152,-0.030486,-0.000227,0.001317,0.000022,-0.002732,-0.000004,0.003518,-0.002031,0.146746,0.015774,0.187478,0.187477,0.172435,0.717405,0.000000,0.000000,0.000000,0.000000,0.000000,0.000000,0.000000,0.000000,0.000000,0.000000,0.000000,0.000000,0.142174,3,0
780000,0.001995,19.976665,-0.020692,0.009104,25.404966,0.045532,0.000234,0.011284,1.571154,-0.031500,-0.000239,0.001221,0.000023,-0.002860,-0.000004,0.005654,-0.002060,0.186398,0.016556,0.188067,0.188066,0.172562,0.709572,0.000000,0.000000,0.000000,0.000000,0.000000,0.000000,0.000000,0.000000,0.000000,0.000000,0.000000,0.000000,0.180566,3,0
790000,0.002022,20.237791,-0.021670,0.009080,25.418442,0.044000,0.000235,0.011812,1.571165,-0.032736,-0.000250,0.001511,0.000025,-0.003019,-0.000004,0.008555,-0.002087,0.224678,-0.050036,0.188647,0.188646,0.172680,0.701774,0.000000,0.000000,0.000000,0.000000,0.000000,0.000000,0.000000,0.000000,0.000000,0.000000,0.000000,0.000000,0.217623,3,0
800000,0.002047,20.495848,-0.021157,0.009049,25.426254,0.044633,0.000228,0.012113,1.571177,-0.033417,-0.000262,0.001497,0.000026,-0.003108,-0.000005,0.002422,-0.002113,0.122450,0.002315,0.189218,0.189217,0.172786,0.694015,0.000000,0.000000,0.000000,0.000000,0.000000,0.000000,0.000000,0.000000,0.000000,0.000000,0.000000,0.000000,0.118605,3,0
810000,0.002071,20.755262,-0.020772,0.009107,25.436388,0.045257,0.000224,0.012520,1.571177,-0.034331,-0.000273,0.001510,0.000028,-0.003230,-0.000005,0.004263,-0.002139,0.162497,-0.002390,0.189779,0.189778,0.172881,0.686302,0.000000,0.000000,0.000000,0.000000,0.000000,0.000000,0.000000,0.000000,0.000000,0.000000,0.000000,0.000000,0.157370,3,0
820000,0.002095,21.015388,-0.019432,0.009127,25.447618,0.047091,0.000229,0.012984,1.571186,-0.035360,-0.000286,0.001323,0.000030,-0.003369,-0.000005,0.005456,-0.002164,0.181288,0.030549,0.190329,0.190328,0.172964,0.678640,0.000000,0.000000,0.000000,0.000000,0.000000,0.000000,0.000000,0.000000,0.000000,0.000000,0.000000,0.000000,0.175550,3,0
830000,0.002118,21.278116,-0.018015,0.009144,25.463295,0.049079,0.000228,0.013638,1.571183,-0.036845,-0.000298,0.001120,0.000031,-0.003573,-0.000005,0.010996,-0.002188,0.258991,0.032554,0.190868,0.190867,0.173034,0.671034,0.000000,0.000000,0.000000,0.000000,0.000000,0.000000,0.000000,0.000000,0.000000,0.000000,0.000000,0.000000,0.250760,3,0
840000,0.002140,21.540247,-0.018298,0.009088,25.477867,0.048539,0.000227,0.014250,1.571193,-0.038203,-0.000311,0.001287,0.000033,-0.003763,-0.000006,0.009003,-0.002210,0.234652,-0.027051,0.191394,0.191393,0.173091,0.663489,0.000000,0.000000,0.000000,0.000000,0.000000,0.000000,0.000000,0.000000,0.000000,0.000000,0.000000,0.000000,0.227177,3,0
850000,0.002160,21.800514,-0.017195,0.009058,25.489002,0.050336,0.000225,0.014705,1.571198,-0.039203,-0.000324,0.001152,0.000035,-0.003905,-0.000006,0.004799,-0.002232,0.171162,0.021073,0.191908,0.191907,0.173135,0.656009,0.000000,0.000000,0.000000,0.000000,0.000000,0.000000,0.000000,0.000000,0.000000,0.000000,0.000000,0.000000,0.165702,3,0
860000,0.002181,22.058294,-0.018072,0.009137,25.495527,0.049111,0.000223,0.014972,1.571206,-0.039731,-0.000337,0.001459,0.000037,-0.003981,-0.000006,0.001674,-0.002253,0.089695,-0.048139,0.192409,0.192408,0.173165,0.648597,0.000000,0.000000,0.000000,0.000000,0.000000,0.000000,0.000000,0.000000,0.000000,0.000000,0.000000,0.000000,0.086846,3,0
870000,0.002200,22.320000,-0.018564,0.009117,25.508835,0.048430,0.000228,0.015564,1.571215,-0.040976,-0.000350,0.001679,0.000039,-0.004163,-0.000006,0.007275,-0.002273,0.209549,-0.034358,0.192897,0.192896,0.173181,0.641260,0.000000,0.000000,0.000000,0.000000,0.000000,0.000000,0.000000,0.000000,0.000000,0.000000,0.000000,0.000000,0.202824,3,0
880000,0.002220,22.579824,-0.017130,0.009224,25.518826,0.050332,0.000217,0.015996,1.571214,-0.041852,-0.000364,0.001463,0.000041,-0.004294,-0.000006,0.003636,-0.002294,0.146498,0.032724,0.193372,0.193371,0.173183,0.633999,0.000000,0.000000,0.000000,0.000000,0.000000,0.000000,0.000000,0.000000,0.000000,0.000000,0.000000,0.000000,0.141794,3,0
890000,0.002239,22.842283,-0.017022,0.009290,25.533232,0.050541,0.000214,0.016640,1.571213,-0.043205,-0.000377,0.001553,0.000043,-0.004499,-0.000007,0.008162,-0.002314,0.224512,-0.013990,0.193833,0.193832,0.173170,0.626818,0.000000,0.000000,0.000000,0.000000,0.000000,0.000000,0.000000,0.000000,0.000000,0.000000,0.000000,0.000000,0.217270,3,0
900000,0.002259,23.104767,-0.016575,0.009352,25.547543,0.051328,0.000203,0.017281,1.571224,-0.044543,-0.000391,0.001566,0.000045,-0.004704,-0.000007,0.007831,-0.002334,0.220335,-0.002364,0.194280,0.194279,0.173144,0.619721,0.000000,0.000000,0.000000,0.000000,0.000000,0.000000,0.000000,0.000000,0.000000,0.000000,0.000000,0.000000,0.213213,3,0
910000,0.002278,23.366629,-0.015771,0.009412,25.560545,0.052328,0.000210,0.017879,1.571233,-0.045742,-0.000406,0.001496,0.000047,-0.004891,-0.000007,0.006228,-0.002354,0.196257,0.009875,0.194715,0.194714,0.173103,0.612710,0.000000,0.000000,0.000000,0.000000,0.000000,0.000000,0.000000,0.000000,0.000000,0.000000,0.000000,0.000000,0.189902,3,0
920000,0.002297,23.626581,-0.014240,0.009491,25.570095,0.054544,0.000205,0.018293,1.571242,-0.046559,-0.000420,0.001257,0.000050,-0.005021,-0.000007,0.003050,-0.002374,0.133051,0.034677,0.195135,0.195134,0.173048,0.605788,0.000000,0.000000,0.000000,0.000000,0.000000,0.000000,0.000000,0.000000,0.000000,0.000000,0.000000,0.000000,0.128744,3,0
930000,0.002316,23.886585,-0.014137,0.009593,25.579494,0.054681,0.000202,0.018718,1.571240,-0.047373,-0.000435,0.001363,0.000052,-0.005152,-0.000008,0.002826,-0.002394,0.131430,-0.015631,0.195543,0.195541,0.172979,0.598958,0.000000,0.000000,0.000000,0.000000,0.000000,0.000000,0.000000,0.000000,0.000000,0.000000,0.000000,0.000000,0.127167,3,0
940000,0.002335,24.147934,-0.014572,0.009655,25.591120,0.054091,0.000195,0.019249,1.571240,-0.048428,-0.000450,0.001600,0.000054,-0.005324,-0.000008,0.004825,-0.002414,0.169516,-0.034364,0.195937,0.195935,0.172896,0.592222,0.000000,0.000000,0.000000,0.000000,0.000000,0.000000,0.000000,0.000000,0.000000,0.000000,0.000000,0.000000,0.163997,3,0
950000,0.002353,24.407362,-0.015755,0.009610,25.599356,0.052206,0.000194,0.019607,1.571244,-0.049098,-0.000465,0.002021,0.000057,-0.005435,-0.000008,0.002425,-0.002433,0.106838,-0.060055,0.196318,0.196317,0.172799,0.585581,0.000000,0.000000,0.000000,0.000000,0.000000,0.000000,0.000000,0.000000,0.000000,0.000000,0.000000,0.000000,0.103369,3,0
960000,0.002371,24.667494,-0.015172,0.009623,25.608639,0.052971,0.000183,0.020039,1.571251,-0.049887,-0.000480,0.002005,0.000059,-0.005568,-0.000008,0.002546,-0.002451,0.125633,0.001877,0.196686,0.196685,0.172689,0.579038,0.000000,0.000000,0.000000,0.000000,0.000000,0.000000,0.000000,0.000000,0.000000,0.000000,0.000000,0.000000,0.121538,3,0
970000,0.002387,24.927015,-0.016047,0.009538,25.616789,0.051829,0.000180,0.020405,1.571265,-0.050545,-0.000496,0.002355,0.000062,-0.005681,-0.000008,0.002134,-0.002468,0.103954,-0.049138,0.197042,0.197040,0.172565,0.572594,0.000000,0.000000,0.000000,0.000000,0.000000,0.000000,0.000000,0.000000,0.000000,0.000000,0.000000,0.000000,0.100568,3,0
980000,0.002403,25.187241,-0.015245,0.009644,25.625961,0.053020,0.000173,0.020832,1.571279,-0.051323,-0.000511,0.002283,0.000065,-0.005816,-0.000009,0.002441,-0.002485,0.122658,0.009613,0.197385,0.197384,0.172429,0.566251,0.000000,0.000000,0.000000,0.000000,0.000000,0.000000,0.000000,0.000000,0.000000,0.000000,0.000000,0.000000,0.118646,3,0
990000,0.002419,25.448156,-0.014127,0.009723,25.636314,0.054530,0.000167,0.021330,1.571286,-0.052219,-0.000527,0.002132,0.000067,-0.005974,-0.000009,0.003256,-0.002502,0.140644,0.020260,0.197717,0.197716,0.172280,0.560009,0.000000,0.000000,0.000000,0.000000,0.000000,0.000000,0.000000,0.000000,0.000000,0.000000,0.000000,0.000000,0.136031,3,0
1000000,0.002435,25.706474,-0.014342,0.009726,25.642044,0.054319,0.000166,0.021572,1.571297,-0.052594,-0.000543,0.002329,0.000070,-0.006041,-0.000009,0.000670,-0.002518,0.058533,-0.026819,0.198037,0.198036,0.172119,0.553870,0.000000,0.000000,0.000000,0.000000,0.000000,0.000000,0.000000,0.000000,0.000000,0.000000,0.000000,0.000000,0.056653,3,0
1010000,0.002449,25.965511,-0.014322,0.009673,25.648884,0.054338,0.000164,0.021883,1.571295,-0.053099,-0.000559,0.002464,0.000073,-0.006133,-0.000009,0.001048,-0.002533,0.078465,-0.018476,0.198346,0.198345,0.171945,0.547835,0.000000,0.000000,0.000000,0.000000,0.000000,0.000000,0.000000,0.000000,0.000000,0.000000,0.000000,0.000000,0.075910,3,0
1020000,0.002464,26.228548,-0.015054,0.009744,25.662697,0.053215,0.000170,0.022581,1.571303,-0.054370,-0.000575,0.002794,0.000076,-0.006368,-0.000009,0.006583,-0.002548,0.197058,-0.044739,0.198645,0.198643,0.171760,0.541904,0.000000,0.000000,0.000000,0.000000,0.000000,0.000000,0.000000,0.000000,0.000000,0.000000,0.000000,0.000000,0.190549,3,0
1030000,0.002479,26.490915,-0.015156,0.009762,25.675192,0.053069,0.000170,0.023213,1.571301,-0.055485,-0.000592,0.002959,0.000079,-0.006577,-0.000010,0.004873,-0.002563,0.172428,-0.022392,0.198933,0.198931,0.171563,0.536077,0.000000,0.000000,0.000000,0.000000,0.000000,0.000000,0.000000,0.000000,0.000000,0.000000,0.000000,0.000000,0.166730,3,0
1040000,0.002492,26.751303,-0.015037,0.009693,25.684101,0.053270,0.000158,0.023627,1.571304,-0.056190,-0.000608,0.003067,0.000082,-0.006711,-0.000010,0.001941,-0.002577,0.108725,-0.014652,0.199211,0.199209,0.171356,0.530356,0.000000,0.000000,0.000000,0.000000,0.000000,0.000000,0.000000,0.000000,0.000000,0.000000,0.000000,0.000000,0.105144,3,0
1050000,0.002503,27.014359,-0.013641,0.009610,25.697493,0.054916,0.000156,0.024328,1.571315,-0.057400,-0.000625,0.002831,0.000086,-0.006944,-0.000010,0.005734,-0.002589,0.186188,0.030162,0.199479,0.199477,0.171138,0.524740,0.000000,0.000000,0.000000,0.000000,0.000000,0.000000,0.000000,0.000000,0.000000,0.000000,0.000000,0.000000,0.180016,3,0
1060000,0.002515,27.274092,-0.013729,0.009694,25.704948,0.054700,0.000158,0.024681,1.571317,-0.057935,-0.000642,0.003003,0.000089,-0.007049,-0.000010,0.001168,-0.002601,0.082029,-0.022581,0.199739,0.199736,0.170910,0.519229,0.000000,0.000000,0.000000,0.000000,0.000000,0.000000,0.000000,0.000000,0.000000,0.000000,0.000000,0.000000,0.079338,3,0
1070000,0.002526,27.536505,-0.014633,0.009667,25.716915,0.053202,0.000160,0.025303,1.571332,-0.058983,-0.000659,0.003396,0.000092,-0.007258,-0.000011,0.004557,-0.002613,0.160166,-0.051119,0.199989,0.199987,0.170672,0.513823,0.000000,0.000000,0.000000,0.000000,0.000000,0.000000,0.000000,0.000000,0.000000,0.000000,0.000000,0.000000,0.154848,3,0
1080000,0.002537,27.798246,-0.014403,0.009700,25.727686,0.053301,0.000162,0.025847,1.571336,-0.059874,-0.000676,0.003476,0.000095,-0.007438,-0.000011,0.003007,-0.002625,0.136175,-0.010750,0.200232,0.200229,0.170425,0.508523,0.000000,0.000000,0.000000,0.000000,0.000000,0.000000,0.000000,0.000000,0.000000,0.000000,0.000000,0.000000,0.131654,3,0
1090000,0.002547,28.060652,-0.013997,0.009603,25.739416,0.053821,0.000150,0.026466,1.571350,-0.060874,-0.000693,0.003507,0.000099,-0.007643,-0.000011,0.003758,-0.002635,0.152632,-0.004611,0.200467,0.200464,0.170169,0.503328,0.000000,0.000000,0.000000,0.000000,0.000000,0.000000,0.000000,0.000000,0.000000,0.000000,0.000000,0.000000,0.147554,3,0
1100000,0.002557,28.323042,-0.013643,0.009667,25.750978,0.054221,0.000142,0.027072,1.571353,-0.061850,-0.000710,0.003555,0.000103,-0.007845,-0.000012,0.003562,-0.002645,0.148535,-0.006670,0.200694,0.200691,0.169904,0.498237,0.000000,0.000000,0.000000,0.000000,0.000000,0.000000,0.000000,0.000000,0.000000,0.000000,0.000000,0.000000,0.143589,3,0
1110000,0.002567,28.582756,-0.012656,0.009735,25.757755,0.055580,0.000142,0.027376,1.571350,-0.062276,-0.000727,0.003428,0.000106,-0.007935,-0.000012,0.000719,-0.002656,0.064938,0.015510,0.200915,0.200912,0.169631,0.493250,0.000000,0.000000,0.000000,0.000000,0.000000,0.000000,0.000000,0.000000,0.000000,0.000000,0.000000,0.000000,0.062816,3,0
1120000,0.002576,28.845161,-0.013692,0.009692,25.769100,0.054000,0.000135,0.027971,1.571357,-0.063219,-0.000745,0.003879,0.000110,-0.008137,-0.000012,0.003816,-0.002665,0.143097,-0.056488,0.201129,0.201126,0.169350,0.488366,0.000000,0.000000,0.000000,0.000000,0.000000,0.000000,0.000000,0.000000,0.000000,0.000000,0.000000,0.000000,0.138322,3,0
1130000,0.002586,29.106882,-0.013765,0.009737,25.779253,0.053893,0.000137,0.028490,1.571353,-0.064005,-0.000762,0.004053,0.000114,-0.008308,-0.000012,0.002365,-0.002675,0.119122,-0.021928,0.201337,0.201334,0.169062,0.483585,0.000000,0.000000,0.000000,0.000000,0.000000,0.000000,0.000000,0.000000,0.000000,0.000000,0.000000,0.000000,0.115153,3,0
1140000,0.002594,29.369263,-0.014369,0.009666,25.790422,0.053018,0.000139,0.029073,1.571354,-0.064900,-0.000780,0.004381,0.000117,-0.008506,-0.000013,0.003232,-0.002684,0.135605,-0.040744,0.201540,0.201537,0.168767,0.478906,0.000000,0.000000,0.000000,0.000000,0.000000,0.000000,0.000000,0.000000,0.000000,0.000000,0.000000,0.000000,0.131074,3,0
1150000,0.002602,29.630955,-0.014409,0.009707,25.800270,0.053004,0.000133,0.029585,1.571361,-0.065637,-0.000797,0.004545,0.000121,-0.008671,-0.000013,0.002077,-0.002693,0.111660,-0.020492,0.201738,0.201734,0.168466,0.474329,0.000000,0.000000,0.000000,0.000000,0.000000,0.000000,0.000000,0.000000,0.000000,0.000000,0.000000,0.000000,0.107936,3,0
1160000,0.002609,29.893972,-0.013474,0.009646,25.812300,0.053950,0.000116,0.030244,1.571357,-0.066612,-0.000815,0.004418,0.000125,-0.008892,-0.000013,0.003565,-0.002701,0.148052,0.014455,0.201932,0.201927,0.168158,0.469851,0.000000,0.000000,0.000000,0.000000,0.000000,0.000000,0.000000,0.000000,0.000000,0.000000,0.000000,0.000000,0.143094,3,0
1170000,0.002617,30.156958,-0.013670,0.009722,25.824062,0.053507,0.000105,0.030885,1.571369,-0.067558,-0.000833,0.004632,0.000129,-0.009110,-0.000014,0.003423,-0.002708,0.143341,-0.026344,0.202120,0.202116,0.167845,0.465473,0.000000,0.000000,0.000000,0.000000,0.000000,0.000000,0.000000,0.000000,0.000000,0.000000,0.000000,0.000000,0.138536,3,0
1180000,0.002624,30.417225,-0.012814,0.009655,25.830877,0.054542,0.000101,0.031192,1.571378,-0.067947,-0.000850,0.004533,0.000133,-0.009201,-0.000014,0.000585,-0.002715,0.059147,0.011338,0.202305,0.202301,0.167526,0.461193,0.000000,0.000000,0.000000,0.000000,0.000000,0.000000,0.000000,0.000000,0.000000,0.000000,0.000000,0.000000,0.057214,3,0
1190000,0.002630,30.678841,-0.012614,0.009619,25.839996,0.054565,0.000098,0.031665,1.571387,-0.068587,-0.000868,0.004634,0.000138,-0.009353,-0.000014,0.001541,-0.002722,0.096994,-0.012436,0.202487,0.202482,0.167202,0.457009,0.000000,0.000000,0.000000,0.000000,0.000000,0.000000,0.000000,0.000000,0.000000,0.000000,0.000000,0.000000,0.093758,3,0
1200000,0.002636,30.938429,-0.013662,0.009567,25.845415,0.052966,0.000085,0.031880,1.571388,-0.068814,-0.000886,0.005122,0.000142,-0.009408,-0.000014,0.000723,-0.002727,0.034077,-0.057436,0.202666,0.202660,0.166874,0.452922,0.000000,0.000000,0.000000,0.000000,0.000000,0.000000,0.000000,0.000000,0.000000,0.000000,0.000000,0.000000,0.033028,3,0
1210000,0.002639,31.200718,-0.012905,0.009458,25.855610,0.053934,0.000087,0.032420,1.571393,-0.069553,-0.000904,0.005046,0.000146,-0.009588,-0.000014,0.002045,-0.002732,0.112375,0.008101,0.202841,0.202835,0.166541,0.448930,0.000000,0.000000,0.000000,0.000000,0.000000,0.000000,0.000000,0.000000,0.000000,0.000000,0.000000,0.000000,0.108608,3,0
1220000,0.002643,31.458942,-0.013079,0.009431,25.858444,0.053793,0.000076,0.032471,1.571391,-0.069483,-0.000922,0.005271,0.000151,-0.009571,-0.000014,0.000130,-0.002735,-0.010862,-0.026049,0.203015,0.203008,0.166205,0.445031,0.000000,0.000000,0.000000,0.000000,0.000000,0.000000,0.000000,0.000000,0.000000,0.000000,0.000000,0.000000,0.010824,3,0
1230000,0.002646,31.717876,-0.013605,0.009418,25.862612,0.053125,0.000067,0.032599,1.571394,-0.069545,-0.000940,0.005607,0.000155,-0.009587,-0.000014,0.000258,-0.002739,0.009186,-0.038740,0.203186,0.203180,0.165865,0.441225,0.000000,0.000000,0.000000,0.000000,0.000000,0.000000,0.000000,0.000000,0.000000,0.000000,0.000000,0.000000,0.009259,3,0
1240000,0.002650,31.976833,-0.014211,0.009487,25.866617,0.052283,0.000060,0.032729,1.571404,-0.069604,-0.000958,0.005969,0.000159,-0.009602,-0.000014,0.000292,-0.002743,0.008640,-0.041460,0.203356,0.203349,0.165521,0.437509,0.000000,0.000000,0.000000,0.000000,0.000000,0.000000,0.000000,0.000000,0.000000,0.000000,0.000000,0.000000,0.008755,3,0
1250000,0.002652,32.238503,-0.013158,0.009374,25.875359,0.053517,0.000059,0.033186,1.571408,-0.070176,-0.000976,0.005794,0.000164,-0.009750,-0.000015,0.001296,-0.002746,0.087582,0.019239,0.203525,0.203517,0.165175,0.433883,0.000000,0.000000,0.000000,0.000000,0.000000,0.000000,0.000000,0.000000,0.000000,0.000000,0.000000,0.000000,0.084655,3,0
1260000,0.002655,32.501503,-0.014324,0.009351,25.886543,0.052023,0.000047,0.033819,1.571411,-0.070989,-0.000994,0.006334,0.000169,-0.009963,-0.000015,0.003099,-0.002748,0.124012,-0.061960,0.203692,0.203684,0.164827,0.430346,0.000000,0.000000,0.000000,0.000000,0.000000,0.000000,0.000000,0.000000,0.000000,0.000000,0.000000,0.000000,0.119830,3,0
1270000,0.002657,32.763786,-0.013859,0.009351,25.896187,0.052588,0.000033,0.034345,1.571424,-0.071637,-0.001011,0.006345,0.000173,-0.010136,-0.000015,0.001594,-0.002750,0.099442,-0.002068,0.203859,0.203850,0.164476,0.426896,0.000000,0.000000,0.000000,0.000000,0.000000,0.000000,0.000000,0.000000,0.000000,0.000000,0.000000,0.000000,0.096098,3,0
1280000,0.002658,33.025352,-0.012501,0.009329,25.904495,0.054189,0.000032,0.034767,1.571428,-0.072127,-0.001029,0.006068,0.000178,-0.010268,-0.000015,0.001071,-0.002752,0.075611,0.030374,0.204025,0.204016,0.164123,0.423531,0.000000,0.000000,0.000000,0.000000,0.000000,0.000000,0.000000,0.000000,0.000000,0.000000,0.000000,0.000000,0.073092,3,0
1290000,0.002660,33.288254,-0.013486,0.009373,25.915138,0.052721,0.000018,0.035356,1.571439,-0.072858,-0.001047,0.006562,0.000183,-0.010469,-0.000016,0.002532,-0.002753,0.112144,-0.055865,0.204191,0.204181,0.163768,0.420251,0.000000,0.000000,0.000000,0.000000,0.000000,0.000000,0.000000,0.000000,0.000000,0.000000,0.000000,0.000000,0.108359,3,0
1300000,0.002662,33.549076,-0.013265,0.009401,25.921953,0.052843,0.000012,0.035673,1.571441,-0.073169,-0.001065,0.006661,0.000188,-0.010555,-0.000016,0.000392,-0.002756,0.047924,-0.011334,0.204357,0.204347,0.163412,0.417053,0.000000,0.000000,0.000000,0.000000,0.000000,0.000000,0.000000,0.000000,0.000000,0.000000,0.000000,0.000000,0.046368,3,0
1310000,0.002663,33.811916,-0.012464,0.009321,25.932314,0.053704,-0.000003,0.036238,1.571445,-0.073846,-0.001082,0.006561,0.000193,-0.010746,-0.000016,0.001796,-0.002757,0.105095,0.010115,0.204523,0.204512,0.163055,0.413937,0.000000,0.000000,0.000000,0.000000,0.000000,0.000000,0.000000,0.000000,0.000000,0.000000,0.000000,0.000000,0.101548,3,0
1320000,0.002663,34.071320,-0.012613,0.009183,25.936392,0.053264,-0.000016,0.036353,1.571455,-0.073855,-0.001100,0.006794,0.000198,-0.010749,-0.000016,0.000107,-0.002756,0.001186,-0.025471,0.204689,0.204678,0.162697,0.410901,0.000000,0.000000,0.000000,0.000000,0.000000,0.000000,0.000000,0.000000,0.000000,0.000000,0.000000,0.000000,0.002898,3,0
1330000,0.002662,34.334805,-0.013383,0.009185,25.947628,0.052095,-0.000021,0.036996,1.571456,-0.074624,-0.001118,0.007225,0.000203,-0.010973,-0.000017,0.002671,-0.002756,0.119438,-0.048024,0.204856,0.204845,0.162339,0.407943,0.000000,0.000000,0.000000,0.000000,0.000000,0.000000,0.000000,0.000000,0.000000,0.000000,0.000000,0.000000,0.115387,3,0
1340000,0.002662,34.593475,-0.013522,0.009122,25.950191,0.051913,-0.000037,0.036978,1.571462,-0.074467,-0.001135,0.007457,0.000208,-0.010927,-0.000016,0.000200,-0.002755,-0.024887,-0.024755,0.205024,0.205012,0.161980,0.405062,0.000000,0.000000,0.000000,0.000000,0.000000,0.000000,0.000000,0.000000,0.000000,0.000000,0.000000,0.000000,0.024187,3,0
1350000,0.002660,34.854198,-0.013938,0.009015,25.956343,0.051441,-0.000046,0.037244,1.571459,-0.074688,-0.001153,0.007778,0.000213,-0.010994,-0.000017,0.000390,-0.002753,0.034481,-0.034865,0.205193,0.205180,0.161622,0.402257,0.000000,0.000000,0.000000,0.000000,0.000000,0.000000,0.000000,0.000000,0.000000,0.000000,0.000000,0.000000,0.033405,3,0
1360000,0.002657,35.115582,-0.013469,0.008949,25.963499,0.052000,-0.000049,0.037587,1.571456,-0.075018,-0.001170,0.007789,0.000218,-0.011094,-0.000017,0.000437,-0.002751,0.052002,-0.001766,0.205363,0.205349,0.161263,0.399525,0.000000,0.000000,0.000000,0.000000,0.000000,0.000000,0.000000,0.000000,0.000000,0.000000,0.000000,0.000000,0.050291,3,0
1370000,0.002653,35.377617,-0.014159,0.008812,25.971817,0.050964,-0.000055,0.038012,1.571457,-0.075456,-0.001188,0.008206,0.000224,-0.011229,-0.000017,0.001094,-0.002746,0.068851,-0.045068,0.205534,0.205520,0.160905,0.396866,0.000000,0.000000,0.000000,0.000000,0.000000,0.000000,0.000000,0.000000,0.000000,0.000000,0.000000,0.000000,0.066543,3,0
1380000,0.002649,35.638252,-0.014515,0.008864,25.977573,0.050473,-0.000058,0.038232,1.571455,-0.075618,-0.001205,0.008511,0.000229,-0.011280,-0.000017,0.000276,-0.002743,0.025394,-0.032514,0.205707,0.205691,0.160548,0.394279,0.000000,0.000000,0.000000,0.000000,0.000000,0.000000,0.000000,0.000000,0.000000,0.000000,0.000000,0.000000,0.024664,3,0
1390000,0.002646,35.898186,-0.014537,0.008876,25.982018,0.050419,-0.000074,0.038343,1.571455,-0.075640,-0.001222,0.008700,0.000234,-0.011287,-0.000017,0.000067,-0.002740,0.003250,-0.019947,0.205880,0.205865,0.160191,0.391762,0.000000,0.000000,0.000000,0.000000,0.000000,0.000000,0.000000,0.000000,0.000000,0.000000,0.000000,0.000000,0.004103,3,0
1400000,0.002642,36.161518,-0.013790,0.008826,25.992430,0.051131,-0.000091,0.038945,1.571460,-0.076269,-0.001239,0.008600,0.000240,-0.011489,-0.000017,0.001660,-0.002736,0.101097,0.009345,0.206056,0.206039,0.159835,0.389312,0.000000,0.000000,0.000000,0.000000,0.000000,0.000000,0.000000,0.000000,0.000000,0.000000,0.000000,0.000000,0.097661,3,0
1410000,0.002637,36.420010,-0.014033,0.008682,25.994095,0.050967,-0.000097,0.038848,1.571469,-0.076004,-0.001256,0.008881,0.000245,-0.011403,-0.000017,0.000435,-0.002731,-0.043068,-0.028838,0.206233,0.206216,0.159481,0.386930,0.000000,0.000000,0.000000,0.000000,0.000000,0.000000,0.000000,0.000000,0.000000,0.000000,0.000000,0.000000,0.041675,3,0
1420000,0.002632,36.678505,-0.012987,0.008689,25.995630,0.052362,-0.000104,0.038742,1.571465,-0.075736,-0.001273,0.008695,0.000251,-0.011314,-0.000017,0.000364,-0.002726,-0.043152,0.019767,0.206412,0.206394,0.159128,0.384612,0.000000,0.000000,0.000000,0.000000,0.000000,0.000000,0.000000,0.000000,0.000000,0.000000,0.000000,0.000000,0.041747,3,0
1430000,0.002626,36.939758,-0.014018,0.008579,26.002069,0.051134,-0.000120,0.039029,1.571479,-0.075963,-0.001290,0.009261,0.000256,-0.011391,-0.000017,0.000775,-0.002719,0.036282,-0.058845,0.206593,0.206574,0.158777,0.382358,0.000000,0.000000,0.000000,0.000000,0.000000,0.000000,0.000000,0.000000,0.000000,0.000000,0.000000,0.000000,0.035125,3,0
1440000,0.002619,37.197552,-0.014922,0.008447,26.002220,0.049848,-0.000122,0.038799,1.571490,-0.075564,-0.001307,0.009795,0.000262,-0.011256,-0.000017,0.001177,-0.002712,-0.066006,-0.054068,0.206775,0.206755,0.158427,0.380167,0.000000,0.000000,0.000000,0.000000,0.000000,0.000000,0.000000,0.000000,0.000000,0.000000,0.000000,0.000000,0.063790,3,0
1450000,0.002611,37.455357,-0.013717,0.008318,26.002367,0.051494,-0.000134,0.038571,1.571494,-0.075165,-0.001323,0.009546,0.000267,-0.011118,-0.000017,0.000800,-0.002704,-0.065372,0.026213,0.206960,0.206939,0.158080,0.378036,0.000000,0.000000,0.000000,0.000000,0.000000,0.000000,0.000000,0.000000,0.000000,0.000000,0.000000,0.000000,0.063168,3,0
1460000,0.002601,37.714554,-0.012284,0.008238,26.004879,0.053007,-0.000153,0.038549,1.571507,-0.075011,-0.001339,0.009209,0.000273,-0.011064,-0.000017,0.000297,-0.002695,-0.024994,0.034655,0.207146,0.207124,0.157734,0.375965,0.000000,0.000000,0.000000,0.000000,0.000000,0.000000,0.000000,0.000000,0.000000,0.000000,0.000000,0.000000,0.024268,3,0
1470000,0.002591,37.977871,-0.011231,0.008114,26.014997,0.054143,-0.000172,0.039127,1.571503,-0.075571,-0.001355,0.008998,0.000279,-0.011262,-0.000017,0.001473,-0.002684,0.093479,0.020192,0.207334,0.207311,0.157391,0.373952,0.000000,0.000000,0.000000,0.000000,0.000000,0.000000,0.000000,0.000000,0.000000,0.000000,0.000000,0.000000,0.090289,3,0
1480000,0.002581,38.239059,-0.010366,0.008121,26.021147,0.055191,-0.000176,0.039378,1.571508,-0.075742,-0.001371,0.008873,0.000285,-0.011324,-0.000017,0.000160,-0.002674,0.028851,0.012271,0.207524,0.207500,0.157050,0.371997,0.000000,0.000000,0.000000,0.000000,0.000000,0.000000,0.000000,0.000000,0.000000,0.000000,0.000000,0.000000,0.027974,3,0
1490000,0.002571,38.498844,-0.011237,0.007989,26.024595,0.054104,-0.000185,0.039417,1.571517,-0.075665,-0.001387,0.009421,0.000290,-0.011297,-0.000017,0.000520,-0.002663,-0.013733,-0.054834,0.207715,0.207691,0.156712,0.370097,0.000000,0.000000,0.000000,0.000000,0.000000,0.000000,0.000000,0.000000,0.000000,0.000000,0.000000,0.000000,0.013511,3,0
1500000,0.002561,38.759308,-0.012294,0.007873,26.029165,0.052815,-0.000194,0.039550,1.571519,-0.075697,-0.001403,0.010036,0.000296,-0.011310,-0.000017,0.000620,-0.002652,0.004757,-0.061543,0.207909,0.207883,0.156376,0.368251,0.000000,0.000000,0.000000,0.000000,0.000000,0.000000,0.000000,0.000000,0.000000,0.000000,0.000000,0.000000,0.005249,3,0
1510000,0.002550,39.016979,-0.012254,0.007910,26.028662,0.052690,-0.000209,0.039246,1.571528,-0.075249,-0.001419,0.010241,0.000302,-0.011141,-0.000017,0.001012,-0.002642,-0.076843,-0.019347,0.208104,0.208077,0.156043,0.366458,0.000000,0.000000,0.000000,0.000000,0.000000,0.000000,0.000000,0.000000,0.000000,0.000000,0.000000,0.000000,0.074224,3,0
1520000,0.002538,39.276741,-0.012162,0.007749,26.031939,0.052821,-0.000219,0.039269,1.571534,-0.075155,-0.001434,0.010416,0.000308,-0.011106,-0.000017,0.000092,-0.002629,-0.016449,-0.017102,0.208301,0.208273,0.155713,0.364716,0.000000,0.000000,0.000000,0.000000,0.000000,0.000000,0.000000,0.000000,0.000000,0.000000,0.000000,0.000000,0.016082,3,0
1530000,0.002526,39.538551,-0.010922,0.007753,26.038855,0.054099,-0.000223,0.039599,1.571542,-0.075394,-0.001449,0.010131,0.000314,-0.011198,-0.000017,0.000406,-0.002617,0.041821,0.027562,0.208499,0.208470,0.155386,0.363025,0.000000,0.000000,0.000000,0.000000,0.000000,0.000000,0.000000,0.000000,0.000000,0.000000,0.000000,0.000000,0.040450,3,0
1540000,0.002514,39.798248,-0.011101,0.007593,26.041853,0.053726,-0.000229,0.039592,1.571538,-0.075274,-0.001464,0.010421,0.000319,-0.011152,-0.000017,0.000203,-0.002604,-0.021275,-0.028186,0.208699,0.208669,0.155061,0.361382,0.000000,0.000000,0.000000,0.000000,0.000000,0.000000,0.000000,0.000000,0.000000,0.000000,0.000000,0.000000,0.020692,3,0
1550000,0.002500,40.056534,-0.009976,0.007572,26.042089,0.054970,-0.000232,0.039351,1.571535,-0.074919,-0.001479,0.010204,0.000325,-0.011009,-0.000017,0.000706,-0.002591,-0.062328,0.022163,0.208900,0.208869,0.154741,0.359786,0.000000,0.000000,0.000000,0.000000,0.000000,0.000000,0.000000,0.000000,0.000000,0.000000,0.000000,0.000000,0.060206,3,0
1560000,0.002488,40.318291,-0.009041,0.007579,26.048807,0.055821,-0.000250,0.039656,1.571534,-0.075127,-0.001493,0.010043,0.000331,-0.011093,-0.000017,0.000261,-0.002578,0.037201,0.015067,0.209103,0.209071,0.154423,0.358238,0.000000,0.000000,0.000000,0.000000,0.000000,0.000000,0.000000,0.000000,0.000000,0.000000,0.000000,0.000000,0.035994,3,0
1570000,0.002476,40.578625,-0.010071,0.007544,26.052765,0.054535,-0.000258,0.039737,1.571537,-0.075099,-0.001508,0.010685,0.000337,-0.011083,-0.000017,0.000634,-0.002565,-0.005955,-0.062128,0.209307,0.209273,0.154109,0.356734,0.000000,0.000000,0.000000,0.000000,0.000000,0.000000,0.000000,0.000000,0.000000,0.000000,0.000000,0.000000,0.006266,3,0
1580000,0.002464,40.836151,-0.010674,0.007503,26.051521,0.053803,-0.000280,0.039357,1.571534,-0.074618,-0.001522,0.011173,0.000343,-0.010882,-0.000017,0.001569,-0.002553,-0.087418,-0.045654,0.209512,0.209477,0.153798,0.355274,0.000000,0.000000,0.000000,0.000000,0.000000,0.000000,0.000000,0.000000,0.000000,0.000000,0.000000,0.000000,0.084409,3,0
1590000,0.002451,41.098557,-0.010895,0.007339,26.059126,0.053202,-0.000298,0.039756,1.571543,-0.074909,-0.001536,0.011470,0.000349,-0.011007,-0.000017,0.000587,-0.002539,0.052647,-0.029406,0.209718,0.209682,0.153490,0.353856,0.000000,0.000000,0.000000,0.000000,0.000000,0.000000,0.000000,0.000000,0.000000,0.000000,0.000000,0.000000,0.050859,3,0
1600000,0.002436,41.361588,-0.010320,0.007171,26.067778,0.053648,-0.000316,0.040252,1.571539,-0.075281,-0.001550,0.011437,0.000355,-0.011168,-0.000017,0.000756,-0.002524,0.068470,0.002023,0.209925,0.209888,0.153186,0.352480,0.000000,0.000000,0.000000,0.000000,0.000000,0.000000,0.000000,0.000000,0.000000,0.000000,0.000000,0.000000,0.066119,3,0
1610000,0.002421,41.623844,-0.009244,0.007169,26.074978,0.054711,-0.000333,0.040599,1.571548,-0.075516,-0.001563,0.011206,0.000361,-0.011271,-0.000017,0.000385,-0.002509,0.043900,0.021309,0.210132,0.210095,0.152886,0.351144,0.000000,0.000000,0.000000,0.000000,0.000000,0.000000,0.000000,0.000000,0.000000,0.000000,0.000000,0.000000,0.042435,3,0
1620000,0.002407,41.883255,-0.009118,0.007157,26.076771,0.054910,-0.000348,0.040481,1.571553,-0.075306,-0.001577,0.011393,0.000366,-0.011178,-0.000017,0.000300,-0.002494,-0.039516,-0.017141,0.210341,0.210302,0.152590,0.349848,0.000000,0.000000,0.000000,0.000000,0.000000,0.000000,0.000000,0.000000,0.000000,0.000000,0.000000,0.000000,0.038211,3,0
1630000,0.002393,42.143349,-0.009199,0.007099,26.079769,0.054731,-0.000355,0.040462,1.571556,-0.075199,-0.001590,0.011664,0.000372,-0.011130,-0.000017,0.000173,-0.002480,-0.020645,-0.025197,0.210550,0.210510,0.152297,0.348589,0.000000,0.000000,0.000000,0.000000,0.000000,0.000000,0.000000,0.000000,0.000000,0.000000,0.000000,0.000000,0.020071,3,0
1640000,0.002380,42.405514,-0.010255,0.007086,26.086603,0.053318,-0.000368,0.040797,1.571566,-0.075399,-0.001603,0.012327,0.000378,-0.011224,-0.000017,0.000873,-0.002465,0.037296,-0.063164,0.210759,0.210718,0.152008,0.347368,0.000000,0.000000,0.000000,0.000000,0.000000,0.000000,0.000000,0.000000,0.000000,0.000000,0.000000,0.000000,0.036051,3,0
1650000,0.002366,42.666206,-0.010277,0.007008,26.090704,0.053075,-0.000377,0.040858,1.571571,-0.075368,-0.001616,0.012565,0.000384,-0.011210,-0.000017,0.000087,-0.002451,-0.006271,-0.022176,0.210969,0.210926,0.151723,0.346183,0.000000,0.000000,0.000000,0.000000,0.000000,0.000000,0.000000,0.000000,0.000000,0.000000,0.000000,0.000000,0.006500,3,0
1660000,0.002350,42.928253,-0.009529,0.006916,26.097115,0.053909,-0.000396,0.041132,1.571566,-0.075527,-0.001628,0.012466,0.000390,-0.011286,-0.000018,0.000169,-0.002436,0.031178,0.008639,0.211179,0.211135,0.151441,0.345032,0.000000,0.000000,0.000000,0.000000,0.000000,0.000000,0.000000,0.000000,0.000000,0.000000,0.000000,0.000000,0.030174,3,0
1670000,0.002336,43.187435,-0.008837,0.006923,26.098217,0.054742,-0.000419,0.040928,1.571560,-0.075263,-0.001641,0.012419,0.000396,-0.011158,-0.000017,0.000441,-0.002421,-0.052021,0.005342,0.211389,0.211344,0.151164,0.343915,0.000000,0.000000,0.000000,0.000000,0.000000,0.000000,0.000000,0.000000,0.000000,0.000000,0.000000,0.000000,0.050240,3,0
1680000,0.002321,43.445190,-0.007744,0.006878,26.096525,0.055905,-0.000435,0.040489,1.571554,-0.074797,-0.001653,0.012215,0.000402,-0.010928,-0.000017,0.001447,-0.002406,-0.092541,0.020653,0.211599,0.211552,0.150890,0.342830,0.000000,0.000000,0.000000,0.000000,0.000000,0.000000,0.000000,0.000000,0.000000,0.000000,0.000000,0.000000,0.089302,3,0
1690000,0.002306,43.703663,-0.007638,0.006735,26.096235,0.056021,-0.000445,0.040153,1.571553,-0.074442,-0.001665,0.012436,0.000408,-0.010752,-0.000017,0.000893,-0.002390,-0.071980,-0.018981,0.211808,0.211760,0.150621,0.341777,0.000000,0.000000,0.000000,0.000000,0.000000,0.000000,0.000000,0.000000,0.000000,0.000000,0.000000,0.000000,0.069481,3,0
1700000,0.002291,43.966343,-0.007708,0.006669,26.103722,0.055696,-0.000456,0.040533,1.571556,-0.074675,-0.001677,0.012696,0.000414,-0.010871,-0.000017,0.000460,-0.002374,0.047253,-0.024877,0.212017,0.211968,0.150355,0.340753,0.000000,0.000000,0.000000,0.000000,0.000000,0.000000,0.000000,0.000000,0.000000,0.000000,0.000000,0.000000,0.045636,3,0
1710000,0.002275,44.224026,-0.007490,0.006598,26.101820,0.055706,-0.000476,0.040053,1.571553,-0.074210,-0.001689,0.012876,0.000420,-0.010632,-0.000017,0.001525,-0.002358,-0.096230,-0.014649,0.212225,0.212175,0.150093,0.339760,0.000000,0.000000,0.000000,0.000000,0.000000,0.000000,0.000000,0.000000,0.000000,0.000000,0.000000,0.000000,0.092859,3,0
1720000,0.002260,44.483128,-0.008150,0.006572,26.102564,0.054864,-0.000485,0.039818,1.571548,-0.073946,-0.001700,0.013430,0.000425,-0.010495,-0.000016,0.000899,-0.002342,-0.055710,-0.049525,0.212433,0.212381,0.149836,0.338794,0.000000,0.000000,0.000000,0.000000,0.000000,0.000000,0.000000,0.000000,0.000000,0.000000,0.000000,0.000000,0.053797,3,0
