time_us,pos_x,pos_y,pos_z,vel_x,vel_y,vel_z,roll,pitch,yaw,bias_ax,bias_ay,bias_az,bias_gx,bias_gy,bias_gz,nis,innov_x,innov_y,innov_z,cov_pos_x,cov_pos_y,cov_pos_z,cov_yaw,des_speed,des_heading,des_climb,pid_speed,pid_yaw,pid_alt,speed_meas,yaw_meas,climb_meas,fwd_accel,yaw_rate,vert_accel,drift_m,nav_mode,mission_state
0,0.000010,0.149996,0.000007,0.001627,24.999371,0.001749,0.000014,-0.000001,1.570783,0.000000,0.000000,0.000000,0.000000,0.000000,0.000000,0.006250,-0.000016,-0.249996,-0.000017,2.400038,2.400038,3.600017,1.000518,0.000000,0.000000,0.000000,0.000000,0.000000,0.000000,0.000000,0.000000,0.000000,0.000000,0.000000,0.000000,0.130117,1,0
10000,0.000029,0.291376,0.018564,0.003016,24.998274,0.003508,0.000027,0.000014,1.570786,0.000001,-0.000000,-0.000000,0.000000,0.000000,0.000000,0.017454,-0.000040,-0.380107,0.049392,1.714420,1.714420,2.250079,1.001073,0.000000,0.000000,0.000000,0.000000,0.000000,0.000000,0.000000,0.000000,0.000000,0.000000,0.000000,0.000000,0.013071,3,0
20000,0.000057,0.416609,0.023351,0.004420,24.996239,0.005182,0.000031,0.000021,1.570774,0.000006,-0.000000,-0.000000,0.000000,0.000000,0.000000,0.040865,-0.000073,-0.561233,0.017361,1.333616,1.333616,1.636554,1.001655,0.000000,0.000000,0.000000,0.000000,0.000000,0.000000,0.000000,0.000000,0.000000,0.000000,0.000000,0.000000,0.120122,3,0
30000,0.000093,0.541705,0.010358,0.005703,24.993507,0.007096,0.000051,0.000040,1.570761,0.000018,-0.000000,0.000001,-0.000000,0.000000,0.000000,0.064736,-0.000114,-0.686448,-0.060958,1.091392,1.091392,1.286065,1.002257,0.000000,0.000000,0.000000,0.000000,0.000000,0.000000,0.000000,0.000000,0.000000,0.000000,0.000000,0.000000,0.253452,3,0
40000,0.000140,0.663628,0.013082,0.007278,24.989433,0.008869,0.000067,0.000042,1.570764,0.000042,-0.000000,0.000000,0.000000,0.000000,0.000000,0.097496,-0.000166,-0.831394,0.014932,0.923811,0.923811,1.059385,1.002870,0.000000,0.000000,0.000000,0.000000,0.000000,0.000000,0.000000,0.000000,0.000000,0.000000,0.000000,0.000000,0.389954,3,0
50000,0.000199,0.786251,0.012800,0.008925,24.983967,0.010662,0.000084,0.000044,1.570757,0.000083,-0.000000,0.000000,0.000000,0.000000,0.000000,0.131237,-0.000229,-0.953277,-0.002590,0.801036,0.801036,0.900822,1.003485,0.000000,0.000000,0.000000,0.000000,0.000000,0.000000,0.000000,0.000000,0.000000,0.000000,0.000000,0.000000,0.525758,3,0
60000,0.000267,0.916299,0.015614,0.010358,24.977465,0.012603,0.000095,0.000041,1.570754,0.000144,-0.000000,-0.000001,0.000000,0.000001,0.000000,0.151887,-0.000302,-1.016209,0.020585,0.707270,0.707270,0.783741,1.004094,0.000000,0.000000,0.000000,0.000000,0.000000,0.000000,0.000000,0.000000,0.000000,0.000000,0.000000,0.000000,0.654135,3,0
70000,0.000342,1.051373,0.015416,0.011603,24.969580,0.014464,0.000111,0.000019,1.570755,0.000231,-0.000000,-0.000001,0.000000,0.000002,0.000000,0.175998,-0.000383,-1.086556,-0.002966,0.633370,0.633370,0.693801,1.004689,0.000000,0.000000,0.000000,0.000000,0.000000,0.000000,0.000000,0.000000,0.000000,0.000000,0.000000,0.000000,0.777487,3,0
80000,0.000427,1.182371,0.018770,0.012940,24.959589,0.016713,0.000135,0.000001,1.570753,0.000358,-0.000000,-0.000004,0.000000,0.000003,0.000000,0.232441,-0.000472,-1.241430,0.030733,0.573673,0.573673,0.622594,1.005261,0.000000,0.000000,0.000000,0.000000,0.000000,0.000000,0.000000,0.000000,0.000000,0.000000,0.000000,0.000000,0.904915,3,0
90000,0.000520,1.334591,0.015290,0.014302,24.949381,0.018094,0.000159,-0.000041,1.570744,0.000500,-0.000000,0.000001,0.000000,0.000005,0.000000,0.188947,-0.000570,-1.113900,-0.038921,0.524488,0.524488,0.564865,1.005802,0.000000,0.000000,0.000000,0.000000,0.000000,0.000000,0.000000,0.000000,0.000000,0.000000,0.000000,0.000000,1.011121,3,0
100000,0.000623,1.494912,0.010739,0.015727,24.938290,0.019338,0.000168,-0.000083,1.570742,0.000672,-0.000000,0.000010,0.000000,0.000007,0.000000,0.188248,-0.000677,-1.106987,-0.055101,0.483304,0.483304,0.517162,1.006303,0.000000,0.000000,0.000000,0.000000,0.000000,0.000000,0.000000,0.000000,0.000000,0.000000,0.000000,0.000000,1.109226,3,0
110000,0.000736,1.674855,0.006507,0.017206,24.928499,0.020295,0.000177,-0.000124,1.570735,0.000845,-0.000000,0.000020,0.000000,0.000010,0.000000,0.133644,-0.000795,-0.929259,-0.055840,0.448354,0.448354,0.477121,1.006756,0.000000,0.000000,0.000000,0.000000,0.000000,0.000000,0.000000,0.000000,0.000000,0.000000,0.000000,0.000000,1.187709,3,0
120000,0.000858,1.863435,0.004747,0.018652,24.918251,0.021510,0.000194,-0.000171,1.570724,0.001036,-0.000001,0.000025,0.000000,0.000013,0.000000,0.117614,-0.000922,-0.870553,-0.026779,0.418359,0.418359,0.443071,1.007153,0.000000,0.000000,0.000000,0.000000,0.000000,0.000000,0.000000,0.000000,0.000000,0.000000,0.000000,0.000000,1.257555,3,0
130000,0.000988,2.058959,0.003756,0.019865,24.907930,0.023044,0.000217,-0.000222,1.570724,0.001246,-0.000001,0.000030,0.000000,0.000016,0.000000,0.104911,-0.001057,-0.820485,-0.017746,0.392370,0.392370,0.413797,1.007484,0.000000,0.000000,0.000000,0.000000,0.000000,0.000000,0.000000,0.000000,0.000000,0.000000,0.000000,0.000000,1.320457,3,0
140000,0.001125,2.263815,0.001656,0.021107,24.898211,0.024634,0.000233,-0.000274,1.570714,0.001458,-0.000001,0.000040,0.000000,0.000021,0.000000,0.080770,-0.001199,-0.717721,-0.036305,0.369668,0.369668,0.388393,1.007742,0.000000,0.000000,0.000000,0.000000,0.000000,0.000000,0.000000,0.000000,0.000000,0.000000,0.000000,0.000000,1.374027,3,0
150000,0.001272,2.472931,0.000195,0.022593,24.888208,0.025841,0.000245,-0.000342,1.570702,0.001688,-0.000002,0.000049,0.000000,0.000025,0.000000,0.073542,-0.001351,-0.683932,-0.028232,0.349697,0.349697,0.366172,1.007919,0.000000,0.000000,0.000000,0.000000,0.000000,0.000000,0.000000,0.000000,0.000000,0.000000,0.000000,0.000000,1.423337,3,0
160000,0.001427,2.685596,-0.001299,0.023835,24.878168,0.027237,0.000264,-0.000397,1.570682,0.001937,-0.000002,0.000061,0.000000,0.000031,0.000000,0.067572,-0.001511,-0.654402,-0.030658,0.332023,0.332023,0.346600,1.008006,0.000000,0.000000,0.000000,0.000000,0.000000,0.000000,0.000000,0.000000,0.000000,0.000000,0.000000,0.000000,1.469098,3,0
170000,0.001592,2.907535,0.001229,0.025256,24.869951,0.029778,0.000278,-0.000455,1.570676,0.002154,-0.000003,0.000044,0.000000,0.000036,0.000001,0.041190,-0.001680,-0.509148,0.040750,0.316300,0.316300,0.329260,1.007996,0.000000,0.000000,0.000000,0.000000,0.000000,0.000000,0.000000,0.000000,0.000000,0.000000,0.000000,0.000000,1.505586,3,0
180000,0.001740,3.100818,0.001333,0.026690,24.859968,0.031399,0.000284,-0.000534,1.570673,0.002439,-0.000004,0.000045,0.000000,0.000043,0.000001,0.058269,-0.001832,-0.606741,-0.003433,0.302062,0.302062,0.313640,1.007767,0.000000,0.000000,0.000000,0.000000,0.000000,0.000000,0.000000,0.000000,0.000000,0.000000,0.000000,0.000000,1.570729,3,0
190000,0.001923,3.329764,0.001636,0.028029,24.852690,0.033257,0.000298,-0.000595,1.570660,0.002651,-0.000005,0.000046,0.000000,0.000049,0.000001,0.026320,-0.002020,-0.407335,-0.000575,0.289458,0.289458,0.299826,1.007565,0.000000,0.000000,0.000000,0.000000,0.000000,0.000000,0.000000,0.000000,0.000000,0.000000,0.000000,0.000000,1.600209,3,0
200000,0.002114,3.555245,0.000170,0.029377,24.843088,0.034219,0.000306,-0.000673,1.570663,0.002937,-0.000006,0.000067,0.000000,0.000057,0.000001,0.039497,-0.002217,-0.497052,-0.037880,0.278113,0.278113,0.287421,1.007241,0.000000,0.000000,0.000000,0.000000,0.000000,0.000000,0.000000,0.000000,0.000000,0.000000,0.000000,0.000000,1.633153,3,0
210000,0.002314,3.788280,-0.001698,0.030717,24.836143,0.035144,0.000310,-0.000731,1.570662,0.003156,-0.000008,0.000097,0.000000,0.000064,0.000001,0.019297,-0.002422,-0.344740,-0.048404,0.267872,0.267872,0.276244,1.006789,0.000000,0.000000,0.000000,0.000000,0.000000,0.000000,0.000000,0.000000,0.000000,0.000000,0.000000,0.000000,1.658544,3,0
220000,0.002522,4.020308,-0.000123,0.032136,24.828352,0.037335,0.000312,-0.000796,1.570656,0.003418,-0.000009,0.000079,0.000000,0.000072,0.000001,0.023017,-0.002636,-0.378918,0.027206,0.258607,0.258607,0.266144,1.006202,0.000000,0.000000,0.000000,0.000000,0.000000,0.000000,0.000000,0.000000,0.000000,0.000000,0.000000,0.000000,1.684943,3,0
230000,0.002739,4.255547,-0.000995,0.033591,24.821390,0.038645,0.000324,-0.000867,1.570642,0.003653,-0.000012,0.000101,0.000000,0.000080,0.000001,0.015756,-0.002859,-0.312682,-0.029513,0.250207,0.250207,0.256996,1.005472,0.000000,0.000000,0.000000,0.000000,0.000000,0.000000,0.000000,0.000000,0.000000,0.000000,0.000000,0.000000,1.708130,3,0
240000,0.002966,4.486429,-0.001630,0.035061,24.811644,0.039767,0.000330,-0.000971,1.570633,0.004004,-0.000014,0.000121,0.000000,0.000092,0.000001,0.029477,-0.003091,-0.428578,-0.025047,0.242579,0.242580,0.248691,1.004593,0.000000,0.000000,0.000000,0.000000,0.000000,0.000000,0.000000,0.000000,0.000000,0.000000,0.000000,0.000000,1.735675,3,0
250000,0.003201,4.721137,0.000552,0.036531,24.803566,0.042559,0.000343,-0.001063,1.570621,0.004306,-0.000017,0.000082,0.000000,0.000102,0.000001,0.018963,-0.003332,-0.341300,0.043951,0.235644,0.235644,0.241139,1.003558,0.000000,0.000000,0.000000,0.000000,0.000000,0.000000,0.000000,0.000000,0.000000,0.000000,0.000000,0.000000,1.759393,3,0
260000,0.003445,4.955513,0.000533,0.037976,24.794777,0.044175,0.000363,-0.001169,1.570601,0.004646,-0.000020,0.000093,0.000001,0.000115,0.000002,0.020484,-0.003582,-0.357259,-0.011863,0.229333,0.229333,0.234262,1.002362,0.000000,0.000000,0.000000,0.000000,0.000000,0.000000,0.000000,0.000000,0.000000,0.000000,0.000000,0.000000,1.783443,3,0
270000,0.003694,5.193265,0.000606,0.039157,24.787788,0.045781,0.000370,-0.001254,1.570585,0.004926,-0.000024,0.000104,0.000001,0.000126,0.000002,0.012020,-0.003837,-0.273485,-0.010182,0.223586,0.223586,0.227993,1.000998,0.000000,0.000000,0.000000,0.000000,0.000000,0.000000,0.000000,0.000000,0.000000,0.000000,0.000000,0.000000,1.804118,3,0
280000,0.003951,5.429770,0.001287,0.040546,24.779411,0.047619,0.000381,-0.001351,1.570574,0.005268,-0.000029,0.000098,0.000001,0.000140,0.000002,0.015679,-0.004101,-0.312377,0.005551,0.218351,0.218352,0.222272,0.999461,0.000000,0.000000,0.000000,0.000000,0.000000,0.000000,0.000000,0.000000,0.000000,0.000000,0.000000,0.000000,1.826039,3,0
290000,0.004216,5.671470,-0.000007,0.041881,24.774662,0.048348,0.000389,-0.001397,1.570559,0.005469,-0.000034,0.000155,0.000001,0.000148,0.000002,0.005102,-0.004371,-0.171101,-0.049466,0.213583,0.213584,0.217049,0.997745,0.000000,0.000000,0.000000,0.000000,0.000000,0.000000,0.000000,0.000000,0.000000,0.000000,0.000000,0.000000,1.842765,3,0
300000,0.004486,5.914523,-0.000182,0.043119,24.770571,0.049478,0.000399,-0.001437,1.570549,0.005637,-0.000040,0.000178,0.000001,0.000156,0.000002,0.002970,-0.004648,-0.134447,-0.019072,0.209242,0.209242,0.212278,0.995848,0.000000,0.000000,0.000000,0.000000,0.000000,0.000000,0.000000,0.000000,0.000000,0.000000,0.000000,0.000000,1.858139,3,0
310000,0.004763,6.156791,0.001054,0.044409,24.765718,0.051650,0.000416,-0.001495,1.570532,0.005847,-0.000046,0.000151,0.000002,0.000165,0.000002,0.004133,-0.004932,-0.158791,0.020925,0.205291,0.205292,0.207920,0.993763,0.000000,0.000000,0.000000,0.000000,0.000000,0.000000,0.000000,0.000000,0.000000,0.000000,0.000000,0.000000,1.874297,3,0
320000,0.005043,6.396978,0.003103,0.045472,24.759043,0.054348,0.000421,-0.001586,1.570528,0.006160,-0.000054,0.000089,0.000002,0.000180,0.000003,0.008271,-0.005219,-0.222101,0.044657,0.201700,0.201701,0.203939,0.991486,0.000000,0.000000,0.000000,0.000000,0.000000,0.000000,0.000000,0.000000,0.000000,0.000000,0.000000,0.000000,1.892537,3,0
330000,0.005331,6.639798,0.005073,0.046813,24.754534,0.057124,0.000438,-0.001632,1.570521,0.006375,-0.000062,0.000026,0.000002,0.000190,0.000003,0.003641,-0.005513,-0.144160,0.042239,0.198440,0.198441,0.200305,0.989016,0.000000,0.000000,0.000000,0.000000,0.000000,0.000000,0.000000,0.000000,0.000000,0.000000,0.000000,0.000000,1.908143,3,0
340000,0.005624,6.880558,0.005608,0.048034,24.747545,0.058810,0.000454,-0.001738,1.570512,0.006702,-0.000071,0.000029,0.000003,0.000206,0.000003,0.006983,-0.005813,-0.208020,-0.001644,0.195486,0.195487,0.196989,0.986348,0.000000,0.000000,0.000000,0.000000,0.000000,0.000000,0.000000,0.000000,0.000000,0.000000,0.000000,0.000000,1.925810,3,0
350000,0.005921,7.121274,0.006331,0.049235,24.740467,0.060707,0.000456,-0.001834,1.570500,0.007051,-0.000081,0.000022,0.000003,0.000224,0.000003,0.007133,-0.006118,-0.210166,0.003632,0.192814,0.192815,0.193966,0.983480,0.000000,0.000000,0.000000,0.000000,0.000000,0.000000,0.000000,0.000000,0.000000,0.000000,0.000000,0.000000,1.943521,3,0
360000,0.006223,7.365724,0.007794,0.050388,24.737099,0.063344,0.000462,-0.001894,1.570491,0.007213,-0.000092,-0.000023,0.000004,0.000233,0.000003,0.001514,-0.006427,-0.092992,0.026278,0.190404,0.190405,0.191212,0.980411,0.000000,0.000000,0.000000,0.000000,0.000000,0.000000,0.000000,0.000000,0.000000,0.000000,0.000000,0.000000,1.957497,3,0
370000,0.006529,7.611235,0.009200,0.051514,24.734535,0.065861,0.000474,-0.001914,1.570479,0.007322,-0.000105,-0.000067,0.000005,0.000239,0.000003,0.000664,-0.006740,-0.059100,0.023997,0.188238,0.188239,0.188708,0.977138,0.000000,0.000000,0.000000,0.000000,0.000000,0.000000,0.000000,0.000000,0.000000,0.000000,0.000000,0.000000,1.970414,3,0
380000,0.006840,7.854058,0.010697,0.052832,24.729427,0.068363,0.000489,-0.002004,1.570472,0.007602,-0.000118,-0.000118,0.000006,0.000254,0.000004,0.003542,-0.007060,-0.145558,0.026438,0.186297,0.186298,0.186433,0.973660,0.000000,0.000000,0.000000,0.000000,0.000000,0.000000,0.000000,0.000000,0.000000,0.000000,0.000000,0.000000,1.986017,3,0
390000,0.007155,8.098573,0.010636,0.053890,24.725712,0.069223,0.000494,-0.002064,1.570470,0.007784,-0.000133,-0.000068,0.000006,0.000265,0.000004,0.001421,-0.007382,-0.090143,-0.024767,0.184566,0.184567,0.184372,0.969978,0.000000,0.000000,0.000000,0.000000,0.000000,0.000000,0.000000,0.000000,0.000000,0.000000,0.000000,0.000000,1.999930,3,0
400000,0.007474,8.345922,0.010403,0.055174,24.724977,0.069843,0.000496,-0.002047,1.570469,0.007777,-0.000149,-0.000003,0.000007,0.000264,0.000004,0.000166,-0.007709,0.003324,-0.030930,0.183030,0.183031,0.182508,0.966091,0.000000,0.000000,0.000000,0.000000,0.000000,0.000000,0.000000,0.000000,0.000000,0.000000,0.000000,0.000000,2.011007,3,0
410000,0.007798,8.593602,0.012191,0.056522,24.724884,0.072610,0.000510,-0.002025,1.570457,0.007745,-0.000167,-0.000081,0.000008,0.000262,0.000004,0.000249,-0.008042,0.014404,0.035592,0.181676,0.181678,0.180826,0.962000,0.000000,0.000000,0.000000,0.000000,0.000000,0.000000,0.000000,0.000000,0.000000,0.000000,0.000000,0.000000,2.021754,3,0
420000,0.008128,8.841002,0.011329,0.057790,24.724430,0.072521,0.000518,-0.001999,1.570459,0.007733,-0.000186,0.000042,0.000010,0.000262,0.000004,0.000482,-0.008379,0.005274,-0.053694,0.180492,0.180493,0.179313,0.957707,0.000000,0.000000,0.000000,0.000000,0.000000,0.000000,0.000000,0.000000,0.000000,0.000000,0.000000,0.000000,2.032781,3,0
430000,0.008458,9.085160,0.012990,0.058775,24.719896,0.075195,0.000527,-0.002070,1.570456,0.007979,-0.000207,-0.000032,0.000011,0.000277,0.000004,0.001882,-0.008719,-0.102969,0.030995,0.179465,0.179467,0.177957,0.953211,0.000000,0.000000,0.000000,0.000000,0.000000,0.000000,0.000000,0.000000,0.000000,0.000000,0.000000,0.000000,2.047050,3,0
440000,0.008792,9.333857,0.014245,0.060069,24.721272,0.077587,0.000521,-0.002027,1.570461,0.007854,-0.000230,-0.000073,0.000012,0.000269,0.000004,0.000469,-0.009062,0.050494,0.016465,0.178585,0.178587,0.176747,0.948516,0.000000,0.000000,0.000000,0.000000,0.000000,0.000000,0.000000,0.000000,0.000000,0.000000,0.000000,0.000000,2.056782,3,0
450000,0.009131,9.580491,0.016057,0.061495,24.719906,0.080784,0.000525,-0.002050,1.570459,0.007903,-0.000254,-0.000163,0.000014,0.000272,0.000004,0.000269,-0.009411,-0.019304,0.034690,0.177843,0.177845,0.175670,0.943625,0.000000,0.000000,0.000000,0.000000,0.000000,0.000000,0.000000,0.000000,0.000000,0.000000,0.000000,0.000000,2.068574,3,0
460000,0.009473,9.826876,0.016402,0.062601,24.718210,0.082031,0.000537,-0.002068,1.570456,0.007977,-0.000280,-0.000119,0.000016,0.000277,0.000004,0.000181,-0.009761,-0.027379,-0.016509,0.177227,0.177230,0.174717,0.938540,0.000000,0.000000,0.000000,0.000000,0.000000,0.000000,0.000000,0.000000,0.000000,0.000000,0.000000,0.000000,2.080616,3,0
470000,0.009816,10.074184,0.017266,0.063696,24.717653,0.083567,0.000525,-0.002049,1.570452,0.007964,-0.000308,-0.000121,0.000018,0.000277,0.000004,0.000020,-0.010114,0.004560,0.000975,0.176731,0.176733,0.173880,0.933265,0.000000,0.000000,0.000000,0.000000,0.000000,0.000000,0.000000,0.000000,0.000000,0.000000,0.000000,0.000000,2.091735,3,0
480000,0.010160,10.322400,0.018420,0.064682,24.718540,0.085769,0.000523,-0.002013,1.570445,0.007862,-0.000338,-0.000151,0.000020,0.000269,0.000004,0.000240,-0.010467,0.035561,0.010404,0.176344,0.176347,0.173148,0.927804,0.000000,0.000000,0.000000,0.000000,0.000000,0.000000,0.000000,0.000000,0.000000,0.000000,0.000000,0.000000,2.101948,3,0
490000,0.010503,10.569757,0.017835,0.065588,24.718344,0.085776,0.000528,-0.002007,1.570441,0.007844,-0.000370,0.000000,0.000022,0.000268,0.000004,0.000443,-0.010820,0.006002,-0.050832,0.176060,0.176063,0.172515,0.922162,0.000000,0.000000,0.000000,0.000000,0.000000,0.000000,0.000000,0.000000,0.000000,0.000000,0.000000,0.000000,2.113017,3,0
500000,0.010846,10.818599,0.018422,0.066569,24.719971,0.087281,0.000524,-0.001937,1.570446,0.007670,-0.000404,0.000032,0.000025,0.000255,0.000004,0.000559,-0.011173,0.056834,-0.010115,0.175871,0.175874,0.171971,0.916343,0.000000,0.000000,0.000000,0.000000,0.000000,0.000000,0.000000,0.000000,0.000000,0.000000,0.000000,0.000000,2.122603,3,0
510000,0.011190,11.068318,0.017805,0.067624,24.722994,0.087082,0.000524,-0.001844,1.570442,0.007397,-0.000441,0.000200,0.000027,0.000234,0.000003,0.001677,-0.011527,0.086281,-0.052760,0.175770,0.175773,0.171510,0.910354,0.000000,0.000000,0.000000,0.000000,0.000000,0.000000,0.000000,0.000000,0.000000,0.000000,0.000000,0.000000,2.131311,3,0
520000,0.011532,11.315412,0.018365,0.068489,24.722095,0.088370,0.000525,-0.001846,1.570432,0.007412,-0.000480,0.000238,0.000030,0.000235,0.000003,0.000047,-0.011880,-0.004437,-0.011510,0.175749,0.175753,0.171125,0.904199,0.000000,0.000000,0.000000,0.000000,0.000000,0.000000,0.000000,0.000000,0.000000,0.000000,0.000000,0.000000,2.142645,3,0
530000,0.011876,11.566323,0.018512,0.069668,24.727032,0.089133,0.000519,-0.001686,1.570437,0.006988,-0.000521,0.000328,0.000034,0.000201,0.000003,0.002714,-0.012234,0.126177,-0.026544,0.175804,0.175808,0.170809,0.897885,0.000000,0.000000,0.000000,0.000000,0.000000,0.000000,0.000000,0.000000,0.000000,0.000000,0.000000,0.000000,2.150161,3,0
540000,0.012218,11.814594,0.019434,0.070458,24.728186,0.090824,0.000525,-0.001632,1.570447,0.006870,-0.000564,0.000326,0.000037,0.000191,0.000003,0.000215,-0.012587,0.034244,0.000506,0.175927,0.175931,0.170557,0.891418,0.000000,0.000000,0.000000,0.000000,0.000000,0.000000,0.000000,0.000000,0.000000,0.000000,0.000000,0.000000,2.160318,3,0
550000,0.012555,12.067259,0.021050,0.071112,24.736122,0.093204,0.000514,-0.001391,1.570453,0.006219,-0.000610,0.000239,0.000041,0.000137,0.000002,0.005573,-0.012935,0.183540,0.024395,0.176113,0.176118,0.170362,0.884805,0.000000,0.000000,0.000000,0.000000,0.000000,0.000000,0.000000,0.000000,0.000000,0.000000,0.000000,0.000000,2.166082,3,0
560000,0.012889,12.317842,0.022407,0.071864,24.740891,0.095614,0.000509,-0.001233,1.570449,0.005819,-0.000659,0.000187,0.000045,0.000102,0.000002,0.002009,-0.013279,0.109706,0.014311,0.176357,0.176362,0.170220,0.878053,0.000000,0.000000,0.000000,0.000000,0.000000,0.000000,0.000000,0.000000,0.000000,0.000000,0.000000,0.000000,2.173926,3,0
570000,0.013220,12.569290,0.022108,0.072519,24.746872,0.095374,0.000505,-0.001032,1.570449,0.005306,-0.000710,0.000357,0.000050,0.000058,0.000001,0.003409,-0.013620,0.137383,-0.044844,0.176654,0.176659,0.170124,0.871169,0.000000,0.000000,0.000000,0.000000,0.000000,0.000000,0.000000,0.000000,0.000000,0.000000,0.000000,0.000000,2.180905,3,0
580000,0.013549,12.821014,0.023330,0.073405,24.753490,0.097473,0.000508,-0.000807,1.570452,0.004753,-0.000763,0.000324,0.000054,0.000008,0.000000,0.003412,-0.013961,0.144297,0.008793,0.176998,0.177003,0.170071,0.864161,0.000000,0.000000,0.000000,0.000000,0.000000,0.000000,0.000000,0.000000,0.000000,0.000000,0.000000,0.000000,2.187609,3,0
590000,0.013877,13.070658,0.022245,0.074261,24.756649,0.096337,0.000498,-0.000692,1.570455,0.004473,-0.000819,0.000616,0.000059,-0.000017,-0.000000,0.001729,-0.014298,0.071417,-0.073326,0.177385,0.177390,0.170055,0.857037,0.000000,0.000000,0.000000,0.000000,0.000000,0.000000,0.000000,0.000000,0.000000,0.000000,0.000000,0.000000,2.196395,3,0
600000,0.014201,13.320007,0.023172,0.075099,24.759108,0.098163,0.000484,-0.000600,1.570460,0.004231,-0.000878,0.000625,0.000065,-0.000039,-0.000000,0.000623,-0.014635,0.060291,-0.001969,0.177810,0.177816,0.170073,0.849805,0.000000,0.000000,0.000000,0.000000,0.000000,0.000000,0.000000,0.000000,0.000000,0.000000,0.000000,0.000000,2.205473,3,0
610000,0.014522,13.570245,0.022924,0.075705,24.763084,0.098015,0.000464,-0.000442,1.570467,0.003865,-0.000940,0.000809,0.000070,-0.000074,-0.000001,0.001637,-0.014966,0.089220,-0.043981,0.178271,0.178277,0.170120,0.842471,0.000000,0.000000,0.000000,0.000000,0.000000,0.000000,0.000000,0.000000,0.000000,0.000000,0.000000,0.000000,2.213663,3,0
620000,0.014840,13.820770,0.022878,0.076516,24.767221,0.098548,0.000457,-0.000285,1.570468,0.003457,-0.001004,0.000968,0.000076,-0.000113,-0.000001,0.001792,-0.015294,0.097372,-0.036947,0.178761,0.178768,0.170193,0.835045,0.000000,0.000000,0.000000,0.000000,0.000000,0.000000,0.000000,0.000000,0.000000,0.000000,0.000000,0.000000,2.221565,3,0
630000,0.015153,14.070988,0.024543,0.077248,24.770973,0.101208,0.000442,-0.000140,1.570468,0.003091,-0.001071,0.000866,0.000083,-0.000149,-0.000002,0.001305,-0.015620,0.085351,0.023320,0.179279,0.179285,0.170288,0.827534,0.000000,0.000000,0.000000,0.000000,0.000000,0.000000,0.000000,0.000000,0.000000,0.000000,0.000000,0.000000,2.229776,3,0
640000,0.015462,14.325668,0.026037,0.077901,24.782490,0.103749,0.000423,0.000255,1.570481,0.002074,-0.001141,0.000794,0.000090,-0.000251,-0.000003,0.008836,-0.015940,0.232672,0.016260,0.179819,0.179826,0.170401,0.819946,0.000000,0.000000,0.000000,0.000000,0.000000,0.000000,0.000000,0.000000,0.000000,0.000000,0.000000,0.000000,2.233522,3,0
650000,0.015768,14.579996,0.026069,0.078619,24.793070,0.104123,0.000412,0.000641,1.570486,0.001110,-0.001213,0.000961,0.000097,-0.000349,-0.000005,0.007826,-0.016256,0.216425,-0.036142,0.180380,0.180387,0.170530,0.812291,0.000000,0.000000,0.000000,0.000000,0.000000,0.000000,0.000000,0.000000,0.000000,0.000000,0.000000,0.000000,2.237623,3,0
660000,0.016071,14.830973,0.027039,0.079379,24.797775,0.105796,0.000395,0.000832,1.570499,0.000650,-0.001289,0.000976,0.000105,-0.000397,-0.000005,0.001700,-0.016571,0.101144,-0.003168,0.180958,0.180965,0.170672,0.804576,0.000000,0.000000,0.000000,0.000000,0.000000,0.000000,0.000000,0.000000,0.000000,0.000000,0.000000,0.000000,2.245074,3,0
670000,0.016372,15.082833,0.026069,0.080159,24.804148,0.104402,0.000380,0.001087,1.570506,0.000057,-0.001367,0.001320,0.000113,-0.000459,-0.000006,0.003548,-0.016881,0.128424,-0.071862,0.181549,0.181557,0.170824,0.796808,0.000000,0.000000,0.000000,0.000000,0.000000,0.000000,0.000000,0.000000,0.000000,0.000000,0.000000,0.000000,2.251642,3,0
680000,0.016666,15.334970,0.026315,0.080537,24.811073,0.104999,0.000365,0.001353,1.570511,-0.000578,-0.001448,0.001460,0.000121,-0.000527,-0.000007,0.003123,-0.017186,0.134924,-0.028689,0.182152,0.182160,0.170983,0.788996,0.000000,0.000000,0.000000,0.000000,0.000000,0.000000,0.000000,0.000000,0.000000,0.000000,0.000000,0.000000,2.257932,3,0
690000,0.016955,15.587378,0.025469,0.081072,24.818262,0.104125,0.000359,0.001630,1.570522,-0.001253,-0.001532,0.001794,0.000130,-0.000601,-0.000008,0.004000,-0.017485,0.141145,-0.067226,0.182763,0.182771,0.171147,0.781148,0.000000,0.000000,0.000000,0.000000,0.000000,0.000000,0.000000,0.000000,0.000000,0.000000,0.000000,0.000000,2.263953,3,0
700000,0.017239,15.839446,0.024802,0.081634,24.824711,0.103327,0.000347,0.001897,1.570528,-0.001871,-0.001618,0.002100,0.000139,-0.000670,-0.000009,0.003259,-0.017780,0.127212,-0.060504,0.183381,0.183389,0.171314,0.773272,0.000000,0.000000,0.000000,0.000000,0.000000,0.000000,0.000000,0.000000,0.000000,0.000000,0.000000,0.000000,2.270313,3,0
710000,0.017514,16.094223,0.025248,0.081873,24.835775,0.103996,0.000323,0.002324,1.570544,-0.002924,-0.001708,0.002210,0.000149,-0.000789,-0.000011,0.007457,-0.018067,0.213022,-0.021194,0.184002,0.184011,0.171482,0.765375,0.000000,0.000000,0.000000,0.000000,0.000000,0.000000,0.000000,0.000000,0.000000,0.000000,0.000000,0.000000,2.273963,3,0
720000,0.017783,16.350468,0.025344,0.082263,24.849525,0.104274,0.000299,0.002853,1.570560,-0.004209,-0.001800,0.002388,0.000159,-0.000937,-0.000013,0.010851,-0.018346,0.256315,-0.033700,0.184625,0.184634,0.171649,0.757465,0.000000,0.000000,0.000000,0.000000,0.000000,0.000000,0.000000,0.000000,0.000000,0.000000,0.000000,0.000000,2.276147,3,0
730000,0.018049,16.604486,0.024772,0.082936,24.859221,0.103615,0.000283,0.003259,1.570567,-0.005118,-0.001895,0.002693,0.000170,-0.001044,-0.000014,0.005750,-0.018622,0.178841,-0.057077,0.185248,0.185258,0.171813,0.749550,0.000000,0.000000,0.000000,0.000000,0.000000,0.000000,0.000000,0.000000,0.000000,0.000000,0.000000,0.000000,2.280555,3,0
740000,0.018308,16.859369,0.025115,0.083310,24.870277,0.104424,0.000255,0.003714,1.570585,-0.006166,-0.001993,0.002829,0.000181,-0.001169,-0.000016,0.006816,-0.018892,0.203032,-0.024949,0.185870,0.185879,0.171973,0.741636,0.000000,0.000000,0.000000,0.000000,0.000000,0.000000,0.000000,0.000000,0.000000,0.000000,0.000000,0.000000,2.284101,3,0
750000,0.018560,17.117582,0.025307,0.083582,24.887348,0.104924,0.000231,0.004390,1.570608,-0.007765,-0.002094,0.002998,0.000193,-0.001363,-0.000019,0.015316,-0.019154,0.305855,-0.030450,0.186488,0.186498,0.172127,0.733730,0.000000,0.000000,0.000000,0.000000,0.000000,0.000000,0.000000,0.000000,0.000000,0.000000,0.000000,0.000000,2.284314,3,0
760000,0.018806,17.371040,0.024465,0.083857,24.895864,0.103611,0.000203,0.004732,1.570612,-0.008542,-0.002197,0.003370,0.000205,-0.001459,-0.000020,0.004259,-0.019409,0.146864,-0.066486,0.187101,0.187111,0.172275,0.725839,0.000000,0.000000,0.000000,0.000000,0.000000,0.000000,0.000000,0.000000,0.000000,0.000000,0.000000,0.000000,2.289285,3,0
770000,0.019045,17.625990,0.024599,0.084187,24.906414,0.104079,0.000174,0.005180,1.570621,-0.009569,-0.002302,0.003554,0.000218,-0.001588,-0.000022,0.006151,-0.019659,0.191511,-0.032140,0.187708,0.187719,0.172414,0.717971,0.000000,0.000000,0.000000,0.000000,0.000000,0.000000,0.000000,0.000000,0.000000,0.000000,0.000000,0.000000,2.292764,3,0
780000,0.019277,17.879925,0.024911,0.084494,24.915195,0.104735,0.000137,0.005561,1.570624,-0.010411,-0.002411,0.003704,0.000232,-0.001696,-0.000024,0.004058,-0.019901,0.155121,-0.026044,0.188308,0.188319,0.172544,0.710130,0.000000,0.000000,0.000000,0.000000,0.000000,0.000000,0.000000,0.000000,0.000000,0.000000,0.000000,0.000000,2.297255,3,0
790000,0.019504,18.138481,0.024244,0.084696,24.931936,0.103764,0.000103,0.006276,1.570676,-0.012050,-0.002522,0.004058,0.000246,-0.001909,-0.000027,0.015054,-0.020135,0.298677,-0.060281,0.188899,0.188910,0.172664,0.702323,0.000000,0.000000,0.000000,0.000000,0.000000,0.000000,0.000000,0.000000,0.000000,0.000000,0.000000,0.000000,2.297127,3,0
800000,0.019723,18.392834,0.023610,0.084801,24.941294,0.102965,0.000071,0.006678,1.570681,-0.012934,-0.002635,0.004407,0.000260,-0.002025,-0.000028,0.004717,-0.020363,0.159224,-0.058731,0.189481,0.189492,0.172773,0.694556,0.000000,0.000000,0.000000,0.000000,0.000000,0.000000,0.000000,0.000000,0.000000,0.000000,0.000000,0.000000,2.301203,3,0
810000,0.019933,18.651829,0.023215,0.084919,24.958683,0.102496,0.000033,0.007439,1.570712,-0.014630,-0.002751,0.004709,0.000275,-0.002253,-0.000032,0.015230,-0.020583,0.302355,-0.050187,0.190052,0.190064,0.172870,0.686835,0.000000,0.000000,0.000000,0.000000,0.000000,0.000000,0.000000,0.000000,0.000000,0.000000,0.000000,0.000000,2.300637,3,0
820000,0.020136,18.911005,0.024906,0.085221,24.976204,0.105353,0.000000,0.008215,1.570741,-0.016338,-0.002869,0.004576,0.000291,-0.002486,-0.000035,0.014830,-0.020797,0.301611,0.022284,0.190613,0.190625,0.172956,0.679164,0.000000,0.000000,0.000000,0.000000,0.000000,0.000000,0.000000,0.000000,0.000000,0.000000,0.000000,0.000000,2.299887,3,0
830000,0.020331,19.169718,0.026582,0.085372,24.992331,0.108047,-0.000048,0.008938,1.570764,-0.017945,-0.002990,0.004450,0.000308,-0.002709,-0.000038,0.012865,-0.021001,0.280811,0.020826,0.191161,0.191174,0.173028,0.671549,0.000000,0.000000,0.000000,0.000000,0.000000,0.000000,0.000000,0.000000,0.000000,0.000000,0.000000,0.000000,2.299603,3,0
840000,0.020525,19.428606,0.025682,0.085530,25.008984,0.106757,-0.000091,0.009688,1.570781,-0.019563,-0.003113,0.004884,0.000325,-0.002937,-0.000041,0.013533,-0.021199,0.280357,-0.069384,0.191698,0.191710,0.173088,0.663994,0.000000,0.000000,0.000000,0.000000,0.000000,0.000000,0.000000,0.000000,0.000000,0.000000,0.000000,0.000000,2.299141,3,0
850000,0.020710,19.687033,0.026051,0.085699,25.024778,0.107372,-0.000137,0.010399,1.570804,-0.021077,-0.003238,0.005043,0.000342,-0.003154,-0.000044,0.011067,-0.021394,0.259846,-0.024943,0.192222,0.192235,0.173133,0.656505,0.000000,0.000000,0.000000,0.000000,0.000000,0.000000,0.000000,0.000000,0.000000,0.000000,0.000000,0.000000,2.299143,3,0
860000,0.020888,19.943077,0.026921,0.085886,25.036079,0.108803,-0.000193,0.010917,1.570815,-0.022135,-0.003365,0.005094,0.000361,-0.003308,-0.000046,0.005322,-0.021581,0.180174,-0.007793,0.192733,0.192746,0.173165,0.649084,0.000000,0.000000,0.000000,0.000000,0.000000,0.000000,0.000000,0.000000,0.000000,0.000000,0.000000,0.000000,2.301525,3,0
870000,0.021060,20.200603,0.027819,0.086020,25.049587,0.110081,-0.000232,0.011552,1.570833,-0.023451,-0.003494,0.005142,0.000380,-0.003502,-0.000049,0.008049,-0.021760,0.222200,-0.007236,0.193230,0.193244,0.173183,0.641736,0.000000,0.000000,0.000000,0.000000,0.000000,0.000000,0.000000,0.000000,0.000000,0.000000,0.000000,0.000000,2.302426,3,0
880000,0.021225,20.457024,0.027529,0.085840,25.061001,0.109695,-0.000286,0.012088,1.570845,-0.024544,-0.003626,0.005463,0.000399,-0.003666,-0.000051,0.005878,-0.021931,0.183207,-0.048886,0.193715,0.193728,0.173187,0.634465,0.000000,0.000000,0.000000,0.000000,0.000000,0.000000,0.000000,0.000000,0.000000,0.000000,0.000000,0.000000,2.304434,3,0
890000,0.021384,20.716852,0.028403,0.086098,25.078335,0.110972,-0.000334,0.012913,1.570867,-0.026254,-0.003759,0.005520,0.000419,-0.003927,-0.000055,0.013143,-0.022099,0.284492,-0.008468,0.194185,0.194199,0.173176,0.627274,0.000000,0.000000,0.000000,0.000000,0.000000,0.000000,0.000000,0.000000,0.000000,0.000000,0.000000,0.000000,2.303032,3,0
900000,0.021541,20.972958,0.028062,0.086366,25.089153,0.110624,-0.000375,0.013423,1.570880,-0.027245,-0.003894,0.005862,0.000439,-0.004081,-0.000057,0.004819,-0.022261,0.163639,-0.051007,0.194642,0.194656,0.173151,0.620167,0.000000,0.000000,0.000000,0.000000,0.000000,0.000000,0.000000,0.000000,0.000000,0.000000,0.000000,0.000000,2.305355,3,0
910000,0.021694,21.233133,0.027024,0.086477,25.106956,0.109318,-0.000420,0.014272,1.570916,-0.028982,-0.004032,0.006371,0.000460,-0.004354,-0.000061,0.014103,-0.022419,0.285124,-0.075130,0.195085,0.195099,0.173112,0.613147,0.000000,0.000000,0.000000,0.000000,0.000000,0.000000,0.000000,0.000000,0.000000,0.000000,0.000000,0.000000,2.303605,3,0
920000,0.021838,21.494743,0.026914,0.086426,25.127232,0.109225,-0.000469,0.015264,1.570951,-0.030962,-0.004171,0.006662,0.000481,-0.004671,-0.000066,0.017191,-0.022571,0.322952,-0.042458,0.195514,0.195528,0.173059,0.606215,0.000000,0.000000,0.000000,0.000000,0.000000,0.000000,0.000000,0.000000,0.000000,0.000000,0.000000,0.000000,2.300423,3,0
930000,0.021970,21.752573,0.028572,0.086129,25.140335,0.111693,-0.000530,0.015911,1.570961,-0.032198,-0.004311,0.006533,0.000504,-0.004872,-0.000068,0.006609,-0.022713,0.200293,0.018888,0.195930,0.195945,0.172991,0.599374,0.000000,0.000000,0.000000,0.000000,0.000000,0.000000,0.000000,0.000000,0.000000,0.000000,0.000000,0.000000,2.301022,3,0
940000,0.022095,22.014467,0.029596,0.085851,25.160561,0.113302,-0.000586,0.016917,1.570996,-0.034183,-0.004454,0.006562,0.000528,-0.005199,-0.000073,0.016598,-0.022842,0.320028,-0.003990,0.196332,0.196347,0.172910,0.592626,0.000000,0.000000,0.000000,0.000000,0.000000,0.000000,0.000000,0.000000,0.000000,0.000000,0.000000,0.000000,2.297554,3,0
950000,0.022215,22.275162,0.029515,0.085709,25.178526,0.113237,-0.000640,0.017811,1.571034,-0.035908,-0.004598,0.006865,0.000551,-0.005488,-0.000077,0.012716,-0.022965,0.276598,-0.042931,0.196722,0.196737,0.172814,0.585975,0.000000,0.000000,0.000000,0.000000,0.000000,0.000000,0.000000,0.000000,0.000000,0.000000,0.000000,0.000000,2.295287,3,0
960000,0.022328,22.532709,0.030134,0.085690,25.190853,0.114209,-0.000697,0.018407,1.571056,-0.037004,-0.004743,0.006997,0.000576,-0.005675,-0.000080,0.005064,-0.023085,0.174755,-0.018558,0.197098,0.197113,0.172705,0.579422,0.000000,0.000000,0.000000,0.000000,0.000000,0.000000,0.000000,0.000000,0.000000,0.000000,0.000000,0.000000,2.296165,3,0
970000,0.022436,22.790413,0.030583,0.085633,25.203051,0.114934,-0.000761,0.019011,1.571077,-0.038109,-0.004889,0.007175,0.000601,-0.005866,-0.000082,0.005151,-0.023198,0.175510,-0.024813,0.197462,0.197477,0.172583,0.572968,0.000000,0.000000,0.000000,0.000000,0.000000,0.000000,0.000000,0.000000,0.000000,0.000000,0.000000,0.000000,2.296889,3,0
980000,0.022536,23.049578,0.032051,0.085581,25.217337,0.116910,-0.000827,0.019756,1.571094,-0.039475,-0.005037,0.007101,0.000627,-0.006105,-0.000086,0.007616,-0.023305,0.215872,0.010417,0.197813,0.197828,0.172448,0.566614,0.000000,0.000000,0.000000,0.000000,0.000000,0.000000,0.000000,0.000000,0.000000,0.000000,0.000000,0.000000,2.296150,3,0
990000,0.022635,23.311499,0.032415,0.085612,25.236715,0.117355,-0.000896,0.020762,1.571111,-0.041346,-0.005187,0.007311,0.000653,-0.006439,-0.000091,0.014200,-0.023406,0.294500,-0.028755,0.198152,0.198167,0.172300,0.560363,0.000000,0.000000,0.000000,0.000000,0.000000,0.000000,0.000000,0.000000,0.000000,0.000000,0.000000,0.000000,2.292659,3,0
1000000,0.022729,23.572851,0.032761,0.085525,25.254879,0.117957,-0.000969,0.021708,1.571142,-0.043074,-0.005337,0.007529,0.000679,-0.006751,-0.000095,0.012060,-0.023504,0.270931,-0.029620,0.198479,0.198495,0.172139,0.554214,0.000000,0.000000,0.000000,0.000000,0.000000,0.000000,0.000000,0.000000,0.000000,0.000000,0.000000,0.000000,2.289730,3,0
1010000,0.022818,23.833637,0.032727,0.085425,25.271673,0.118000,-0.001056,0.022595,1.571171,-0.044661,-0.005489,0.007849,0.000706,-0.007042,-0.000099,0.010297,-0.023596,0.247944,-0.043090,0.198795,0.198811,0.171966,0.548169,0.000000,0.000000,0.000000,0.000000,0.000000,0.000000,0.000000,0.000000,0.000000,0.000000,0.000000,0.000000,2.287374,3,0
1020000,0.022905,24.093861,0.031927,0.085494,25.287212,0.116979,-0.001121,0.023425,1.571208,-0.046110,-0.005642,0.008372,0.000734,-0.007312,-0.000103,0.009078,-0.023686,0.225538,-0.069895,0.199100,0.199116,0.171782,0.542228,0.000000,0.000000,0.000000,0.000000,0.000000,0.000000,0.000000,0.000000,0.000000,0.000000,0.000000,0.000000,2.285574,3,0
1030000,0.022986,24.352209,0.032214,0.085470,25.299473,0.117416,-0.001189,0.024052,1.571229,-0.047166,-0.005796,0.008610,0.000762,-0.007512,-0.000106,0.004583,-0.023774,0.163944,-0.031563,0.199395,0.199411,0.171586,0.536393,0.000000,0.000000,0.000000,0.000000,0.000000,0.000000,0.000000,0.000000,0.000000,0.000000,0.000000,0.000000,2.285655,3,0
1040000,0.023061,24.610022,0.032563,0.085309,25.310503,0.117941,-0.001272,0.024620,1.571246,-0.048097,-0.005951,0.008834,0.000791,-0.007691,-0.000108,0.003575,-0.023853,0.144022,-0.029581,0.199679,0.199696,0.171380,0.530662,0.000000,0.000000,0.000000,0.000000,0.000000,0.000000,0.000000,0.000000,0.000000,0.000000,0.000000,0.000000,2.286268,3,0
1050000,0.023130,24.871283,0.034167,0.085277,25.327642,0.120082,-0.001346,0.025546,1.571275,-0.049676,-0.006106,0.008725,0.000822,-0.007999,-0.000112,0.009710,-0.023928,0.243916,0.014202,0.199954,0.199970,0.171162,0.525037,0.000000,0.000000,0.000000,0.000000,0.000000,0.000000,0.000000,0.000000,0.000000,0.000000,0.000000,0.000000,2.283435,3,0
1060000,0.023202,25.131962,0.033094,0.085334,25.343435,0.118478,-0.001414,0.026395,1.571310,-0.051112,-0.006264,0.009345,0.000851,-0.008283,-0.000116,0.009011,-0.023997,0.221031,-0.080446,0.200220,0.200236,0.170935,0.519518,0.000000,0.000000,0.000000,0.000000,0.000000,0.000000,0.000000,0.000000,0.000000,0.000000,0.000000,0.000000,2.281181,3,0
1070000,0.023267,25.394722,0.033176,0.085222,25.362669,0.118445,-0.001496,0.027476,1.571348,-0.052923,-0.006421,0.009651,0.000882,-0.008647,-0.000122,0.012818,-0.024068,0.278257,-0.039419,0.200477,0.200493,0.170697,0.514103,0.000000,0.000000,0.000000,0.000000,0.000000,0.000000,0.000000,0.000000,0.000000,0.000000,0.000000,0.000000,2.276848,3,0
1080000,0.023322,25.654877,0.034757,0.084858,25.377218,0.120781,-0.001577,0.028269,1.571375,-0.054188,-0.006579,0.009546,0.000914,-0.008905,-0.000125,0.006198,-0.024130,0.194212,0.013253,0.200725,0.200741,0.170450,0.508794,0.000000,0.000000,0.000000,0.000000,0.000000,0.000000,0.000000,0.000000,0.000000,0.000000,0.000000,0.000000,2.275119,3,0
1090000,0.023374,25.913790,0.034862,0.084540,25.389219,0.120888,-0.001651,0.028930,1.571383,-0.055185,-0.006737,0.009857,0.000946,-0.009111,-0.000128,0.004098,-0.024181,0.152580,-0.039549,0.200966,0.200982,0.170194,0.503590,0.000000,0.000000,0.000000,0.000000,0.000000,0.000000,0.000000,0.000000,0.000000,0.000000,0.000000,0.000000,2.274633,3,0
1100000,0.023423,26.173477,0.034408,0.084278,25.402542,0.120300,-0.001739,0.029657,1.571397,-0.056309,-0.006897,0.010329,0.000978,-0.009347,-0.000131,0.005423,-0.024231,0.171852,-0.059372,0.201199,0.201215,0.169930,0.498491,0.000000,0.000000,0.000000,0.000000,0.000000,0.000000,0.000000,0.000000,0.000000,0.000000,0.000000,0.000000,2.273371,3,0
1110000,0.023465,26.433926,0.034596,0.083992,25.417137,0.120638,-0.001830,0.030454,1.571416,-0.057556,-0.007057,0.010620,0.001011,-0.009613,-0.000135,0.006147,-0.024277,0.190332,-0.036583,0.201425,0.201441,0.169657,0.493496,0.000000,0.000000,0.000000,0.000000,0.000000,0.000000,0.000000,0.000000,0.000000,0.000000,0.000000,0.000000,2.271350,3,0
1120000,0.023499,26.693117,0.036097,0.083727,25.429182,0.122571,-0.001932,0.031110,1.571437,-0.058528,-0.007216,0.010539,0.001046,-0.009823,-0.000138,0.003658,-0.024317,0.148407,0.009823,0.201645,0.201661,0.169377,0.488605,0.000000,0.000000,0.000000,0.000000,0.000000,0.000000,0.000000,0.000000,0.000000,0.000000,0.000000,0.000000,2.270587,3,0
1130000,0.023535,26.955084,0.035008,0.083459,25.446257,0.120808,-0.002018,0.032070,1.571464,-0.060018,-0.007378,0.011209,0.001079,-0.010150,-0.000143,0.009503,-0.024348,0.227034,-0.082643,0.201859,0.201874,0.169089,0.483817,0.000000,0.000000,0.000000,0.000000,0.000000,0.000000,0.000000,0.000000,0.000000,0.000000,0.000000,0.000000,2.267044,3,0
1140000,0.023562,27.217773,0.035512,0.083149,25.464323,0.121329,-0.002106,0.033105,1.571497,-0.061614,-0.007539,0.011415,0.001115,-0.010505,-0.000148,0.009728,-0.024381,0.243202,-0.025608,0.202067,0.202082,0.168794,0.479131,0.000000,0.000000,0.000000,0.000000,0.000000,0.000000,0.000000,0.000000,0.000000,0.000000,0.000000,0.000000,2.262784,3,0
1150000,0.023587,27.477154,0.034520,0.082647,25.476458,0.120189,-0.002192,0.033758,1.571515,-0.062530,-0.007701,0.012066,0.001149,-0.010713,-0.000151,0.004240,-0.024403,0.139359,-0.079208,0.202269,0.202285,0.168493,0.474546,0.000000,0.000000,0.000000,0.000000,0.000000,0.000000,0.000000,0.000000,0.000000,0.000000,0.000000,0.000000,2.261828,3,0
1160000,0.023607,27.737293,0.034071,0.082504,25.489580,0.119346,-0.002279,0.034494,1.571536,-0.063569,-0.007863,0.012556,0.001185,-0.010951,-0.000154,0.004696,-0.024426,0.158165,-0.059395,0.202467,0.202483,0.168185,0.470062,0.000000,0.000000,0.000000,0.000000,0.000000,0.000000,0.000000,0.000000,0.000000,0.000000,0.000000,0.000000,2.260116,3,0
1170000,0.023620,27.999523,0.034789,0.082257,25.506372,0.120171,-0.002371,0.035460,1.571558,-0.064986,-0.008024,0.012698,0.001222,-0.011281,-0.000159,0.007656,-0.024444,0.215956,-0.017526,0.202661,0.202676,0.167872,0.465678,0.000000,0.000000,0.000000,0.000000,0.000000,0.000000,0.000000,0.000000,0.000000,0.000000,0.000000,0.000000,2.256311,3,0
1180000,0.023632,28.261122,0.034783,0.082047,25.521666,0.119859,-0.002465,0.036353,1.571573,-0.066247,-0.008186,0.013062,0.001259,-0.011579,-0.000163,0.006348,-0.024455,0.192102,-0.043691,0.202850,0.202865,0.167553,0.461392,0.000000,0.000000,0.000000,0.000000,0.000000,0.000000,0.000000,0.000000,0.000000,0.000000,0.000000,0.000000,2.253139,3,0
1190000,0.023639,28.520752,0.034077,0.081537,25.533686,0.119006,-0.002557,0.036998,1.571581,-0.067096,-0.008348,0.013643,0.001296,-0.011782,-0.000166,0.003552,-0.024461,0.129139,-0.068961,0.203036,0.203051,0.167230,0.457204,0.000000,0.000000,0.000000,0.000000,0.000000,0.000000,0.000000,0.000000,0.000000,0.000000,0.000000,0.000000,2.251934,3,0
1200000,0.023638,28.783825,0.035544,0.081315,25.551294,0.120739,-0.002654,0.038053,1.571597,-0.068584,-0.008508,0.013556,0.001335,-0.012144,-0.000171,0.008424,-0.024467,0.227209,0.009518,0.203219,0.203233,0.166901,0.453112,0.000000,0.000000,0.000000,0.000000,0.000000,0.000000,0.000000,0.000000,0.000000,0.000000,0.000000,0.000000,2.247288,3,0
1210000,0.023638,29.046919,0.035304,0.081033,25.568842,0.120296,-0.002756,0.039099,1.571618,-0.070041,-0.008670,0.014001,0.001373,-0.012504,-0.000176,0.008508,-0.024463,0.222387,-0.052592,0.203399,0.203413,0.166569,0.449116,0.000000,0.000000,0.000000,0.000000,0.000000,0.000000,0.000000,0.000000,0.000000,0.000000,0.000000,0.000000,2.242619,3,0
1220000,0.023637,29.306662,0.034396,0.080818,25.580297,0.119208,-0.002861,0.039723,1.571630,-0.070816,-0.008832,0.014660,0.001411,-0.012698,-0.000179,0.003300,-0.024461,0.118145,-0.076804,0.203576,0.203590,0.166232,0.445214,0.000000,0.000000,0.000000,0.000000,0.000000,0.000000,0.000000,0.000000,0.000000,0.000000,0.000000,0.000000,2.241303,3,0
1230000,0.023634,29.568501,0.033405,0.080532,25.595387,0.117788,-0.002954,0.040607,1.571658,-0.071969,-0.008994,0.015344,0.001450,-0.012992,-0.000183,0.006125,-0.024457,0.176350,-0.079390,0.203752,0.203765,0.165892,0.441404,0.000000,0.000000,0.000000,0.000000,0.000000,0.000000,0.000000,0.000000,0.000000,0.000000,0.000000,0.000000,2.237889,3,0
1240000,0.023616,29.833075,0.034648,0.079810,25.615143,0.119315,-0.003063,0.041808,1.571685,-0.073614,-0.009154,0.015318,0.001491,-0.013415,-0.000189,0.010346,-0.024447,0.252302,0.001982,0.203925,0.203938,0.165548,0.437685,0.000000,0.000000,0.000000,0.000000,0.000000,0.000000,0.000000,0.000000,0.000000,0.000000,0.000000,0.000000,2.231744,3,0
1250000,0.023592,30.096964,0.036192,0.079368,25.633518,0.120996,-0.003167,0.042922,1.571715,-0.075085,-0.009313,0.015200,0.001533,-0.013800,-0.000195,0.008350,-0.024424,0.226074,0.012446,0.204097,0.204109,0.165202,0.434057,0.000000,0.000000,0.000000,0.000000,0.000000,0.000000,0.000000,0.000000,0.000000,0.000000,0.000000,0.000000,2.226277,3,0
1260000,0.023571,30.358145,0.035858,0.078951,25.646742,0.120591,-0.003277,0.043688,1.571720,-0.076002,-0.009473,0.015696,0.001574,-0.014043,-0.000198,0.003813,-0.024396,0.140911,-0.056689,0.204268,0.204279,0.164853,0.430518,0.000000,0.000000,0.000000,0.000000,0.000000,0.000000,0.000000,0.000000,0.000000,0.000000,0.000000,0.000000,2.223523,3,0
1270000,0.023545,30.620718,0.035745,0.078565,25.662169,0.120322,-0.003380,0.044620,1.571740,-0.077156,-0.009633,0.016119,0.001615,-0.014354,-0.000203,0.005565,-0.024371,0.177782,-0.048490,0.204438,0.204449,0.164502,0.427066,0.000000,0.000000,0.000000,0.000000,0.000000,0.000000,0.000000,0.000000,0.000000,0.000000,0.000000,0.000000,2.219377,3,0
1280000,0.023515,30.885342,0.035280,0.077948,25.681347,0.119586,-0.003488,0.045802,1.571765,-0.078665,-0.009793,0.016657,0.001657,-0.014767,-0.000208,0.009452,-0.024339,0.233114,-0.061257,0.204607,0.204617,0.164149,0.423701,0.000000,0.000000,0.000000,0.000000,0.000000,0.000000,0.000000,0.000000,0.000000,0.000000,0.000000,0.000000,2.213180,3,0
1290000,0.023481,31.148588,0.034984,0.077630,25.697720,0.118980,-0.003592,0.046793,1.571772,-0.079873,-0.009951,0.017142,0.001699,-0.015102,-0.000213,0.006212,-0.024306,0.186968,-0.054933,0.204776,0.204785,0.163794,0.420420,0.000000,0.000000,0.000000,0.000000,0.000000,0.000000,0.000000,0.000000,0.000000,0.000000,0.000000,0.000000,2.208356,3,0
1300000,0.023444,31.408438,0.034754,0.077159,25.707771,0.118727,-0.003706,0.047326,1.571788,-0.080407,-0.010109,0.017614,0.001741,-0.015252,-0.000215,0.001642,-0.024268,0.082588,-0.052638,0.204945,0.204953,0.163438,0.417223,0.000000,0.000000,0.000000,0.000000,0.000000,0.000000,0.000000,0.000000,0.000000,0.000000,0.000000,0.000000,2.206933,3,0
1310000,0.023406,31.672422,0.033662,0.076793,25.725338,0.117374,-0.003813,0.048399,1.571808,-0.081695,-0.010268,0.018369,0.001783,-0.015620,-0.000221,0.007703,-0.024226,0.200335,-0.084169,0.205114,0.205122,0.163080,0.414108,0.000000,0.000000,0.000000,0.000000,0.000000,0.000000,0.000000,0.000000,0.000000,0.000000,0.000000,0.000000,2.201378,3,0
1320000,0.023355,31.932985,0.034761,0.076154,25.736282,0.118548,-0.003933,0.049000,1.571820,-0.082304,-0.010423,0.018393,0.001828,-0.015797,-0.000223,0.001555,-0.024182,0.095205,-0.003142,0.205283,0.205290,0.162722,0.411073,0.000000,0.000000,0.000000,0.000000,0.000000,0.000000,0.000000,0.000000,0.000000,0.000000,0.000000,0.000000,2.199238,3,0
1330000,0.023306,32.196308,0.034437,0.075715,25.752043,0.118040,-0.004041,0.049970,1.571829,-0.083405,-0.010579,0.018898,0.001872,-0.016120,-0.000228,0.005391,-0.024127,0.172478,-0.056041,0.205453,0.205459,0.162364,0.408116,0.000000,0.000000,0.000000,0.000000,0.000000,0.000000,0.000000,0.000000,0.000000,0.000000,0.000000,0.000000,2.194341,3,0
1340000,0.023248,32.455536,0.035271,0.075062,25.760414,0.119010,-0.004163,0.050363,1.571833,-0.083711,-0.010732,0.019019,0.001917,-0.016212,-0.000229,0.000495,-0.024071,0.048145,-0.013342,0.205623,0.205628,0.162005,0.405238,0.000000,0.000000,0.000000,0.000000,0.000000,0.000000,0.000000,0.000000,0.000000,0.000000,0.000000,0.000000,2.193540,3,0
1350000,0.023188,32.719593,0.035616,0.074582,25.777431,0.119221,-0.004285,0.051411,1.571847,-0.084892,-0.010886,0.019299,0.001962,-0.016569,-0.000234,0.005846,-0.024008,0.186413,-0.031484,0.205795,0.205798,0.161646,0.402436,0.000000,0.000000,0.000000,0.000000,0.000000,0.000000,0.000000,0.000000,0.000000,0.000000,0.000000,0.000000,2.187909,3,0
1360000,0.023129,32.983635,0.034753,0.074101,25.794592,0.117867,-0.004402,0.052452,1.571863,-0.086034,-0.011040,0.020002,0.002006,-0.016920,-0.000240,0.006292,-0.023943,0.180603,-0.076533,0.205967,0.205969,0.161287,0.399712,0.000000,0.000000,0.000000,0.000000,0.000000,0.000000,0.000000,0.000000,0.000000,0.000000,0.000000,0.000000,2.182290,3,0
1370000,0.023056,33.244225,0.036107,0.073350,25.804693,0.119203,-0.004528,0.052998,1.571863,-0.086507,-0.011190,0.019939,0.002053,-0.017067,-0.000242,0.001014,-0.023877,0.075428,0.006200,0.206140,0.206142,0.160929,0.397056,0.000000,0.000000,0.000000,0.000000,0.000000,0.000000,0.000000,0.000000,0.000000,0.000000,0.000000,0.000000,2.180126,3,0
1380000,0.022980,33.506214,0.037360,0.072794,25.817593,0.120790,-0.004658,0.053736,1.571878,-0.087212,-0.011338,0.019913,0.002100,-0.017290,-0.000245,0.002144,-0.023799,0.112915,0.001936,0.206314,0.206315,0.160571,0.394476,0.000000,0.000000,0.000000,0.000000,0.000000,0.000000,0.000000,0.000000,0.000000,0.000000,0.000000,0.000000,2.176562,3,0
1390000,0.022907,33.770260,0.037580,0.072433,25.833830,0.120871,-0.004784,0.054762,1.571893,-0.088265,-0.011488,0.020251,0.002146,-0.017627,-0.000250,0.004902,-0.023719,0.168865,-0.037069,0.206490,0.206489,0.160214,0.391965,0.000000,0.000000,0.000000,0.000000,0.000000,0.000000,0.000000,0.000000,0.000000,0.000000,0.000000,0.000000,2.170943,3,0
1400000,0.022827,34.030170,0.038616,0.071900,25.842707,0.121945,-0.004903,0.055173,1.571895,-0.088536,-0.011634,0.020314,0.002194,-0.017716,-0.000251,0.000406,-0.023640,0.043804,-0.006924,0.206667,0.206665,0.159858,0.389524,0.000000,0.000000,0.000000,0.000000,0.000000,0.000000,0.000000,0.000000,0.000000,0.000000,0.000000,0.000000,2.169455,3,0
1410000,0.022747,34.290806,0.038528,0.071247,25.852783,0.121669,-0.005023,0.055670,1.571904,-0.088921,-0.011782,0.020785,0.002240,-0.017844,-0.000253,0.001108,-0.023554,0.062111,-0.049555,0.206846,0.206842,0.159504,0.387150,0.000000,0.000000,0.000000,0.000000,0.000000,0.000000,0.000000,0.000000,0.000000,0.000000,0.000000,0.000000,2.167245,3,0
1420000,0.022660,34.554199,0.039814,0.070891,25.867517,0.123020,-0.005142,0.056554,1.571907,-0.089775,-0.011926,0.020748,0.002288,-0.018129,-0.000257,0.003213,-0.023470,0.139317,0.002519,0.207027,0.207021,0.159151,0.384843,0.000000,0.000000,0.000000,0.000000,0.000000,0.000000,0.000000,0.000000,0.000000,0.000000,0.000000,0.000000,2.162278,3,0
1430000,0.022569,34.813450,0.040859,0.070075,25.874630,0.123973,-0.005270,0.056811,1.571901,-0.089866,-0.012068,0.020820,0.002336,-0.018160,-0.000258,0.000133,-0.023375,0.014927,-0.007487,0.207208,0.207202,0.158799,0.382598,0.000000,0.000000,0.000000,0.000000,0.000000,0.000000,0.000000,0.000000,0.000000,0.000000,0.000000,0.000000,2.161453,3,0
1440000,0.022478,35.076183,0.041295,0.069604,25.887785,0.124315,-0.005402,0.057582,1.571910,-0.090556,-0.012211,0.021107,0.002384,-0.018398,-0.000261,0.002309,-0.023279,0.113422,-0.030586,0.207392,0.207383,0.158449,0.380417,0.000000,0.000000,0.000000,0.000000,0.000000,0.000000,0.000000,0.000000,0.000000,0.000000,0.000000,0.000000,2.157142,3,0
1450000,0.022389,35.338215,0.040623,0.069083,25.899702,0.123322,-0.005518,0.058237,1.571932,-0.091097,-0.012355,0.021811,0.002431,-0.018589,-0.000264,0.002226,-0.023183,0.089104,-0.072910,0.207577,0.207567,0.158101,0.378299,0.000000,0.000000,0.000000,0.000000,0.000000,0.000000,0.000000,0.000000,0.000000,0.000000,0.000000,0.000000,2.153540,3,0
1460000,0.022291,35.601616,0.041208,0.068469,25.914093,0.123853,-0.005646,0.059091,1.571950,-0.091848,-0.012495,0.022041,0.002479,-0.018856,-0.000268,0.002704,-0.023088,0.125134,-0.024696,0.207764,0.207752,0.157756,0.376242,0.000000,0.000000,0.000000,0.000000,0.000000,0.000000,0.000000,0.000000,0.000000,0.000000,0.000000,0.000000,2.148561,3,0
1470000,0.022193,35.862923,0.040751,0.067759,25.924314,0.122930,-0.005771,0.059594,1.571953,-0.092212,-0.012635,0.022675,0.002527,-0.018989,-0.000270,0.001355,-0.022983,0.060383,-0.064912,0.207953,0.207939,0.157412,0.374243,0.000000,0.000000,0.000000,0.000000,0.000000,0.000000,0.000000,0.000000,0.000000,0.000000,0.000000,0.000000,2.145680,3,0
1480000,0.022087,36.124226,0.041673,0.067166,25.934834,0.123941,-0.005902,0.060092,1.571956,-0.092552,-0.012771,0.022789,0.002576,-0.019114,-0.000272,0.000638,-0.022879,0.057392,-0.012070,0.208143,0.208128,0.157071,0.372305,0.000000,0.000000,0.000000,0.000000,0.000000,0.000000,0.000000,0.000000,0.000000,0.000000,0.000000,0.000000,2.142802,3,0
1490000,0.021986,36.387608,0.040945,0.066764,25.948406,0.122756,-0.006026,0.060900,1.571975,-0.093227,-0.012909,0.023525,0.002624,-0.019366,-0.000276,0.003096,-0.022769,0.114052,-0.075312,0.208336,0.208318,0.156733,0.370420,0.000000,0.000000,0.000000,0.000000,0.000000,0.000000,0.000000,0.000000,0.000000,0.000000,0.000000,0.000000,2.137846,3,0
1500000,0.021880,36.647499,0.041218,0.066297,25.955786,0.122757,-0.006151,0.061148,1.571977,-0.093286,-0.013044,0.023897,0.002672,-0.019389,-0.000277,0.000321,-0.022663,0.009563,-0.037116,0.208529,0.208510,0.156397,0.368592,0.000000,0.000000,0.000000,0.000000,0.000000,0.000000,0.000000,0.000000,0.000000,0.000000,0.000000,0.000000,2.136377,3,0
1510000,0.021769,36.907406,0.042009,0.065711,25.962971,0.123429,-0.006288,0.061400,1.571981,-0.093333,-0.013176,0.024070,0.002722,-0.019408,-0.000277,0.000141,-0.022551,0.008022,-0.017288,0.208725,0.208703,0.156064,0.366816,0.000000,0.000000,0.000000,0.000000,0.000000,0.000000,0.000000,0.000000,0.000000,0.000000,0.000000,0.000000,2.134896,3,0
1520000,0.021658,37.167339,0.041249,0.064799,25.970083,0.122404,-0.006414,0.061654,1.571980,-0.093375,-0.013310,0.024852,0.002770,-0.019427,-0.000277,0.001061,-0.022431,0.006470,-0.077419,0.208921,0.208897,0.155734,0.365091,0.000000,0.000000,0.000000,0.000000,0.000000,0.000000,0.000000,0.000000,0.000000,0.000000,0.000000,0.000000,2.133388,3,0
1530000,0.021538,37.427284,0.041577,0.063921,25.977417,0.122580,-0.006550,0.061883,1.571977,-0.093406,-0.013440,0.025209,0.002819,-0.019440,-0.000278,0.000285,-0.022312,0.004890,-0.035180,0.209120,0.209093,0.155407,0.363420,0.000000,0.000000,0.000000,0.000000,0.000000,0.000000,0.000000,0.000000,0.000000,0.000000,0.000000,0.000000,2.131869,3,0
1540000,0.021420,37.692112,0.040597,0.063229,25.993704,0.121048,-0.006679,0.062884,1.571996,-0.094219,-0.013571,0.026054,0.002867,-0.019767,-0.000283,0.004514,-0.022184,0.142448,-0.084959,0.209319,0.209291,0.155083,0.361800,0.000000,0.000000,0.000000,0.000000,0.000000,0.000000,0.000000,0.000000,0.000000,0.000000,0.000000,0.000000,2.125466,3,0
1550000,0.021293,37.953407,0.040352,0.062309,26.003185,0.120481,-0.006811,0.063301,1.571997,-0.094428,-0.013699,0.026630,0.002916,-0.019854,-0.000284,0.000815,-0.022057,0.036488,-0.056757,0.209521,0.209490,0.154762,0.360227,0.000000,0.000000,0.000000,0.000000,0.000000,0.000000,0.000000,0.000000,0.000000,0.000000,0.000000,0.000000,2.122593,3,0
1560000,0.021166,38.213306,0.039416,0.061556,26.009888,0.119124,-0.006941,0.063490,1.571993,-0.094399,-0.013827,0.027492,0.002964,-0.019845,-0.000284,0.001223,-0.021922,-0.006233,-0.083770,0.209723,0.209689,0.154444,0.358700,0.000000,0.000000,0.000000,0.000000,0.000000,0.000000,0.000000,0.000000,0.000000,0.000000,0.000000,0.000000,2.121123,3,0
1570000,0.021035,38.472527,0.038375,0.060708,26.015202,0.117746,-0.007069,0.063560,1.571979,-0.094252,-0.013953,0.028402,0.003012,-0.019787,-0.000284,0.001448,-0.021787,-0.027653,-0.087694,0.209926,0.209890,0.154130,0.357219,0.000000,0.000000,0.000000,0.000000,0.000000,0.000000,0.000000,0.000000,0.000000,0.000000,0.000000,0.000000,2.120325,3,0
1580000,0.020889,38.732449,0.039746,0.059951,26.021641,0.119024,-0.007206,0.063721,1.571980,-0.094204,-0.014071,0.028333,0.003063,-0.019767,-0.000284,0.000095,-0.021648,-0.008621,0.006972,0.210131,0.210092,0.153820,0.355782,0.000000,0.000000,0.000000,0.000000,0.000000,0.000000,0.000000,0.000000,0.000000,0.000000,0.000000,0.000000,2.118828,3,0
1590000,0.020750,38.992393,0.039204,0.059220,26.028248,0.118121,-0.007346,0.063886,1.571962,-0.094153,-0.014193,0.029047,0.003111,-0.019748,-0.000284,0.000850,-0.021495,-0.010181,-0.068352,0.210336,0.210295,0.153512,0.354390,0.000000,0.000000,0.000000,0.000000,0.000000,0.000000,0.000000,0.000000,0.000000,0.000000,0.000000,0.000000,2.117308,3,0
1600000,0.020597,39.255123,0.040509,0.058317,26.039587,0.119215,-0.007489,0.064485,1.571965,-0.094518,-0.014308,0.028985,0.003162,-0.019907,-0.000286,0.000815,-0.021347,0.067749,0.004902,0.210542,0.210498,0.153209,0.353037,0.000000,0.000000,0.000000,0.000000,0.000000,0.000000,0.000000,0.000000,0.000000,0.000000,0.000000,0.000000,2.113004,3,0
1610000,0.020444,39.517822,0.041051,0.057486,26.050919,0.119803,-0.007627,0.065065,1.571959,-0.094857,-0.014423,0.029242,0.003211,-0.020059,-0.000289,0.000823,-0.021185,0.063332,-0.025594,0.210749,0.210702,0.152909,0.351727,0.000000,0.000000,0.000000,0.000000,0.000000,0.000000,0.000000,0.000000,0.000000,0.000000,0.000000,0.000000,2.108727,3,0
1620000,0.020294,39.781891,0.040295,0.056677,26.064493,0.118630,-0.007770,0.065850,1.571961,-0.095384,-0.014539,0.030030,0.003259,-0.020301,-0.000292,0.002588,-0.021024,0.098701,-0.076515,0.210957,0.210907,0.152613,0.350456,0.000000,0.000000,0.000000,0.000000,0.000000,0.000000,0.000000,0.000000,0.000000,0.000000,0.000000,0.000000,2.103083,3,0
1630000,0.020134,40.043087,0.040677,0.055704,26.072475,0.118975,-0.007898,0.066150,1.571954,-0.095456,-0.014651,0.030369,0.003308,-0.020336,-0.000293,0.000267,-0.020864,0.013409,-0.032212,0.211165,0.211111,0.152320,0.349222,0.000000,0.000000,0.000000,0.000000,0.000000,0.000000,0.000000,0.000000,0.000000,0.000000,0.000000,0.000000,2.100312,3,0
1640000,0.019965,40.305660,0.041746,0.054638,26.083368,0.119924,-0.008039,0.066657,1.571955,-0.095717,-0.014759,0.030411,0.003358,-0.020458,-0.000295,0.000480,-0.020694,0.050312,-0.004829,0.211373,0.211317,0.152032,0.348030,0.000000,0.000000,0.000000,0.000000,0.000000,0.000000,0.000000,0.000000,0.000000,0.000000,0.000000,0.000000,2.096164,3,0
1650000,0.019793,40.567493,0.042665,0.053716,26.092468,0.120738,-0.008179,0.067025,1.571956,-0.095852,-0.014865,0.030528,0.003408,-0.020522,-0.000297,0.000199,-0.020516,0.026180,-0.011357,0.211581,0.211522,0.151747,0.346873,0.000000,0.000000,0.000000,0.000000,0.000000,0.000000,0.000000,0.000000,0.000000,0.000000,0.000000,0.000000,2.092753,3,0
1660000,0.019624,40.831417,0.041989,0.052668,26.105371,0.119539,-0.008311,0.067738,1.571961,-0.096274,-0.014974,0.031306,0.003455,-0.020729,-0.000300,0.002053,-0.020333,0.082317,-0.074311,0.211790,0.211728,0.151466,0.345750,0.000000,0.000000,0.000000,0.000000,0.000000,0.000000,0.000000,0.000000,0.000000,0.000000,0.000000,0.000000,2.087254,3,0
1670000,0.019450,41.092457,0.041933,0.051852,26.112741,0.119068,-0.008448,0.067943,1.571961,-0.096263,-0.015079,0.031847,0.003503,-0.020727,-0.000300,0.000476,-0.020156,-0.002827,-0.050177,0.211998,0.211933,0.151190,0.344663,0.000000,0.000000,0.000000,0.000000,0.000000,0.000000,0.000000,0.000000,0.000000,0.000000,0.000000,0.000000,2.084640,3,0
1680000,0.019271,41.352066,0.042183,0.050948,26.117071,0.119261,-0.008586,0.067899,1.571949,-0.096041,-0.015181,0.032273,0.003552,-0.020619,-0.000299,0.000635,-0.019972,-0.045269,-0.038508,0.212207,0.212138,0.150917,0.343605,0.000000,0.000000,0.000000,0.000000,0.000000,0.000000,0.000000,0.000000,0.000000,0.000000,0.000000,0.000000,2.083456,3,0
1690000,0.019090,41.612385,0.042212,0.050113,26.122770,0.118927,-0.008733,0.067964,1.571932,-0.095914,-0.015283,0.032790,0.003600,-0.020557,-0.000298,0.000538,-0.019784,-0.026619,-0.047133,0.212414,0.212342,0.150648,0.342580,0.000000,0.000000,0.000000,0.000000,0.000000,0.000000,0.000000,0.000000,0.000000,0.000000,0.000000,0.000000,2.081558,3,0
1700000,0.018912,41.871990,0.041756,0.049584,26.127182,0.118267,-0.008866,0.067909,1.571917,-0.095683,-0.015383,0.033528,0.003647,-0.020442,-0.000297,0.001165,-0.019598,-0.048450,-0.066818,0.212621,0.212546,0.150383,0.341589,0.000000,0.000000,0.000000,0.000000,0.000000,0.000000,0.000000,0.000000,0.000000,0.000000,0.000000,0.000000,2.080381,3,0
1710000,0.018733,42.130886,0.041463,0.048939,26.129990,0.117721,-0.009005,0.067715,1.571907,-0.095354,-0.015482,0.034204,0.003694,-0.020274,-0.000295,0.001431,-0.019414,-0.069550,-0.060389,0.212828,0.212749,0.150122,0.340624,0.000000,0.000000,0.000000,0.000000,0.000000,0.000000,0.000000,0.000000,0.000000,0.000000,0.000000,0.000000,2.079907,3,0
1720000,0.018553,42.391914,0.040552,0.047950,26.136721,0.116423,-0.009146,0.067893,1.571900,-0.095310,-0.015581,0.035128,0.003740,-0.020256,-0.000295,0.001231,-0.019225,-0.010406,-0.084264,0.213033,0.212951,0.149866,0.339687,0.000000,0.000000,0.000000,0.000000,0.000000,0.000000,0.000000,0.000000,0.000000,0.000000,0.000000,0.000000,2.077304,3,0
