time_us,pos_x,pos_y,pos_z,vel_x,vel_y,vel_z,roll,pitch,yaw,bias_ax,bias_ay,bias_az,bias_gx,bias_gy,bias_gz,nis,innov_x,innov_y,innov_z,cov_pos_x,cov_pos_y,cov_pos_z,cov_yaw,des_speed,des_heading,des_climb,pid_speed,pid_yaw,pid_alt,speed_meas,yaw_meas,climb_meas,fwd_accel,yaw_rate,vert_accel,drift_m,nav_mode,mission_state
0,0.000003,0.149996,-0.000003,0.000443,24.999266,-0.000727,-0.000005,-0.000002,1.570784,0.000000,0.000000,0.000000,0.000000,0.000000,0.000000,0.006250,-0.000004,-0.249995,0.000007,2.400038,2.400038,3.600017,1.000518,0.000000,0.000000,0.000000,0.000000,0.000000,0.000000,0.000000,0.000000,0.000000,0.000000,0.000000,0.000000,0.149996,1,0
10000,0.000009,0.359536,0.031657,0.000938,24.998652,-0.001176,-0.000005,0.000002,1.570771,0.000000,-0.000000,-0.000000,0.000000,0.000000,0.000000,0.003129,-0.000012,-0.141559,0.084458,1.714420,1.714420,2.250079,1.001073,0.000000,0.000000,0.000000,0.000000,0.000000,0.000000,0.000000,0.000000,0.000000,0.000000,0.000000,0.000000,0.101110,3,0
20000,0.000018,0.571248,0.023618,0.001438,24.997829,-0.001809,0.000009,0.000003,1.570763,0.000002,-0.000000,0.000000,-0.000000,0.000000,0.000000,0.003948,-0.000023,-0.172183,-0.029408,1.333616,1.333616,1.636554,1.001655,0.000000,0.000000,0.000000,0.000000,0.000000,0.000000,0.000000,0.000000,0.000000,0.000000,0.000000,0.000000,0.133912,3,0
30000,0.000031,0.798401,0.019948,0.001974,24.996975,-0.002558,0.000005,-0.000003,1.570754,0.000004,-0.000000,0.000000,-0.000000,0.000000,0.000000,0.002184,-0.000038,-0.125461,-0.017007,1.091392,1.091392,1.286065,1.002257,0.000000,0.000000,0.000000,0.000000,0.000000,0.000000,0.000000,0.000000,0.000000,0.000000,0.000000,0.000000,0.102639,3,0
40000,0.000048,1.039987,0.017600,0.002546,24.996256,-0.003170,0.000004,0.000003,1.570737,0.000006,-0.000000,0.000001,-0.000000,0.000000,0.000000,0.000441,-0.000056,-0.054421,-0.013122,0.923811,0.923811,1.059385,1.002869,0.000000,0.000000,0.000000,0.000000,0.000000,0.000000,0.000000,0.000000,0.000000,0.000000,0.000000,0.000000,0.046042,3,0
50000,0.000067,1.287584,0.023015,0.003018,24.995806,-0.003512,0.000015,0.000007,1.570727,0.000006,-0.000000,-0.000001,0.000000,0.000000,0.000000,0.000232,-0.000078,-0.017696,0.036311,0.801036,0.801036,0.900822,1.003484,0.000000,0.000000,0.000000,0.000000,0.000000,0.000000,0.000000,0.000000,0.000000,0.000000,0.000000,0.000000,0.015333,3,0
60000,0.000091,1.532043,0.026177,0.003562,24.995152,-0.003877,0.000024,0.000008,1.570715,0.000009,-0.000000,-0.000002,0.000000,0.000000,0.000000,0.000407,-0.000103,-0.046620,0.024518,0.707270,0.707270,0.783741,1.004094,0.000000,0.000000,0.000000,0.000000,0.000000,0.000000,0.000000,0.000000,0.000000,0.000000,0.000000,0.000000,0.041124,3,0
70000,0.000117,1.778545,0.029644,0.004046,24.994591,-0.004227,0.000019,0.000003,1.570705,0.000012,-0.000000,-0.000005,0.000000,0.000000,0.000000,0.000295,-0.000131,-0.032646,0.030361,0.633370,0.633370,0.693801,1.004688,0.000000,0.000000,0.000000,0.000000,0.000000,0.000000,0.000000,0.000000,0.000000,0.000000,0.000000,0.000000,0.029200,3,0
80000,0.000148,2.030307,0.030013,0.004576,24.994284,-0.004756,0.000021,0.000008,1.570687,0.000010,-0.000000,-0.000005,0.000000,0.000000,0.000000,0.000057,-0.000163,0.019042,0.004020,0.573673,0.573673,0.622594,1.005260,0.000000,0.000000,0.000000,0.000000,0.000000,0.000000,0.000000,0.000000,0.000000,0.000000,0.000000,0.000000,0.017222,3,0
90000,0.000181,2.275543,0.034397,0.005035,24.993469,-0.005131,0.000027,0.000005,1.570674,0.000017,-0.000000,-0.000011,0.000000,0.000000,0.000000,0.000776,-0.000198,-0.053807,0.047149,0.524488,0.524488,0.564865,1.005801,0.000000,0.000000,0.000000,0.000000,0.000000,0.000000,0.000000,0.000000,0.000000,0.000000,0.000000,0.000000,0.049104,3,0
100000,0.000217,2.530209,0.033270,0.005530,24.993647,-0.005841,0.000033,0.000020,1.570668,0.000008,-0.000000,-0.000009,0.000000,0.000000,0.000000,0.000553,-0.000236,0.058785,-0.012404,0.483303,0.483303,0.517162,1.006301,0.000000,0.000000,0.000000,0.000000,0.000000,0.000000,0.000000,0.000000,0.000000,0.000000,0.000000,0.000000,0.054051,3,0
110000,0.000256,2.778874,0.033833,0.005955,24.993170,-0.006471,0.000038,0.000026,1.570650,0.000011,-0.000000,-0.000010,0.000000,0.000000,0.000000,0.000054,-0.000277,-0.016973,0.007899,0.448353,0.448353,0.477121,1.006754,0.000000,0.000000,0.000000,0.000000,0.000000,0.000000,0.000000,0.000000,0.000000,0.000000,0.000000,0.000000,0.015707,3,0
120000,0.000298,3.031072,0.032691,0.006424,24.993229,-0.007199,0.000041,0.000035,1.570636,0.000004,-0.000000,-0.000007,0.000000,-0.000000,-0.000000,0.000197,-0.000320,0.032550,-0.014509,0.418358,0.418358,0.443071,1.007150,0.000000,0.000000,0.000000,0.000000,0.000000,0.000000,0.000000,0.000000,0.000000,0.000000,0.000000,0.000000,0.030282,3,0
130000,0.000343,3.282236,0.032225,0.006939,24.992996,-0.007817,0.000053,0.000047,1.570626,-0.000001,-0.000000,-0.000006,0.000000,-0.000000,-0.000000,0.000061,-0.000367,0.018900,-0.005633,0.392369,0.392369,0.413797,1.007481,0.000000,0.000000,0.000000,0.000000,0.000000,0.000000,0.000000,0.000000,0.000000,0.000000,0.000000,0.000000,0.017668,3,0
140000,0.000392,3.532549,0.030017,0.007412,24.992643,-0.008844,0.000060,0.000048,1.570609,-0.000003,-0.000000,0.000004,0.000000,-0.000000,-0.000000,0.000174,-0.000417,0.006286,-0.032807,0.369666,0.369666,0.388393,1.007739,0.000000,0.000000,0.000000,0.000000,0.000000,0.000000,0.000000,0.000000,0.000000,0.000000,0.000000,0.000000,0.005911,3,0
150000,0.000444,3.791420,0.032705,0.007924,24.994295,-0.008957,0.000070,0.000062,1.570603,-0.000055,-0.000001,-0.000011,0.000000,-0.000001,-0.000000,0.004026,-0.000471,0.153555,0.045611,0.349695,0.349695,0.366172,1.007915,0.000000,0.000000,0.000000,0.000000,0.000000,0.000000,0.000000,0.000000,0.000000,0.000000,0.000000,0.000000,0.144606,3,0
160000,0.000499,4.041031,0.035326,0.008416,24.993921,-0.008804,0.000082,0.000072,1.570593,-0.000052,-0.000001,-0.000029,0.000000,-0.000001,-0.000000,0.000353,-0.000528,-0.005940,0.047016,0.332020,0.332020,0.346600,1.008002,0.000000,0.000000,0.000000,0.000000,0.000000,0.000000,0.000000,0.000000,0.000000,0.000000,0.000000,0.000000,0.005634,3,0
170000,0.000557,4.297407,0.037843,0.008951,24.995529,-0.008494,0.000081,0.000083,1.570578,-0.000105,-0.000001,-0.000049,0.000000,-0.000002,-0.000000,0.002712,-0.000588,0.122152,0.047537,0.316296,0.316296,0.329260,1.007991,0.000000,0.000000,0.000000,0.000000,0.000000,0.000000,0.000000,0.000000,0.000000,0.000000,0.000000,0.000000,0.115714,3,0
180000,0.000619,4.554615,0.037102,0.009433,24.997568,-0.009064,0.000094,0.000117,1.570563,-0.000173,-0.000001,-0.000043,0.000000,-0.000004,-0.000000,0.003310,-0.000652,0.144065,-0.012477,0.302245,0.302245,0.313817,1.007875,0.000000,0.000000,0.000000,0.000000,0.000000,0.000000,0.000000,0.000000,0.000000,0.000000,0.000000,0.000000,0.136810,3,0
190000,0.000683,4.807761,0.036511,0.009845,24.998348,-0.009597,0.000099,0.000133,1.570546,-0.000208,-0.000002,-0.000038,0.000000,-0.000005,-0.000000,0.000701,-0.000717,0.065747,-0.009926,0.289640,0.289640,0.300003,1.007645,0.000000,0.000000,0.000000,0.000000,0.000000,0.000000,0.000000,0.000000,0.000000,0.000000,0.000000,0.000000,0.062577,3,0
200000,0.000750,5.058270,0.036769,0.010335,24.998247,-0.010010,0.000105,0.000140,1.570543,-0.000215,-0.000002,-0.000042,0.000000,-0.000005,-0.000000,0.000030,-0.000786,0.011382,0.007504,0.278294,0.278294,0.287598,1.007295,0.000000,0.000000,0.000000,0.000000,0.000000,0.000000,0.000000,0.000000,0.000000,0.000000,0.000000,0.000000,0.010880,3,0
210000,0.000819,5.316215,0.037136,0.010766,25.001257,-0.010214,0.000101,0.000182,1.570528,-0.000329,-0.000003,-0.000048,0.000000,-0.000009,-0.000000,0.005080,-0.000858,0.178333,0.010218,0.268052,0.268052,0.276421,1.006816,0.000000,0.000000,0.000000,0.000000,0.000000,0.000000,0.000000,0.000000,0.000000,0.000000,0.000000,0.000000,0.170368,3,0
220000,0.000891,5.572219,0.035292,0.011194,25.003565,-0.011674,0.000099,0.000209,1.570511,-0.000426,-0.000003,-0.000022,0.000000,-0.000012,-0.000000,0.003326,-0.000931,0.139026,-0.039081,0.258785,0.258785,0.266321,1.006202,0.000000,0.000000,0.000000,0.000000,0.000000,0.000000,0.000000,0.000000,0.000000,0.000000,0.000000,0.000000,0.133032,3,0
230000,0.000967,5.824006,0.036182,0.011781,25.004164,-0.011895,0.000111,0.000216,1.570503,-0.000458,-0.000004,-0.000039,0.000000,-0.000013,-0.000000,0.000371,-0.001009,0.042028,0.023639,0.250383,0.250383,0.257172,1.005446,0.000000,0.000000,0.000000,0.000000,0.000000,0.000000,0.000000,0.000000,0.000000,0.000000,0.000000,0.000000,0.040286,3,0
240000,0.001047,6.076818,0.037764,0.012329,25.005360,-0.011718,0.000114,0.000239,1.570493,-0.000514,-0.000005,-0.000073,0.000000,-0.000014,-0.000000,0.001022,-0.001091,0.068541,0.041181,0.242753,0.242753,0.248866,1.004541,0.000000,0.000000,0.000000,0.000000,0.000000,0.000000,0.000000,0.000000,0.000000,0.000000,0.000000,0.000000,0.065776,3,0
250000,0.001128,6.329783,0.039190,0.012763,25.006762,-0.011495,0.000110,0.000257,1.570494,-0.000581,-0.000006,-0.000107,0.000000,-0.000017,-0.000000,0.001118,-0.001174,0.074142,0.038503,0.235815,0.235815,0.241314,1.003481,0.000000,0.000000,0.000000,0.000000,0.000000,0.000000,0.000000,0.000000,0.000000,0.000000,0.000000,0.000000,0.071237,3,0
260000,0.001212,6.583652,0.039735,0.013156,25.008713,-0.011802,0.000108,0.000293,1.570486,-0.000676,-0.000007,-0.000123,0.000000,-0.000020,-0.000000,0.001633,-0.001260,0.099469,0.017076,0.229501,0.229501,0.234436,1.002258,0.000000,0.000000,0.000000,0.000000,0.000000,0.000000,0.000000,0.000000,0.000000,0.000000,0.000000,0.000000,0.095672,3,0
270000,0.001298,6.837613,0.039720,0.013596,25.010828,-0.012205,0.000116,0.000334,1.570472,-0.000783,-0.000009,-0.000126,0.000000,-0.000024,-0.000000,0.001737,-0.001348,0.104007,0.002838,0.223750,0.223750,0.228165,1.000869,0.000000,0.000000,0.000000,0.000000,0.000000,0.000000,0.000000,0.000000,0.000000,0.000000,0.000000,0.000000,0.100137,3,0
280000,0.001386,7.093115,0.039771,0.013999,25.014219,-0.012529,0.000113,0.000388,1.570471,-0.000947,-0.000010,-0.000131,0.000000,-0.000031,-0.000000,0.003532,-0.001438,0.148208,0.004765,0.218512,0.218512,0.222443,0.999307,0.000000,0.000000,0.000000,0.000000,0.000000,0.000000,0.000000,0.000000,0.000000,0.000000,0.000000,0.000000,0.142817,3,0
290000,0.001477,7.350053,0.039348,0.014562,25.018814,-0.013254,0.000108,0.000456,1.570471,-0.001172,-0.000012,-0.000122,0.000000,-0.000040,-0.000000,0.005865,-0.001532,0.190855,-0.008061,0.213739,0.213739,0.217219,0.997567,0.000000,0.000000,0.000000,0.000000,0.000000,0.000000,0.000000,0.000000,0.000000,0.000000,0.000000,0.000000,0.184062,3,0
300000,0.001572,7.603480,0.040348,0.015092,25.021002,-0.013198,0.000113,0.000502,1.570471,-0.001289,-0.000014,-0.000162,0.000001,-0.000045,-0.000000,0.001555,-0.001629,0.092903,0.032182,0.209393,0.209393,0.212446,0.995645,0.000000,0.000000,0.000000,0.000000,0.000000,0.000000,0.000000,0.000000,0.000000,0.000000,0.000000,0.000000,0.089674,3,0
310000,0.001668,7.855678,0.040583,0.015486,25.022383,-0.013439,0.000116,0.000532,1.570458,-0.001366,-0.000017,-0.000176,0.000001,-0.000049,-0.000000,0.000563,-0.001727,0.058121,0.010725,0.205437,0.205437,0.208087,0.993536,0.000000,0.000000,0.000000,0.000000,0.000000,0.000000,0.000000,0.000000,0.000000,0.000000,0.000000,0.000000,0.056156,3,0
320000,0.001767,8.108062,0.041431,0.016041,25.023893,-0.013339,0.000121,0.000558,1.570449,-0.001457,-0.000019,-0.000217,0.000001,-0.000053,-0.000000,0.000803,-0.001829,0.064337,0.029094,0.201840,0.201840,0.204105,0.991237,0.000000,0.000000,0.000000,0.000000,0.000000,0.000000,0.000000,0.000000,0.000000,0.000000,0.000000,0.000000,0.062198,3,0
330000,0.001869,8.361942,0.040424,0.016524,25.026796,-0.014685,0.000131,0.000606,1.570442,-0.001622,-0.000022,-0.000178,0.000001,-0.000060,-0.000000,0.002063,-0.001933,0.110122,-0.025966,0.198574,0.198574,0.200469,0.988744,0.000000,0.000000,0.000000,0.000000,0.000000,0.000000,0.000000,0.000000,0.000000,0.000000,0.000000,0.000000,0.106493,3,0
340000,0.001972,8.619833,0.041009,0.016902,25.033604,-0.014796,0.000124,0.000737,1.570426,-0.001992,-0.000025,-0.000213,0.000001,-0.000078,-0.000000,0.008904,-0.002039,0.233911,0.022494,0.195613,0.195613,0.197151,0.986054,0.000000,0.000000,0.000000,0.000000,0.000000,0.000000,0.000000,0.000000,0.000000,0.000000,0.000000,0.000000,0.226294,3,0
350000,0.002078,8.875146,0.042091,0.017394,25.038059,-0.014094,0.000124,0.000831,1.570409,-0.002251,-0.000029,-0.000277,0.000001,-0.000091,-0.000000,0.004104,-0.002147,0.154862,0.038128,0.192934,0.192934,0.194125,0.983164,0.000000,0.000000,0.000000,0.000000,0.000000,0.000000,0.000000,0.000000,0.000000,0.000000,0.000000,0.000000,0.149897,3,0
360000,0.002185,9.129907,0.042975,0.017792,25.042200,-0.013763,0.000135,0.000921,1.570393,-0.002493,-0.000033,-0.000333,0.000001,-0.000104,-0.000001,0.003245,-0.002257,0.138051,0.032330,0.190516,0.190516,0.191370,0.980073,0.000000,0.000000,0.000000,0.000000,0.000000,0.000000,0.000000,0.000000,0.000000,0.000000,0.000000,0.000000,0.133686,3,0
370000,0.002294,9.383526,0.044397,0.018223,25.045290,-0.013014,0.000129,0.000990,1.570377,-0.002681,-0.000037,-0.000424,0.000002,-0.000114,-0.000001,0.002078,-0.002368,0.101917,0.049773,0.188341,0.188341,0.188863,0.976780,0.000000,0.000000,0.000000,0.000000,0.000000,0.000000,0.000000,0.000000,0.000000,0.000000,0.000000,0.000000,0.098744,3,0
380000,0.002404,9.640379,0.044398,0.018679,25.052006,-0.013339,0.000132,0.001124,1.570379,-0.003079,-0.000042,-0.000433,0.000002,-0.000136,-0.000001,0.006863,-0.002481,0.206087,0.004372,0.186391,0.186391,0.186586,0.973283,0.000000,0.000000,0.000000,0.000000,0.000000,0.000000,0.000000,0.000000,0.000000,0.000000,0.000000,0.000000,0.199700,3,0
390000,0.002517,9.898508,0.043278,0.019180,25.060133,-0.014840,0.000126,0.001301,1.570383,-0.003580,-0.000048,-0.000368,0.000002,-0.000164,-0.000001,0.010049,-0.002597,0.247352,-0.031925,0.184650,0.184650,0.184522,0.969581,0.000000,0.000000,0.000000,0.000000,0.000000,0.000000,0.000000,0.000000,0.000000,0.000000,0.000000,0.000000,0.239753,3,0
400000,0.002631,10.154236,0.043007,0.019625,25.065756,-0.015575,0.000134,0.001425,1.570377,-0.003936,-0.000053,-0.000360,0.000003,-0.000185,-0.000001,0.004567,-0.002714,0.168051,-0.003845,0.183104,0.183104,0.182656,0.965676,0.000000,0.000000,0.000000,0.000000,0.000000,0.000000,0.000000,0.000000,0.000000,0.000000,0.000000,0.000000,0.162943,3,0
410000,0.002746,10.409460,0.041984,0.019974,25.070965,-0.017053,0.000140,0.001544,1.570362,-0.004269,-0.000060,-0.000297,0.000003,-0.000204,-0.000001,0.003809,-0.002832,0.150813,-0.028559,0.181740,0.181740,0.180971,0.961567,0.000000,0.000000,0.000000,0.000000,0.000000,0.000000,0.000000,0.000000,0.000000,0.000000,0.000000,0.000000,0.146271,3,0
420000,0.002862,10.665997,0.040741,0.020384,25.077835,-0.018931,0.000149,0.001700,1.570350,-0.004715,-0.000067,-0.000216,0.000003,-0.000232,-0.000001,0.006273,-0.002951,0.193721,-0.035653,0.180544,0.180544,0.179456,0.957256,0.000000,0.000000,0.000000,0.000000,0.000000,0.000000,0.000000,0.000000,0.000000,0.000000,0.000000,0.000000,0.187914,3,0
430000,0.002980,10.924407,0.040326,0.020793,25.087187,-0.019925,0.000147,0.001911,1.570338,-0.005328,-0.000074,-0.000198,0.000004,-0.000270,-0.000001,0.010538,-0.003072,0.255178,-0.007346,0.179505,0.179505,0.178097,0.952744,0.000000,0.000000,0.000000,0.000000,0.000000,0.000000,0.000000,0.000000,0.000000,0.000000,0.000000,0.000000,0.247562,3,0
440000,0.003099,11.178137,0.039132,0.021259,25.090662,-0.021543,0.000143,0.002002,1.570326,-0.005567,-0.000082,-0.000114,0.000004,-0.000285,-0.000001,0.001677,-0.003193,0.096068,-0.033596,0.178613,0.178613,0.176883,0.948034,0.000000,0.000000,0.000000,0.000000,0.000000,0.000000,0.000000,0.000000,0.000000,0.000000,0.000000,0.000000,0.093260,3,0
450000,0.003218,11.433207,0.038180,0.021615,25.095907,-0.023102,0.000152,0.002128,1.570325,-0.005931,-0.000091,-0.000050,0.000005,-0.000309,-0.000002,0.003294,-0.003316,0.140488,-0.024901,0.177857,0.177858,0.175803,0.943128,0.000000,0.000000,0.000000,0.000000,0.000000,0.000000,0.000000,0.000000,0.000000,0.000000,0.000000,0.000000,0.136361,3,0
460000,0.003337,11.691935,0.037323,0.021933,25.106171,-0.024555,0.000146,0.002378,1.570323,-0.006638,-0.000100,0.000007,0.000005,-0.000357,-0.000002,0.011268,-0.003438,0.263064,-0.021257,0.177229,0.177229,0.174847,0.938029,0.000000,0.000000,0.000000,0.000000,0.000000,0.000000,0.000000,0.000000,0.000000,0.000000,0.000000,0.000000,0.255316,3,0
470000,0.003456,11.950731,0.038571,0.022271,25.116629,-0.023362,0.000140,0.002627,1.570320,-0.007369,-0.000110,-0.000137,0.000006,-0.000407,-0.000002,0.011594,-0.003561,0.262659,0.051698,0.176718,0.176718,0.174006,0.932741,0.000000,0.000000,0.000000,0.000000,0.000000,0.000000,0.000000,0.000000,0.000000,0.000000,0.000000,0.000000,0.254946,3,0
480000,0.003575,12.208433,0.038018,0.022597,25.125593,-0.024483,0.000136,0.002859,1.570324,-0.008010,-0.000121,-0.000106,0.000007,-0.000452,-0.000002,0.008024,-0.003684,0.222426,-0.010813,0.176316,0.176317,0.173271,0.927267,0.000000,0.000000,0.000000,0.000000,0.000000,0.000000,0.000000,0.000000,0.000000,0.000000,0.000000,0.000000,0.215920,3,0
490000,0.003695,12.465650,0.037728,0.022929,25.134037,-0.024922,0.000141,0.003078,1.570320,-0.008615,-0.000133,-0.000102,0.000008,-0.000496,-0.000003,0.006681,-0.003806,0.203180,-0.001480,0.176017,0.176017,0.172634,0.921614,0.000000,0.000000,0.000000,0.000000,0.000000,0.000000,0.000000,0.000000,0.000000,0.000000,0.000000,0.000000,0.197254,3,0
500000,0.003815,12.724141,0.036818,0.023342,25.144299,-0.026174,0.000136,0.003343,1.570312,-0.009365,-0.000145,-0.000031,0.000009,-0.000551,-0.000003,0.009724,-0.003930,0.244064,-0.022900,0.175812,0.175812,0.172087,0.915785,0.000000,0.000000,0.000000,0.000000,0.000000,0.000000,0.000000,0.000000,0.000000,0.000000,0.000000,0.000000,0.236943,3,0
510000,0.003934,12.982726,0.035692,0.023629,25.154781,-0.028038,0.000126,0.003618,1.570304,-0.010139,-0.000158,0.000064,0.000010,-0.000610,-0.000003,0.009772,-0.004053,0.243896,-0.030004,0.175694,0.175694,0.171622,0.909786,0.000000,0.000000,0.000000,0.000000,0.000000,0.000000,0.000000,0.000000,0.000000,0.000000,0.000000,0.000000,0.236786,3,0
520000,0.004053,13.238497,0.036977,0.023970,25.161037,-0.026301,0.000122,0.003789,1.570289,-0.010611,-0.000172,-0.000117,0.000011,-0.000646,-0.000003,0.003858,-0.004176,0.144238,0.054990,0.175657,0.175657,0.171234,0.903622,0.000000,0.000000,0.000000,0.000000,0.000000,0.000000,0.000000,0.000000,0.000000,0.000000,0.000000,0.000000,0.140073,3,0
530000,0.004171,13.493826,0.037687,0.024238,25.166786,-0.025716,0.000113,0.003939,1.570284,-0.011038,-0.000186,-0.000234,0.000012,-0.000680,-0.000003,0.002802,-0.004297,0.126949,0.034398,0.175694,0.175694,0.170914,0.897300,0.000000,0.000000,0.000000,0.000000,0.000000,0.000000,0.000000,0.000000,0.000000,0.000000,0.000000,0.000000,0.123302,3,0
540000,0.004291,13.749886,0.036183,0.024652,25.173571,-0.027921,0.000110,0.004125,1.570277,-0.011557,-0.000202,-0.000081,0.000013,-0.000721,-0.000004,0.003946,-0.004420,0.149868,-0.043667,0.175799,0.175799,0.170658,0.890826,0.000000,0.000000,0.000000,0.000000,0.000000,0.000000,0.000000,0.000000,0.000000,0.000000,0.000000,0.000000,0.145541,3,0
550000,0.004409,14.006086,0.037146,0.025019,25.180624,-0.026756,0.000117,0.004332,1.570280,-0.012098,-0.000218,-0.000239,0.000014,-0.000766,-0.000004,0.004061,-0.004543,0.152165,0.043889,0.175967,0.175967,0.170460,0.884207,0.000000,0.000000,0.000000,0.000000,0.000000,0.000000,0.000000,0.000000,0.000000,0.000000,0.000000,0.000000,0.147768,3,0
560000,0.004528,14.263593,0.037803,0.025332,25.189613,-0.025898,0.000114,0.004595,1.570284,-0.012807,-0.000235,-0.000361,0.000016,-0.000825,-0.000004,0.006270,-0.004665,0.194078,0.032718,0.176192,0.176193,0.170314,0.877450,0.000000,0.000000,0.000000,0.000000,0.000000,0.000000,0.000000,0.000000,0.000000,0.000000,0.000000,0.000000,0.188434,3,0
570000,0.004644,14.518886,0.039051,0.025541,25.195248,-0.024457,0.000115,0.004771,1.570282,-0.013239,-0.000253,-0.000563,0.000018,-0.000862,-0.000004,0.002619,-0.004785,0.115392,0.053356,0.176470,0.176470,0.170214,0.870562,0.000000,0.000000,0.000000,0.000000,0.000000,0.000000,0.000000,0.000000,0.000000,0.000000,0.000000,0.000000,0.112094,3,0
580000,0.004761,14.779016,0.037550,0.025873,25.208429,-0.026753,0.000108,0.005163,1.570281,-0.014305,-0.000272,-0.000392,0.000019,-0.000955,-0.000005,0.012776,-0.004905,0.277500,-0.044176,0.176794,0.176795,0.170157,0.863551,0.000000,0.000000,0.000000,0.000000,0.000000,0.000000,0.000000,0.000000,0.000000,0.000000,0.000000,0.000000,0.269365,3,0
590000,0.004877,15.035134,0.037535,0.026141,25.215139,-0.027090,0.000096,0.005378,1.570274,-0.014843,-0.000292,-0.000429,0.000021,-0.001003,-0.000005,0.003032,-0.005025,0.136509,0.009133,0.177162,0.177162,0.170138,0.856423,0.000000,0.000000,0.000000,0.000000,0.000000,0.000000,0.000000,0.000000,0.000000,0.000000,0.000000,0.000000,0.132567,3,0
600000,0.004990,15.294335,0.038538,0.026308,25.226831,-0.025596,0.000085,0.005747,1.570273,-0.015801,-0.000313,-0.000614,0.000023,-0.001090,-0.000006,0.009505,-0.005142,0.238147,0.045044,0.177567,0.177568,0.170152,0.849188,0.000000,0.000000,0.000000,0.000000,0.000000,0.000000,0.000000,0.000000,0.000000,0.000000,0.000000,0.000000,0.231153,3,0
610000,0.005101,15.550106,0.037164,0.026477,25.232813,-0.027949,0.000072,0.005948,1.570270,-0.016287,-0.000335,-0.000449,0.000025,-0.001135,-0.000006,0.002504,-0.005257,0.117980,-0.039202,0.178007,0.178007,0.170195,0.841853,0.000000,0.000000,0.000000,0.000000,0.000000,0.000000,0.000000,0.000000,0.000000,0.000000,0.000000,0.000000,0.114594,3,0
620000,0.005211,15.808981,0.036898,0.026727,25.243923,-0.028361,0.000076,0.006296,1.570270,-0.017213,-0.000358,-0.000453,0.000027,-0.001222,-0.000006,0.007829,-0.005371,0.219968,0.000622,0.178477,0.178477,0.170264,0.834426,0.000000,0.000000,0.000000,0.000000,0.000000,0.000000,0.000000,0.000000,0.000000,0.000000,0.000000,0.000000,0.213488,3,0
630000,0.005320,16.067375,0.037253,0.026920,25.254284,-0.027918,0.000078,0.006620,1.570268,-0.018070,-0.000382,-0.000553,0.000029,-0.001304,-0.000007,0.006525,-0.005483,0.199528,0.022642,0.178973,0.178974,0.170356,0.826915,0.000000,0.000000,0.000000,0.000000,0.000000,0.000000,0.000000,0.000000,0.000000,0.000000,0.000000,0.000000,0.193650,3,0
640000,0.005426,16.325890,0.038525,0.027137,25.264723,-0.026149,0.000076,0.006966,1.570273,-0.018944,-0.000406,-0.000799,0.000032,-0.001390,-0.000007,0.006923,-0.005594,0.199457,0.054749,0.179493,0.179493,0.170465,0.819328,0.000000,0.000000,0.000000,0.000000,0.000000,0.000000,0.000000,0.000000,0.000000,0.000000,0.000000,0.000000,0.193567,3,0
650000,0.005532,16.582134,0.037420,0.027377,25.271191,-0.027897,0.000075,0.007173,1.570276,-0.019479,-0.000432,-0.000664,0.000034,-0.001443,-0.000007,0.002464,-0.005703,0.119749,-0.029506,0.180032,0.180033,0.170591,0.811674,0.000000,0.000000,0.000000,0.000000,0.000000,0.000000,0.000000,0.000000,0.000000,0.000000,0.000000,0.000000,0.116287,3,0
660000,0.005635,16.842707,0.038085,0.027573,25.284882,-0.027106,0.000061,0.007631,1.570272,-0.020667,-0.000459,-0.000821,0.000037,-0.001564,-0.000008,0.011199,-0.005811,0.261017,0.033331,0.180588,0.180589,0.170729,0.803960,0.000000,0.000000,0.000000,0.000000,0.000000,0.000000,0.000000,0.000000,0.000000,0.000000,0.000000,0.000000,0.253223,3,0
670000,0.005738,17.102774,0.038994,0.027848,25.297712,-0.025982,0.000051,0.008069,1.570278,-0.021775,-0.000487,-0.001021,0.000040,-0.001678,-0.000008,0.009508,-0.005917,0.238853,0.041627,0.181158,0.181159,0.170877,0.796195,0.000000,0.000000,0.000000,0.000000,0.000000,0.000000,0.000000,0.000000,0.000000,0.000000,0.000000,0.000000,0.231713,3,0
680000,0.005839,17.361132,0.039657,0.028059,25.307499,-0.024952,0.000037,0.008413,1.570268,-0.022612,-0.000515,-0.001180,0.000043,-0.001766,-0.000009,0.005265,-0.006022,0.177446,0.032473,0.181739,0.181740,0.171033,0.788386,0.000000,0.000000,0.000000,0.000000,0.000000,0.000000,0.000000,0.000000,0.000000,0.000000,0.000000,0.000000,0.172171,3,0
690000,0.005938,17.622623,0.040733,0.028190,25.322495,-0.023613,0.000031,0.008949,1.570277,-0.023940,-0.000545,-0.001413,0.000047,-0.001909,-0.000010,0.012741,-0.006124,0.276812,0.046638,0.182328,0.182329,0.171193,0.780542,0.000000,0.000000,0.000000,0.000000,0.000000,0.000000,0.000000,0.000000,0.000000,0.000000,0.000000,0.000000,0.268466,3,0
700000,0.006034,17.883589,0.040151,0.028282,25.336411,-0.024804,0.000025,0.009458,1.570270,-0.025178,-0.000576,-0.001353,0.000050,-0.002043,-0.000010,0.010431,-0.006224,0.253717,-0.011934,0.182924,0.182925,0.171357,0.772670,0.000000,0.000000,0.000000,0.000000,0.000000,0.000000,0.000000,0.000000,0.000000,0.000000,0.000000,0.000000,0.246057,3,0
710000,0.006129,18.144640,0.039261,0.028461,25.350510,-0.026290,0.000018,0.009955,1.570264,-0.026422,-0.000607,-0.001240,0.000053,-0.002181,-0.000011,0.010269,-0.006322,0.251038,-0.022285,0.183524,0.183524,0.171522,0.764778,0.000000,0.000000,0.000000,0.000000,0.000000,0.000000,0.000000,0.000000,0.000000,0.000000,0.000000,0.000000,0.243436,3,0
720000,0.006222,18.404552,0.038828,0.028630,25.362320,-0.027075,0.000017,0.010394,1.570264,-0.027471,-0.000640,-0.001211,0.000057,-0.002300,-0.000012,0.007036,-0.006419,0.208513,-0.005807,0.184125,0.184126,0.171685,0.756874,0.000000,0.000000,0.000000,0.000000,0.000000,0.000000,0.000000,0.000000,0.000000,0.000000,0.000000,0.000000,0.202210,3,0
730000,0.006313,18.663942,0.039215,0.028858,25.373114,-0.026468,0.000012,0.010790,1.570252,-0.028426,-0.000674,-0.001335,0.000061,-0.002409,-0.000012,0.005743,-0.006514,0.187029,0.023061,0.184726,0.184727,0.171846,0.748965,0.000000,0.000000,0.000000,0.000000,0.000000,0.000000,0.000000,0.000000,0.000000,0.000000,0.000000,0.000000,0.181380,3,0
740000,0.006402,18.925884,0.039478,0.028953,25.388380,-0.026358,0.000010,0.011356,1.570246,-0.029800,-0.000708,-0.001437,0.000065,-0.002570,-0.000013,0.011446,-0.006606,0.265469,0.018604,0.185326,0.185327,0.172003,0.741057,0.000000,0.000000,0.000000,0.000000,0.000000,0.000000,0.000000,0.000000,0.000000,0.000000,0.000000,0.000000,0.257349,3,0
750000,0.006488,19.183578,0.038468,0.029006,25.395969,-0.028035,-0.000007,0.011634,1.570236,-0.030444,-0.000744,-0.001296,0.000069,-0.002646,-0.000013,0.002545,-0.006695,0.122650,-0.025827,0.185922,0.185923,0.172155,0.733158,0.000000,0.000000,0.000000,0.000000,0.000000,0.000000,0.000000,0.000000,0.000000,0.000000,0.000000,0.000000,0.119026,3,0
760000,0.006572,19.444471,0.038870,0.029157,25.409002,-0.027477,-0.000023,0.012140,1.570238,-0.031627,-0.000780,-0.001431,0.000074,-0.002789,-0.000014,0.008109,-0.006784,0.222700,0.023865,0.186514,0.186515,0.172299,0.725275,0.000000,0.000000,0.000000,0.000000,0.000000,0.000000,0.000000,0.000000,0.000000,0.000000,0.000000,0.000000,0.215877,3,0
770000,0.006654,19.702959,0.039608,0.029268,25.417849,-0.026682,-0.000040,0.012489,1.570238,-0.032383,-0.000817,-0.001633,0.000078,-0.002882,-0.000015,0.003403,-0.006869,0.140585,0.035482,0.187100,0.187100,0.172435,0.717414,0.000000,0.000000,0.000000,0.000000,0.000000,0.000000,0.000000,0.000000,0.000000,0.000000,0.000000,0.000000,0.136362,3,0
780000,0.006735,19.962164,0.038337,0.029387,25.427774,-0.028813,-0.000055,0.012873,1.570242,-0.033257,-0.000855,-0.001435,0.000083,-0.002992,-0.000015,0.004352,-0.006952,0.160315,-0.034724,0.187678,0.187679,0.172563,0.709581,0.000000,0.000000,0.000000,0.000000,0.000000,0.000000,0.000000,0.000000,0.000000,0.000000,0.000000,0.000000,0.155446,3,0
790000,0.006813,20.222704,0.039563,0.029534,25.439913,-0.027079,-0.000066,0.013354,1.570249,-0.034354,-0.000894,-0.001745,0.000088,-0.003131,-0.000016,0.006864,-0.007034,0.199194,0.052773,0.188248,0.188248,0.172680,0.701783,0.000000,0.000000,0.000000,0.000000,0.000000,0.000000,0.000000,0.000000,0.000000,0.000000,0.000000,0.000000,0.193064,3,0
800000,0.006890,20.480186,0.039150,0.029684,25.446470,-0.027898,-0.000079,0.013620,1.570250,-0.034898,-0.000934,-0.001718,0.000093,-0.003201,-0.000016,0.001548,-0.007114,0.097563,-0.004736,0.188808,0.188809,0.172787,0.694024,0.000000,0.000000,0.000000,0.000000,0.000000,0.000000,0.000000,0.000000,0.000000,0.000000,0.000000,0.000000,0.094743,3,0
810000,0.006966,20.742163,0.037885,0.029827,25.460949,-0.029955,-0.000089,0.014214,1.570255,-0.036236,-0.000975,-0.001516,0.000098,-0.003377,-0.000017,0.009307,-0.007192,0.237591,-0.034047,0.189359,0.189360,0.172881,0.686312,0.000000,0.000000,0.000000,0.000000,0.000000,0.000000,0.000000,0.000000,0.000000,0.000000,0.000000,0.000000,0.230198,3,0
820000,0.007039,21.004187,0.037032,0.029873,25.475210,-0.031318,-0.000108,0.014813,1.570252,-0.037567,-0.001017,-0.001402,0.000104,-0.003554,-0.000018,0.008897,-0.007268,0.233898,-0.019062,0.189899,0.189899,0.172964,0.678650,0.000000,0.000000,0.000000,0.000000,0.000000,0.000000,0.000000,0.000000,0.000000,0.000000,0.000000,0.000000,0.226605,3,0
830000,0.007109,21.261841,0.037654,0.030000,25.481676,-0.030632,-0.000120,0.015065,1.570254,-0.038089,-0.001059,-0.001604,0.000110,-0.003625,-0.000018,0.001518,-0.007343,0.091003,0.032651,0.190427,0.190428,0.173035,0.671044,0.000000,0.000000,0.000000,0.000000,0.000000,0.000000,0.000000,0.000000,0.000000,0.000000,0.000000,0.000000,0.088402,3,0
840000,0.007179,21.520857,0.037441,0.030149,25.490419,-0.030861,-0.000129,0.015424,1.570248,-0.038851,-0.001103,-0.001627,0.000116,-0.003730,-0.000019,0.002800,-0.007415,0.131468,0.003368,0.190943,0.190944,0.173092,0.663499,0.000000,0.000000,0.000000,0.000000,0.000000,0.000000,0.000000,0.000000,0.000000,0.000000,0.000000,0.000000,0.127485,3,0
850000,0.007246,21.779314,0.037194,0.030210,25.498068,-0.031155,-0.000141,0.015743,1.570239,-0.039500,-0.001147,-0.001643,0.000122,-0.003821,-0.000019,0.001995,-0.007485,0.110912,0.002244,0.191447,0.191448,0.173135,0.656019,0.000000,0.000000,0.000000,0.000000,0.000000,0.000000,0.000000,0.000000,0.000000,0.000000,0.000000,0.000000,0.107618,3,0
860000,0.007312,22.038490,0.036726,0.030275,25.506910,-0.031891,-0.000162,0.016130,1.570237,-0.040271,-0.001192,-0.001611,0.000128,-0.003931,-0.000020,0.002769,-0.007553,0.130682,-0.005269,0.191938,0.191939,0.173165,0.648608,0.000000,0.000000,0.000000,0.000000,0.000000,0.000000,0.000000,0.000000,0.000000,0.000000,0.000000,0.000000,0.126712,3,0
870000,0.007375,22.297739,0.036485,0.030293,25.515852,-0.032275,-0.000189,0.016522,1.570239,-0.041044,-0.001237,-0.001631,0.000135,-0.004042,-0.000020,0.002730,-0.007619,0.129841,0.002878,0.192416,0.192417,0.173181,0.641271,0.000000,0.000000,0.000000,0.000000,0.000000,0.000000,0.000000,0.000000,0.000000,0.000000,0.000000,0.000000,0.125893,3,0
880000,0.007436,22.560253,0.035550,0.030336,25.530317,-0.033872,-0.000213,0.017165,1.570234,-0.042413,-0.001284,-0.001497,0.000141,-0.004244,-0.000021,0.008490,-0.007682,0.228325,-0.020990,0.192881,0.192882,0.173183,0.634010,0.000000,0.000000,0.000000,0.000000,0.000000,0.000000,0.000000,0.000000,0.000000,0.000000,0.000000,0.000000,0.221110,3,0
890000,0.007494,22.819592,0.035242,0.030384,25.539009,-0.034264,-0.000233,0.017546,1.570224,-0.043167,-0.001331,-0.001507,0.000148,-0.004356,-0.000022,0.002518,-0.007744,0.124697,0.001218,0.193333,0.193334,0.173171,0.626830,0.000000,0.000000,0.000000,0.000000,0.000000,0.000000,0.000000,0.000000,0.000000,0.000000,0.000000,0.000000,0.120910,3,0
900000,0.007550,23.078993,0.035615,0.030337,25.547699,-0.033834,-0.000262,0.017942,1.570228,-0.043919,-0.001379,-0.001677,0.000156,-0.004470,-0.000023,0.002579,-0.007802,0.123697,0.024994,0.193771,0.193772,0.173144,0.619733,0.000000,0.000000,0.000000,0.000000,0.000000,0.000000,0.000000,0.000000,0.000000,0.000000,0.000000,0.000000,0.119941,3,0
910000,0.007603,23.341030,0.035252,0.030270,25.561029,-0.034423,-0.000272,0.018562,1.570235,-0.045157,-0.001427,-0.001676,0.000163,-0.004661,-0.000024,0.006600,-0.007857,0.202148,-0.000672,0.194196,0.194196,0.173103,0.612722,0.000000,0.000000,0.000000,0.000000,0.000000,0.000000,0.000000,0.000000,0.000000,0.000000,0.000000,0.000000,0.195754,3,0
920000,0.007653,23.603094,0.035055,0.030271,25.574186,-0.034796,-0.000283,0.019175,1.570233,-0.046380,-0.001476,-0.001716,0.000171,-0.004852,-0.000024,0.006363,-0.007910,0.198404,0.005333,0.194607,0.194608,0.173048,0.605801,0.000000,0.000000,0.000000,0.000000,0.000000,0.000000,0.000000,0.000000,0.000000,0.000000,0.000000,0.000000,0.192121,3,0
930000,0.007703,23.863890,0.034721,0.030373,25.584988,-0.035474,-0.000306,0.019665,1.570236,-0.047341,-0.001526,-0.001724,0.000179,-0.005004,-0.000025,0.003878,-0.007962,0.154875,0.000719,0.195005,0.195006,0.172979,0.598971,0.000000,0.000000,0.000000,0.000000,0.000000,0.000000,0.000000,0.000000,0.000000,0.000000,0.000000,0.000000,0.150039,3,0
940000,0.007750,24.126017,0.034248,0.030305,25.597904,-0.036337,-0.000322,0.020285,1.570230,-0.048540,-0.001577,-0.001701,0.000187,-0.005198,-0.000026,0.005966,-0.008010,0.192156,-0.003832,0.195390,0.195391,0.172896,0.592235,0.000000,0.000000,0.000000,0.000000,0.000000,0.000000,0.000000,0.000000,0.000000,0.000000,0.000000,0.000000,0.186059,3,0
950000,0.007796,24.385565,0.032761,0.030374,25.606146,-0.038408,-0.000351,0.020668,1.570230,-0.049223,-0.001627,-0.001430,0.000195,-0.005309,-0.000027,0.002164,-0.008058,0.108809,-0.038849,0.195762,0.195762,0.172800,0.585595,0.000000,0.000000,0.000000,0.000000,0.000000,0.000000,0.000000,0.000000,0.000000,0.000000,0.000000,0.000000,0.105547,3,0
960000,0.007841,24.645817,0.031385,0.030442,25.615681,-0.040338,-0.000368,0.021111,1.570220,-0.050028,-0.001679,-0.001189,0.000203,-0.005443,-0.000027,0.002821,-0.008105,0.127481,-0.034271,0.196121,0.196122,0.172689,0.579052,0.000000,0.000000,0.000000,0.000000,0.000000,0.000000,0.000000,0.000000,0.000000,0.000000,0.000000,0.000000,0.123563,3,0
970000,0.007883,24.908058,0.031046,0.030460,25.628475,-0.040835,-0.000384,0.021730,1.570225,-0.051202,-0.001731,-0.001211,0.000212,-0.005641,-0.000028,0.005541,-0.008150,0.185198,0.002456,0.196468,0.196469,0.172566,0.572609,0.000000,0.000000,0.000000,0.000000,0.000000,0.000000,0.000000,0.000000,0.000000,0.000000,0.000000,0.000000,0.179308,3,0
980000,0.007922,25.167051,0.031972,0.030419,25.635534,-0.039492,-0.000406,0.022047,1.570223,-0.051722,-0.001783,-0.001551,0.000221,-0.005730,-0.000029,0.001443,-0.008192,0.081858,0.046616,0.196803,0.196803,0.172430,0.566266,0.000000,0.000000,0.000000,0.000000,0.000000,0.000000,0.000000,0.000000,0.000000,0.000000,0.000000,0.000000,0.079568,3,0
990000,0.007959,25.430670,0.032935,0.030362,25.650515,-0.038015,-0.000434,0.022798,1.570220,-0.053129,-0.001836,-0.001903,0.000231,-0.005975,-0.000030,0.008204,-0.008231,0.220371,0.047501,0.197126,0.197126,0.172281,0.560024,0.000000,0.000000,0.000000,0.000000,0.000000,0.000000,0.000000,0.000000,0.000000,0.000000,0.000000,0.000000,0.213280,3,0
1000000,0.007995,25.694275,0.032367,0.030234,25.665380,-0.038714,-0.000457,0.023535,1.570222,-0.054510,-0.001890,-0.001862,0.000240,-0.006219,-0.000031,0.007470,-0.008266,0.215029,-0.006349,0.197438,0.197438,0.172119,0.553886,0.000000,0.000000,0.000000,0.000000,0.000000,0.000000,0.000000,0.000000,0.000000,0.000000,0.000000,0.000000,0.208106,3,0
1010000,0.008028,25.955898,0.031090,0.030194,25.676537,-0.040625,-0.000491,0.024089,1.570212,-0.055478,-0.001944,-0.001638,0.000250,-0.006393,-0.000032,0.003794,-0.008301,0.150064,-0.030797,0.197738,0.197738,0.171946,0.547850,0.000000,0.000000,0.000000,0.000000,0.000000,0.000000,0.000000,0.000000,0.000000,0.000000,0.000000,0.000000,0.145341,3,0
1020000,0.008059,26.215563,0.031568,0.030124,25.684048,-0.040059,-0.000521,0.024431,1.570205,-0.056041,-0.001998,-0.001874,0.000260,-0.006495,-0.000033,0.001392,-0.008335,0.087118,0.031160,0.198028,0.198028,0.171761,0.541920,0.000000,0.000000,0.000000,0.000000,0.000000,0.000000,0.000000,0.000000,0.000000,0.000000,0.000000,0.000000,0.084628,3,0
1030000,0.008088,26.473951,0.032086,0.030120,25.689232,-0.039333,-0.000550,0.024651,1.570190,-0.056338,-0.002052,-0.002120,0.000270,-0.006550,-0.000033,0.000522,-0.008365,0.046045,0.032320,0.198308,0.198308,0.171564,0.536094,0.000000,0.000000,0.000000,0.000000,0.000000,0.000000,0.000000,0.000000,0.000000,0.000000,0.000000,0.000000,0.045252,3,0
1040000,0.008116,26.735683,0.031481,0.030119,25.700188,-0.040399,-0.000584,0.025215,1.570190,-0.057285,-0.002107,-0.002070,0.000280,-0.006728,-0.000034,0.003428,-0.008394,0.145428,-0.007075,0.198578,0.198578,0.171357,0.530373,0.000000,0.000000,0.000000,0.000000,0.000000,0.000000,0.000000,0.000000,0.000000,0.000000,0.000000,0.000000,0.140848,3,0
1050000,0.008142,26.997417,0.031647,0.030019,25.711098,-0.040276,-0.000616,0.025769,1.570193,-0.058211,-0.002163,-0.002231,0.000291,-0.006904,-0.000035,0.003328,-0.008421,0.142008,0.020284,0.198838,0.198838,0.171139,0.524757,0.000000,0.000000,0.000000,0.000000,0.000000,0.000000,0.000000,0.000000,0.000000,0.000000,0.000000,0.000000,0.137544,3,0
1060000,0.008166,27.256517,0.031542,0.029997,25.717304,-0.040311,-0.000644,0.026051,1.570178,-0.058597,-0.002218,-0.002315,0.000302,-0.006978,-0.000035,0.000592,-0.008447,0.059072,0.010631,0.199090,0.199089,0.170911,0.519247,0.000000,0.000000,0.000000,0.000000,0.000000,0.000000,0.000000,0.000000,0.000000,0.000000,0.000000,0.000000,0.057693,3,0
1070000,0.008187,27.516315,0.032698,0.029842,25.724564,-0.038877,-0.000680,0.026396,1.570171,-0.059108,-0.002273,-0.002747,0.000313,-0.007078,-0.000036,0.001489,-0.008469,0.078218,0.055078,0.199333,0.199332,0.170673,0.513842,0.000000,0.000000,0.000000,0.000000,0.000000,0.000000,0.000000,0.000000,0.000000,0.000000,0.000000,0.000000,0.076063,3,0
1080000,0.008207,27.776802,0.032926,0.029820,25.732988,-0.038533,-0.000713,0.026818,1.570168,-0.059743,-0.002329,-0.002924,0.000324,-0.007205,-0.000036,0.001595,-0.008490,0.096653,0.021944,0.199567,0.199567,0.170426,0.508542,0.000000,0.000000,0.000000,0.000000,0.000000,0.000000,0.000000,0.000000,0.000000,0.000000,0.000000,0.000000,0.093799,3,0
1090000,0.008226,28.037308,0.033059,0.029773,25.741425,-0.038606,-0.000733,0.027229,1.570168,-0.060364,-0.002386,-0.003075,0.000336,-0.007330,-0.000037,0.001507,-0.008510,0.094507,0.018623,0.199795,0.199794,0.170169,0.503347,0.000000,0.000000,0.000000,0.000000,0.000000,0.000000,0.000000,0.000000,0.000000,0.000000,0.000000,0.000000,0.091730,3,0
1100000,0.008244,28.299816,0.032649,0.029757,25.753193,-0.039269,-0.000767,0.027854,1.570171,-0.061366,-0.002442,-0.003077,0.000347,-0.007535,-0.000038,0.003733,-0.008528,0.151978,-0.000521,0.200015,0.200014,0.169905,0.498257,0.000000,0.000000,0.000000,0.000000,0.000000,0.000000,0.000000,0.000000,0.000000,0.000000,0.000000,0.000000,0.147143,3,0
1110000,0.008259,28.562971,0.033416,0.029653,25.765928,-0.038262,-0.000792,0.028534,1.570174,-0.062472,-0.002499,-0.003416,0.000359,-0.007765,-0.000039,0.004817,-0.008546,0.167658,0.041320,0.200228,0.200227,0.169632,0.493270,0.000000,0.000000,0.000000,0.000000,0.000000,0.000000,0.000000,0.000000,0.000000,0.000000,0.000000,0.000000,0.162274,3,0
1120000,0.008273,28.822777,0.033658,0.029476,25.772610,-0.037938,-0.000831,0.028840,1.570161,-0.062890,-0.002555,-0.003600,0.000371,-0.007853,-0.000040,0.000741,-0.008559,0.063404,0.022374,0.200435,0.200434,0.169351,0.488387,0.000000,0.000000,0.000000,0.000000,0.000000,0.000000,0.000000,0.000000,0.000000,0.000000,0.000000,0.000000,0.061843,3,0
1130000,0.008284,29.081274,0.034647,0.029383,25.777025,-0.036595,-0.000869,0.028997,1.570153,-0.063035,-0.002612,-0.003998,0.000384,-0.007884,-0.000040,0.000476,-0.008572,0.022200,0.048745,0.200637,0.200635,0.169063,0.483606,0.000000,0.000000,0.000000,0.000000,0.000000,0.000000,0.000000,0.000000,0.000000,0.000000,0.000000,0.000000,0.023003,3,0
1140000,0.008295,29.343807,0.033182,0.029250,25.788507,-0.038466,-0.000897,0.029611,1.570145,-0.063973,-0.002669,-0.003686,0.000396,-0.008088,-0.000041,0.003475,-0.008581,0.141359,-0.038795,0.200833,0.200831,0.168768,0.478928,0.000000,0.000000,0.000000,0.000000,0.000000,0.000000,0.000000,0.000000,0.000000,0.000000,0.000000,0.000000,0.136879,3,0
1150000,0.008302,29.602320,0.033618,0.029108,25.792671,-0.038044,-0.000936,0.029772,1.570129,-0.064090,-0.002726,-0.003931,0.000409,-0.008114,-0.000041,0.000204,-0.008591,0.017862,0.029484,0.201024,0.201022,0.168467,0.474350,0.000000,0.000000,0.000000,0.000000,0.000000,0.000000,0.000000,0.000000,0.000000,0.000000,0.000000,0.000000,0.019158,3,0
1160000,0.008309,29.863539,0.033028,0.028907,25.801567,-0.038856,-0.000974,0.030229,1.570135,-0.064735,-0.002784,-0.003876,0.000422,-0.008258,-0.000042,0.001544,-0.008597,0.097250,-0.007195,0.201211,0.201208,0.168159,0.469873,0.000000,0.000000,0.000000,0.000000,0.000000,0.000000,0.000000,0.000000,0.000000,0.000000,0.000000,0.000000,0.094355,3,0
1170000,0.008312,30.122084,0.033845,0.028868,25.805708,-0.037909,-0.001011,0.030380,1.570129,-0.064831,-0.002840,-0.004239,0.000435,-0.008280,-0.000042,0.000352,-0.008602,0.014849,0.043340,0.201393,0.201391,0.167846,0.465495,0.000000,0.000000,0.000000,0.000000,0.000000,0.000000,0.000000,0.000000,0.000000,0.000000,0.000000,0.000000,0.016586,3,0
1180000,0.008317,30.383339,0.032632,0.028828,25.814497,-0.039741,-0.001042,0.030845,1.570129,-0.065457,-0.002898,-0.003996,0.000448,-0.008424,-0.000043,0.001582,-0.008606,0.094206,-0.029490,0.201572,0.201569,0.167527,0.461215,0.000000,0.000000,0.000000,0.000000,0.000000,0.000000,0.000000,0.000000,0.000000,0.000000,0.000000,0.000000,0.091419,3,0
1190000,0.008321,30.646593,0.031394,0.028767,25.826803,-0.041394,-0.001085,0.031537,1.570137,-0.066458,-0.002956,-0.003753,0.000461,-0.008658,-0.000044,0.003824,-0.008610,0.150923,-0.029768,0.201748,0.201744,0.167203,0.457032,0.000000,0.000000,0.000000,0.000000,0.000000,0.000000,0.000000,0.000000,0.000000,0.000000,0.000000,0.000000,0.146085,3,0
1200000,0.008321,30.905123,0.032471,0.028563,25.830620,-0.040180,-0.001121,0.031649,1.570136,-0.066501,-0.003012,-0.004213,0.000475,-0.008668,-0.000044,0.000490,-0.008612,0.006819,0.053886,0.201920,0.201917,0.166875,0.452945,0.000000,0.000000,0.000000,0.000000,0.000000,0.000000,0.000000,0.000000,0.000000,0.000000,0.000000,0.000000,0.010615,3,0
1210000,0.008318,31.168371,0.033446,0.028337,25.842545,-0.039127,-0.001154,0.032329,1.570134,-0.067463,-0.003069,-0.004651,0.000489,-0.008899,-0.000045,0.003843,-0.008609,0.145832,0.050074,0.202090,0.202086,0.166543,0.448953,0.000000,0.000000,0.000000,0.000000,0.000000,0.000000,0.000000,0.000000,0.000000,0.000000,0.000000,0.000000,0.141168,3,0
1220000,0.008314,31.430908,0.034279,0.028271,25.853212,-0.038098,-0.001185,0.032913,1.570130,-0.068261,-0.003126,-0.005044,0.000503,-0.009093,-0.000046,0.002692,-0.008606,0.121008,0.044572,0.202258,0.202253,0.166206,0.445054,0.000000,0.000000,0.000000,0.000000,0.000000,0.000000,0.000000,0.000000,0.000000,0.000000,0.000000,0.000000,0.117227,3,0
1230000,0.008309,31.694754,0.034974,0.028062,25.865955,-0.037290,-0.001229,0.033652,1.570126,-0.069293,-0.003183,-0.005397,0.000518,-0.009348,-0.000047,0.004211,-0.008600,0.156549,0.039423,0.202424,0.202419,0.165866,0.441248,0.000000,0.000000,0.000000,0.000000,0.000000,0.000000,0.000000,0.000000,0.000000,0.000000,0.000000,0.000000,0.151498,3,0
1240000,0.008303,31.954521,0.034708,0.027903,25.871462,-0.037614,-0.001265,0.033889,1.570111,-0.069502,-0.003240,-0.005435,0.000532,-0.009401,-0.000048,0.000177,-0.008593,0.031729,0.004071,0.202588,0.202583,0.165523,0.437533,0.000000,0.000000,0.000000,0.000000,0.000000,0.000000,0.000000,0.000000,0.000000,0.000000,0.000000,0.000000,0.031761,3,0
1250000,0.008295,32.217655,0.033891,0.027691,25.882736,-0.038613,-0.001306,0.034546,1.570102,-0.070358,-0.003297,-0.005307,0.000546,-0.009619,-0.000049,0.002761,-0.008585,0.129723,-0.015595,0.202751,0.202746,0.165177,0.433907,0.000000,0.000000,0.000000,0.000000,0.000000,0.000000,0.000000,0.000000,0.000000,0.000000,0.000000,0.000000,0.125614,3,0
1260000,0.008284,32.478725,0.034981,0.027536,25.890285,-0.037290,-0.001348,0.034919,1.570094,-0.070784,-0.003353,-0.005789,0.000561,-0.009729,-0.000049,0.001171,-0.008576,0.065266,0.054046,0.202914,0.202908,0.164828,0.430370,0.000000,0.000000,0.000000,0.000000,0.000000,0.000000,0.000000,0.000000,0.000000,0.000000,0.000000,0.000000,0.063603,3,0
1270000,0.008270,32.738434,0.035919,0.027272,25.895391,-0.036117,-0.001392,0.035122,1.570097,-0.070930,-0.003408,-0.006219,0.000577,-0.009767,-0.000050,0.000470,-0.008562,0.022785,0.048061,0.203076,0.203069,0.164477,0.426920,0.000000,0.000000,0.000000,0.000000,0.000000,0.000000,0.000000,0.000000,0.000000,0.000000,0.000000,0.000000,0.023520,3,0
1280000,0.008256,33.000172,0.036122,0.027038,25.903999,-0.036114,-0.001423,0.035587,1.570087,-0.071460,-0.003464,-0.006413,0.000592,-0.009907,-0.000050,0.001142,-0.008546,0.081093,0.021045,0.203237,0.203230,0.164124,0.423555,0.000000,0.000000,0.000000,0.000000,0.000000,0.000000,0.000000,0.000000,0.000000,0.000000,0.000000,0.000000,0.078780,3,0
1290000,0.008241,33.261211,0.034950,0.026863,25.911304,-0.037658,-0.001459,0.035951,1.570081,-0.071840,-0.003521,-0.006153,0.000607,-0.010010,-0.000051,0.000690,-0.008529,0.057812,-0.029391,0.203398,0.203391,0.163769,0.420275,0.000000,0.000000,0.000000,0.000000,0.000000,0.000000,0.000000,0.000000,0.000000,0.000000,0.000000,0.000000,0.056456,3,0
1300000,0.008223,33.519531,0.035994,0.026761,25.913589,-0.036304,-0.001509,0.035937,1.570064,-0.071678,-0.003576,-0.006624,0.000622,-0.009965,-0.000051,0.000550,-0.008514,-0.024391,0.052249,0.203560,0.203552,0.163414,0.417077,0.000000,0.000000,0.000000,0.000000,0.000000,0.000000,0.000000,0.000000,0.000000,0.000000,0.000000,0.000000,0.024954,3,0
1310000,0.008205,33.781925,0.036866,0.026597,25.923096,-0.035330,-0.001552,0.036459,1.570062,-0.072292,-0.003630,-0.007050,0.000638,-0.010135,-0.000052,0.001806,-0.008495,0.094971,0.045903,0.203722,0.203713,0.163057,0.413961,0.000000,0.000000,0.000000,0.000000,0.000000,0.000000,0.000000,0.000000,0.000000,0.000000,0.000000,0.000000,0.092117,3,0
1320000,0.008185,34.044956,0.037459,0.026428,25.933674,-0.034566,-0.001603,0.037067,1.570051,-0.073008,-0.003685,-0.007383,0.000654,-0.010337,-0.000053,0.002190,-0.008474,0.110783,0.035360,0.203884,0.203875,0.162699,0.410924,0.000000,0.000000,0.000000,0.000000,0.000000,0.000000,0.000000,0.000000,0.000000,0.000000,0.000000,0.000000,0.107334,3,0
1330000,0.008164,34.307938,0.037877,0.026260,25.944086,-0.034090,-0.001652,0.037652,1.570048,-0.073692,-0.003740,-0.007656,0.000670,-0.010532,-0.000054,0.001957,-0.008453,0.106071,0.028694,0.204048,0.204037,0.162341,0.407967,0.000000,0.000000,0.000000,0.000000,0.000000,0.000000,0.000000,0.000000,0.000000,0.000000,0.000000,0.000000,0.102791,3,0
1340000,0.008142,34.569515,0.038106,0.026008,25.951786,-0.033864,-0.001691,0.038049,1.570036,-0.074088,-0.003794,-0.007861,0.000686,-0.010646,-0.000054,0.000698,-0.008429,0.061653,0.021463,0.204212,0.204201,0.161982,0.405086,0.000000,0.000000,0.000000,0.000000,0.000000,0.000000,0.000000,0.000000,0.000000,0.000000,0.000000,0.000000,0.060109,3,0
1350000,0.008118,34.831062,0.038381,0.025842,25.959375,-0.033670,-0.001733,0.038436,1.570027,-0.074462,-0.003848,-0.008081,0.000702,-0.010756,-0.000055,0.000648,-0.008405,0.058422,0.023154,0.204377,0.204366,0.161623,0.402280,0.000000,0.000000,0.000000,0.000000,0.000000,0.000000,0.000000,0.000000,0.000000,0.000000,0.000000,0.000000,0.057016,3,0
1360000,0.008092,35.093254,0.039095,0.025551,25.968107,-0.032826,-0.001772,0.038890,1.570016,-0.074939,-0.003901,-0.008458,0.000718,-0.010898,-0.000056,0.001172,-0.008379,0.075104,0.039474,0.204544,0.204532,0.161265,0.399550,0.000000,0.000000,0.000000,0.000000,0.000000,0.000000,0.000000,0.000000,0.000000,0.000000,0.000000,0.000000,0.072998,3,0
1370000,0.008067,35.354733,0.037888,0.025378,25.975491,-0.034581,-0.001820,0.039249,1.570012,-0.075269,-0.003955,-0.008159,0.000734,-0.010998,-0.000056,0.000606,-0.008351,0.051373,-0.032330,0.204713,0.204700,0.160907,0.396892,0.000000,0.000000,0.000000,0.000000,0.000000,0.000000,0.000000,0.000000,0.000000,0.000000,0.000000,0.000000,0.050269,3,0
1380000,0.008040,35.614140,0.037688,0.025238,25.978985,-0.034809,-0.001871,0.039318,1.569994,-0.075196,-0.004008,-0.008210,0.000750,-0.010975,-0.000056,0.000037,-0.008324,-0.011391,0.005542,0.204882,0.204869,0.160549,0.394305,0.000000,0.000000,0.000000,0.000000,0.000000,0.000000,0.000000,0.000000,0.000000,0.000000,0.000000,0.000000,0.013626,3,0
1390000,0.008012,35.876263,0.037365,0.025089,25.987280,-0.035398,-0.001907,0.039748,1.569993,-0.075620,-0.004060,-0.008231,0.000767,-0.011108,-0.000057,0.000736,-0.008296,0.067112,0.001417,0.205054,0.205039,0.160193,0.391787,0.000000,0.000000,0.000000,0.000000,0.000000,0.000000,0.000000,0.000000,0.000000,0.000000,0.000000,0.000000,0.065313,3,0
1400000,0.007984,36.138344,0.036639,0.024933,25.995441,-0.036608,-0.001951,0.040176,1.569984,-0.076020,-0.004113,-0.008110,0.000783,-0.011234,-0.000057,0.000686,-0.008267,0.063328,-0.013456,0.205227,0.205212,0.159837,0.389338,0.000000,0.000000,0.000000,0.000000,0.000000,0.000000,0.000000,0.000000,0.000000,0.000000,0.000000,0.000000,0.061680,3,0
1410000,0.007952,36.401737,0.037687,0.024710,26.005907,-0.035395,-0.001999,0.040772,1.569972,-0.076638,-0.004164,-0.008636,0.000800,-0.011431,-0.000058,0.002069,-0.008236,0.099346,0.053765,0.205402,0.205386,0.159483,0.386957,0.000000,0.000000,0.000000,0.000000,0.000000,0.000000,0.000000,0.000000,0.000000,0.000000,0.000000,0.000000,0.096280,3,0
1420000,0.007920,36.660297,0.037964,0.024401,26.007500,-0.035102,-0.002049,0.040671,1.569960,-0.076357,-0.004214,-0.008860,0.000817,-0.011339,-0.000058,0.000427,-0.008202,-0.044876,0.023800,0.205578,0.205562,0.159130,0.384640,0.000000,0.000000,0.000000,0.000000,0.000000,0.000000,0.000000,0.000000,0.000000,0.000000,0.000000,0.000000,0.044053,3,0
1430000,0.007886,36.920231,0.038598,0.024245,26.011551,-0.034413,-0.002105,0.040750,1.569944,-0.076321,-0.004264,-0.009221,0.000834,-0.011327,-0.000058,0.000242,-0.008167,-0.005272,0.037361,0.205757,0.205739,0.158779,0.382387,0.000000,0.000000,0.000000,0.000000,0.000000,0.000000,0.000000,0.000000,0.000000,0.000000,0.000000,0.000000,0.009383,3,0
1440000,0.007853,37.180161,0.037064,0.023961,26.015574,-0.036468,-0.002154,0.040840,1.569929,-0.076283,-0.004315,-0.008784,0.000850,-0.011315,-0.000058,0.000345,-0.008130,-0.006817,-0.044851,0.205938,0.205919,0.158429,0.380197,0.000000,0.000000,0.000000,0.000000,0.000000,0.000000,0.000000,0.000000,0.000000,0.000000,0.000000,0.000000,0.010250,3,0
1450000,0.007817,37.438030,0.035950,0.023636,26.015692,-0.037967,-0.002208,0.040623,1.569924,-0.075867,-0.004365,-0.008496,0.000867,-0.011174,-0.000057,0.000887,-0.008094,-0.067997,-0.028554,0.206121,0.206101,0.158082,0.378067,0.000000,0.000000,0.000000,0.000000,0.000000,0.000000,0.000000,0.000000,0.000000,0.000000,0.000000,0.000000,0.066130,3,0
1460000,0.007777,37.701374,0.036768,0.023323,26.025658,-0.037211,-0.002247,0.041195,1.569928,-0.076423,-0.004414,-0.008962,0.000884,-0.011365,-0.000058,0.001708,-0.008056,0.091591,0.046262,0.206305,0.206285,0.157736,0.375997,0.000000,0.000000,0.000000,0.000000,0.000000,0.000000,0.000000,0.000000,0.000000,0.000000,0.000000,0.000000,0.088789,3,0
1470000,0.007736,37.963280,0.037137,0.023075,26.032927,-0.036743,-0.002287,0.041557,1.569925,-0.076705,-0.004462,-0.009251,0.000902,-0.011463,-0.000059,0.000496,-0.008013,0.046814,0.028633,0.206492,0.206470,0.157393,0.373985,0.000000,0.000000,0.000000,0.000000,0.000000,0.000000,0.000000,0.000000,0.000000,0.000000,0.000000,0.000000,0.045865,3,0
1480000,0.007695,38.221035,0.036906,0.022894,26.032642,-0.037183,-0.002330,0.041274,1.569911,-0.076246,-0.004510,-0.009290,0.000919,-0.011300,-0.000058,0.000944,-0.007970,-0.076012,0.005033,0.206680,0.206658,0.157052,0.372031,0.000000,0.000000,0.000000,0.000000,0.000000,0.000000,0.000000,0.000000,0.000000,0.000000,0.000000,0.000000,0.073797,3,0
1490000,0.007652,38.479488,0.037641,0.022708,26.033558,-0.036312,-0.002370,0.041090,1.569896,-0.075910,-0.004556,-0.009703,0.000936,-0.011178,-0.000057,0.000795,-0.007927,-0.055462,0.042282,0.206871,0.206847,0.156714,0.370131,0.000000,0.000000,0.000000,0.000000,0.000000,0.000000,0.000000,0.000000,0.000000,0.000000,0.000000,0.000000,0.054087,3,0
1500000,0.007608,38.738636,0.038022,0.022444,26.035763,-0.035988,-0.002408,0.041007,1.569891,-0.075696,-0.004603,-0.009984,0.000954,-0.011099,-0.000057,0.000347,-0.007881,-0.035618,0.028569,0.207063,0.207039,0.156378,0.368287,0.000000,0.000000,0.000000,0.000000,0.000000,0.000000,0.000000,0.000000,0.000000,0.000000,0.000000,0.000000,0.035217,3,0
1510000,0.007564,38.996407,0.038129,0.022175,26.035414,-0.036015,-0.002456,0.040708,1.569885,-0.075244,-0.004648,-0.010151,0.000971,-0.010931,-0.000056,0.000993,-0.007835,-0.076122,0.017736,0.207258,0.207232,0.156045,0.366494,0.000000,0.000000,0.000000,0.000000,0.000000,0.000000,0.000000,0.000000,0.000000,0.000000,0.000000,0.000000,0.073878,3,0
1520000,0.007517,39.256943,0.038446,0.021860,26.039991,-0.035639,-0.002503,0.040844,1.569885,-0.075266,-0.004693,-0.010417,0.000989,-0.010939,-0.000056,0.000124,-0.007787,0.004055,0.026269,0.207454,0.207427,0.155715,0.364753,0.000000,0.000000,0.000000,0.000000,0.000000,0.000000,0.000000,0.000000,0.000000,0.000000,0.000000,0.000000,0.008477,3,0
1530000,0.007472,39.516769,0.037498,0.021687,26.043316,-0.036712,-0.002556,0.040864,1.569873,-0.075163,-0.004739,-0.010182,0.001006,-0.010900,-0.000056,0.000146,-0.007739,-0.017979,-0.022831,0.207652,0.207624,0.155388,0.363063,0.000000,0.000000,0.000000,0.000000,0.000000,0.000000,0.000000,0.000000,0.000000,0.000000,0.000000,0.000000,0.018900,3,0
1540000,0.007424,39.776573,0.036888,0.021362,26.046394,-0.037640,-0.002604,0.040876,1.569863,-0.075051,-0.004784,-0.010084,0.001023,-0.010857,-0.000056,0.000084,-0.007690,-0.019413,-0.009265,0.207852,0.207823,0.155064,0.361420,0.000000,0.000000,0.000000,0.000000,0.000000,0.000000,0.000000,0.000000,0.000000,0.000000,0.000000,0.000000,0.020159,3,0
1550000,0.007376,40.038429,0.035571,0.021009,26.053215,-0.039159,-0.002649,0.041201,1.569858,-0.075277,-0.004829,-0.009722,0.001040,-0.010947,-0.000057,0.000463,-0.007639,0.038815,-0.036067,0.208053,0.208023,0.154743,0.359825,0.000000,0.000000,0.000000,0.000000,0.000000,0.000000,0.000000,0.000000,0.000000,0.000000,0.000000,0.000000,0.038183,3,0
1560000,0.007327,40.299549,0.034134,0.020795,26.058691,-0.041040,-0.002690,0.041402,1.569854,-0.075368,-0.004873,-0.009310,0.001057,-0.010984,-0.000057,0.000311,-0.007588,0.015434,-0.040303,0.208256,0.208225,0.154425,0.358277,0.000000,0.000000,0.000000,0.000000,0.000000,0.000000,0.000000,0.000000,0.000000,0.000000,0.000000,0.000000,0.016597,3,0
1570000,0.007272,40.560612,0.035079,0.020462,26.063957,-0.039950,-0.002733,0.041575,1.569854,-0.075436,-0.004914,-0.009859,0.001074,-0.011010,-0.000057,0.000492,-0.007536,0.012688,0.053052,0.208461,0.208428,0.154111,0.356775,0.000000,0.000000,0.000000,0.000000,0.000000,0.000000,0.000000,0.000000,0.000000,0.000000,0.000000,0.000000,0.014252,3,0
1580000,0.007217,40.819561,0.035704,0.020177,26.065113,-0.039302,-0.002787,0.041412,1.569835,-0.075154,-0.004955,-0.010263,0.001092,-0.010893,-0.000057,0.000663,-0.007479,-0.049637,0.039849,0.208667,0.208633,0.153800,0.355315,0.000000,0.000000,0.000000,0.000000,0.000000,0.000000,0.000000,0.000000,0.000000,0.000000,0.000000,0.000000,0.048446,3,0
1590000,0.007162,41.079197,0.036225,0.019961,26.067646,-0.038809,-0.002834,0.041353,1.569834,-0.074983,-0.004995,-0.010630,0.001110,-0.010820,-0.000056,0.000364,-0.007421,-0.030296,0.035716,0.208874,0.208838,0.153493,0.353899,0.000000,0.000000,0.000000,0.000000,0.000000,0.000000,0.000000,0.000000,0.000000,0.000000,0.000000,0.000000,0.030100,3,0
1600000,0.007105,41.338123,0.036287,0.019623,26.068718,-0.038783,-0.002886,0.041167,1.569831,-0.074698,-0.005035,-0.010802,0.001127,-0.010699,-0.000056,0.000483,-0.007363,-0.051407,0.017448,0.209082,0.209045,0.153189,0.352524,0.000000,0.000000,0.000000,0.000000,0.000000,0.000000,0.000000,0.000000,0.000000,0.000000,0.000000,0.000000,0.050120,3,0
1610000,0.007047,41.596340,0.037353,0.019368,26.068554,-0.037535,-0.002943,0.040872,1.569813,-0.074302,-0.005073,-0.011384,0.001145,-0.010526,-0.000055,0.001359,-0.007304,-0.071800,0.056678,0.209291,0.209253,0.152889,0.351189,0.000000,0.000000,0.000000,0.000000,0.000000,0.000000,0.000000,0.000000,0.000000,0.000000,0.000000,0.000000,0.069644,3,0
1620000,0.006992,41.856663,0.035867,0.019167,26.072256,-0.039216,-0.002989,0.040927,1.569798,-0.074240,-0.005114,-0.010922,0.001162,-0.010501,-0.000055,0.000340,-0.007243,-0.011951,-0.043604,0.209501,0.209462,0.152592,0.349894,0.000000,0.000000,0.000000,0.000000,0.000000,0.000000,0.000000,0.000000,0.000000,0.000000,0.000000,0.000000,0.013496,3,0
1630000,0.006933,42.114162,0.035583,0.018808,26.070658,-0.039716,-0.003035,0.040507,1.569795,-0.073739,-0.005152,-0.010943,0.001179,-0.010278,-0.000054,0.001414,-0.007185,-0.093399,0.003733,0.209711,0.209671,0.152299,0.348636,0.000000,0.000000,0.000000,0.000000,0.000000,0.000000,0.000000,0.000000,0.000000,0.000000,0.000000,0.000000,0.090400,3,0
1640000,0.006874,42.374458,0.035307,0.018531,26.074234,-0.039975,-0.003088,0.040541,1.569776,-0.073670,-0.005189,-0.010992,0.001196,-0.010246,-0.000054,0.000039,-0.007123,-0.012943,0.004821,0.209923,0.209881,0.152010,0.347415,0.000000,0.000000,0.000000,0.000000,0.000000,0.000000,0.000000,0.000000,0.000000,0.000000,0.000000,0.000000,0.014256,3,0
1650000,0.006811,42.636803,0.035728,0.018146,26.081331,-0.039720,-0.003141,0.040907,1.569768,-0.073903,-0.005226,-0.011353,0.001213,-0.010352,-0.000054,0.000509,-0.007060,0.044792,0.033099,0.210135,0.210091,0.151725,0.346228,0.000000,0.000000,0.000000,0.000000,0.000000,0.000000,0.000000,0.000000,0.000000,0.000000,0.000000,0.000000,0.043765,3,0
1660000,0.006749,42.898396,0.035146,0.017803,26.087048,-0.040626,-0.003182,0.041138,1.569766,-0.074013,-0.005262,-0.011284,0.001230,-0.010403,-0.000055,0.000086,-0.006994,0.020920,-0.006848,0.210347,0.210302,0.151444,0.345077,0.000000,0.000000,0.000000,0.000000,0.000000,0.000000,0.000000,0.000000,0.000000,0.000000,0.000000,0.000000,0.021282,3,0
1670000,0.006685,43.160629,0.034730,0.017464,26.093803,-0.041321,-0.003232,0.041460,1.569766,-0.074206,-0.005298,-0.011294,0.001247,-0.010495,-0.000055,0.000235,-0.006928,0.037575,0.000216,0.210559,0.210513,0.151167,0.343959,0.000000,0.000000,0.000000,0.000000,0.000000,0.000000,0.000000,0.000000,0.000000,0.000000,0.000000,0.000000,0.036866,3,0
1680000,0.006618,43.419994,0.035381,0.017136,26.095238,-0.040434,-0.003289,0.041297,1.569757,-0.073970,-0.005332,-0.011737,0.001264,-0.010379,-0.000055,0.000632,-0.006861,-0.045818,0.042026,0.210771,0.210723,0.150893,0.342874,0.000000,0.000000,0.000000,0.000000,0.000000,0.000000,0.000000,0.000000,0.000000,0.000000,0.000000,0.000000,0.044694,3,0
1690000,0.006554,43.680054,0.033995,0.016927,26.097857,-0.042195,-0.003338,0.041253,1.569747,-0.073837,-0.005367,-0.011308,0.001281,-0.010316,-0.000055,0.000373,-0.006792,-0.026886,-0.039141,0.210983,0.210934,0.150623,0.341820,0.000000,0.000000,0.000000,0.000000,0.000000,0.000000,0.000000,0.000000,0.000000,0.000000,0.000000,0.000000,0.026766,3,0
1700000,0.006490,43.940781,0.032567,0.016583,26.101671,-0.043798,-0.003377,0.041324,1.569740,-0.073797,-0.005402,-0.010871,0.001297,-0.010298,-0.000055,0.000280,-0.006725,-0.008671,-0.040070,0.211194,0.211144,0.150358,0.340797,0.000000,0.000000,0.000000,0.000000,0.000000,0.000000,0.000000,0.000000,0.000000,0.000000,0.000000,0.000000,0.010597,3,0
1710000,0.006423,44.197960,0.031460,0.016216,26.098949,-0.045203,-0.003423,0.040774,1.569736,-0.073255,-0.005435,-0.010545,0.001313,-0.010025,-0.000053,0.002091,-0.006656,-0.110405,-0.027588,0.211405,0.211354,0.150096,0.339803,0.000000,0.000000,0.000000,0.000000,0.000000,0.000000,0.000000,0.000000,0.000000,0.000000,0.000000,0.000000,0.106715,3,0
