time_us,pos_x,pos_y,pos_z,vel_x,vel_y,vel_z,roll,pitch,yaw,bias_ax,bias_ay,bias_az,bias_gx,bias_gy,bias_gz,nis,innov_x,innov_y,innov_z,cov_pos_x,cov_pos_y,cov_pos_z,cov_yaw,des_speed,des_heading,des_climb,pid_speed,pid_yaw,pid_alt,speed_meas,yaw_meas,climb_meas,fwd_accel,yaw_rate,vert_accel,drift_m,nav_mode,mission_state
0,-0.000000,0.149994,-0.000003,-0.000071,24.999065,-0.000693,0.000014,-0.000000,1.570809,0.000000,0.000000,0.000000,0.000000,0.000000,0.000000,0.006250,0.000001,-0.249993,0.000007,2.400038,2.400038,3.600017,1.000518,0.000000,0.000000,0.000000,0.000000,0.000000,0.000000,0.000000,0.000000,0.000000,0.000000,0.000000,0.000000,0.149994,1,0
10000,-0.000001,0.365212,0.020714,-0.000067,24.998146,-0.001390,0.000029,-0.000005,1.570817,0.000000,-0.000000,-0.000000,0.000000,0.000000,0.000000,0.002081,0.000001,-0.121673,0.055283,1.714420,1.714420,2.250079,1.001073,0.000000,0.000000,0.000000,0.000000,0.000000,0.000000,0.000000,0.000000,0.000000,0.000000,0.000000,0.000000,0.086907,3,0
20000,-0.000001,0.615422,0.015303,-0.000009,24.997526,-0.002212,0.000054,0.000004,1.570820,0.000000,0.000000,0.000000,-0.000000,-0.000000,-0.000000,0.000047,0.000001,0.001060,-0.019761,1.333616,1.333616,1.636554,1.001655,0.000000,0.000000,0.000000,0.000000,0.000000,0.000000,0.000000,0.000000,0.000000,0.000000,0.000000,0.000000,0.000824,3,0
30000,-0.000001,0.863463,0.026865,-0.000083,24.996824,-0.002601,0.000070,0.000011,1.570813,0.000001,0.000000,-0.000001,0.000000,0.000000,0.000000,0.000398,0.000002,-0.010598,0.054072,1.091392,1.091392,1.286065,1.002257,0.000000,0.000000,0.000000,0.000000,0.000000,0.000000,0.000000,0.000000,0.000000,0.000000,0.000000,0.000000,0.008670,3,0
40000,-0.000002,1.104211,0.021900,-0.000153,24.995842,-0.003306,0.000095,0.000014,1.570812,0.000002,0.000000,-0.000000,0.000000,0.000000,-0.000000,0.000612,0.000003,-0.059842,-0.027941,0.923811,0.923811,1.059385,1.002869,0.000000,0.000000,0.000000,0.000000,0.000000,0.000000,0.000000,0.000000,0.000000,0.000000,0.000000,0.000000,0.050628,3,0
50000,-0.000003,1.351189,0.027562,-0.000147,24.995100,-0.003970,0.000109,0.000008,1.570805,0.000003,0.000000,-0.000002,-0.000000,0.000000,-0.000000,0.000276,0.000004,-0.022275,0.037990,0.801036,0.801036,0.900822,1.003484,0.000000,0.000000,0.000000,0.000000,0.000000,0.000000,0.000000,0.000000,0.000000,0.000000,0.000000,0.000000,0.019302,3,0
60000,-0.000005,1.604545,0.024499,-0.000199,24.994701,-0.004938,0.000132,0.000019,1.570808,0.000001,0.000000,-0.000000,-0.000000,0.000000,0.000000,0.000200,0.000005,0.028937,-0.023077,0.707270,0.707270,0.783741,1.004094,0.000000,0.000000,0.000000,0.000000,0.000000,0.000000,0.000000,0.000000,0.000000,0.000000,0.000000,0.000000,0.025526,3,0
70000,-0.000005,1.851781,0.024891,-0.000111,24.993954,-0.005669,0.000140,0.000019,1.570805,0.000004,0.000000,-0.000001,-0.000000,0.000000,-0.000000,0.000100,0.000006,-0.025626,0.003882,0.633370,0.633370,0.693801,1.004688,0.000000,0.000000,0.000000,0.000000,0.000000,0.000000,0.000000,0.000000,0.000000,0.000000,0.000000,0.000000,0.022921,3,0
80000,-0.000006,2.104137,0.022463,-0.000103,24.993561,-0.006368,0.000146,0.000014,1.570806,0.000001,0.000000,0.000002,-0.000000,-0.000000,0.000000,0.000174,0.000006,0.025329,-0.022806,0.573673,0.573673,0.622594,1.005260,0.000000,0.000000,0.000000,0.000000,0.000000,0.000000,0.000000,0.000000,0.000000,0.000000,0.000000,0.000000,0.022907,3,0
90000,-0.000006,2.356812,0.025869,-0.000081,24.993263,-0.006792,0.000161,0.000018,1.570800,-0.000003,0.000000,-0.000003,-0.000000,-0.000000,0.000000,0.000356,0.000006,0.031403,0.036932,0.524488,0.524488,0.564865,1.005801,0.000000,0.000000,0.000000,0.000000,0.000000,0.000000,0.000000,0.000000,0.000000,0.000000,0.000000,0.000000,0.028658,3,0
100000,-0.000005,2.606529,0.026278,0.000000,24.992599,-0.007419,0.000180,0.000014,1.570808,-0.000003,0.000000,-0.000004,-0.000000,-0.000000,0.000000,0.000006,0.000006,-0.002600,0.005613,0.483303,0.483303,0.517162,1.006301,0.000000,0.000000,0.000000,0.000000,0.000000,0.000000,0.000000,0.000000,0.000000,0.000000,0.000000,0.000000,0.002391,3,0
110000,-0.000005,2.856906,0.026819,0.000033,24.992035,-0.007987,0.000204,0.000009,1.570803,-0.000004,0.000000,-0.000005,-0.000000,-0.000000,0.000000,0.000015,0.000005,0.006115,0.007823,0.448353,0.448353,0.477121,1.006754,0.000000,0.000000,0.000000,0.000000,0.000000,0.000000,0.000000,0.000000,0.000000,0.000000,0.000000,0.000000,0.005658,3,0
120000,-0.000004,3.111966,0.029183,0.000002,24.992197,-0.008347,0.000217,0.000016,1.570809,-0.000020,0.000000,-0.000012,-0.000000,-0.000000,0.000000,0.001015,0.000005,0.073807,0.033179,0.418358,0.418358,0.443071,1.007150,0.000000,0.000000,0.000000,0.000000,0.000000,0.000000,0.000000,0.000000,0.000000,0.000000,0.000000,0.000000,0.068661,3,0
130000,-0.000003,3.368227,0.027246,0.000121,24.992662,-0.009209,0.000224,0.000033,1.570813,-0.000045,0.000000,-0.000006,-0.000000,-0.000001,0.000000,0.001578,0.000003,0.097051,-0.026786,0.392369,0.392369,0.413797,1.007481,0.000000,0.000000,0.000000,0.000000,0.000000,0.000000,0.000000,0.000000,0.000000,0.000000,0.000000,0.000000,0.090704,3,0
140000,-0.000001,3.624261,0.024841,0.000182,24.993401,-0.010404,0.000231,0.000051,1.570822,-0.000074,0.000000,0.000005,-0.000000,-0.000001,-0.000000,0.001737,0.000001,0.099209,-0.035609,0.369666,0.369666,0.388393,1.007739,0.000000,0.000000,0.000000,0.000000,0.000000,0.000000,0.000000,0.000000,0.000000,0.000000,0.000000,0.000000,0.093097,3,0
150000,0.000001,3.881269,0.026943,0.000239,24.994476,-0.010731,0.000248,0.000066,1.570832,-0.000115,0.000000,-0.000007,-0.000000,-0.000002,-0.000000,0.002522,-0.000001,0.121474,0.036277,0.349695,0.349695,0.366172,1.007915,0.000000,0.000000,0.000000,0.000000,0.000000,0.000000,0.000000,0.000000,0.000000,0.000000,0.000000,0.000000,0.114394,3,0
160000,0.000004,4.138007,0.029390,0.000262,24.995636,-0.010857,0.000269,0.000083,1.570827,-0.000162,0.000000,-0.000024,0.000000,-0.000003,-0.000000,0.002686,-0.000004,0.122881,0.044345,0.332020,0.332020,0.346600,1.008002,0.000000,0.000000,0.000000,0.000000,0.000000,0.000000,0.000000,0.000000,0.000000,0.000000,0.000000,0.000000,0.116081,3,0
170000,0.000005,4.395571,0.028841,0.000200,24.997238,-0.011765,0.000278,0.000100,1.570827,-0.000223,0.000000,-0.000020,0.000000,-0.000005,-0.000000,0.003303,-0.000006,0.144436,-0.007892,0.316296,0.316296,0.329260,1.007991,0.000000,0.000000,0.000000,0.000000,0.000000,0.000000,0.000000,0.000000,0.000000,0.000000,0.000000,0.000000,0.136822,3,0
180000,0.000007,4.646848,0.029813,0.000166,24.997093,-0.012274,0.000296,0.000106,1.570822,-0.000236,-0.000000,-0.000030,0.000000,-0.000005,-0.000000,0.000177,-0.000007,0.026008,0.021008,0.302245,0.302245,0.313817,1.007875,0.000000,0.000000,0.000000,0.000000,0.000000,0.000000,0.000000,0.000000,0.000000,0.000000,0.000000,0.000000,0.024698,3,0
190000,0.000008,4.902252,0.029585,0.000206,24.998419,-0.013172,0.000310,0.000127,1.570822,-0.000295,-0.000000,-0.000029,0.000000,-0.000006,-0.000000,0.002014,-0.000009,0.112674,-0.001936,0.289640,0.289640,0.300003,1.007645,0.000000,0.000000,0.000000,0.000000,0.000000,0.000000,0.000000,0.000000,0.000000,0.000000,0.000000,0.000000,0.107235,3,0
200000,0.000010,5.157596,0.027730,0.000245,24.999907,-0.014284,0.000323,0.000139,1.570815,-0.000363,-0.000000,-0.000009,0.000000,-0.000008,-0.000000,0.002331,-0.000011,0.115683,-0.035853,0.278294,0.278293,0.287598,1.007295,0.000000,0.000000,0.000000,0.000000,0.000000,0.000000,0.000000,0.000000,0.000000,0.000000,0.000000,0.000000,0.110317,3,0
210000,0.000012,5.411118,0.029700,0.000247,25.000778,-0.014173,0.000332,0.000162,1.570825,-0.000413,-0.000000,-0.000038,0.000000,-0.000010,-0.000000,0.001330,-0.000013,0.078992,0.046010,0.268052,0.268052,0.276421,1.006817,0.000000,0.000000,0.000000,0.000000,0.000000,0.000000,0.000000,0.000000,0.000000,0.000000,0.000000,0.000000,0.075463,3,0
220000,0.000014,5.668167,0.027789,0.000240,25.003382,-0.015613,0.000353,0.000200,1.570835,-0.000528,-0.000000,-0.000010,0.000000,-0.000013,-0.000000,0.004509,-0.000015,0.163404,-0.039711,0.258785,0.258785,0.266321,1.006203,0.000000,0.000000,0.000000,0.000000,0.000000,0.000000,0.000000,0.000000,0.000000,0.000000,0.000000,0.000000,0.156356,3,0
230000,0.000016,5.920921,0.029017,0.000231,25.004028,-0.015506,0.000379,0.000217,1.570831,-0.000577,-0.000000,-0.000035,0.000000,-0.000015,-0.000000,0.000850,-0.000016,0.065360,0.032417,0.250383,0.250382,0.257172,1.005447,0.000000,0.000000,0.000000,0.000000,0.000000,0.000000,0.000000,0.000000,0.000000,0.000000,0.000000,0.000000,0.062633,3,0
240000,0.000017,6.175438,0.028137,0.000197,25.005873,-0.016600,0.000398,0.000252,1.570834,-0.000669,-0.000000,-0.000021,0.000000,-0.000018,-0.000000,0.002010,-0.000018,0.110782,-0.017291,0.242752,0.242752,0.248866,1.004542,0.000000,0.000000,0.000000,0.000000,0.000000,0.000000,0.000000,0.000000,0.000000,0.000000,0.000000,0.000000,0.106299,3,0
250000,0.000018,6.428436,0.027720,0.000181,25.007010,-0.017423,0.000410,0.000264,1.570843,-0.000735,-0.000000,-0.000015,0.000000,-0.000020,-0.000000,0.000904,-0.000019,0.074914,-0.006066,0.235814,0.235814,0.241314,1.003482,0.000000,0.000000,0.000000,0.000000,0.000000,0.000000,0.000000,0.000000,0.000000,0.000000,0.000000,0.000000,0.071970,3,0
260000,0.000020,6.680813,0.028330,0.000314,25.007891,-0.017796,0.000425,0.000279,1.570836,-0.000794,-0.000000,-0.000035,0.000000,-0.000022,-0.000000,0.000652,-0.000021,0.060452,0.020276,0.229500,0.229500,0.234436,1.002260,0.000000,0.000000,0.000000,0.000000,0.000000,0.000000,0.000000,0.000000,0.000000,0.000000,0.000000,0.000000,0.058140,3,0
270000,0.000023,6.935588,0.028445,0.000349,25.010256,-0.018443,0.000444,0.000311,1.570830,-0.000924,-0.000000,-0.000043,0.000000,-0.000027,-0.000000,0.002563,-0.000024,0.126131,0.007928,0.223749,0.223749,0.228165,1.000871,0.000000,0.000000,0.000000,0.000000,0.000000,0.000000,0.000000,0.000000,0.000000,0.000000,0.000000,0.000000,0.121427,3,0
280000,0.000025,7.188963,0.029694,0.000333,25.011961,-0.018356,0.000454,0.000351,1.570836,-0.001023,-0.000000,-0.000085,0.000000,-0.000031,-0.000000,0.001543,-0.000026,0.089998,0.038883,0.218510,0.218510,0.222443,0.999309,0.000000,0.000000,0.000000,0.000000,0.000000,0.000000,0.000000,0.000000,0.000000,0.000000,0.000000,0.000000,0.086720,3,0
290000,0.000029,7.446002,0.029537,0.000445,25.016352,-0.018988,0.000475,0.000429,1.570829,-0.001252,-0.000000,-0.000086,0.000000,-0.000041,-0.000000,0.006076,-0.000030,0.194428,0.000900,0.213738,0.213738,0.217219,0.997570,0.000000,0.000000,0.000000,0.000000,0.000000,0.000000,0.000000,0.000000,0.000000,0.000000,0.000000,0.000000,0.187502,3,0
300000,0.000032,7.702992,0.028707,0.000491,25.021097,-0.019962,0.000501,0.000511,1.570833,-0.001498,-0.000000,-0.000064,0.000000,-0.000051,-0.000000,0.006216,-0.000034,0.195770,-0.017936,0.209391,0.209391,0.212446,0.995647,0.000000,0.000000,0.000000,0.000000,0.000000,0.000000,0.000000,0.000000,0.000000,0.000000,0.000000,0.000000,0.188938,3,0
310000,0.000036,7.954503,0.027218,0.000489,25.021534,-0.021790,0.000521,0.000531,1.570831,-0.001549,-0.000000,-0.000015,0.000000,-0.000053,-0.000000,0.000453,-0.000037,0.038127,-0.036928,0.205435,0.205435,0.208087,0.993539,0.000000,0.000000,0.000000,0.000000,0.000000,0.000000,0.000000,0.000000,0.000000,0.000000,0.000000,0.000000,0.036821,3,0
320000,0.000041,8.210240,0.026083,0.000623,25.025627,-0.023128,0.000529,0.000611,1.570843,-0.001782,-0.000000,0.000023,0.000000,-0.000064,-0.000000,0.004464,-0.000042,0.164310,-0.026774,0.201838,0.201838,0.204105,0.991239,0.000000,0.000000,0.000000,0.000000,0.000000,0.000000,0.000000,0.000000,0.000000,0.000000,0.000000,0.000000,0.158783,3,0
330000,0.000045,8.462728,0.027131,0.000598,25.027075,-0.022895,0.000539,0.000646,1.570848,-0.001883,-0.000000,-0.000035,0.000000,-0.000069,-0.000000,0.000975,-0.000047,0.067564,0.038526,0.198572,0.198571,0.200469,0.988746,0.000000,0.000000,0.000000,0.000000,0.000000,0.000000,0.000000,0.000000,0.000000,0.000000,0.000000,0.000000,0.065328,3,0
340000,0.000051,8.717981,0.027719,0.000698,25.031090,-0.023038,0.000553,0.000719,1.570846,-0.002125,-0.000000,-0.000074,0.000000,-0.000081,-0.000000,0.003876,-0.000052,0.153004,0.025129,0.195610,0.195610,0.197151,0.986056,0.000000,0.000000,0.000000,0.000000,0.000000,0.000000,0.000000,0.000000,0.000000,0.000000,0.000000,0.000000,0.148015,3,0
350000,0.000056,8.972029,0.026831,0.000678,25.034122,-0.024174,0.000576,0.000786,1.570848,-0.002319,-0.000001,-0.000041,0.000000,-0.000090,-0.000000,0.002250,-0.000057,0.116378,-0.020172,0.192931,0.192930,0.194125,0.983167,0.000000,0.000000,0.000000,0.000000,0.000000,0.000000,0.000000,0.000000,0.000000,0.000000,0.000000,0.000000,0.112636,3,0
360000,0.000062,9.227460,0.026186,0.000804,25.038717,-0.025241,0.000592,0.000884,1.570855,-0.002601,-0.000001,-0.000019,0.000000,-0.000105,-0.000000,0.004181,-0.000064,0.160483,-0.012432,0.190513,0.190512,0.191370,0.980076,0.000000,0.000000,0.000000,0.000000,0.000000,0.000000,0.000000,0.000000,0.000000,0.000000,0.000000,0.000000,0.155388,3,0
370000,0.000068,9.484220,0.025400,0.000887,25.044786,-0.026481,0.000601,0.001006,1.570849,-0.002975,-0.000001,0.000012,0.000000,-0.000125,-0.000000,0.006710,-0.000070,0.203191,-0.016720,0.188337,0.188337,0.188863,0.976782,0.000000,0.000000,0.000000,0.000000,0.000000,0.000000,0.000000,0.000000,0.000000,0.000000,0.000000,0.000000,0.196813,3,0
380000,0.000075,9.739789,0.024558,0.000876,25.049747,-0.027846,0.000613,0.001105,1.570860,-0.003294,-0.000001,0.000047,0.000000,-0.000142,-0.000000,0.004453,-0.000077,0.165038,-0.018314,0.186387,0.186386,0.186586,0.973285,0.000000,0.000000,0.000000,0.000000,0.000000,0.000000,0.000000,0.000000,0.000000,0.000000,0.000000,0.000000,0.159911,3,0
390000,0.000081,9.994223,0.023541,0.000885,25.053635,-0.029123,0.000631,0.001186,1.570860,-0.003554,-0.000001,0.000095,0.000000,-0.000157,-0.000000,0.002742,-0.000084,0.128087,-0.023852,0.184646,0.184645,0.184522,0.969584,0.000000,0.000000,0.000000,0.000000,0.000000,0.000000,0.000000,0.000000,0.000000,0.000000,0.000000,0.000000,0.124146,3,0
400000,0.000088,10.251816,0.022438,0.000948,25.061148,-0.030770,0.000651,0.001340,1.570871,-0.004044,-0.000001,0.000150,0.000000,-0.000185,-0.000000,0.008767,-0.000090,0.231437,-0.026403,0.183099,0.183099,0.182656,0.965679,0.000000,0.000000,0.000000,0.000000,0.000000,0.000000,0.000000,0.000000,0.000000,0.000000,0.000000,0.000000,0.224374,3,0
410000,0.000094,10.508853,0.022002,0.000933,25.068264,-0.031433,0.000666,0.001494,1.570870,-0.004513,-0.000001,0.000159,0.000000,-0.000213,-0.000000,0.007288,-0.000097,0.212314,-0.004079,0.181734,0.181734,0.180971,0.961570,0.000000,0.000000,0.000000,0.000000,0.000000,0.000000,0.000000,0.000000,0.000000,0.000000,0.000000,0.000000,0.205883,3,0
420000,0.000101,10.762968,0.021678,0.001037,25.071955,-0.031965,0.000690,0.001587,1.570873,-0.004776,-0.000002,0.000160,0.000000,-0.000229,-0.000000,0.002110,-0.000105,0.114236,-0.000155,0.180538,0.180537,0.179456,0.957259,0.000000,0.000000,0.000000,0.000000,0.000000,0.000000,0.000000,0.000000,0.000000,0.000000,0.000000,0.000000,0.110799,3,0
430000,0.000110,11.019608,0.021867,0.001151,25.078930,-0.031954,0.000701,0.001756,1.570871,-0.005251,-0.000002,0.000118,0.000000,-0.000259,-0.000000,0.006388,-0.000113,0.198025,0.017295,0.179499,0.179498,0.178097,0.952747,0.000000,0.000000,0.000000,0.000000,0.000000,0.000000,0.000000,0.000000,0.000000,0.000000,0.000000,0.000000,0.192101,3,0
440000,0.000119,11.273973,0.022295,0.001305,25.083117,-0.031667,0.000714,0.001862,1.570867,-0.005551,-0.000002,0.000054,0.000000,-0.000278,-0.000000,0.002443,-0.000123,0.120226,0.025551,0.178606,0.178606,0.176883,0.948036,0.000000,0.000000,0.000000,0.000000,0.000000,0.000000,0.000000,0.000000,0.000000,0.000000,0.000000,0.000000,0.116647,3,0
450000,0.000129,11.529073,0.023210,0.001344,25.088377,-0.030740,0.000728,0.001982,1.570862,-0.005924,-0.000003,-0.000055,0.000000,-0.000302,-0.000000,0.003647,-0.000133,0.144124,0.042200,0.177850,0.177849,0.175803,0.943130,0.000000,0.000000,0.000000,0.000000,0.000000,0.000000,0.000000,0.000000,0.000000,0.000000,0.000000,0.000000,0.139852,3,0
460000,0.000138,11.784307,0.024419,0.001341,25.093866,-0.029404,0.000744,0.002112,1.570869,-0.006320,-0.000003,-0.000195,0.000000,-0.000329,-0.000000,0.003955,-0.000142,0.147397,0.052219,0.177221,0.177220,0.174847,0.938031,0.000000,0.000000,0.000000,0.000000,0.000000,0.000000,0.000000,0.000000,0.000000,0.000000,0.000000,0.000000,0.143044,3,0
470000,0.000147,12.042603,0.025791,0.001327,25.103628,-0.028113,0.000757,0.002359,1.570871,-0.007016,-0.000003,-0.000356,0.000000,-0.000377,-0.000000,0.010642,-0.000151,0.249928,0.057661,0.176709,0.176709,0.174006,0.932743,0.000000,0.000000,0.000000,0.000000,0.000000,0.000000,0.000000,0.000000,0.000000,0.000000,0.000000,0.000000,0.242567,3,0
480000,0.000155,12.299813,0.025877,0.001330,25.111897,-0.028513,0.000765,0.002568,1.570881,-0.007621,-0.000004,-0.000394,0.000000,-0.000420,-0.000000,0.007175,-0.000160,0.210201,0.012996,0.176307,0.176307,0.173271,0.927269,0.000000,0.000000,0.000000,0.000000,0.000000,0.000000,0.000000,0.000000,0.000000,0.000000,0.000000,0.000000,0.204024,3,0
490000,0.000164,12.558294,0.026588,0.001316,25.121918,-0.027952,0.000785,0.002833,1.570874,-0.008369,-0.000004,-0.000498,0.000000,-0.000474,-0.000000,0.010397,-0.000169,0.251095,0.034863,0.176007,0.176007,0.172634,0.921616,0.000000,0.000000,0.000000,0.000000,0.000000,0.000000,0.000000,0.000000,0.000000,0.000000,0.000000,0.000000,0.243729,3,0
500000,0.000172,12.813951,0.027567,0.001333,25.127974,-0.027136,0.000809,0.003007,1.570875,-0.008835,-0.000005,-0.000635,0.000000,-0.000508,-0.000000,0.004031,-0.000177,0.151544,0.044133,0.175802,0.175801,0.172087,0.915786,0.000000,0.000000,0.000000,0.000000,0.000000,0.000000,0.000000,0.000000,0.000000,0.000000,0.000000,0.000000,0.147103,3,0
510000,0.000182,13.069745,0.026275,0.001505,25.134378,-0.029175,0.000816,0.003189,1.570880,-0.009324,-0.000006,-0.000522,0.000000,-0.000545,-0.000000,0.004053,-0.000187,0.154251,-0.035461,0.175683,0.175682,0.171622,0.909787,0.000000,0.000000,0.000000,0.000000,0.000000,0.000000,0.000000,0.000000,0.000000,0.000000,0.000000,0.000000,0.149735,3,0
520000,0.000191,13.324513,0.027144,0.001517,25.139189,-0.028390,0.000841,0.003327,1.570878,-0.009707,-0.000006,-0.000657,0.000000,-0.000574,-0.000000,0.002488,-0.000197,0.117063,0.040917,0.175645,0.175644,0.171234,0.903623,0.000000,0.000000,0.000000,0.000000,0.000000,0.000000,0.000000,0.000000,0.000000,0.000000,0.000000,0.000000,0.113635,3,0
530000,0.000201,13.581764,0.028131,0.001642,25.147816,-0.027306,0.000851,0.003565,1.570878,-0.010381,-0.000007,-0.000809,0.000000,-0.000627,-0.000000,0.006809,-0.000208,0.200186,0.044817,0.175682,0.175681,0.170915,0.897301,0.000000,0.000000,0.000000,0.000000,0.000000,0.000000,0.000000,0.000000,0.000000,0.000000,0.000000,0.000000,0.194325,3,0
540000,0.000212,13.839137,0.028479,0.001638,25.156624,-0.027195,0.000868,0.003823,1.570888,-0.011078,-0.000008,-0.000886,0.000001,-0.000683,-0.000000,0.006633,-0.000218,0.201274,0.022084,0.175786,0.175785,0.170658,0.890827,0.000000,0.000000,0.000000,0.000000,0.000000,0.000000,0.000000,0.000000,0.000000,0.000000,0.000000,0.000000,0.195377,3,0
550000,0.000221,14.096632,0.028740,0.001636,25.165525,-0.027117,0.000884,0.004074,1.570890,-0.011797,-0.000009,-0.000955,0.000001,-0.000742,-0.000000,0.006675,-0.000228,0.202239,0.018940,0.175953,0.175953,0.170460,0.884208,0.000000,0.000000,0.000000,0.000000,0.000000,0.000000,0.000000,0.000000,0.000000,0.000000,0.000000,0.000000,0.196308,3,0
560000,0.000231,14.356000,0.028486,0.001619,25.177399,-0.027685,0.000893,0.004427,1.570883,-0.012757,-0.000009,-0.000958,0.000001,-0.000823,-0.000000,0.011166,-0.000238,0.262717,0.000778,0.176178,0.176177,0.170314,0.877451,0.000000,0.000000,0.000000,0.000000,0.000000,0.000000,0.000000,0.000000,0.000000,0.000000,0.000000,0.000000,0.255003,3,0
570000,0.000240,14.612545,0.028939,0.001611,25.184849,-0.027120,0.000904,0.004642,1.570890,-0.013365,-0.000010,-0.001056,0.000001,-0.000875,-0.000000,0.004367,-0.000247,0.162262,0.025844,0.176455,0.176454,0.170214,0.870562,0.000000,0.000000,0.000000,0.000000,0.000000,0.000000,0.000000,0.000000,0.000000,0.000000,0.000000,0.000000,0.157490,3,0
580000,0.000249,14.869226,0.029255,0.001702,25.192436,-0.027046,0.000921,0.004887,1.570891,-0.013995,-0.000011,-0.001138,0.000001,-0.000929,-0.000000,0.004425,-0.000257,0.164068,0.020933,0.176778,0.176777,0.170157,0.863551,0.000000,0.000000,0.000000,0.000000,0.000000,0.000000,0.000000,0.000000,0.000000,0.000000,0.000000,0.000000,0.159234,3,0
590000,0.000259,15.126043,0.028902,0.001813,25.200274,-0.027854,0.000944,0.005121,1.570890,-0.014647,-0.000012,-0.001128,0.000001,-0.000987,-0.000000,0.004444,-0.000267,0.165736,-0.002703,0.177145,0.177144,0.170138,0.856423,0.000000,0.000000,0.000000,0.000000,0.000000,0.000000,0.000000,0.000000,0.000000,0.000000,0.000000,0.000000,0.160843,3,0
600000,0.000271,15.383584,0.028250,0.001994,25.209249,-0.029229,0.000960,0.005395,1.570884,-0.015401,-0.000013,-0.001075,0.000001,-0.001056,-0.000000,0.005691,-0.000280,0.187146,-0.012896,0.177550,0.177549,0.170152,0.849188,0.000000,0.000000,0.000000,0.000000,0.000000,0.000000,0.000000,0.000000,0.000000,0.000000,0.000000,0.000000,0.181608,3,0
610000,0.000283,15.640662,0.029102,0.002055,25.217356,-0.028341,0.000985,0.005653,1.570893,-0.016093,-0.000015,-0.001246,0.000001,-0.001120,-0.000000,0.004834,-0.000292,0.168062,0.040553,0.177989,0.177987,0.170196,0.841853,0.000000,0.000000,0.000000,0.000000,0.000000,0.000000,0.000000,0.000000,0.000000,0.000000,0.000000,0.000000,0.163077,3,0
620000,0.000296,15.899055,0.029029,0.002140,25.227732,-0.028747,0.001004,0.005980,1.570886,-0.016973,-0.000016,-0.001279,0.000001,-0.001202,-0.000000,0.007079,-0.000305,0.209086,0.007615,0.178458,0.178457,0.170265,0.834425,0.000000,0.000000,0.000000,0.000000,0.000000,0.000000,0.000000,0.000000,0.000000,0.000000,0.000000,0.000000,0.202868,3,0
630000,0.000310,16.156384,0.029362,0.002324,25.236261,-0.028432,0.001026,0.006267,1.570890,-0.017700,-0.000017,-0.001376,0.000001,-0.001272,-0.000000,0.004711,-0.000319,0.169254,0.022024,0.178953,0.178952,0.170356,0.826914,0.000000,0.000000,0.000000,0.000000,0.000000,0.000000,0.000000,0.000000,0.000000,0.000000,0.000000,0.000000,0.164206,3,0
640000,0.000323,16.412058,0.029456,0.002355,25.241985,-0.028728,0.001039,0.006455,1.570890,-0.018185,-0.000019,-0.001437,0.000002,-0.001320,-0.000000,0.002009,-0.000333,0.110632,0.013600,0.179472,0.179471,0.170465,0.819327,0.000000,0.000000,0.000000,0.000000,0.000000,0.000000,0.000000,0.000000,0.000000,0.000000,0.000000,0.000000,0.107323,3,0
650000,0.000337,16.669073,0.030284,0.002360,25.249952,-0.027916,0.001054,0.006728,1.570889,-0.018869,-0.000020,-0.001619,0.000002,-0.001388,-0.000000,0.004041,-0.000347,0.153084,0.039460,0.180010,0.180009,0.170591,0.811672,0.000000,0.000000,0.000000,0.000000,0.000000,0.000000,0.000000,0.000000,0.000000,0.000000,0.000000,0.000000,0.148491,3,0
660000,0.000351,16.929214,0.030081,0.002497,25.263067,-0.028556,0.001079,0.007180,1.570889,-0.020025,-0.000022,-0.001633,0.000002,-0.001505,-0.000000,0.010415,-0.000362,0.253809,0.002864,0.180565,0.180564,0.170729,0.803958,0.000000,0.000000,0.000000,0.000000,0.000000,0.000000,0.000000,0.000000,0.000000,0.000000,0.000000,0.000000,0.246170,3,0
670000,0.000365,17.186453,0.029706,0.002528,25.271086,-0.029172,0.001090,0.007469,1.570887,-0.020732,-0.000024,-0.001619,0.000002,-0.001578,-0.000000,0.003764,-0.000376,0.152569,-0.002996,0.181134,0.181133,0.170877,0.796193,0.000000,0.000000,0.000000,0.000000,0.000000,0.000000,0.000000,0.000000,0.000000,0.000000,0.000000,0.000000,0.147963,3,0
680000,0.000380,17.445627,0.030549,0.002615,25.282347,-0.027953,0.001099,0.007873,1.570880,-0.021739,-0.000026,-0.001814,0.000002,-0.001684,-0.000000,0.007612,-0.000391,0.213310,0.039919,0.181714,0.181713,0.171033,0.788383,0.000000,0.000000,0.000000,0.000000,0.000000,0.000000,0.000000,0.000000,0.000000,0.000000,0.000000,0.000000,0.206850,3,0
690000,0.000394,17.706720,0.029918,0.002633,25.296740,-0.029151,0.001111,0.008398,1.570883,-0.023045,-0.000027,-0.001755,0.000002,-0.001823,-0.000000,0.011988,-0.000406,0.272087,-0.012193,0.182303,0.182301,0.171194,0.780539,0.000000,0.000000,0.000000,0.000000,0.000000,0.000000,0.000000,0.000000,0.000000,0.000000,0.000000,0.000000,0.263821,3,0
700000,0.000409,17.964869,0.028887,0.002821,25.305937,-0.030996,0.001125,0.008727,1.570879,-0.023874,-0.000029,-0.001626,0.000003,-0.001914,-0.000000,0.004770,-0.000422,0.169882,-0.025682,0.182897,0.182896,0.171357,0.772667,0.000000,0.000000,0.000000,0.000000,0.000000,0.000000,0.000000,0.000000,0.000000,0.000000,0.000000,0.000000,0.164704,3,0
710000,0.000425,18.221918,0.028280,0.002842,25.313297,-0.032268,0.001131,0.009004,1.570873,-0.024519,-0.000031,-0.001574,0.000003,-0.001985,-0.000000,0.002760,-0.000438,0.130306,-0.010127,0.183496,0.183494,0.171522,0.764774,0.000000,0.000000,0.000000,0.000000,0.000000,0.000000,0.000000,0.000000,0.000000,0.000000,0.000000,0.000000,0.126323,3,0
720000,0.000440,18.480314,0.029235,0.002882,25.322849,-0.031132,0.001157,0.009365,1.570884,-0.025381,-0.000034,-0.001810,0.000003,-0.002082,-0.000000,0.005070,-0.000454,0.171368,0.044858,0.184096,0.184094,0.171685,0.756870,0.000000,0.000000,0.000000,0.000000,0.000000,0.000000,0.000000,0.000000,0.000000,0.000000,0.000000,0.000000,0.166110,3,0
730000,0.000456,18.741268,0.030595,0.003008,25.336660,-0.029341,0.001172,0.009898,1.570882,-0.026661,-0.000036,-0.002123,0.000003,-0.002229,-0.000000,0.010716,-0.000470,0.250818,0.058504,0.184696,0.184695,0.171846,0.748960,0.000000,0.000000,0.000000,0.000000,0.000000,0.000000,0.000000,0.000000,0.000000,0.000000,0.000000,0.000000,0.243098,3,0
740000,0.000471,19.001076,0.030234,0.003051,25.348412,-0.029925,0.001192,0.010350,1.570875,-0.027740,-0.000039,-0.002112,0.000004,-0.002355,-0.000000,0.007015,-0.000486,0.208393,-0.002248,0.185295,0.185293,0.172003,0.741052,0.000000,0.000000,0.000000,0.000000,0.000000,0.000000,0.000000,0.000000,0.000000,0.000000,0.000000,0.000000,0.201958,3,0
750000,0.000487,19.259129,0.031146,0.003122,25.357008,-0.028650,0.001200,0.010685,1.570881,-0.028513,-0.000042,-0.002345,0.000004,-0.002447,-0.000000,0.003792,-0.000503,0.147255,0.042325,0.185890,0.185888,0.172155,0.733152,0.000000,0.000000,0.000000,0.000000,0.000000,0.000000,0.000000,0.000000,0.000000,0.000000,0.000000,0.000000,0.142693,3,0
760000,0.000503,19.517290,0.031252,0.003215,25.365660,-0.028819,0.001215,0.011018,1.570884,-0.029297,-0.000044,-0.002424,0.000004,-0.002542,-0.000000,0.003547,-0.000520,0.147543,0.013890,0.186481,0.186479,0.172299,0.725268,0.000000,0.000000,0.000000,0.000000,0.000000,0.000000,0.000000,0.000000,0.000000,0.000000,0.000000,0.000000,0.142959,3,0
770000,0.000520,19.775558,0.029974,0.003268,25.374348,-0.031007,0.001222,0.011371,1.570881,-0.030092,-0.000047,-0.002231,0.000005,-0.002639,-0.000000,0.003713,-0.000536,0.147720,-0.034243,0.187065,0.187063,0.172435,0.717407,0.000000,0.000000,0.000000,0.000000,0.000000,0.000000,0.000000,0.000000,0.000000,0.000000,0.000000,0.000000,0.143117,3,0
780000,0.000536,20.033310,0.029818,0.003335,25.382166,-0.031466,0.001232,0.011673,1.570877,-0.030789,-0.000050,-0.002263,0.000005,-0.002726,-0.000000,0.002647,-0.000553,0.127911,0.005542,0.187642,0.187641,0.172563,0.709573,0.000000,0.000000,0.000000,0.000000,0.000000,0.000000,0.000000,0.000000,0.000000,0.000000,0.000000,0.000000,0.123912,3,0
790000,0.000553,20.292419,0.031028,0.003469,25.392252,-0.029655,0.001242,0.012086,1.570889,-0.031716,-0.000053,-0.002575,0.000006,-0.002844,-0.000000,0.005027,-0.000571,0.168264,0.053083,0.188211,0.188210,0.172680,0.701774,0.000000,0.000000,0.000000,0.000000,0.000000,0.000000,0.000000,0.000000,0.000000,0.000000,0.000000,0.000000,0.162986,3,0
800000,0.000570,20.550369,0.029674,0.003461,25.400217,-0.031892,0.001258,0.012414,1.570894,-0.032428,-0.000056,-0.002359,0.000006,-0.002936,-0.000000,0.002849,-0.000588,0.127722,-0.036540,0.188771,0.188769,0.172786,0.694016,0.000000,0.000000,0.000000,0.000000,0.000000,0.000000,0.000000,0.000000,0.000000,0.000000,0.000000,0.000000,0.123704,3,0
810000,0.000587,20.810930,0.029183,0.003600,25.412481,-0.032931,0.001276,0.012928,1.570891,-0.033597,-0.000060,-0.002326,0.000006,-0.003089,-0.000000,0.006964,-0.000606,0.207636,-0.005767,0.189321,0.189319,0.172881,0.686302,0.000000,0.000000,0.000000,0.000000,0.000000,0.000000,0.000000,0.000000,0.000000,0.000000,0.000000,0.000000,0.201085,3,0
820000,0.000605,21.070934,0.029545,0.003721,25.423674,-0.032390,0.001283,0.013401,1.570887,-0.034653,-0.000063,-0.002475,0.000007,-0.003230,-0.000000,0.005647,-0.000624,0.185497,0.024087,0.189859,0.189857,0.172964,0.678640,0.000000,0.000000,0.000000,0.000000,0.000000,0.000000,0.000000,0.000000,0.000000,0.000000,0.000000,0.000000,0.179627,3,0
830000,0.000623,21.331015,0.030045,0.003874,25.434937,-0.031892,0.001308,0.013889,1.570881,-0.035708,-0.000067,-0.002653,0.000007,-0.003373,-0.000000,0.005586,-0.000644,0.183805,0.028728,0.190387,0.190385,0.173034,0.671034,0.000000,0.000000,0.000000,0.000000,0.000000,0.000000,0.000000,0.000000,0.000000,0.000000,0.000000,0.000000,0.177974,3,0
840000,0.000642,21.591799,0.030181,0.003941,25.447300,-0.031745,0.001325,0.014428,1.570886,-0.036879,-0.000071,-0.002755,0.000008,-0.003534,-0.000001,0.006620,-0.000663,0.201918,0.015894,0.190902,0.190900,0.173092,0.663488,0.000000,0.000000,0.000000,0.000000,0.000000,0.000000,0.000000,0.000000,0.000000,0.000000,0.000000,0.000000,0.195495,3,0
850000,0.000661,21.853914,0.031427,0.004071,25.461851,-0.030051,0.001330,0.015064,1.570888,-0.038278,-0.000075,-0.003100,0.000008,-0.003730,-0.000001,0.009709,-0.000683,0.239193,0.054309,0.191405,0.191403,0.173135,0.656007,0.000000,0.000000,0.000000,0.000000,0.000000,0.000000,0.000000,0.000000,0.000000,0.000000,0.000000,0.000000,0.231563,3,0
860000,0.000680,22.113527,0.032179,0.004147,25.471760,-0.029216,0.001345,0.015493,1.570897,-0.039197,-0.000079,-0.003337,0.000009,-0.003860,-0.000001,0.004136,-0.000703,0.155842,0.036645,0.191895,0.191893,0.173165,0.648595,0.000000,0.000000,0.000000,0.000000,0.000000,0.000000,0.000000,0.000000,0.000000,0.000000,0.000000,0.000000,0.150859,3,0
870000,0.000701,22.375124,0.030748,0.004305,25.485025,-0.031352,0.001362,0.016095,1.570906,-0.040473,-0.000083,-0.003084,0.000010,-0.004044,-0.000001,0.007652,-0.000724,0.214191,-0.039361,0.192373,0.192370,0.173181,0.641257,0.000000,0.000000,0.000000,0.000000,0.000000,0.000000,0.000000,0.000000,0.000000,0.000000,0.000000,0.000000,0.207326,3,0
880000,0.000722,22.636765,0.029235,0.004419,25.498253,-0.033651,0.001382,0.016699,1.570914,-0.041738,-0.000088,-0.002816,0.000010,-0.004230,-0.000001,0.007452,-0.000745,0.210886,-0.041467,0.192837,0.192835,0.173183,0.633995,0.000000,0.000000,0.000000,0.000000,0.000000,0.000000,0.000000,0.000000,0.000000,0.000000,0.000000,0.000000,0.204110,3,0
890000,0.000743,22.894606,0.028240,0.004543,25.504671,-0.035299,0.001403,0.016978,1.570925,-0.042272,-0.000092,-0.002667,0.000011,-0.004309,-0.000001,0.001339,-0.000767,0.088266,-0.022600,0.193287,0.193285,0.173170,0.626814,0.000000,0.000000,0.000000,0.000000,0.000000,0.000000,0.000000,0.000000,0.000000,0.000000,0.000000,0.000000,0.085426,3,0
900000,0.000764,23.157667,0.027785,0.004679,25.520105,-0.036172,0.001425,0.017695,1.570925,-0.043780,-0.000097,-0.002648,0.000012,-0.004537,-0.000001,0.009907,-0.000790,0.247820,-0.003375,0.193725,0.193722,0.173144,0.619716,0.000000,0.000000,0.000000,0.000000,0.000000,0.000000,0.000000,0.000000,0.000000,0.000000,0.000000,0.000000,0.239820,3,0
910000,0.000787,23.416243,0.027396,0.004870,25.527424,-0.037058,0.001434,0.018024,1.570919,-0.044417,-0.000102,-0.002645,0.000012,-0.004635,-0.000001,0.001740,-0.000814,0.103876,-0.000668,0.194149,0.194146,0.173103,0.612705,0.000000,0.000000,0.000000,0.000000,0.000000,0.000000,0.000000,0.000000,0.000000,0.000000,0.000000,0.000000,0.100518,3,0
920000,0.000810,23.675537,0.027603,0.004960,25.536032,-0.037045,0.001445,0.018421,1.570930,-0.045178,-0.000107,-0.002786,0.000013,-0.004754,-0.000001,0.002528,-0.000837,0.123531,0.020283,0.194559,0.194557,0.173048,0.605782,0.000000,0.000000,0.000000,0.000000,0.000000,0.000000,0.000000,0.000000,0.000000,0.000000,0.000000,0.000000,0.119529,3,0
930000,0.000834,23.935543,0.027684,0.005154,25.545742,-0.036977,0.001459,0.018872,1.570930,-0.046062,-0.000112,-0.002897,0.000014,-0.004894,-0.000001,0.003313,-0.000862,0.142452,0.015815,0.194956,0.194954,0.172979,0.598951,0.000000,0.000000,0.000000,0.000000,0.000000,0.000000,0.000000,0.000000,0.000000,0.000000,0.000000,0.000000,0.137826,3,0
940000,0.000858,24.197542,0.028773,0.005215,25.558876,-0.035497,0.001475,0.019499,1.570939,-0.047311,-0.000118,-0.003254,0.000015,-0.005096,-0.000001,0.006894,-0.000887,0.200413,0.050772,0.195340,0.195338,0.172896,0.592214,0.000000,0.000000,0.000000,0.000000,0.000000,0.000000,0.000000,0.000000,0.000000,0.000000,0.000000,0.000000,0.193890,3,0
950000,0.000882,24.460215,0.028546,0.005331,25.573078,-0.036034,0.001480,0.020181,1.570947,-0.048670,-0.000124,-0.003291,0.000016,-0.005318,-0.000001,0.007567,-0.000912,0.216587,0.004615,0.195711,0.195709,0.172799,0.585573,0.000000,0.000000,0.000000,0.000000,0.000000,0.000000,0.000000,0.000000,0.000000,0.000000,0.000000,0.000000,0.209524,3,0
960000,0.000907,24.721598,0.029027,0.005478,25.584690,-0.035627,0.001503,0.020758,1.570944,-0.049757,-0.000130,-0.003504,0.000017,-0.005498,-0.000001,0.004935,-0.000937,0.172441,0.029475,0.196070,0.196068,0.172689,0.579029,0.000000,0.000000,0.000000,0.000000,0.000000,0.000000,0.000000,0.000000,0.000000,0.000000,0.000000,0.000000,0.166810,3,0
970000,0.000932,24.983007,0.029462,0.005619,25.596203,-0.035161,0.001524,0.021334,1.570956,-0.050830,-0.000136,-0.003706,0.000018,-0.005679,-0.000001,0.004749,-0.000963,0.169367,0.027704,0.196416,0.196414,0.172566,0.572584,0.000000,0.000000,0.000000,0.000000,0.000000,0.000000,0.000000,0.000000,0.000000,0.000000,0.000000,0.000000,0.163825,3,0
980000,0.000956,25.244442,0.030069,0.005631,25.607676,-0.034439,0.001529,0.021894,1.570961,-0.051888,-0.000142,-0.003952,0.000019,-0.005861,-0.000001,0.004639,-0.000989,0.166267,0.033551,0.196750,0.196747,0.172429,0.566240,0.000000,0.000000,0.000000,0.000000,0.000000,0.000000,0.000000,0.000000,0.000000,0.000000,0.000000,0.000000,0.160817,3,0
990000,0.000981,25.507856,0.029691,0.005766,25.622551,-0.035032,0.001549,0.022649,1.570973,-0.053313,-0.000149,-0.003949,0.000020,-0.006108,-0.000001,0.008000,-0.001014,0.222778,-0.001035,0.197072,0.197070,0.172280,0.559997,0.000000,0.000000,0.000000,0.000000,0.000000,0.000000,0.000000,0.000000,0.000000,0.000000,0.000000,0.000000,0.215464,3,0
1000000,0.001007,25.767992,0.030171,0.005949,25.631556,-0.034625,0.001554,0.023080,1.570985,-0.054072,-0.000155,-0.004167,0.000021,-0.006242,-0.000001,0.002392,-0.001041,0.118246,0.029189,0.197383,0.197380,0.172119,0.553857,0.000000,0.000000,0.000000,0.000000,0.000000,0.000000,0.000000,0.000000,0.000000,0.000000,0.000000,0.000000,0.114361,3,0
1010000,0.001032,26.028164,0.030288,0.005965,25.640381,-0.034641,0.001570,0.023525,1.570989,-0.054822,-0.000162,-0.004292,0.000023,-0.006376,-0.000001,0.002229,-0.001067,0.116447,0.016378,0.197683,0.197680,0.171945,0.547821,0.000000,0.000000,0.000000,0.000000,0.000000,0.000000,0.000000,0.000000,0.000000,0.000000,0.000000,0.000000,0.112616,3,0
1020000,0.001057,26.287716,0.028956,0.006024,25.648115,-0.036626,0.001588,0.023907,1.571002,-0.055436,-0.000169,-0.004038,0.000024,-0.006488,-0.000001,0.001636,-0.001093,0.094730,-0.034217,0.197972,0.197969,0.171760,0.541889,0.000000,0.000000,0.000000,0.000000,0.000000,0.000000,0.000000,0.000000,0.000000,0.000000,0.000000,0.000000,0.091610,3,0
1030000,0.001081,26.549280,0.029099,0.006104,25.659214,-0.036410,0.001592,0.024473,1.571013,-0.056430,-0.000176,-0.004177,0.000025,-0.006671,-0.000002,0.003833,-0.001118,0.153164,0.017978,0.198251,0.198248,0.171563,0.536061,0.000000,0.000000,0.000000,0.000000,0.000000,0.000000,0.000000,0.000000,0.000000,0.000000,0.000000,0.000000,0.148108,3,0
1040000,0.001105,26.809540,0.029187,0.006103,25.667938,-0.036352,0.001608,0.024901,1.571014,-0.057146,-0.000184,-0.004303,0.000027,-0.006806,-0.000002,0.001997,-0.001143,0.110157,0.016022,0.198520,0.198517,0.171356,0.530339,0.000000,0.000000,0.000000,0.000000,0.000000,0.000000,0.000000,0.000000,0.000000,0.000000,0.000000,0.000000,0.106518,3,0
1050000,0.001130,27.069830,0.027853,0.006249,25.676640,-0.038558,0.001614,0.025344,1.571026,-0.057854,-0.000191,-0.004047,0.000028,-0.006940,-0.000002,0.002072,-0.001168,0.108234,-0.033719,0.198780,0.198777,0.171138,0.524722,0.000000,0.000000,0.000000,0.000000,0.000000,0.000000,0.000000,0.000000,0.000000,0.000000,0.000000,0.000000,0.104655,3,0
1060000,0.001154,27.330145,0.026699,0.006269,25.685211,-0.040282,0.001633,0.025776,1.571032,-0.058551,-0.000199,-0.003843,0.000030,-0.007074,-0.000002,0.001936,-0.001193,0.106283,-0.026739,0.199031,0.199028,0.170910,0.519210,0.000000,0.000000,0.000000,0.000000,0.000000,0.000000,0.000000,0.000000,0.000000,0.000000,0.000000,0.000000,0.102765,3,0
1070000,0.001178,27.588505,0.026929,0.006439,25.690283,-0.040244,0.001635,0.026000,1.571030,-0.058843,-0.000207,-0.004020,0.000031,-0.007132,-0.000002,0.000404,-0.001219,0.044672,0.022532,0.199273,0.199270,0.170672,0.513804,0.000000,0.000000,0.000000,0.000000,0.000000,0.000000,0.000000,0.000000,0.000000,0.000000,0.000000,0.000000,0.043204,3,0
1080000,0.001202,27.850224,0.027934,0.006427,25.701220,-0.039128,0.001645,0.026580,1.571024,-0.059789,-0.000215,-0.004417,0.000033,-0.007320,-0.000002,0.003748,-0.001243,0.144083,0.049876,0.199508,0.199504,0.170424,0.508502,0.000000,0.000000,0.000000,0.000000,0.000000,0.000000,0.000000,0.000000,0.000000,0.000000,0.000000,0.000000,0.139297,3,0
1090000,0.001226,28.110620,0.028311,0.006585,25.709658,-0.038958,0.001654,0.027016,1.571024,-0.060452,-0.000224,-0.004637,0.000035,-0.007454,-0.000002,0.001763,-0.001268,0.100922,0.027389,0.199734,0.199731,0.170168,0.503306,0.000000,0.000000,0.000000,0.000000,0.000000,0.000000,0.000000,0.000000,0.000000,0.000000,0.000000,0.000000,0.097570,3,0
1100000,0.001250,28.369713,0.028911,0.006655,25.715736,-0.038342,0.001660,0.027298,1.571028,-0.060841,-0.000233,-0.004920,0.000036,-0.007533,-0.000002,0.000764,-0.001293,0.059109,0.035233,0.199954,0.199950,0.169903,0.498214,0.000000,0.000000,0.000000,0.000000,0.000000,0.000000,0.000000,0.000000,0.000000,0.000000,0.000000,0.000000,0.057152,3,0
1110000,0.001275,28.633486,0.029915,0.006827,25.729935,-0.037042,0.001666,0.028095,1.571038,-0.062144,-0.000242,-0.005323,0.000038,-0.007804,-0.000002,0.006680,-0.001319,0.197533,0.049308,0.200166,0.200163,0.169630,0.493225,0.000000,0.000000,0.000000,0.000000,0.000000,0.000000,0.000000,0.000000,0.000000,0.000000,0.000000,0.000000,0.190947,3,0
1120000,0.001299,28.891914,0.030275,0.006819,25.734547,-0.036609,0.001670,0.028290,1.571037,-0.062361,-0.000251,-0.005536,0.000040,-0.007850,-0.000002,0.000286,-0.001344,0.033012,0.026100,0.200373,0.200369,0.169350,0.488341,0.000000,0.000000,0.000000,0.000000,0.000000,0.000000,0.000000,0.000000,0.000000,0.000000,0.000000,0.000000,0.031936,3,0
1130000,0.001322,29.151718,0.030306,0.006848,25.741638,-0.036563,0.001678,0.028632,1.571033,-0.062842,-0.000260,-0.005655,0.000042,-0.007952,-0.000002,0.000885,-0.001368,0.072718,0.014299,0.200574,0.200570,0.169062,0.483558,0.000000,0.000000,0.000000,0.000000,0.000000,0.000000,0.000000,0.000000,0.000000,0.000000,0.000000,0.000000,0.070300,3,0
1140000,0.001346,29.414873,0.030925,0.006949,25.754379,-0.035795,0.001696,0.029345,1.571032,-0.063971,-0.000269,-0.005951,0.000044,-0.008198,-0.000002,0.004894,-0.001393,0.170666,0.035254,0.200769,0.200765,0.168767,0.478878,0.000000,0.000000,0.000000,0.000000,0.000000,0.000000,0.000000,0.000000,0.000000,0.000000,0.000000,0.000000,0.164961,3,0
1150000,0.001370,29.673338,0.029431,0.007090,25.758791,-0.037871,0.001716,0.029529,1.571039,-0.064150,-0.000278,-0.005620,0.000046,-0.008237,-0.000002,0.000377,-0.001418,0.026653,-0.040243,0.200960,0.200956,0.168465,0.474299,0.000000,0.000000,0.000000,0.000000,0.000000,0.000000,0.000000,0.000000,0.000000,0.000000,0.000000,0.000000,0.025797,3,0
1160000,0.001395,29.933178,0.030087,0.007195,25.765522,-0.037165,0.001734,0.029869,1.571042,-0.064588,-0.000288,-0.005932,0.000048,-0.008335,-0.000002,0.000933,-0.001443,0.066332,0.037208,0.201146,0.201142,0.168157,0.469820,0.000000,0.000000,0.000000,0.000000,0.000000,0.000000,0.000000,0.000000,0.000000,0.000000,0.000000,0.000000,0.064123,3,0
1170000,0.001420,30.193039,0.030191,0.007356,25.772348,-0.037099,0.001750,0.030202,1.571046,-0.065017,-0.000298,-0.006080,0.000051,-0.008432,-0.000002,0.000726,-0.001469,0.064848,0.017252,0.201328,0.201324,0.167844,0.465440,0.000000,0.000000,0.000000,0.000000,0.000000,0.000000,0.000000,0.000000,0.000000,0.000000,0.000000,0.000000,0.062688,3,0
1180000,0.001446,30.451584,0.029596,0.007535,25.776674,-0.038000,0.001761,0.030383,1.571044,-0.065174,-0.000308,-0.006015,0.000053,-0.008468,-0.000002,0.000100,-0.001496,0.023586,-0.007818,0.201507,0.201502,0.167525,0.461158,0.000000,0.000000,0.000000,0.000000,0.000000,0.000000,0.000000,0.000000,0.000000,0.000000,0.000000,0.000000,0.022841,3,0
1190000,0.001471,30.713509,0.030579,0.007537,25.786978,-0.036814,0.001774,0.030959,1.571038,-0.065985,-0.000318,-0.006438,0.000055,-0.008657,-0.000002,0.002823,-0.001522,0.122820,0.049223,0.201682,0.201677,0.167201,0.456973,0.000000,0.000000,0.000000,0.000000,0.000000,0.000000,0.000000,0.000000,0.000000,0.000000,0.000000,0.000000,0.118702,3,0
1200000,0.001496,30.974079,0.031593,0.007688,25.794611,-0.035712,0.001794,0.031374,1.571049,-0.066509,-0.000328,-0.006869,0.000058,-0.008781,-0.000003,0.001423,-0.001548,0.079462,0.050010,0.201854,0.201849,0.166873,0.452884,0.000000,0.000000,0.000000,0.000000,0.000000,0.000000,0.000000,0.000000,0.000000,0.000000,0.000000,0.000000,0.076804,3,0
1210000,0.001522,31.235325,0.031868,0.007791,25.803492,-0.035480,0.001813,0.031849,1.571056,-0.067151,-0.000339,-0.007072,0.000060,-0.008936,-0.000003,0.001606,-0.001575,0.097116,0.023075,0.202024,0.202019,0.166540,0.448890,0.000000,0.000000,0.000000,0.000000,0.000000,0.000000,0.000000,0.000000,0.000000,0.000000,0.000000,0.000000,0.093860,3,0
1220000,0.001547,31.494555,0.032769,0.007842,25.808689,-0.034434,0.001816,0.032077,1.571057,-0.067377,-0.000350,-0.007468,0.000063,-0.008991,-0.000003,0.000530,-0.001601,0.034571,0.045598,0.202192,0.202186,0.166204,0.444990,0.000000,0.000000,0.000000,0.000000,0.000000,0.000000,0.000000,0.000000,0.000000,0.000000,0.000000,0.000000,0.033443,3,0
1230000,0.001573,31.753809,0.032656,0.007989,25.813847,-0.034697,0.001834,0.032304,1.571060,-0.067600,-0.000361,-0.007545,0.000066,-0.009046,-0.000003,0.000195,-0.001628,0.033716,0.008600,0.202358,0.202352,0.165864,0.441181,0.000000,0.000000,0.000000,0.000000,0.000000,0.000000,0.000000,0.000000,0.000000,0.000000,0.000000,0.000000,0.032617,3,0
1240000,0.001599,32.013088,0.033066,0.008158,25.819075,-0.034306,0.001852,0.032524,1.571063,-0.067815,-0.000372,-0.007789,0.000068,-0.009099,-0.000003,0.000298,-0.001655,0.032829,0.027701,0.202522,0.202516,0.165520,0.437464,0.000000,0.000000,0.000000,0.000000,0.000000,0.000000,0.000000,0.000000,0.000000,0.000000,0.000000,0.000000,0.031763,3,0
1250000,0.001626,32.272388,0.034170,0.008291,25.824242,-0.033081,0.001860,0.032754,1.571063,-0.068022,-0.000383,-0.008255,0.000071,-0.009152,-0.000003,0.000617,-0.001683,0.031929,0.052844,0.202685,0.202679,0.165174,0.433837,0.000000,0.000000,0.000000,0.000000,0.000000,0.000000,0.000000,0.000000,0.000000,0.000000,0.000000,0.000000,0.030896,3,0
1260000,0.001652,32.534401,0.032852,0.008290,25.834036,-0.035004,0.001858,0.033314,1.571062,-0.068752,-0.000394,-0.007948,0.000074,-0.009340,-0.000003,0.002172,-0.001710,0.110516,-0.035562,0.202848,0.202841,0.164825,0.430297,0.000000,0.000000,0.000000,0.000000,0.000000,0.000000,0.000000,0.000000,0.000000,0.000000,0.000000,0.000000,0.106790,3,0
1270000,0.001678,32.794373,0.031493,0.008286,25.840170,-0.036906,0.001866,0.033608,1.571063,-0.069064,-0.000405,-0.007626,0.000077,-0.009422,-0.000003,0.000575,-0.001736,0.047195,-0.036513,0.203009,0.203002,0.164474,0.426845,0.000000,0.000000,0.000000,0.000000,0.000000,0.000000,0.000000,0.000000,0.000000,0.000000,0.000000,0.000000,0.045628,3,0
1280000,0.001703,33.057045,0.030447,0.008380,25.850916,-0.038368,0.001877,0.034253,1.571066,-0.069886,-0.000416,-0.007417,0.000080,-0.009641,-0.000003,0.002617,-0.001763,0.125103,-0.024348,0.203171,0.203163,0.164121,0.423478,0.000000,0.000000,0.000000,0.000000,0.000000,0.000000,0.000000,0.000000,0.000000,0.000000,0.000000,0.000000,0.120877,3,0
1290000,0.001728,33.319004,0.031227,0.008489,25.860268,-0.037713,0.001880,0.034794,1.571066,-0.070543,-0.000428,-0.007812,0.000083,-0.009817,-0.000003,0.001940,-0.001789,0.100872,0.043086,0.203332,0.203324,0.163766,0.420195,0.000000,0.000000,0.000000,0.000000,0.000000,0.000000,0.000000,0.000000,0.000000,0.000000,0.000000,0.000000,0.097469,3,0
1300000,0.001753,33.580936,0.031721,0.008602,25.869629,-0.037428,0.001879,0.035325,1.571078,-0.071175,-0.000440,-0.008113,0.000087,-0.009990,-0.000003,0.001694,-0.001815,0.097244,0.032471,0.203494,0.203485,0.163410,0.416995,0.000000,0.000000,0.000000,0.000000,0.000000,0.000000,0.000000,0.000000,0.000000,0.000000,0.000000,0.000000,0.093965,3,0
1310000,0.001778,33.842850,0.030324,0.008605,25.878792,-0.039377,0.001884,0.035842,1.571077,-0.071787,-0.000452,-0.007782,0.000090,-0.010160,-0.000003,0.001637,-0.001841,0.093643,-0.037209,0.203655,0.203646,0.163053,0.413876,0.000000,0.000000,0.000000,0.000000,0.000000,0.000000,0.000000,0.000000,0.000000,0.000000,0.000000,0.000000,0.090479,3,0
1320000,0.001803,34.102032,0.028971,0.008638,25.882990,-0.041327,0.001891,0.036000,1.571088,-0.071858,-0.000464,-0.007461,0.000093,-0.010180,-0.000003,0.000218,-0.001866,0.010548,-0.035100,0.203818,0.203808,0.162695,0.410838,0.000000,0.000000,0.000000,0.000000,0.000000,0.000000,0.000000,0.000000,0.000000,0.000000,0.000000,0.000000,0.010347,3,0
1330000,0.001827,34.363934,0.027624,0.008707,25.892038,-0.043327,0.001893,0.036516,1.571100,-0.072438,-0.000476,-0.007156,0.000097,-0.010346,-0.000003,0.001471,-0.001891,0.089264,-0.034030,0.203981,0.203971,0.162337,0.407878,0.000000,0.000000,0.000000,0.000000,0.000000,0.000000,0.000000,0.000000,0.000000,0.000000,0.000000,0.000000,0.086247,3,0
1340000,0.001851,34.623775,0.027566,0.008781,25.897200,-0.043451,0.001896,0.036732,1.571102,-0.072605,-0.000488,-0.007289,0.000100,-0.010394,-0.000004,0.000143,-0.001916,0.026062,0.014197,0.204145,0.204134,0.161978,0.404994,0.000000,0.000000,0.000000,0.000000,0.000000,0.000000,0.000000,0.000000,0.000000,0.000000,0.000000,0.000000,0.025245,3,0
1350000,0.001874,34.886330,0.027602,0.008828,25.907156,-0.043450,0.001909,0.037328,1.571098,-0.073272,-0.000501,-0.007465,0.000104,-0.010590,-0.000004,0.001798,-0.001940,0.104107,0.017924,0.204310,0.204299,0.161619,0.402186,0.000000,0.000000,0.000000,0.000000,0.000000,0.000000,0.000000,0.000000,0.000000,0.000000,0.000000,0.000000,0.100581,3,0
1360000,0.001896,35.150196,0.028166,0.008847,25.919369,-0.042983,0.001918,0.038096,1.571111,-0.074164,-0.000514,-0.007830,0.000108,-0.010855,-0.000004,0.003371,-0.001964,0.139637,0.037757,0.204476,0.204465,0.161261,0.399453,0.000000,0.000000,0.000000,0.000000,0.000000,0.000000,0.000000,0.000000,0.000000,0.000000,0.000000,0.000000,0.134893,3,0
1370000,0.001918,35.411285,0.029181,0.008876,25.926397,-0.041770,0.001915,0.038460,1.571123,-0.074508,-0.000527,-0.008344,0.000112,-0.010959,-0.000004,0.000957,-0.001986,0.054558,0.054247,0.204644,0.204632,0.160903,0.396792,0.000000,0.000000,0.000000,0.000000,0.000000,0.000000,0.000000,0.000000,0.000000,0.000000,0.000000,0.000000,0.052735,3,0
1380000,0.001940,35.669643,0.028060,0.008926,25.928469,-0.043397,0.001928,0.038434,1.571122,-0.074334,-0.000539,-0.008095,0.000116,-0.010906,-0.000004,0.000234,-0.002009,-0.027687,-0.026089,0.204814,0.204801,0.160545,0.394201,0.000000,0.000000,0.000000,0.000000,0.000000,0.000000,0.000000,0.000000,0.000000,0.000000,0.000000,0.000000,0.026815,3,0
1390000,0.001962,35.930740,0.026869,0.008926,25.935413,-0.044873,0.001939,0.038794,1.571118,-0.074664,-0.000552,-0.007835,0.000119,-0.011009,-0.000004,0.000561,-0.002031,0.051872,-0.027995,0.204985,0.204971,0.160188,0.391681,0.000000,0.000000,0.000000,0.000000,0.000000,0.000000,0.000000,0.000000,0.000000,0.000000,0.000000,0.000000,0.050137,3,0
1400000,0.001983,36.191811,0.026790,0.009025,25.942327,-0.045082,0.001938,0.039143,1.571129,-0.074973,-0.000565,-0.007976,0.000124,-0.011106,-0.000004,0.000422,-0.002053,0.049133,0.014290,0.205157,0.205144,0.159833,0.389229,0.000000,0.000000,0.000000,0.000000,0.000000,0.000000,0.000000,0.000000,0.000000,0.000000,0.000000,0.000000,0.047496,3,0
1410000,0.002004,36.455582,0.026460,0.009134,25.953939,-0.045858,0.001951,0.039881,1.571129,-0.075762,-0.000578,-0.008039,0.000128,-0.011359,-0.000004,0.002558,-0.002075,0.125935,0.005243,0.205332,0.205318,0.159478,0.386844,0.000000,0.000000,0.000000,0.000000,0.000000,0.000000,0.000000,0.000000,0.000000,0.000000,0.000000,0.000000,0.121641,3,0
1420000,0.002026,36.717243,0.026605,0.009281,25.961725,-0.045709,0.001958,0.040298,1.571136,-0.076140,-0.000591,-0.008269,0.000132,-0.011481,-0.000004,0.000684,-0.002098,0.060837,0.023202,0.205508,0.205493,0.159125,0.384525,0.000000,0.000000,0.000000,0.000000,0.000000,0.000000,0.000000,0.000000,0.000000,0.000000,0.000000,0.000000,0.058789,3,0
1430000,0.002048,36.976830,0.026260,0.009299,25.965723,-0.046268,0.001969,0.040396,1.571141,-0.076126,-0.000604,-0.008312,0.000136,-0.011477,-0.000004,0.000005,-0.002121,-0.002117,0.004474,0.205687,0.205671,0.158774,0.382270,0.000000,0.000000,0.000000,0.000000,0.000000,0.000000,0.000000,0.000000,0.000000,0.000000,0.000000,0.000000,0.002894,3,0
1440000,0.002068,37.235046,0.026371,0.009295,25.967060,-0.046031,0.001979,0.040289,1.571137,-0.075858,-0.000618,-0.008519,0.000141,-0.011387,-0.000004,0.000376,-0.002142,-0.043072,0.021769,0.205867,0.205851,0.158424,0.380077,0.000000,0.000000,0.000000,0.000000,0.000000,0.000000,0.000000,0.000000,0.000000,0.000000,0.000000,0.000000,0.041643,3,0
1450000,0.002089,37.493282,0.026720,0.009349,25.968523,-0.045694,0.001991,0.040176,1.571136,-0.075592,-0.000631,-0.008815,0.000146,-0.011296,-0.000004,0.000451,-0.002163,-0.042881,0.030822,0.206049,0.206032,0.158076,0.377945,0.000000,0.000000,0.000000,0.000000,0.000000,0.000000,0.000000,0.000000,0.000000,0.000000,0.000000,0.000000,0.041457,3,0
1460000,0.002109,37.755634,0.027552,0.009495,25.977325,-0.044789,0.001996,0.040683,1.571131,-0.076056,-0.000645,-0.009311,0.000150,-0.011455,-0.000004,0.001343,-0.002185,0.076569,0.049569,0.206234,0.206216,0.157731,0.375873,0.000000,0.000000,0.000000,0.000000,0.000000,0.000000,0.000000,0.000000,0.000000,0.000000,0.000000,0.000000,0.073974,3,0
1470000,0.002129,38.015884,0.028413,0.009471,25.982090,-0.043985,0.001989,0.040868,1.571137,-0.076130,-0.000658,-0.009809,0.000155,-0.011481,-0.000004,0.000437,-0.002205,0.012920,0.050249,0.206420,0.206401,0.157387,0.373859,0.000000,0.000000,0.000000,0.000000,0.000000,0.000000,0.000000,0.000000,0.000000,0.000000,0.000000,0.000000,0.012662,3,0
1480000,0.002149,38.277496,0.027698,0.009524,25.989382,-0.045052,0.001993,0.041239,1.571146,-0.076438,-0.000672,-0.009716,0.000160,-0.011590,-0.000004,0.000432,-0.002226,0.050804,-0.010002,0.206608,0.206589,0.157046,0.371902,0.000000,0.000000,0.000000,0.000000,0.000000,0.000000,0.000000,0.000000,0.000000,0.000000,0.000000,0.000000,0.049100,3,0
1490000,0.002169,38.536335,0.026336,0.009559,25.991631,-0.046787,0.001998,0.041198,1.571147,-0.076249,-0.000685,-0.009365,0.000165,-0.011522,-0.000004,0.000362,-0.002246,-0.031975,-0.034809,0.206799,0.206778,0.156708,0.370001,0.000000,0.000000,0.000000,0.000000,0.000000,0.000000,0.000000,0.000000,0.000000,0.000000,0.000000,0.000000,0.030952,3,0
1500000,0.002189,38.797234,0.025250,0.009621,25.997421,-0.048070,0.001997,0.041463,1.571152,-0.076413,-0.000698,-0.009134,0.000169,-0.011583,-0.000004,0.000209,-0.002267,0.027233,-0.023393,0.206991,0.206970,0.156372,0.368154,0.000000,0.000000,0.000000,0.000000,0.000000,0.000000,0.000000,0.000000,0.000000,0.000000,0.000000,0.000000,0.026382,3,0
1510000,0.002208,39.056042,0.025529,0.009669,25.999458,-0.047977,0.002002,0.041397,1.571146,-0.076204,-0.000712,-0.009425,0.000175,-0.011505,-0.000004,0.000337,-0.002287,-0.034939,0.029389,0.207185,0.207163,0.156039,0.366360,0.000000,0.000000,0.000000,0.000000,0.000000,0.000000,0.000000,0.000000,0.000000,0.000000,0.000000,0.000000,0.033802,3,0
1520000,0.002225,39.315540,0.025684,0.009629,26.002615,-0.048027,0.002003,0.041421,1.571142,-0.076111,-0.000726,-0.009672,0.000180,-0.011470,-0.000004,0.000138,-0.002305,-0.015461,0.024699,0.207381,0.207358,0.155708,0.364617,0.000000,0.000000,0.000000,0.000000,0.000000,0.000000,0.000000,0.000000,0.000000,0.000000,0.000000,0.000000,0.015088,3,0
1530000,0.002244,39.577785,0.025288,0.009744,26.010786,-0.048638,0.002008,0.041875,1.571137,-0.076478,-0.000739,-0.009720,0.000185,-0.011610,-0.000004,0.000641,-0.002324,0.062950,0.003848,0.207578,0.207555,0.155381,0.362925,0.000000,0.000000,0.000000,0.000000,0.000000,0.000000,0.000000,0.000000,0.000000,0.000000,0.000000,0.000000,0.060813,3,0
1540000,0.002261,39.839291,0.024999,0.009742,26.017368,-0.049178,0.002008,0.042206,1.571131,-0.076704,-0.000753,-0.009809,0.000190,-0.011697,-0.000005,0.000259,-0.002343,0.039169,0.008138,0.207778,0.207753,0.155057,0.361281,0.000000,0.000000,0.000000,0.000000,0.000000,0.000000,0.000000,0.000000,0.000000,0.000000,0.000000,0.000000,0.037883,3,0
1550000,0.002279,40.102814,0.025996,0.009839,26.027674,-0.048074,0.002007,0.042850,1.571142,-0.077249,-0.000767,-0.010421,0.000196,-0.011911,-0.000005,0.002029,-0.002361,0.095661,0.058490,0.207979,0.207953,0.154736,0.359685,0.000000,0.000000,0.000000,0.000000,0.000000,0.000000,0.000000,0.000000,0.000000,0.000000,0.000000,0.000000,0.092382,3,0
1560000,0.002297,40.360748,0.026714,0.009960,26.027597,-0.047395,0.002016,0.042582,1.571138,-0.076854,-0.000781,-0.010889,0.000201,-0.011752,-0.000005,0.001109,-0.002380,-0.068569,0.046525,0.208181,0.208155,0.154418,0.358136,0.000000,0.000000,0.000000,0.000000,0.000000,0.000000,0.000000,0.000000,0.000000,0.000000,0.000000,0.000000,0.066225,3,0
1570000,0.002315,40.624226,0.026429,0.010036,26.037643,-0.047856,0.002027,0.043200,1.571142,-0.077368,-0.000794,-0.010986,0.000207,-0.011960,-0.000005,0.001343,-0.002399,0.090954,0.008108,0.208385,0.208358,0.154103,0.356633,0.000000,0.000000,0.000000,0.000000,0.000000,0.000000,0.000000,0.000000,0.000000,0.000000,0.000000,0.000000,0.087826,3,0
1580000,0.002334,40.886242,0.026339,0.010166,26.044802,-0.048163,0.002023,0.043569,1.571149,-0.077625,-0.000808,-0.011157,0.000212,-0.012066,-0.000005,0.000382,-0.002418,0.046047,0.015752,0.208590,0.208562,0.153792,0.355172,0.000000,0.000000,0.000000,0.000000,0.000000,0.000000,0.000000,0.000000,0.000000,0.000000,0.000000,0.000000,0.044510,3,0
1590000,0.002352,41.149593,0.025847,0.010158,26.054489,-0.048793,0.002016,0.044147,1.571163,-0.078082,-0.000822,-0.011173,0.000218,-0.012257,-0.000005,0.001086,-0.002437,0.082134,0.000318,0.208797,0.208767,0.153485,0.353756,0.000000,0.000000,0.000000,0.000000,0.000000,0.000000,0.000000,0.000000,0.000000,0.000000,0.000000,0.000000,0.079312,3,0
1600000,0.002371,41.410107,0.024417,0.010250,26.058882,-0.050428,0.002015,0.044253,1.571170,-0.078072,-0.000835,-0.010789,0.000224,-0.012253,-0.000005,0.000221,-0.002457,-0.002399,-0.036700,0.209004,0.208974,0.153181,0.352382,0.000000,0.000000,0.000000,0.000000,0.000000,0.000000,0.000000,0.000000,0.000000,0.000000,0.000000,0.000000,0.003320,3,0
1610000,0.002389,41.669884,0.024748,0.010270,26.061850,-0.050014,0.002007,0.044240,1.571170,-0.077936,-0.000849,-0.011130,0.000230,-0.012194,-0.000005,0.000272,-0.002476,-0.024414,0.032857,0.209213,0.209182,0.152880,0.351048,0.000000,0.000000,0.000000,0.000000,0.000000,0.000000,0.000000,0.000000,0.000000,0.000000,0.000000,0.000000,0.023677,3,0
1620000,0.002406,41.930328,0.025731,0.010360,26.065842,-0.048973,0.002012,0.044317,1.571167,-0.077899,-0.000862,-0.011745,0.000236,-0.012177,-0.000005,0.000564,-0.002494,-0.005913,0.058559,0.209423,0.209390,0.152584,0.349752,0.000000,0.000000,0.000000,0.000000,0.000000,0.000000,0.000000,0.000000,0.000000,0.000000,0.000000,0.000000,0.006183,3,0
1630000,0.002424,42.193535,0.024808,0.010356,26.074898,-0.050011,0.002008,0.044848,1.571170,-0.078284,-0.000876,-0.011585,0.000242,-0.012348,-0.000005,0.000868,-0.002512,0.071545,-0.016353,0.209633,0.209599,0.152291,0.348495,0.000000,0.000000,0.000000,0.000000,0.000000,0.000000,0.000000,0.000000,0.000000,0.000000,0.000000,0.000000,0.069085,3,0
1640000,0.002442,42.456665,0.023763,0.010415,26.083792,-0.051446,0.002001,0.045361,1.571172,-0.078640,-0.000889,-0.011376,0.000248,-0.012509,-0.000005,0.000786,-0.002530,0.066673,-0.020752,0.209844,0.209810,0.152002,0.347275,0.000000,0.000000,0.000000,0.000000,0.000000,0.000000,0.000000,0.000000,0.000000,0.000000,0.000000,0.000000,0.064385,3,0
1650000,0.002458,42.714832,0.024715,0.010506,26.083387,-0.050204,0.002006,0.045029,1.571179,-0.078229,-0.000903,-0.011977,0.000254,-0.012319,-0.000005,0.001501,-0.002548,-0.077271,0.057651,0.210056,0.210020,0.151716,0.346092,0.000000,0.000000,0.000000,0.000000,0.000000,0.000000,0.000000,0.000000,0.000000,0.000000,0.000000,0.000000,0.074595,3,0
1660000,0.002475,42.975105,0.024155,0.010447,26.086723,-0.050939,0.002012,0.045060,1.571177,-0.078138,-0.000916,-0.011950,0.000260,-0.012277,-0.000005,0.000050,-0.002564,-0.017376,-0.002162,0.210268,0.210231,0.151435,0.344942,0.000000,0.000000,0.000000,0.000000,0.000000,0.000000,0.000000,0.000000,0.000000,0.000000,0.000000,0.000000,0.016951,3,0
1670000,0.002491,43.236042,0.023451,0.010493,26.091278,-0.051979,0.002016,0.045195,1.571181,-0.078142,-0.000930,-0.011871,0.000267,-0.012279,-0.000005,0.000010,-0.002581,0.000626,-0.007403,0.210480,0.210442,0.151157,0.343826,0.000000,0.000000,0.000000,0.000000,0.000000,0.000000,0.000000,0.000000,0.000000,0.000000,0.000000,0.000000,0.002563,3,0
1680000,0.002505,43.496223,0.024555,0.010488,26.094376,-0.050783,0.002009,0.045186,1.571189,-0.078026,-0.000943,-0.012564,0.000273,-0.012222,-0.000005,0.000758,-0.002597,-0.021809,0.064697,0.210692,0.210652,0.150884,0.342743,0.000000,0.000000,0.000000,0.000000,0.000000,0.000000,0.000000,0.000000,0.000000,0.000000,0.000000,0.000000,0.021179,3,0
1690000,0.002520,43.757778,0.024518,0.010502,26.099998,-0.051011,0.002010,0.045401,1.571185,-0.078105,-0.000956,-0.012775,0.000280,-0.012260,-0.000005,0.000103,-0.002612,0.016163,0.019206,0.210904,0.210863,0.150614,0.341691,0.000000,0.000000,0.000000,0.000000,0.000000,0.000000,0.000000,0.000000,0.000000,0.000000,0.000000,0.000000,0.015801,3,0
1700000,0.002535,44.020679,0.023982,0.010592,26.108088,-0.051857,0.002002,0.045844,1.571181,-0.078368,-0.000969,-0.012782,0.000286,-0.012391,-0.000005,0.000448,-0.002627,0.052731,-0.000289,0.211115,0.211073,0.150348,0.340671,0.000000,0.000000,0.000000,0.000000,0.000000,0.000000,0.000000,0.000000,0.000000,0.000000,0.000000,0.000000,0.050940,3,0
1710000,0.002549,44.280697,0.024304,0.010593,26.110615,-0.051343,0.002005,0.045774,1.571192,-0.078211,-0.000983,-0.013141,0.000293,-0.012311,-0.000005,0.000342,-0.002643,-0.031338,0.033539,0.211326,0.211283,0.150086,0.339680,0.000000,0.000000,0.000000,0.000000,0.000000,0.000000,0.000000,0.000000,0.000000,0.000000,0.000000,0.000000,0.030335,3,0
1720000,0.002564,44.538582,0.023988,0.010679,26.109116,-0.051658,0.001999,0.045337,1.571184,-0.077759,-0.000996,-0.013202,0.000300,-0.012079,-0.000005,0.001388,-0.002658,-0.092590,0.007327,0.211537,0.211492,0.149829,0.338716,0.000000,0.000000,0.000000,0.000000,0.000000,0.000000,0.000000,0.000000,0.000000,0.000000,0.000000,0.000000,0.089362,3,0
