Timestamp_ms,Escenario,Modo,Calidad,Satelites,Pos_X,Pos_Y,Pos_Z,Vel_X,Vel_Y,Vel_Z,Rumbo,CrossTrack_m,AlongTrack_m,OdomFault,HealthScore,HealthMode,PowerState,ShutdownLatched,WaypointCount,BspBus,RadioDroppedPackets,Imu_Valid,Imu_Accel_X,Imu_Accel_Y,Imu_Accel_Z,Imu_Gyro_X,Imu_Gyro_Y,Imu_Gyro_Z,Gnss_Fix,Gnss_Lat,Gnss_Lon,Gnss_Alt,Gnss_Speed,Gnss_Course,Ekf_Active,Ekf_Outlier,Gnss_NIS,Gnss_Innov_N,Gnss_Innov_E,Gnss_Innov_D,Gnss_Accept_Count,Gnss_Reject_Count,Gnss_Update_Accepted,Ekf_Bias_Ax,Ekf_Bias_Ay,Ekf_Bias_Az,Ekf_Bias_Gx,Ekf_Bias_Gy,Ekf_Bias_Gz,Ekf_Att_Roll,Ekf_Att_Pitch,Ekf_Att_Yaw,Ekf_P_PosN,Ekf_P_PosE,Ekf_P_PosD,Ekf_P_VelN,Ekf_P_VelE,Ekf_P_VelD,Ekf_P_Roll,Ekf_P_Pitch,Ekf_P_Yaw,Ekf_P_BiasAx,Ekf_P_BiasAy,Ekf_P_BiasAz,Ekf_P_BiasGx,Ekf_P_BiasGy,Ekf_P_BiasGz,Desired_Heading,Desired_Speed,Desired_Climb,CrossTrack_Signed_m,Mission_State,Active_WP,Return_Home,Loop_us,Missed_Ticks,Max_Loop_us,Temperature_C
0,CLEAN,GPS,0.850000,10,41.38740158,2.16860032,12.0315,-0.000001,15.000000,0.000000,90.0000,0.0000,0.0000,0,0,NOMINAL,0,0,4,0,0,1,0.004306,0.027538,9.801168,0.000000,0.001500,0.000000,1,41.38740158,2.16860032,12.0315,15.000000,90.0000,1,0,0.000000,0.000003,-0.000000,0.000001,1,0,1,0.000000,0.000000,0.000000,0.000000,0.000000,0.000000,0.000000,0.000015,1.570796,1.549206,1.549206,1.897371,1.000294,1.000294,1.000259,0.087329,0.087329,0.174564,0.500000,0.500000,0.500000,0.100000,0.100000,0.100000,0.000000,0.000000,0.000000,0.0000,0,0,0,44,0,44,25.00
100,CLEAN,HYBRID,0.850000,10,41.38740158,2.16861057,12.0067,-0.000001,15.000000,0.000000,90.0000,0.0000,0.0000,0,0,NOMINAL,0,0,4,0,0,1,0.012295,0.023118,9.798886,0.000220,0.001494,0.000030,1,41.38740158,2.16861725,11.9902,15.000000,90.0000,1,0,0.237319,0.000007,1.411401,0.041206,2,0,1,-0.000004,0.000000,-0.000000,0.000000,0.000000,0.000000,0.000002,0.000031,1.570797,1.309358,1.309358,1.500026,1.000676,1.000676,1.000536,0.087404,0.087404,0.174602,0.500000,0.500000,0.500000,0.100000,0.100000,0.100000,0.000000,0.000000,0.000000,0.0000,0,0,0,13,0,44,25.00
200,CLEAN,GPS,0.850000,10,41.38740158,2.16863632,11.9785,-0.000001,15.000000,0.979126,90.0000,0.0000,0.0000,0,0,NOMINAL,0,0,4,0,0,1,0.014961,0.037687,9.791262,0.000436,0.001476,0.000060,1,41.38740158,2.16863632,11.9785,15.000000,90.0000,1,0,0.874840,0.000124,2.598243,0.037506,3,0,1,-0.000094,0.000000,-0.000001,-0.000000,-0.000000,0.000000,0.000024,0.000132,1.570800,1.155723,1.155723,1.279944,1.003882,1.003883,1.002137,0.087946,0.087946,0.174874,0.500001,0.500001,0.500001,0.100000,0.100000,0.100000,0.000000,0.000000,0.000000,0.0000,0,0,0,11,0,44,25.00
300,CLEAN,GPS,0.850000,10,41.38740158,2.16865396,12.0404,-0.000001,15.000000,1.959723,90.0000,0.0000,0.0000,0,0,NOMINAL,0,0,4,0,0,1,0.007875,0.027715,9.805972,0.000648,0.001446,0.000090,1,41.38740158,2.16865396,12.0404,15.000000,90.0000,1,0,1.658511,0.000283,3.489628,-0.034539,4,0,1,-0.000609,0.000000,0.000003,-0.000000,-0.000003,0.000000,0.000056,0.000358,1.570802,1.047595,1.047595,1.136285,1.009124,1.009124,1.004003,0.088766,0.088766,0.175288,0.500001,0.500001,0.500001,0.100001,0.100001,0.100001,0.000000,0.000000,0.000000,0.0000,0,0,0,10,0,44,25.00
400,CLEAN,GPS,0.850000,10,41.38740158,2.16867161,12.0476,-0.000001,15.000000,2.940903,90.0000,0.0000,0.0000,0,0,NOMINAL,0,0,4,0,0,1,0.012150,0.026104,9.811800,0.000852,0.001404,0.000120,1,41.38740158,2.16867161,12.0476,15.000000,90.0000,1,0,2.624137,0.000481,4.318758,-0.034262,5,0,1,-0.002058,0.000000,0.000014,-0.000000,-0.000019,0.000000,0.000099,0.000866,1.570802,0.967164,0.967164,1.034035,1.016260,1.016260,1.006010,0.089857,0.089857,0.175843,0.500001,0.500001,0.500001,0.100001,0.100001,0.100001,0.000000,0.000000,0.000000,0.0000,1,0,0,10,0,44,25.00
500,CLEAN,GPS,0.850000,10,41.38740158,2.16868877,11.9965,-0.000001,15.000000,3.923241,90.0000,0.0000,0.0000,0,0,NOMINAL,0,0,4,0,0,1,0.020022,0.019688,9.823379,0.001045,0.001351,0.000149,1,41.38740158,2.16868877,11.9965,15.000000,90.0000,1,0,3.697614,0.000700,5.069033,0.022910,6,0,1,-0.005073,0.000001,0.000001,-0.000000,-0.000074,0.000000,0.000151,0.001852,1.570799,0.905305,0.905305,0.957453,1.025167,1.025167,1.008042,0.091209,0.091209,0.176538,0.499999,0.499999,0.499999,0.100001,0.100001,0.100001,0.000000,0.000000,0.000000,0.0000,1,0,0,11,0,44,25.00
600,CLEAN,GPS,0.850000,10,41.38740158,2.16870713,12.0310,-0.000001,15.000000,4.902164,90.0000,0.0000,0.0000,0,0,NOMINAL,0,0,4,0,0,1,0.021433,0.019916,9.789224,0.001226,0.001287,0.000179,1,41.38740158,2.16870713,12.0310,15.000000,90.0000,1,0,5.080638,0.000943,5.893505,-0.015034,7,0,1,-0.010515,0.000002,0.000013,-0.000000,-0.000211,0.000001,0.000213,0.003595,1.570788,0.856810,0.856810,0.898280,1.035675,1.035675,1.009989,0.092809,0.092809,0.177372,0.499993,0.499993,0.499994,0.100001,0.100001,0.100001,0.000000,0.000000,0.000000,0.0000,1,0,0,12,0,44,25.00
700,CLEAN,GPS,0.850000,10,41.38740158,2.16872501,12.0197,-0.000001,15.000000,5.880842,90.0000,0.0000,0.0000,0,0,NOMINAL,0,0,4,0,0,1,0.018525,0.036135,9.786787,0.001392,0.001212,0.000208,1,41.38740158,2.16872501,12.0197,15.000000,90.0000,1,0,6.529755,0.001248,6.640961,-0.001577,8,0,1,-0.019263,0.000003,0.000011,-0.000000,-0.000492,0.000001,0.000283,0.006397,1.570768,0.818457,0.818457,0.851710,1.047669,1.047669,1.011742,0.094644,0.094644,0.178342,0.499982,0.499982,0.499983,0.100002,0.100002,0.100002,0.000000,0.000000,0.000000,0.0000,1,0,0,10,0,44,25.00
800,CLEAN,GPS,0.850000,10,41.38740158,2.16874290,11.9970,-0.000001,15.000000,6.862672,90.0000,0.0000,0.0000,0,0,NOMINAL,0,0,4,0,0,1,0.019877,0.025804,9.818298,0.001541,0.001128,0.000238,1,41.38740158,2.16874290,11.9970,15.000000,90.0000,1,0,8.086365,0.001582,7.356673,0.021357,9,0,1,-0.032313,0.000006,-0.000034,-0.000000,-0.001005,0.000003,0.000361,0.010616,1.570736,0.788132,0.788132,0.814716,1.061060,1.061059,1.013198,0.096697,0.096697,0.179446,0.499962,0.499962,0.499964,0.100002,0.100002,0.100002,0.000000,0.000000,0.000000,0.0000,1,0,0,10,0,44,25.00
900,CLEAN,GPS,0.850000,10,41.38740158,2.16876149,12.0143,-0.000001,15.000000,7.841785,90.0000,0.0000,0.0000,0,0,NOMINAL,0,0,4,0,0,1,0.031402,0.021054,9.791136,0.001672,0.001034,0.000267,1,41.38740158,2.16876149,12.0143,15.000000,90.0000,1,0,9.863406,0.001931,8.097214,0.001878,10,0,1,-0.050844,0.000011,-0.000058,-0.000000,-0.001869,0.000005,0.000446,0.016701,1.570687,0.764367,0.764367,0.785262,1.075630,1.075626,1.014261,0.098953,0.098953,0.180681,0.499927,0.499927,0.499931,0.100001,0.100001,0.100002,0.000000,0.000000,0.000000,0.0000,1,0,0,10,0,44,25.00
1000,CLEAN,GPS,0.850000,10,41.38740158,2.16877937,11.9570,-0.000001,15.000000,8.821434,90.0000,0.0000,0.0000,0,0,NOMINAL,0,0,4,0,0,1,0.025748,0.035939,9.796481,0.001782,0.000932,0.000296,1,41.38740158,2.16877937,11.9570,15.000000,90.0000,1,1,11.531868,0.002328,8.732891,0.059052,10,1,0,-0.050844,0.000011,-0.000058,-0.000000,-0.001869,0.000005,0.000535,0.016841,1.570702,0.783310,0.783310,0.801675,1.098562,1.098551,1.020882,0.101423,0.101423,0.182046,0.499928,0.499928,0.499932,0.100002,0.100002,0.100002,0.000000,0.000000,0.000000,0.0000,1,0,0,7,0,44,25.00
1100,CLEAN,GPS,0.850000,10,41.38740158,2.16879630,11.9649,-0.000001,15.000000,9.802434,90.0000,0.0000,0.0000,0,0,NOMINAL,0,0,4,0,0,1,0.037092,0.023776,9.809998,0.001871,0.000823,0.000324,1,41.38740158,2.16879630,11.9649,15.000000,90.0000,1,1,15.271975,0.002956,10.076893,0.051365,10,2,0,-0.050844,0.000011,-0.000058,-0.000000,-0.001869,0.000005,0.000629,0.016976,1.570718,0.805729,0.805729,0.820975,1.123965,1.123945,1.028070,0.104074,0.104074,0.183537,0.499928,0.499928,0.499932,0.100002,0.100002,0.100003,0.000000,0.000000,0.000000,0.0000,1,0,0,8,0,44,25.00
1200,CLEAN,GPS,0.850000,10,41.38740158,2.16881466,12.0335,-0.000001,15.000000,10.781264,90.0000,0.0000,0.0000,0,0,NOMINAL,0,0,4,0,0,1,0.033202,0.018923,9.788301,0.001937,0.000707,0.000352,1,41.38740158,2.16881466,12.0335,15.000000,90.0000,1,1,19.899990,0.003615,11.539541,-0.017109,10,3,0,-0.050844,0.000011,-0.000058,-0.000000,-0.001869,0.000005,0.000726,0.017104,1.570735,0.831581,0.831580,0.843022,1.151764,1.151733,1.035814,0.106894,0.106894,0.185151,0.499929,0.499929,0.499933,0.100002,0.100002,0.100003,0.000000,0.000000,0.000000,0.0000,1,0,0,8,0,44,25.00
1300,CLEAN,GPS,0.850000,10,41.38740158,2.16883183,12.0314,-0.000001,15.000000,11.763760,90.0000,0.0000,0.0000,0,0,NOMINAL,0,0,4,0,0,1,0.041640,0.022405,9.824951,0.001980,0.000585,0.000380,1,41.38740158,2.16883183,12.0314,15.000000,90.0000,1,1,24.694456,0.004309,12.902136,-0.014885,10,4,0,-0.050844,0.000011,-0.000058,-0.000000,-0.001869,0.000005,0.000826,0.017227,1.570754,0.860815,0.860814,0.867670,1.182085,1.182041,1.044100,0.109870,0.109869,0.186884,0.499929,0.499929,0.499933,0.100002,0.100002,0.100003,0.000000,0.000000,0.000000,0.0000,1,0,0,8,0,44,25.00
1400,CLEAN,GPS,0.850000,10,41.38740158,2.16885018,12.0003,-0.000001,15.000000,12.743732,90.0000,0.0000,0.0000,0,0,NOMINAL,0,0,4,0,0,1,0.031974,0.015723,9.799732,0.001999,0.000459,0.000408,1,41.38740158,2.16885018,12.0003,15.000000,90.0000,1,1,30.348127,0.005019,14.363498,0.016400,10,5,0,-0.050844,0.000011,-0.000058,-0.000000,-0.001869,0.000005,0.000926,0.017344,1.570774,0.893381,0.893379,0.894770,1.214781,1.214724,1.052917,0.112988,0.112988,0.188735,0.499930,0.499930,0.499934,0.100003,0.100003,0.100003,0.000000,0.000000,0.000000,0.0000,2,0,0,8,0,44,25.00
1500,CLEAN,GPS,0.850000,10,41.38740158,2.16886830,12.0119,-0.000001,15.000000,13.724228,90.0000,0.0000,0.0000,0,0,NOMINAL,0,0,4,0,0,1,0.040891,0.012255,9.804959,0.001994,0.000329,0.000435,1,41.38740158,2.16886830,12.0119,15.000000,90.0000,1,1,36.392220,0.005735,15.804321,0.004973,10,6,0,-0.050844,0.000011,-0.000058,-0.000000,-0.001869,0.000005,0.001026,0.017453,1.570796,0.929230,0.929227,0.924175,1.249924,1.249851,1.062252,0.116238,0.116237,0.190698,0.499930,0.499930,0.499934,0.100003,0.100003,0.100004,0.000000,0.000000,0.000000,0.0000,2,0,0,8,0,44,25.00
1600,CLEAN,GPS,0.850000,10,41.38740158,2.16888523,11.9920,-0.000001,15.000000,14.704485,90.0000,0.0000,0.0000,0,0,NOMINAL,0,0,4,0,0,1,0.052067,0.020607,9.802569,0.001964,0.000196,0.000462,1,41.38740158,2.16888523,11.9920,15.000000,90.0000,1,1,42.370926,0.006475,17.145061,0.025147,10,7,0,-0.050844,0.000011,-0.000058,-0.000000,-0.001869,0.000005,0.001125,0.017557,1.570819,0.968319,0.968314,0.955744,1.287491,1.287398,1.072091,0.119608,0.119608,0.192771,0.499931,0.499931,0.499935,0.100003,0.100003,0.100004,0.000000,0.000000,0.000000,0.0000,2,0,0,7,0,44,25.00
1700,CLEAN,GPS,0.850000,10,41.38740158,2.16890407,12.0069,-0.000001,15.000000,15.686059,90.0000,0.0000,0.0000,0,0,NOMINAL,0,0,4,0,0,1,0.047679,0.019286,9.815742,0.001911,0.000061,0.000488,1,41.38740158,2.16890407,12.0069,15.000000,90.0000,1,1,49.507034,0.007233,18.644157,0.010455,10,8,0,-0.050844,0.000011,-0.000058,-0.000000,-0.001869,0.000005,0.001221,0.017653,1.570843,1.010613,1.010605,0.989344,1.327528,1.327416,1.082421,0.123090,0.123089,0.194951,0.499931,0.499931,0.499935,0.100004,0.100004,0.100004,0.000000,0.000000,0.000000,0.0000,3,0,0,7,0,44,25.00
1800,CLEAN,GPS,0.850000,10,41.38740158,2.16892195,12.0039,-0.000001,15.000000,16.666939,90.0000,9.9583,0.0000,0,0,NOMINAL,0,0,4,0,0,1,0.053439,0.027087,9.808802,0.001835,-0.000074,0.000514,1,41.38740158,2.16892195,12.0039,15.000000,90.0000,1,1,56.571911,0.008027,20.063040,0.013569,10,9,0,-0.050844,0.000011,-0.000058,-0.000000,-0.001869,0.000005,0.001313,0.017743,1.570868,1.056087,1.056075,1.024852,1.369974,1.369839,1.093229,0.126673,0.126673,0.197233,0.499932,0.499932,0.499936,0.100004,0.100004,0.100004,0.676781,5.000000,1.199214,9.9583,3,0,0,14,0,44,25.00
1900,CLEAN,GPS,0.850000,10,41.38741302,2.16893244,12.1651,11.498990,9.237734,17.648853,38.7767,14.0361,20.2242,0,0,NOMINAL,0,0,4,0,0,1,-2.455988,0.018544,9.819153,0.001736,-0.000208,-8.939610,1,41.38741302,2.16893244,12.1651,14.750000,38.7767,1,1,60.557961,1.283203,20.870657,-0.147528,10,10,0,-0.050844,0.000011,-0.000058,-0.000000,-0.001869,0.000005,-0.006301,0.016711,1.131049,1.104726,1.104710,1.062155,1.410915,1.410979,1.104379,0.142116,0.142115,0.199614,0.499932,0.499932,0.499936,0.100004,0.100004,0.100005,-1.052757,8.500000,1.170859,14.0361,3,1,0,8,0,44,25.00
2000,CLEAN,GPS,0.850000,10,41.38742065,2.16891694,12.2679,7.180075,-12.597481,18.628353,299.6815,12.9092,19.3726,0,0,NOMINAL,0,0,4,0,0,1,-2.459301,0.018850,9.794991,0.001617,-0.000341,-17.294819,1,41.38742065,2.16891694,12.2679,14.500000,299.6815,1,1,52.525459,2.140143,19.512856,-0.250306,10,11,0,-0.050844,0.000011,-0.000058,-0.000000,-0.001869,0.000005,-0.016451,0.006950,0.314850,1.156416,1.156402,1.101145,1.444167,1.444696,1.116206,0.189627,0.189627,0.202091,0.499933,0.499933,0.499937,0.100004,0.100004,0.100005,-1.016007,8.500000,1.183813,12.9092,3,1,0,15,0,44,25.00
2100,CLEAN,GPS,0.850000,10,41.38742828,2.16890359,12.3114,7.506388,-12.112665,19.608608,301.7871,11.9999,18.5328,0,0,NOMINAL,0,0,4,0,0,1,-2.441734,0.017593,9.802551,0.001478,-0.000471,0.368089,1,41.38742828,2.16890359,12.3114,14.250000,301.7871,1,1,46.247810,3.002706,18.335449,-0.293755,10,12,0,-0.050844,0.000011,-0.000058,-0.000000,-0.001869,0.000005,-0.016245,0.007321,0.333250,1.210829,1.210826,1.141730,1.506312,1.507506,1.128827,0.191576,0.191575,0.204661,0.499933,0.499933,0.499937,0.100005,0.100005,0.100005,-0.982789,8.500000,1.208179,11.9999,3,1,0,8,0,44,25.00
2200,CLEAN,GPS,0.850000,10,41.38743591,2.16888857,12.4911,7.765860,-11.648666,20.588272,303.6903,10.9389,17.6661,0,0,NOMINAL,0,0,4,0,0,1,-2.457215,0.005701,9.796639,0.001321,-0.000597,0.332795,1,41.38743591,2.16888857,12.4911,14.000000,303.6903,1,1,40.069218,3.870884,17.020498,-0.473424,10,13,0,-0.050844,0.000011,-0.000058,-0.000000,-0.001869,0.000005,-0.016055,0.007654,0.349887,1.268666,1.268683,1.183833,1.572446,1.574555,1.142307,0.193679,0.193679,0.207319,0.499934,0.499934,0.499938,0.100005,0.100005,0.100005,-0.939347,8.500000,1.206359,10.9389,3,1,0,8,0,44,25.00
2300,CLEAN,GPS,0.850000,10,41.38744354,2.16887546,12.5922,8.116828,-11.098631,21.568090,306.1794,10.0953,16.8149,0,0,NOMINAL,0,0,4,0,0,1,-2.452632,0.004960,9.798182,0.001148,-0.000718,0.435051,1,41.38744354,2.16887546,12.5922,13.750000,306.1794,1,1,35.344143,4.744618,15.866318,-0.574543,10,14,0,-0.050844,0.000011,-0.000058,-0.000000,-0.001869,0.000005,-0.015826,0.008058,0.371635,1.330031,1.330085,1.227384,1.642361,1.645588,1.156620,0.195972,0.195971,0.210062,0.499934,0.499934,0.499938,0.100005,0.100005,0.100006,-0.900676,8.500000,1.219645,10.0953,3,1,0,8,0,44,25.00
2400,CLEAN,GPS,0.850000,10,41.38745117,2.16886330,12.7184,8.384588,-10.580581,22.549349,308.3951,9.3465,15.9588,0,0,NOMINAL,0,0,4,0,0,1,-2.442338,0.004494,9.812575,0.000962,-0.000834,0.387377,1,41.38745117,2.16886330,12.7184,13.500000,308.3951,1,1,31.585539,5.623839,14.793487,-0.700832,10,15,0,-0.050844,0.000011,-0.000058,-0.000000,-0.001869,0.000005,-0.015619,0.008414,0.391001,1.395045,1.395158,1.272326,1.715856,1.720367,1.171739,0.198411,0.198410,0.212888,0.499935,0.499935,0.499939,0.100005,0.100005,0.100006,-0.862869,8.933486,1.228104,9.3465,3,1,0,7,0,44,25.00
2500,CLEAN,GPS,0.850000,10,41.38745880,2.16885161,12.8037,8.615955,-10.066171,23.528605,310.5613,8.7086,15.1107,0,0,NOMINAL,0,0,4,0,0,1,-2.456010,0.003565,9.792548,0.000763,-0.000942,0.378755,1,41.38745880,2.16885161,12.8037,13.250000,310.5613,1,1,28.542450,6.508532,13.762374,-0.786256,10,16,0,-0.050844,0.000011,-0.000058,-0.000000,-0.001869,0.000005,-0.015418,0.008754,0.409935,1.463838,1.464042,1.318610,1.792472,1.798414,1.187665,0.200997,0.200997,0.215792,0.499936,0.499936,0.499939,0.100006,0.100006,0.100006,-0.827784,8.777679,1.244422,8.7086,3,1,0,8,0,44,25.00
2600,CLEAN,GPS,0.850000,10,41.38746643,2.16883945,12.9799,8.794622,-9.573642,24.508537,312.5715,8.0437,14.2447,0,0,NOMINAL,0,0,4,0,0,1,-2.457996,0.005076,9.799319,0.000556,-0.001043,0.351548,1,41.38746643,2.16883945,12.9799,13.000000,312.5715,1,1,25.938185,7.398659,12.693552,-0.962591,10,17,0,-0.050844,0.000011,-0.000058,-0.000000,-0.001869,0.000005,-0.015234,0.009065,0.427510,1.536540,1.536874,1.366198,1.872191,1.879681,1.204373,0.203718,0.203717,0.218772,0.499936,0.499936,0.499940,0.100006,0.100006,0.100006,-0.788123,8.561186,1.243268,8.0437,3,1,0,11,0,44,25.00
2700,CLEAN,GPS,0.850000,10,41.38747406,2.16882944,13.0537,8.991016,-9.040139,25.489115,314.8439,15.4230,16.5084,0,0,NOMINAL,0,0,4,0,0,1,-2.451268,0.009162,9.805780,0.000342,-0.001136,0.397338,1,41.38747406,2.16882944,13.0537,12.750000,314.8439,1,1,24.337013,8.294157,11.805788,-1.036483,10,18,0,-0.050844,0.000011,-0.000058,-0.000000,-0.001869,0.000005,-0.015033,0.009402,0.447374,1.613289,1.613801,1.415060,1.954885,1.964007,1.221833,0.206585,0.206585,0.221825,0.499937,0.499937,0.499940,0.100006,0.100006,0.100007,-0.478499,8.500000,1.784850,-15.4230,3,2,0,8,0,44,25.00
2800,CLEAN,GPS,0.850000,10,41.38748550,2.16882133,13.2990,11.096089,-5.755589,26.468660,332.5840,14.1261,15.9996,0,0,NOMINAL,0,0,4,0,0,1,-2.454117,0.001219,9.795462,0.000123,-0.001219,3.096984,1,41.38748550,2.16882133,13.2990,12.500000,332.5840,1,1,24.482275,9.618499,11.080019,-1.282033,10,19,0,-0.050844,0.000011,-0.000058,-0.000000,-0.001869,0.000005,-0.013398,0.011636,0.601907,1.694224,1.694971,1.465170,2.041162,2.051650,1.240005,0.212313,0.212313,0.224948,0.499937,0.499937,0.499941,0.100006,0.100006,0.100007,-0.515292,8.500000,1.692767,-14.1261,3,2,0,8,0,44,25.00
2900,CLEAN,GPS,0.850000,10,41.38749695,2.16881418,13.4501,10.659324,-6.036664,27.450764,330.4760,12.9264,15.5230,0,0,NOMINAL,0,0,4,0,0,1,-2.452692,-0.006224,9.821024,-0.000097,-0.001293,-0.367167,1,41.38749695,2.16881418,13.4501,12.250000,330.4760,1,1,25.224266,10.947792,10.436651,-1.433455,10,20,0,-0.050844,0.000011,-0.000058,-0.000000,-0.001869,0.000005,-0.013615,0.011417,0.583549,1.779536,1.780576,1.516511,2.130655,2.142600,1.258861,0.215643,0.215642,0.228137,0.499938,0.499938,0.499941,0.100007,0.100007,0.100007,-0.554194,8.500000,1.622255,-12.9264,3,2,0,8,0,44,25.00
3000,CLEAN,GPS,0.850000,10,41.38750458,2.16880679,13.5705,10.203899,-6.315095,28.432367,328.2470,12.0630,15.0154,0,0,NOMINAL,0,0,4,0,0,1,-2.447544,0.006559,9.816040,-0.000315,-0.001356,-0.388235,1,41.38750458,2.16880679,13.5705,12.000000,328.2470,1,1,25.192068,11.858170,9.776166,-1.554192,10,21,0,-0.050844,0.000011,-0.000058,-0.000000,-0.001869,0.000005,-0.013850,0.011176,0.564138,1.869361,1.870759,1.569070,2.222585,2.236087,1.278467,0.219000,0.219000,0.231391,0.499938,0.499938,0.499942,0.100007,0.100007,0.100007,-0.585588,8.500000,1.555274,-12.0630,3,2,0,14,0,44,25.00
3100,CLEAN,GPS,0.850000,10,41.38751221,2.16880012,13.7242,9.792295,-6.494109,29.412748,326.4482,11.2058,14.5759,0,0,NOMINAL,0,0,4,0,0,1,-2.467261,-0.005861,9.803802,-0.000530,-0.001408,-0.313148,1,41.38751221,2.16880012,13.7242,11.750000,326.4482,1,1,25.483723,12.773644,9.178043,-1.708358,10,22,0,-0.050844,0.000011,-0.000058,-0.000000,-0.001869,0.000005,-0.014050,0.010981,0.548481,1.963829,1.965658,1.622838,2.316880,2.332031,1.298850,0.222373,0.222373,0.234706,0.499939,0.499939,0.499942,0.100007,0.100007,0.100008,-0.620007,8.500000,1.487379,-11.2058,3,2,0,10,0,44,25.00
3200,CLEAN,GPS,0.850000,10,41.38751984,2.16879153,13.8594,9.359559,-6.681964,30.392439,324.4763,10.3224,13.9845,0,0,NOMINAL,0,0,4,0,0,1,-2.457349,-0.004466,9.796910,-0.000739,-0.001449,-0.343357,1,41.38751984,2.16879153,13.8594,11.500000,324.4763,1,1,25.653687,13.694248,8.423513,-1.844117,10,23,0,-0.050844,0.000011,-0.000058,-0.000000,-0.001869,0.000005,-0.014273,0.010759,0.531314,2.063068,2.065405,1.677812,2.413409,2.430299,1.319944,0.225776,0.225775,0.238079,0.499939,0.499939,0.499943,0.100007,0.100007,0.100008,-0.659318,8.496130,1.410331,-10.3224,4,2,0,11,0,44,25.00
3300,CLEAN,GPS,0.850000,10,41.38752747,2.16878366,14.0026,8.892113,-6.891504,31.373579,322.2238,0.0000,15.0492,0,0,NOMINAL,0,0,4,0,0,1,-2.467466,0.005130,9.811397,-0.000938,-0.001478,-0.392284,1,41.38752747,2.16878366,14.0026,11.250000,322.2238,1,1,26.098345,14.620077,7.731127,-1.987853,10,24,0,-0.050844,0.000011,-0.000058,-0.000000,-0.001869,0.000005,-0.014529,0.010496,0.511700,2.167202,2.170130,1.733994,2.512273,2.531035,1.341791,0.229206,0.229205,0.241510,0.499940,0.499940,0.499943,0.100008,0.100008,0.100008,2.764157,8.762312,-0.024952,0.0000,4,1,1,8,0,44,25.00
3400,CLEAN,GPS,0.850000,10,41.38751984,2.16878700,14.0638,-10.225741,4.053913,32.352493,158.3745,0.0000,14.1586,0,0,NOMINAL,0,0,4,0,0,1,-2.475145,-0.010680,9.789125,-0.001127,-0.001495,-28.596245,1,41.38751984,2.16878700,14.0638,11.000000,158.3745,1,1,23.406948,13.854637,7.968598,-2.049509,10,25,0,-0.050844,0.000011,-0.000058,-0.000000,-0.001869,0.000005,-0.014679,-0.010365,-0.729468,2.276353,2.279963,1.791389,2.531999,2.554737,1.364944,0.400079,0.400080,0.244994,0.499940,0.499940,0.499944,0.100008,0.100008,0.100008,2.760360,8.539646,-0.027225,0.0000,4,1,1,8,0,44,25.00
3500,CLEAN,GPS,0.850000,10,41.38751221,2.16879177,14.0619,-9.978223,3.999695,33.331715,158.1570,0.0000,13.2238,0,0,NOMINAL,0,0,4,0,0,1,-2.459122,-0.001794,9.792226,-0.001301,-0.001500,-0.037101,1,41.38751221,2.16879177,14.0619,10.750000,158.1570,1,1,21.134462,13.093630,8.320885,-2.047977,10,26,0,-0.050844,0.000011,-0.000058,-0.000000,-0.001869,0.000005,-0.014724,-0.010373,-0.731323,2.387497,2.391917,1.850011,2.687158,2.712150,1.390545,0.400294,0.400294,0.248530,0.499941,0.499941,0.499944,0.100008,0.100008,0.100009,2.764411,8.305941,-0.028988,0.0000,4,1,1,8,0,44,25.00
3600,CLEAN,GPS,0.850000,10,41.38750458,2.16879630,14.0857,-9.761918,3.867163,34.312046,158.3891,0.0000,12.2964,0,0,NOMINAL,0,0,4,0,0,1,-2.470402,-0.013232,9.803308,-0.001460,-0.001493,0.041394,1,41.38750458,2.16879630,14.0857,10.500000,158.3891,1,1,19.068319,12.337101,8.648849,-2.071982,10,27,0,-0.050844,0.000011,-0.000058,-0.000000,-0.001869,0.000005,-0.014819,-0.010324,-0.729254,2.505322,2.510669,1.909901,2.847643,2.874605,1.418068,0.400579,0.400580,0.252116,0.499941,0.499941,0.499945,0.100008,0.100008,0.100009,2.767573,8.074110,-0.031367,0.0000,4,1,1,8,0,44,25.00
3700,CLEAN,GPS,0.850000,10,41.38749695,2.16880083,14.0333,-9.541378,3.744943,35.291569,158.5703,0.0000,11.3693,0,0,NOMINAL,0,0,4,0,0,1,-2.464182,-0.015152,9.795211,-0.001601,-0.001473,0.032510,1,41.38749695,2.16880083,14.0333,10.250000,158.5703,1,1,17.174755,11.585047,8.972387,-2.019791,10,28,0,-0.050844,0.000011,-0.000058,-0.000000,-0.001869,0.000005,-0.014916,-0.010280,-0.727629,2.630133,2.636531,1.971087,3.012134,3.040802,1.447335,0.400933,0.400934,0.255749,0.499942,0.499942,0.499945,0.100009,0.100009,0.100009,2.771250,7.842315,-0.032871,0.0000,4,1,1,7,0,44,25.00
3800,CLEAN,GPS,0.850000,10,41.38748932,2.16880560,14.0066,-9.322034,3.619349,36.273972,158.7809,0.0000,10.4352,0,0,NOMINAL,0,0,4,0,0,1,-2.470759,-0.019655,9.824026,-0.001723,-0.001442,0.037679,1,41.38748932,2.16880560,14.0066,10.000000,158.7809,1,1,15.517352,10.837495,9.311388,-1.993276,10,29,0,-0.050844,0.000011,-0.000058,-0.000000,-0.001869,0.000005,-0.015021,-0.010230,-0.725746,2.762215,2.769788,2.033598,3.180688,3.210855,1.478315,0.401356,0.401357,0.259427,0.499942,0.499942,0.499946,0.100009,0.100009,0.100009,2.777359,7.608791,-0.035090,0.0000,4,1,1,7,0,44,25.00
3900,CLEAN,GPS,0.850000,10,41.38748169,2.16881013,14.0520,-9.110370,3.473277,37.252888,159.1309,0.0000,9.5085,0,0,NOMINAL,0,0,4,0,0,1,-2.478551,-0.015011,9.789159,-0.001824,-0.001399,0.062008,1,41.38748169,2.16881013,14.0520,9.750000,159.1309,1,1,14.047688,10.094460,9.626078,-2.038757,10,30,0,-0.050844,0.000011,-0.000058,-0.000000,-0.001869,0.000005,-0.015144,-0.010160,-0.722647,2.901866,2.910738,2.097473,3.351761,3.383261,1.510898,0.401855,0.401856,0.263150,0.499943,0.499943,0.499946,0.100009,0.100009,0.100010,2.782710,7.377125,-0.039049,0.0000,4,1,1,8,0,44,25.00
4000,CLEAN,GPS,0.850000,10,41.38747406,2.16881371,14.0178,-8.894753,3.336670,38.232304,159.4375,0.0000,8.6099,0,0,NOMINAL,0,0,4,0,0,1,-2.477342,-0.002936,9.794168,-0.001903,-0.001345,0.054443,1,41.38747406,2.16881371,14.0178,9.500000,159.4375,1,1,12.605601,9.355930,9.856815,-2.004455,10,31,0,-0.050844,0.000011,-0.000058,-0.000000,-0.001869,0.000005,-0.015266,-0.010093,-0.719925,3.049339,3.059632,2.162755,3.525555,3.558220,1.544931,0.402426,0.402427,0.266914,0.499943,0.499943,0.499947,0.100009,0.100009,0.100010,2.780548,7.152482,-0.041987,0.0000,4,1,1,13,0,44,25.00
4100,CLEAN,GPS,0.850000,10,41.38746643,2.16881752,14.0206,-8.653637,3.267578,39.213516,159.3137,0.0000,7.7044,0,0,NOMINAL,0,0,4,0,0,1,-2.484902,-0.019540,9.812134,-0.001959,-0.001280,-0.020674,1,41.38746643,2.16881752,14.0206,9.250000,159.3137,1,1,11.365622,8.621942,10.103004,-2.007135,10,32,0,-0.050844,0.000011,-0.000058,-0.000000,-0.001869,0.000005,-0.015354,-0.010079,-0.720960,3.204888,3.216719,2.229489,3.701812,3.735534,1.580468,0.403052,0.403053,0.270718,0.499944,0.499944,0.499947,0.100010,0.100010,0.100010,2.780294,6.926090,-0.046419,0.0000,4,1,1,8,0,44,25.00
4200,CLEAN,GPS,0.850000,10,41.38745880,2.16882062,14.0619,-8.418946,3.181405,40.194447,159.2991,0.0000,6.8201,0,0,NOMINAL,0,0,4,0,0,1,-2.495075,-0.015572,9.809316,-0.001991,-0.001205,-0.001591,1,41.38745880,2.16882062,14.0619,9.000000,159.2991,1,0,10.216253,7.892502,10.285109,-2.048285,11,32,1,-0.353936,0.097523,0.109851,-0.034362,-0.105119,0.008085,-0.665161,0.195032,-0.831207,1.979663,1.983777,1.672990,2.675905,2.699740,1.259578,0.331038,0.330520,0.273803,0.489606,0.489579,0.475886,0.093252,0.093302,0.099918,2.771793,6.705030,-0.052724,0.0000,4,1,1,11,0,44,25.00
4300,CLEAN,GPS,0.850000,10,41.38745117,2.16882491,14.0020,-8.158500,3.162498,41.175529,158.8121,0.0000,5.9003,0,0,NOMINAL,0,0,4,0,0,1,-2.500490,-0.006581,9.810831,-0.002000,-0.001119,-0.084045,1,41.38745117,2.16882491,14.0020,8.750000,158.8121,1,0,1.682570,1.740146,3.521717,-1.269081,12,32,1,-0.410845,0.103303,0.155062,-0.035504,-0.126701,0.010258,-0.804952,0.200948,-0.857123,1.585981,1.588635,1.408840,2.430640,2.442852,1.111268,0.311229,0.310340,0.277408,0.487476,0.487427,0.465698,0.091387,0.091461,0.099893,2.776401,6.475074,-0.058017,0.0000,4,1,1,11,0,44,25.00
4400,CLEAN,GPS,0.850000,10,41.38744354,2.16882944,13.9822,-7.939470,3.035592,42.155743,159.0760,0.0000,4.9737,0,0,NOMINAL,0,0,4,0,0,1,-2.497998,-0.018636,9.802124,-0.001984,-0.001025,0.047044,1,41.38744354,2.16882944,13.9822,8.500000,159.0760,1,0,0.518554,-0.081800,1.946877,-0.839613,13,32,1,-0.427605,0.095736,0.177139,-0.030882,-0.134553,0.011395,-0.851815,0.187078,-0.847365,1.379928,1.381907,1.247924,2.340399,2.343309,1.031649,0.300826,0.299502,0.281098,0.486678,0.486616,0.459654,0.090303,0.090402,0.099879,2.786452,6.243423,-0.066352,0.0000,2,1,1,13,0,44,25.00
4500,CLEAN,GPS,0.850000,10,41.38743591,2.16883230,14.0213,-7.735179,2.868710,43.136738,159.6519,0.0000,0.0000,0,0,NOMINAL,0,0,4,0,0,1,-2.499968,-0.010205,9.809958,-0.001944,-0.000923,0.101486,1,41.38743591,2.16883230,14.0213,8.250000,159.6519,1,0,0.352628,-1.170661,1.045036,-0.627374,14,32,1,-0.429635,0.086524,0.189399,-0.023931,-0.136165,0.011978,-0.860455,0.167624,-0.822029,1.252085,1.253538,1.137609,2.308387,2.300912,0.992141,0.293702,0.291850,0.284820,0.486333,0.486262,0.455378,0.089451,0.089586,0.099867,0.000000,0.000000,0.000000,0.0000,2,1,0,10,0,44,25.00
4600,CLEAN,GPS,0.850000,10,41.38742828,2.16883516,13.9952,-7.735179,2.868710,44.116405,159.6519,0.0000,0.0000,0,0,NOMINAL,0,0,4,0,0,1,-2.509578,-0.025840,9.796693,-0.001880,-0.000812,0.101492,1,41.38742828,2.16883516,13.9952,8.250000,159.6519,1,0,0.551641,-1.977618,0.455761,-0.408793,15,32,1,-0.425300,0.079196,0.194578,-0.015489,-0.133799,0.012151,-0.848665,0.143174,-0.787764,1.166133,1.167016,1.056575,2.303761,2.283425,0.979949,0.287996,0.285518,0.288557,0.486180,0.486106,0.451998,0.088667,0.088853,0.099857,0.000000,0.000000,0.000000,0.0000,2,1,0,10,0,44,25.00
4700,CLEAN,GPS,0.850000,10,41.38742065,2.16883969,13.9867,-7.735179,2.868710,45.097565,159.6519,0.0000,0.0000,0,0,NOMINAL,0,0,4,0,0,1,-2.513201,-0.012279,9.811599,-0.001794,-0.000696,0.101497,1,41.38742065,2.16883969,13.9867,8.250000,159.6519,1,0,0.926672,-2.627974,0.149897,-0.250271,16,32,1,-0.418426,0.075304,0.195338,-0.005530,-0.128659,0.012020,-0.825995,0.112919,-0.745681,1.106087,1.106239,0.994384,2.313343,2.277208,0.986988,0.282934,0.279724,0.292302,0.486110,0.486038,0.449116,0.087879,0.088136,0.099846,0.000000,0.000000,0.000000,0.0000,2,1,0,10,0,44,25.00
4800,CLEAN,GPS,0.850000,10,41.38741302,2.16884232,13.9827,-7.735179,2.868710,46.078857,159.6519,0.0000,0.0000,0,0,NOMINAL,0,0,4,0,0,1,-2.518032,-0.022597,9.812941,-0.001686,-0.000574,0.101502,1,41.38741302,2.16884232,13.9827,8.250000,159.6519,1,0,1.367519,-3.166784,-0.265507,-0.117921,17,32,1,-0.410645,0.076481,0.193047,0.005357,-0.120351,0.011485,-0.792036,0.077960,-0.697554,1.063605,1.062771,0.945285,2.329943,2.274992,1.006906,0.278126,0.274077,0.296050,0.486063,0.486000,0.446520,0.087050,0.087398,0.099834,0.000000,0.000000,0.000000,0.0000,2,1,0,10,0,44,25.00
4900,CLEAN,GPS,0.850000,10,41.38740540,2.16884565,13.9576,-7.735179,2.868710,47.061317,159.6519,0.0000,0.0000,0,0,NOMINAL,0,0,4,0,0,1,-2.518079,-0.029027,9.824600,-0.001558,-0.000447,0.101505,1,41.38740540,2.16884565,13.9576,8.250000,159.6519,1,0,1.831609,-3.612210,-0.560188,0.020461,18,32,1,-0.403340,0.083247,0.188137,0.017122,-0.109260,0.010574,-0.750494,0.037354,-0.644090,1.033752,1.031588,0.905846,2.349145,2.272998,1.034425,0.273348,0.268362,0.299800,0.486001,0.485954,0.444087,0.086160,0.086619,0.099821,0.000000,0.000000,0.000000,0.0000,2,1,0,10,0,44,25.00
5000,CLEAN,GPS,0.850000,10,41.38739777,2.16884851,13.9188,-7.735179,2.868710,48.043415,159.6519,0.0000,0.0000,0,0,NOMINAL,0,0,4,0,0,1,-2.526632,-0.020082,9.820982,-0.001411,-0.000316,0.101508,1,41.38739777,2.16884851,13.9188,8.250000,159.6519,1,0,2.288119,-3.971410,-0.861874,0.156900,19,32,1,-0.397598,0.096006,0.181129,0.029404,-0.095369,0.009262,-0.702357,-0.008856,-0.586510,1.013294,1.009391,0.873882,2.367535,2.268637,1.065221,0.268468,0.262461,0.303555,0.485901,0.485872,0.441737,0.085199,0.085786,0.099806,0.000000,0.000000,0.000000,0.0000,2,1,0,10,0,44,25.00
5100,CLEAN,GPS,0.850000,10,41.38739014,2.16885185,13.9263,-7.735179,2.868710,49.025810,159.6519,0.0000,0.0000,0,0,NOMINAL,0,0,4,0,0,1,-2.528339,-0.032593,9.823941,-0.001247,-0.000183,0.101510,1,41.38739014,2.16885185,13.9263,8.250000,159.6519,1,0,2.682662,-4.246993,-1.089762,0.229999,20,32,1,-0.394022,0.114691,0.173440,0.042099,-0.079065,0.007593,-0.650502,-0.061248,-0.525835,0.999915,0.993825,0.847915,2.382522,2.260934,1.095640,0.263405,0.256320,0.307319,0.485743,0.485736,0.439418,0.084165,0.084893,0.099791,0.000000,0.000000,0.000000,0.0000,2,1,0,10,0,44,25.00
5200,CLEAN,GPS,0.850000,10,41.38738251,2.16885591,13.9917,-7.735179,2.868710,50.008362,159.6519,0.0000,0.0000,0,0,NOMINAL,0,0,4,0,0,1,-2.519027,-0.024299,9.825503,-0.001068,-0.000049,0.101510,1,41.38738251,2.16885591,13.9917,8.250000,159.6519,1,0,2.973150,-4.439652,-1.234966,0.234027,21,32,1,-0.392748,0.138890,0.166455,0.055137,-0.060892,0.005642,-0.598219,-0.120097,-0.463234,0.991836,0.983129,0.826882,2.391780,2.249153,1.123140,0.258117,0.249931,0.311100,0.485517,0.485532,0.437090,0.083063,0.083937,0.099774,0.000000,0.000000,0.000000,0.0000,2,1,0,10,0,44,25.00
5300,CLEAN,GPS,0.850000,10,41.38737488,2.16885853,13.8969,-7.735179,2.868710,50.988373,159.6519,0.0000,0.0000,0,0,NOMINAL,0,0,4,0,0,1,-2.536373,-0.027604,9.800106,-0.000876,0.000086,0.101510,1,41.38737488,2.16885853,13.8969,8.250000,159.6519,1,0,3.229336,-4.550243,-1.487577,0.393284,22,32,1,-0.394982,0.168066,0.157987,0.067596,-0.040623,0.003344,-0.543614,-0.183118,-0.400428,0.987614,0.975933,0.809956,2.393183,2.232853,1.145878,0.252593,0.243322,0.314909,0.485216,0.485252,0.434725,0.081903,0.082920,0.099756,0.000000,0.000000,0.000000,0.0000,2,1,0,10,0,44,25.00
5400,CLEAN,GPS,0.850000,10,41.38736725,2.16886234,13.9827,-7.735179,2.868710,51.968388,159.6519,0.0000,0.0000,0,0,NOMINAL,0,0,4,0,0,1,-2.539559,-0.020138,9.800133,-0.000673,0.000221,0.101509,1,41.38736725,2.16886234,13.9827,8.250000,159.6519,1,0,3.318277,-4.582398,-1.603781,0.345048,23,32,1,-0.399918,0.201195,0.151589,0.079734,-0.019293,0.000863,-0.491486,-0.250680,-0.338424,0.986042,0.971156,0.796452,2.385505,2.212644,1.162872,0.246841,0.236547,0.318758,0.484839,0.484892,0.432300,0.080698,0.081848,0.099737,0.000000,0.000000,0.000000,0.0000,2,1,0,10,0,44,25.00
5500,CLEAN,GPS,0.850000,10,41.38735962,2.16886544,13.9686,-7.735179,2.868710,52.950233,159.6519,0.0000,0.0000,0,0,NOMINAL,0,0,4,0,0,1,-2.531045,-0.022732,9.818464,-0.000462,0.000353,0.101507,1,41.38735962,2.16886544,13.9686,8.250000,159.6519,1,0,3.343902,-4.539499,-1.762302,0.392910,24,32,1,-0.408101,0.237241,0.145885,0.090914,0.002941,-0.001798,-0.441062,-0.320516,-0.278345,0.986113,0.967964,0.785774,2.367928,2.189065,1.173872,0.240892,0.229680,0.322661,0.484389,0.484456,0.429798,0.079466,0.080732,0.099718,0.000000,0.000000,0.000000,0.0000,2,1,0,10,0,44,25.00
5600,CLEAN,GPS,0.850000,10,41.38735199,2.16886973,13.9027,-7.735179,2.868710,53.929417,159.6519,0.0000,0.0000,0,0,NOMINAL,0,0,4,0,0,1,-2.528570,-0.030444,9.791823,-0.000246,0.000483,0.101504,1,41.38735199,2.16886973,13.9027,8.250000,159.6519,1,0,3.227281,-4.428514,-1.790056,0.476754,25,32,1,-0.418596,0.274975,0.139904,0.101180,0.025262,-0.004513,-0.395145,-0.391823,-0.221000,0.986997,0.965727,0.777388,2.339555,2.162245,1.178903,0.234789,0.222803,0.326629,0.483872,0.483951,0.427206,0.078223,0.079582,0.099698,0.000000,0.000000,0.000000,0.0000,2,1,0,10,0,44,25.00
5700,CLEAN,GPS,0.850000,10,41.38734436,2.16887283,13.9576,-7.735179,2.868710,54.910282,159.6519,0.0000,0.0000,0,0,NOMINAL,0,0,4,0,0,1,-2.530510,-0.037258,9.808642,-0.000026,0.000608,0.101501,1,41.38734436,2.16887283,13.9576,8.250000,159.6519,1,0,3.068378,-4.257266,-1.900967,0.423066,26,32,1,-0.431586,0.313241,0.136443,0.110169,0.047387,-0.007247,-0.352947,-0.462371,-0.166928,0.988010,0.963968,0.770816,2.301049,2.132973,1.178962,0.228583,0.216006,0.330675,0.483297,0.483387,0.424513,0.076985,0.078413,0.099678,0.000000,0.000000,0.000000,0.0000,2,1,0,10,0,44,25.00
5800,CLEAN,GPS,0.850000,10,41.38733673,2.16887617,13.9060,-7.735179,2.868710,55.889805,159.6519,0.0000,0.0000,0,0,NOMINAL,0,0,4,0,0,1,-2.532727,-0.030075,9.795219,0.000193,0.000729,0.101496,1,41.38733673,2.16887617,13.9060,8.250000,159.6519,1,0,2.847984,-4.035452,-1.960432,0.472933,27,32,1,-0.446664,0.350973,0.133423,0.117709,0.068924,-0.009949,-0.314626,-0.530738,-0.116456,0.988638,0.962357,0.765643,2.252872,2.101332,1.174988,0.222332,0.209374,0.334806,0.482676,0.482777,0.421709,0.075766,0.077240,0.099659,0.000000,0.000000,0.000000,0.0000,2,1,0,10,0,44,25.00
5900,CLEAN,GPS,0.850000,10,41.38732910,2.16887951,13.9186,-7.735179,2.868710,56.870193,159.6519,0.0000,0.0000,0,0,NOMINAL,0,0,4,0,0,1,-2.550022,-0.022632,9.803900,0.000411,0.000844,0.101491,1,41.38732910,2.16887951,13.9186,8.250000,159.6519,1,0,2.574165,-3.773304,-1.990118,0.448015,28,32,1,-0.463101,0.387201,0.132019,0.123884,0.089390,-0.012542,-0.280895,-0.595883,-0.069797,0.988502,0.960659,0.761524,2.196405,2.067913,1.168161,0.216094,0.202986,0.339026,0.482019,0.482134,0.418790,0.074579,0.076078,0.099639,0.000000,0.000000,0.000000,0.0000,2,1,0,9,0,44,25.00
6000,CLEAN,GPS,0.850000,10,41.38732147,2.16888237,13.9301,-7.735179,2.868710,57.849895,159.6519,0.0000,0.0000,0,0,NOMINAL,0,0,4,0,0,1,-2.550328,-0.034965,9.797038,0.000623,0.000952,0.101484,1,41.38732147,2.16888237,13.9301,8.250000,159.6519,1,0,2.299001,-3.480978,-2.033091,0.424138,29,32,1,-0.480725,0.421195,0.132215,0.128599,0.108617,-0.015008,-0.251038,-0.656674,-0.026860,0.987357,0.958733,0.758180,2.133078,2.032937,1.159374,0.209926,0.196910,0.343337,0.481338,0.481473,0.415753,0.073433,0.074940,0.099621,0.000000,0.000000,0.000000,0.0000,2,1,0,9,0,44,25.00
6100,CLEAN,GPS,0.850000,10,41.38731384,2.16888666,13.8491,-7.735179,2.868710,58.828945,159.6519,0.0000,0.0000,0,0,NOMINAL,0,0,4,0,0,1,-2.544754,-0.039039,9.790503,0.000828,0.001052,0.101477,1,41.38731384,2.16888666,13.8491,8.250000,159.6519,1,0,1.957952,-3.168274,-1.925940,0.494906,30,32,1,-0.498112,0.452351,0.131245,0.132175,0.126115,-0.017270,-0.226571,-0.712952,0.012255,0.985072,0.956496,0.755398,2.064653,1.996662,1.149591,0.203878,0.191199,0.347735,0.480645,0.480804,0.412595,0.072334,0.073839,0.099603,0.000000,0.000000,0.000000,0.0000,2,1,0,9,0,44,25.00
6200,CLEAN,GPS,0.850000,10,41.38730621,2.16888809,13.9334,-7.735179,2.868710,59.807991,159.6519,0.0000,0.0000,0,0,NOMINAL,0,0,4,0,0,1,-2.551622,-0.026188,9.790442,0.001023,0.001144,0.101469,1,41.38730621,2.16888809,13.9334,8.250000,159.6519,1,0,1.742288,-2.843983,-2.046995,0.399703,31,32,1,-0.516706,0.480436,0.133561,0.134234,0.142328,-0.019408,-0.204142,-0.763544,0.048308,0.981607,0.953911,0.753022,1.992884,1.959407,1.139767,0.197997,0.185894,0.352212,0.479950,0.480139,0.409318,0.071287,0.072784,0.099586,0.000000,0.000000,0.000000,0.0000,2,1,0,10,0,44,25.00
6300,CLEAN,GPS,0.850000,10,41.38729858,2.16889262,13.8868,-7.735179,2.868710,60.788700,159.6519,0.0000,0.0000,0,0,NOMINAL,0,0,4,0,0,1,-2.547608,-0.026960,9.807101,0.001205,0.001227,0.101460,1,41.38729858,2.16889262,13.8868,8.250000,159.6519,1,0,1.403237,-2.515195,-1.866833,0.446753,32,32,1,-0.533858,0.505096,0.134405,0.135519,0.156505,-0.021295,-0.187265,-0.809234,0.080857,0.976994,0.950976,0.750951,1.919486,1.921625,1.130380,0.192320,0.181020,0.356761,0.479261,0.479487,0.405924,0.070292,0.071780,0.099570,0.000000,0.000000,0.000000,0.0000,2,1,0,10,0,44,25.00
6400,CLEAN,GPS,0.850000,10,41.38729095,2.16889477,13.8256,-7.735179,2.868710,61.768642,159.6519,0.0000,0.0000,0,0,NOMINAL,0,0,4,0,0,1,-2.554119,-0.029023,9.799410,0.001373,0.001299,0.101450,1,41.38729095,2.16889477,13.8256,8.250000,159.6519,1,0,1.208764,-2.188347,-1.886520,0.516140,33,32,1,-0.551309,0.526404,0.134605,0.135509,0.169283,-0.023057,-0.172154,-0.849279,0.110910,0.971319,0.947710,0.749123,1.845697,1.883446,1.121884,0.186879,0.176592,0.361369,0.478586,0.478854,0.402419,0.069351,0.070833,0.099555,0.000000,0.000000,0.000000,0.0000,2,1,0,10,0,44,25.00
6500,CLEAN,GPS,0.850000,10,41.38728333,2.16889882,13.8329,-7.735179,2.868710,62.750053,159.6519,0.0000,0.0000,0,0,NOMINAL,0,0,4,0,0,1,-2.542032,-0.033734,9.814103,0.001525,0.001361,0.101439,1,41.38728333,2.16889882,13.8329,8.250000,159.6519,1,0,0.942464,-1.868092,-1.716967,0.518378,34,32,1,-0.567046,0.544310,0.134041,0.134948,0.180143,-0.024591,-0.161626,-0.884482,0.138186,0.964694,0.944146,0.747502,1.772935,1.845349,1.114530,0.181698,0.172611,0.366027,0.477931,0.478246,0.398808,0.068462,0.069943,0.099541,0.000000,0.000000,0.000000,0.0000,2,1,0,9,0,44,25.00
6600,CLEAN,GPS,0.850000,10,41.38727570,2.16890216,13.8155,-7.735179,2.868710,63.729366,159.6519,0.0000,0.0000,0,0,NOMINAL,0,0,4,0,0,1,-2.552908,-0.027010,9.793122,0.001657,0.001413,0.101428,1,41.38727570,2.16890216,13.8155,8.250000,159.6519,1,0,0.750148,-1.557673,-1.609215,0.559396,35,32,1,-0.581656,0.558982,0.132367,0.133702,0.189385,-0.025956,-0.154140,-0.914795,0.163319,0.957254,0.940324,0.746074,1.701880,1.807415,1.108502,0.176796,0.169070,0.370722,0.477301,0.477665,0.395100,0.067623,0.069111,0.099527,0.000000,0.000000,0.000000,0.0000,2,1,0,9,0,44,25.00
6700,CLEAN,GPS,0.850000,10,41.38726807,2.16890621,13.8633,-7.735179,2.868710,64.710670,159.6519,0.0000,0.0000,0,0,NOMINAL,0,0,4,0,0,1,-2.549831,-0.035119,9.813049,0.001770,0.001452,0.101415,1,41.38726807,2.16890621,13.8633,8.250000,159.6519,1,0,0.556066,-1.259409,-1.435112,0.544482,36,32,1,-0.594427,0.570593,0.130150,0.132134,0.196922,-0.027125,-0.150563,-0.940697,0.186446,0.949133,0.936285,0.744841,1.633526,1.770248,1.103959,0.172188,0.165954,0.375441,0.476699,0.477114,0.391303,0.066832,0.068333,0.099514,0.000000,0.000000,0.000000,0.0000,2,1,0,9,0,44,25.00
6800,CLEAN,GPS,0.850000,10,41.38726044,2.16890979,13.8208,-7.735179,2.868710,65.691704,159.6519,0.0000,0.0000,0,0,NOMINAL,0,0,4,0,0,1,-2.545965,-0.031018,9.810325,0.001862,0.001480,0.101402,1,41.38726044,2.16890979,13.8208,8.250000,159.6519,1,0,0.433483,-0.974269,-1.307617,0.636607,37,32,1,-0.605964,0.579325,0.125684,0.130038,0.203031,-0.028164,-0.149325,-0.962140,0.208089,0.940471,0.932078,0.743810,1.568315,1.733981,1.100891,0.167884,0.163244,0.380174,0.476127,0.476594,0.387427,0.066085,0.067607,0.099501,0.000000,0.000000,0.000000,0.0000,2,1,0,9,0,44,25.00
6900,CLEAN,GPS,0.850000,10,41.38725281,2.16891336,13.8086,-7.735179,2.868710,66.673302,159.6519,0.0000,0.0000,0,0,NOMINAL,0,0,4,0,0,1,-2.553982,-0.031860,9.815989,0.001931,0.001496,0.101388,1,41.38725281,2.16891336,13.8086,8.250000,159.6519,1,0,0.337856,-0.703615,-1.178793,0.703655,38,32,1,-0.616231,0.585428,0.119516,0.127546,0.207799,-0.029085,-0.150275,-0.979488,0.228471,0.931396,0.927748,0.742997,1.506580,1.698960,1.099322,0.163890,0.160914,0.384911,0.475587,0.476104,0.383483,0.065378,0.066929,0.099488,0.000000,0.000000,0.000000,0.0000,2,1,0,9,0,44,25.00
7000,CLEAN,GPS,0.850000,10,41.38724518,2.16891623,13.8130,-7.735179,2.868710,67.654671,159.6519,0.0000,0.0000,0,0,NOMINAL,0,0,4,0,0,1,-2.554470,-0.023306,9.813711,0.001976,0.001500,0.101374,1,41.38724518,2.16891623,13.8130,8.250000,159.6519,1,0,0.286697,-0.447218,-1.110647,0.761238,39,32,1,-0.625747,0.589207,0.112444,0.124609,0.211462,-0.029931,-0.152461,-0.993076,0.247951,0.922027,0.923338,0.742417,1.448562,1.665367,1.099164,0.160207,0.158937,0.389644,0.475080,0.475645,0.379482,0.064710,0.066294,0.099475,0.000000,0.000000,0.000000,0.0000,2,1,0,9,0,44,25.00
7100,CLEAN,GPS,0.850000,10,41.38723755,2.16891956,13.8160,-7.735179,2.868710,68.637154,159.6519,0.0000,0.0000,0,0,NOMINAL,0,0,4,0,0,1,-2.556448,-0.021246,9.824851,0.001998,0.001491,0.101358,1,41.38723755,2.16891956,13.8160,8.250000,159.6519,1,0,0.245525,-0.204298,-0.996216,0.825820,40,32,1,-0.634174,0.590845,0.104069,0.121400,0.213996,-0.030691,-0.156144,-1.003168,0.266532,0.912472,0.918888,0.742085,1.394401,1.633482,1.100379,0.156834,0.157282,0.394365,0.474605,0.475215,0.375436,0.064076,0.065697,0.099462,0.000000,0.000000,0.000000,0.0000,2,1,0,10,0,44,25.00
7200,CLEAN,GPS,0.850000,10,41.38722992,2.16892314,13.7941,-7.735179,2.868710,69.616585,159.6519,0.0000,0.0000,0,0,NOMINAL,0,0,4,0,0,1,-2.538119,-0.036583,9.794294,0.001996,0.001471,0.101342,1,41.38722992,2.16892314,13.7941,8.250000,159.6519,1,0,0.229360,0.025436,-0.863077,0.920654,41,32,1,-0.641439,0.590518,0.093788,0.117982,0.215428,-0.031373,-0.161121,-1.009881,0.284246,0.902828,0.914438,0.742015,1.344102,1.603185,1.102644,0.153770,0.155920,0.399069,0.474163,0.474815,0.371356,0.063473,0.065131,0.099449,0.000000,0.000000,0.000000,0.0000,2,1,0,9,0,44,25.00
7300,CLEAN,GPS,0.850000,10,41.38722229,2.16892505,13.8245,-7.735179,2.868710,70.598671,159.6519,0.0000,0.0000,0,0,NOMINAL,0,0,4,0,0,1,-2.550983,-0.023674,9.820826,0.001969,0.001439,0.101325,1,41.38722229,2.16892505,13.8245,8.250000,159.6519,1,0,0.252314,0.242384,-0.873539,0.964907,42,32,1,-0.648633,0.588644,0.083971,0.114163,0.216148,-0.032056,-0.165924,-1.013782,0.301582,0.893178,0.910014,0.742215,1.297648,1.575039,1.106201,0.151007,0.154818,0.403751,0.473752,0.474442,0.367254,0.062898,0.064593,0.099434,0.000000,0.000000,0.000000,0.0000,2,1,0,10,0,44,25.00
7400,CLEAN,GPS,0.850000,10,41.38721466,2.16892958,13.8265,-7.735179,2.868710,71.579247,159.6519,0.0000,0.0000,0,0,NOMINAL,0,0,4,0,0,1,-2.545433,-0.028076,9.805782,0.001919,0.001395,0.101307,1,41.38721466,2.16892958,13.8265,8.250000,159.6519,1,0,0.247292,0.448774,-0.650909,1.039785,43,32,1,-0.654113,0.585153,0.072208,0.110477,0.215712,-0.032612,-0.172538,-1.014653,0.317827,0.883595,0.905655,0.742695,1.254919,1.548845,1.110690,0.148539,0.153945,0.408408,0.473374,0.474096,0.363141,0.062348,0.064077,0.099418,0.000000,0.000000,0.000000,0.0000,2,1,0,10,0,44,25.00
7500,CLEAN,GPS,0.850000,10,41.38720703,2.16893268,13.8142,-7.735179,2.868710,72.559624,159.6519,0.0000,0.0000,0,0,NOMINAL,0,0,4,0,0,1,-2.550955,-0.024212,9.803735,0.001845,0.001340,0.101288,1,41.38720703,2.16893268,13.8142,8.250000,159.6519,1,0,0.293055,0.644045,-0.566793,1.132065,44,32,1,-0.658948,0.580365,0.059547,0.106635,0.214444,-0.033130,-0.179268,-1.012751,0.333364,0.874143,0.901385,0.743459,1.215797,1.524836,1.116098,0.146356,0.153271,0.413036,0.473026,0.473775,0.359031,0.061820,0.063578,0.099401,0.000000,0.000000,0.000000,0.0000,2,1,0,9,0,44,25.00
7600,CLEAN,GPS,0.850000,10,41.38719940,2.16893625,13.7633,-7.735179,2.868710,73.540520,159.6519,0.0000,0.0000,0,0,NOMINAL,0,0,4,0,0,1,-2.539074,-0.028585,9.808955,0.001749,0.001273,0.101269,1,41.38719940,2.16893625,13.7633,8.250000,159.6519,1,0,0.360276,0.829445,-0.443451,1.260283,45,32,1,-0.662925,0.574391,0.045195,0.102720,0.212268,-0.033586,-0.186069,-1.007967,0.347952,0.864874,0.897232,0.744506,1.180260,1.503091,1.122272,0.144447,0.152767,0.417632,0.472707,0.473478,0.354933,0.061311,0.063092,0.099381,0.000000,0.000000,0.000000,0.0000,2,1,0,9,0,44,25.00
7700,CLEAN,GPS,0.850000,10,41.38719177,2.16893888,13.8140,-7.735179,2.868710,74.520660,159.6519,0.0000,0.0000,0,0,NOMINAL,0,0,4,0,0,1,-2.532148,-0.029161,9.801409,0.001632,0.001197,0.101249,1,41.38719177,2.16893888,13.8140,8.250000,159.6519,1,0,0.409405,1.004988,-0.405846,1.279953,46,32,1,-0.666647,0.567604,0.032059,0.098726,0.209495,-0.034027,-0.192573,-1.001089,0.361963,0.855837,0.893219,0.745835,1.148116,1.483612,1.129034,0.142798,0.152405,0.422195,0.472417,0.473205,0.350859,0.060820,0.062614,0.099358,0.000000,0.000000,0.000000,0.0000,2,1,0,9,0,44,25.00
7800,CLEAN,GPS,0.850000,10,41.38718414,2.16894293,13.7513,-7.735179,2.868710,75.501266,159.6519,0.0000,0.0000,0,0,NOMINAL,0,0,4,0,0,1,-2.536154,-0.026553,9.806036,0.001496,0.001111,0.101229,1,41.38718414,2.16894293,13.7513,8.250000,159.6519,1,0,0.501437,1.173861,-0.245970,1.413513,47,32,1,-0.669405,0.559938,0.017288,0.094809,0.205796,-0.034364,-0.198984,-0.991382,0.374656,0.847072,0.889370,0.747437,1.119180,1.466515,1.136312,0.141393,0.152155,0.426722,0.472154,0.472953,0.346821,0.060343,0.062140,0.099332,0.000000,0.000000,0.000000,0.0000,2,1,0,10,0,44,25.00
7900,CLEAN,GPS,0.850000,10,41.38717651,2.16894603,13.7768,-7.735179,2.868710,76.482170,159.6519,0.0000,0.0000,0,0,NOMINAL,0,0,4,0,0,1,-2.530580,-0.017619,9.809058,0.001341,0.001016,0.101208,1,41.38717651,2.16894603,13.7768,8.250000,159.6519,1,0,0.570669,1.334089,-0.178272,1.449051,48,32,1,-0.671834,0.551729,0.003576,0.090917,0.201493,-0.034656,-0.204927,-0.979629,0.386479,0.838613,0.885705,0.749300,1.093345,1.451816,1.143922,0.140215,0.151995,0.431213,0.471917,0.472721,0.342827,0.059879,0.061666,0.099302,0.000000,0.000000,0.000000,0.0000,2,1,0,9,0,44,25.00
8000,CLEAN,GPS,0.850000,10,41.38716888,2.16894960,13.8025,-7.735179,2.868710,77.464676,159.6519,0.0000,0.0000,0,0,NOMINAL,0,0,4,0,0,1,-2.523548,-0.027121,9.825069,0.001170,0.000913,0.101186,1,41.38716888,2.16894960,13.8025,8.250000,159.6519,1,0,0.644316,1.488642,-0.073332,1.480786,49,32,1,-0.673798,0.543080,-0.009126,0.087158,0.196563,-0.034860,-0.210529,-0.965835,0.397176,0.830486,0.882245,0.751408,1.070512,1.439546,1.151735,0.139246,0.151898,0.435664,0.471706,0.472508,0.338888,0.059424,0.061190,0.099266,0.000000,0.000000,0.000000,0.0000,2,1,0,9,0,44,25.00
8100,CLEAN,GPS,0.850000,10,41.38716125,2.16895199,13.7562,-7.735179,2.868710,78.446541,159.6519,0.0000,0.0000,0,0,NOMINAL,0,0,4,0,0,1,-2.535309,-0.028040,9.818654,0.000985,0.000802,0.101163,1,41.38716125,2.16895199,13.7562,8.250000,159.6519,1,0,0.757350,1.637980,-0.076031,1.580634,50,32,1,-0.675842,0.534190,-0.020968,0.083241,0.191092,-0.035088,-0.214740,-0.949954,0.407196,0.822719,0.879009,0.753741,1.050378,1.429630,1.159532,0.138464,0.151843,0.440074,0.471518,0.472313,0.335013,0.058978,0.060709,0.099223,0.000000,0.000000,0.000000,0.0000,2,1,0,10,0,44,25.00
8200,CLEAN,GPS,0.850000,10,41.38715363,2.16895556,13.7570,-7.735179,2.868710,79.425972,159.6519,0.0000,0.0000,0,0,NOMINAL,0,0,4,0,0,1,-2.528203,-0.026197,9.794295,0.000788,0.000685,0.101140,1,41.38715363,2.16895556,13.7570,8.250000,159.6519,1,0,0.847151,1.781296,0.027365,1.620028,51,32,1,-0.677530,0.525123,-0.031563,0.079485,0.185033,-0.035215,-0.218383,-0.932117,0.415991,0.815327,0.876012,0.756270,1.032825,1.421853,1.166989,0.137847,0.151808,0.444442,0.471353,0.472134,0.331209,0.058539,0.060219,0.099173,0.000000,0.000000,0.000000,0.0000,2,1,0,10,0,44,25.00
8300,CLEAN,GPS,0.850000,10,41.38714600,2.16895843,13.7456,-7.735179,2.868710,80.407799,159.6519,0.0000,0.0000,0,0,NOMINAL,0,0,4,0,0,1,-2.516248,-0.019797,9.818300,0.000581,0.000562,0.101117,1,41.38714600,2.16895843,13.7456,8.250000,159.6519,1,0,0.944066,1.919899,0.062525,1.663958,52,32,1,-0.679206,0.516057,-0.040340,0.075747,0.178505,-0.035318,-0.221063,-0.912534,0.423989,0.808323,0.873265,0.758963,1.017846,1.416397,1.174135,0.137374,0.151774,0.448762,0.471209,0.471970,0.327484,0.058104,0.059721,0.099113,0.000000,0.000000,0.000000,0.0000,2,1,0,9,0,44,25.00
8400,CLEAN,GPS,0.850000,10,41.38713837,2.16896319,13.7841,-7.735179,2.868710,81.390450,159.6519,0.0000,0.0000,0,0,NOMINAL,0,0,4,0,0,1,-2.522448,-0.019514,9.826523,0.000367,0.000435,0.101093,1,41.38713837,2.16896319,13.7841,8.250000,159.6519,1,0,1.024247,2.054058,0.256699,1.647752,53,32,1,-0.680374,0.506968,-0.047307,0.072450,0.171420,-0.035173,-0.223653,-0.891197,0.430064,0.801721,0.870784,0.761786,1.005207,1.413135,1.180762,0.137021,0.151723,0.453033,0.471084,0.471819,0.323844,0.057673,0.059211,0.099043,0.000000,0.000000,0.000000,0.0000,2,1,0,9,0,44,25.00
8500,CLEAN,GPS,0.850000,10,41.38713074,2.16896534,13.7619,-7.735179,2.868710,82.370613,159.6519,0.0000,0.0000,0,0,NOMINAL,0,0,4,0,0,1,-2.506972,-0.009749,9.801606,0.000149,0.000304,0.101068,1,41.38713074,2.16896534,13.7619,8.250000,159.6519,1,0,1.122429,2.184855,0.209839,1.688318,54,32,1,-0.681904,0.498148,-0.051620,0.069008,0.164035,-0.035112,-0.224973,-0.868464,0.436015,0.795529,0.868580,0.764699,0.994709,1.411701,1.186481,0.136766,0.151641,0.457249,0.470977,0.471679,0.320293,0.057243,0.058688,0.098961,0.000000,0.000000,0.000000,0.0000,2,1,0,9,0,44,25.00
8600,CLEAN,GPS,0.850000,10,41.38712311,2.16896820,13.6923,-7.735179,2.868710,83.349960,159.6519,0.0000,0.0000,0,0,NOMINAL,0,0,4,0,0,1,-2.504307,-0.006692,9.793509,-0.000070,0.000171,0.101043,1,41.38712311,2.16896820,13.6923,8.250000,159.6519,1,0,1.245805,2.311392,0.231718,1.763350,55,32,1,-0.683511,0.489675,-0.054126,0.065557,0.156185,-0.035034,-0.225145,-0.843939,0.441239,0.789751,0.866658,0.767656,0.986244,1.412064,1.191231,0.136586,0.151513,0.461404,0.470886,0.471550,0.316834,0.056815,0.058153,0.098865,0.000000,0.000000,0.000000,0.0000,2,1,0,29,0,44,25.00
8700,CLEAN,GPS,0.850000,10,41.38711548,2.16897225,13.6845,-7.735179,2.868710,84.328667,159.6519,0.0000,0.0000,0,0,NOMINAL,0,0,4,0,0,1,-2.502530,-0.003796,9.787066,-0.000289,0.000036,0.101017,1,41.38711548,2.16897225,13.6845,8.250000,159.6519,1,0,1.339754,2.432596,0.353451,1.759544,56,32,1,-0.685043,0.481532,-0.054214,0.062396,0.147939,-0.034774,-0.224835,-0.817939,0.445018,0.784386,0.865020,0.770612,0.979707,1.414066,1.194857,0.136460,0.151328,0.465494,0.470809,0.471428,0.313469,0.056387,0.057605,0.098753,0.000000,0.000000,0.000000,0.0000,2,1,0,24,0,44,25.00
8800,CLEAN,GPS,0.850000,10,41.38710785,2.16897607,13.7466,-7.735179,2.868710,85.307701,159.6519,0.0000,0.0000,0,0,NOMINAL,0,0,4,0,0,1,-2.512807,-0.010304,9.790329,-0.000505,-0.000099,0.100991,1,41.38710785,2.16897607,13.7466,8.250000,159.6519,1,0,1.395563,2.550022,0.441786,1.676186,57,32,1,-0.686756,0.473719,-0.050595,0.059505,0.139558,-0.034392,-0.224342,-0.791207,0.447913,0.779434,0.863668,0.773519,0.974993,1.417636,1.197287,0.136368,0.151077,0.469510,0.470744,0.471314,0.310199,0.055959,0.057044,0.098624,0.000000,0.000000,0.000000,0.0000,2,1,0,12,0,44,25.00
8900,CLEAN,GPS,0.850000,10,41.38710022,2.16897917,13.6845,-7.735179,2.868710,86.288445,159.6519,0.0000,0.0000,0,0,NOMINAL,0,0,4,0,0,1,-2.512254,-0.003447,9.807433,-0.000714,-0.000233,0.100965,1,41.38710022,2.16897917,13.6845,8.250000,159.6519,1,0,1.506428,2.665295,0.460093,1.714530,58,32,1,-0.688666,0.466485,-0.044459,0.056636,0.130856,-0.033995,-0.222964,-0.763080,0.450296,0.774891,0.862603,0.776330,0.971987,1.422611,1.198435,0.136289,0.150753,0.473444,0.470689,0.471204,0.307022,0.055530,0.056471,0.098476,0.000000,0.000000,0.000000,0.0000,2,1,0,11,0,44,25.00
9000,CLEAN,GPS,0.850000,10,41.38709259,2.16898274,13.7143,-7.735179,2.868710,87.269417,159.6519,0.0000,0.0000,0,0,NOMINAL,0,0,4,0,0,1,-2.498288,-0.009935,9.809753,-0.000915,-0.000365,0.100938,1,41.38709259,2.16898274,13.7143,8.250000,159.6519,1,0,1.570301,2.775269,0.516970,1.644997,59,32,1,-0.690866,0.459714,-0.034692,0.053949,0.122074,-0.033530,-0.221331,-0.734329,0.452156,0.770754,0.861824,0.779001,0.970605,1.428531,1.198055,0.136209,0.150350,0.477288,0.470642,0.471098,0.303935,0.055100,0.055885,0.098307,0.000000,0.000000,0.000000,0.0000,2,1,0,10,0,44,25.00
9100,CLEAN,GPS,0.850000,10,41.38708496,2.16898584,13.7019,-7.735179,2.868710,88.248329,159.6519,0.0000,0.0000,0,0,NOMINAL,0,0,4,0,0,1,-2.487572,-0.007378,9.789088,-0.001105,-0.000495,0.100910,1,41.38708496,2.16898584,13.7019,8.250000,159.6519,1,0,1.646934,2.881943,0.527262,1.612297,60,32,1,-0.693368,0.453528,-0.021591,0.051308,0.113187,-0.033092,-0.219240,-0.704850,0.453984,0.767017,0.861321,0.781485,0.970593,1.435059,1.195996,0.136111,0.149866,0.481034,0.470600,0.470994,0.300935,0.054669,0.055289,0.098116,0.000000,0.000000,0.000000,0.0000,2,1,0,10,0,44,25.00
9200,CLEAN,GPS,0.850000,10,41.38707733,2.16898990,13.6860,-7.735179,2.868710,89.230995,159.6519,0.0000,0.0000,0,0,NOMINAL,0,0,4,0,0,1,-2.487714,-0.011244,9.826623,-0.001281,-0.000620,0.100883,1,41.38707733,2.16898990,13.6860,8.250000,159.6519,1,0,1.734020,2.984013,0.616142,1.573417,61,32,1,-0.696138,0.447940,-0.005476,0.048902,0.104152,-0.032502,-0.216837,-0.674529,0.454789,0.763668,0.861077,0.783738,0.972022,1.442326,1.192467,0.135985,0.149299,0.484671,0.470560,0.470890,0.298015,0.054237,0.054683,0.097902,0.000000,0.000000,0.000000,0.0000,2,1,0,10,0,44,25.00
9300,CLEAN,GPS,0.850000,10,41.38706970,2.16899180,13.6563,-7.735179,2.868710,90.211136,159.6519,0.0000,0.0000,0,0,NOMINAL,0,0,4,0,0,1,-2.484811,-0.007998,9.801426,-0.001442,-0.000740,0.100855,1,41.38706970,2.16899180,13.6563,8.250000,159.6519,1,0,1.790394,3.081188,0.514725,1.539066,62,32,1,-0.699196,0.443051,0.014181,0.046276,0.095145,-0.032230,-0.213962,-0.643878,0.457281,0.760701,0.861081,0.785724,0.974533,1.449731,1.187178,0.135821,0.148649,0.488192,0.470522,0.470785,0.295169,0.053805,0.054069,0.097662,0.000000,0.000000,0.000000,0.0000,2,1,0,10,0,44,25.00
9400,CLEAN,GPS,0.850000,10,41.38706207,2.16899657,13.6438,-7.735179,2.868710,91.192360,159.6519,0.0000,0.0000,0,0,NOMINAL,0,0,4,0,0,1,-2.484983,-0.010030,9.812226,-0.001585,-0.000854,0.100826,1,41.38706207,2.16899657,13.6438,8.250000,159.6519,1,0,1.875993,3.172466,0.664925,1.477331,63,32,1,-0.702599,0.438784,0.036681,0.044038,0.086030,-0.031647,-0.210983,-0.612511,0.457954,0.758100,0.861307,0.787405,0.978153,1.457210,1.180271,0.135613,0.147916,0.491588,0.470481,0.470678,0.292390,0.053373,0.053448,0.097397,0.000000,0.000000,0.000000,0.0000,2,1,0,10,0,44,25.00
9500,CLEAN,GPS,0.850000,10,41.38705444,2.16899896,13.7001,-7.735179,2.868710,92.171982,159.6519,0.0000,0.0000,0,0,NOMINAL,0,0,4,0,0,1,-2.483016,-0.003010,9.796221,-0.001710,-0.000962,0.100798,1,41.38705444,2.16899896,13.7001,8.250000,159.6519,1,0,1.891857,3.258461,0.597050,1.339495,64,32,1,-0.706368,0.434957,0.063212,0.041702,0.077200,-0.031359,-0.208037,-0.581666,0.460399,0.755855,0.861734,0.788754,0.982621,1.464406,1.171659,0.135357,0.147105,0.494850,0.470436,0.470568,0.289670,0.052943,0.052820,0.097106,0.000000,0.000000,0.000000,0.0000,2,1,0,10,0,44,25.00
9600,CLEAN,GPS,0.850000,10,41.38704681,2.16900277,13.6738,-7.735179,2.868710,93.151848,159.6519,0.0000,0.0000,0,0,NOMINAL,0,0,4,0,0,1,-2.486236,0.008712,9.798668,-0.001813,-0.001061,0.100769,1,41.38704681,2.16900277,13.6738,8.250000,159.6519,1,0,1.964120,3.339878,0.656883,1.285406,65,32,1,-0.710451,0.431836,0.092475,0.039532,0.068341,-0.030990,-0.204897,-0.550364,0.462336,0.753949,0.862330,0.789744,0.987844,1.471242,1.161502,0.135054,0.146220,0.497971,0.470383,0.470453,0.286999,0.052515,0.052189,0.096788,0.000000,0.000000,0.000000,0.0000,2,1,0,10,0,44,25.00
9700,CLEAN,GPS,0.850000,10,41.38703918,2.16900682,13.6489,-7.735179,2.868710,94.131546,159.6519,0.0000,0.0000,0,0,NOMINAL,0,0,4,0,0,1,-2.476751,-0.001970,9.797005,-0.001895,-0.001152,0.100740,1,41.38703918,2.16900682,13.6489,8.250000,159.6519,1,0,2.033006,3.414585,0.728718,1.222357,66,32,1,-0.714900,0.429430,0.124369,0.037561,0.059483,-0.030498,-0.201632,-0.518693,0.463543,0.752367,0.863068,0.790358,0.993784,1.477265,1.149762,0.134708,0.145265,0.500945,0.470321,0.470334,0.284370,0.052091,0.051554,0.096444,0.000000,0.000000,0.000000,0.0000,2,1,0,9,0,44,25.00
9800,CLEAN,GPS,0.850000,10,41.38703156,2.16900921,13.6446,-7.735179,2.868710,95.110870,159.6519,0.0000,0.0000,0,0,NOMINAL,0,0,4,0,0,1,-2.470165,-0.003279,9.793251,-0.001954,-0.001234,0.100711,1,41.38703156,2.16900921,13.6446,8.250000,159.6519,1,0,2.058444,3.482388,0.651440,1.132065,67,32,1,-0.719470,0.427648,0.159148,0.035451,0.050796,-0.030345,-0.198184,-0.487265,0.466683,0.751094,0.863912,0.790583,1.000271,1.482337,1.136525,0.134324,0.144249,0.503767,0.470248,0.470208,0.281774,0.051671,0.050917,0.096075,0.000000,0.000000,0.000000,0.0000,2,1,0,10,0,44,25.00
9900,CLEAN,GPS,0.850000,10,41.38702393,2.16901183,13.6479,-7.735179,2.868710,96.092712,159.6519,0.0000,0.0000,0,0,NOMINAL,0,0,4,0,0,1,-2.463915,0.012146,9.818443,-0.001989,-0.001306,0.100681,1,41.38702393,2.16901183,13.6479,8.250000,159.6519,1,0,2.083768,3.542912,0.603348,1.031090,68,32,1,-0.724168,0.426458,0.196561,0.033279,0.042286,-0.030459,-0.194597,-0.456126,0.471373,0.750116,0.864825,0.790410,1.007245,1.486506,1.121991,0.133912,0.143175,0.506433,0.470161,0.470076,0.279202,0.051257,0.050279,0.095680,0.000000,0.000000,0.000000,0.0000,2,1,0,10,0,44,25.00
10000,CLEAN,GPS,0.850000,10,41.38701630,2.16901660,13.5985,-7.735179,2.868710,97.074997,159.6519,0.0000,0.0000,0,0,NOMINAL,0,0,4,0,0,1,-2.463328,0.013417,9.822849,-0.002000,-0.001367,0.100651,1,41.38701630,2.16901660,13.5985,8.250000,159.6519,1,0,2.154932,3.596054,0.740414,0.981582,69,32,1,-0.729370,0.426134,0.235846,0.031455,0.033736,-0.030212,-0.190976,-0.424468,0.474034,0.749418,0.865778,0.789838,1.014564,1.489487,1.106227,0.133483,0.142050,0.508944,0.470059,0.469937,0.276648,0.050850,0.049642,0.095262,0.000000,0.000000,0.000000,0.0000,2,1,0,10,0,44,25.00
10100,CLEAN,GPS,0.850000,10,41.38700867,2.16901922,13.6594,-7.735179,2.868710,98.054565,159.6519,0.0000,0.0000,0,0,NOMINAL,0,0,4,0,0,1,-2.468550,0.006383,9.795712,-0.001987,-0.001417,0.100622,1,41.38700867,2.16901922,13.6594,8.250000,159.6519,1,0,2.151200,3.641068,0.680344,0.814555,70,32,1,-0.734740,0.426131,0.277716,0.029569,0.025543,-0.030287,-0.187373,-0.393729,0.478649,0.748984,0.866734,0.788871,1.022010,1.491029,1.089268,0.133053,0.140883,0.511298,0.469940,0.469790,0.274104,0.050451,0.049005,0.094821,0.000000,0.000000,0.000000,0.0000,2,1,0,10,0,44,25.00
10200,CLEAN,GPS,0.850000,10,41.38700104,2.16902208,13.6280,-7.735179,2.868710,99.033394,159.6519,0.0000,0.0000,0,0,NOMINAL,0,0,4,0,0,1,-2.460453,0.001829,9.788279,-0.001950,-0.001455,0.100592,1,41.38700104,2.16902208,13.6280,8.250000,159.6519,1,0,2.173275,3.679520,0.647598,0.746713,71,32,1,-0.740113,0.426890,0.321219,0.027658,0.017438,-0.030562,-0.183503,-0.363038,0.484417,0.748796,0.867654,0.787514,1.029552,1.490997,1.071260,0.132638,0.139680,0.513498,0.469803,0.469636,0.271563,0.050062,0.048371,0.094360,0.000000,0.000000,0.000000,0.0000,2,1,0,10,0,44,25.00
10300,CLEAN,GPS,0.850000,10,41.38699341,2.16902685,13.5798,-7.735179,2.868710,100.013779,159.6519,0.0000,0.0000,0,0,NOMINAL,0,0,4,0,0,1,-2.458652,0.006243,9.803864,-0.001889,-0.001482,0.100562,1,41.38699341,2.16902685,13.5798,8.250000,159.6519,1,0,2.223581,3.708931,0.777782,0.692508,72,32,1,-0.746059,0.428563,0.366080,0.026082,0.009343,-0.030457,-0.179726,-0.331993,0.488069,0.748837,0.868502,0.785778,1.037167,1.489552,1.052407,0.132257,0.138447,0.515548,0.469646,0.469473,0.269021,0.049683,0.047739,0.093882,0.000000,0.000000,0.000000,0.0000,2,1,0,10,0,44,25.00
